~VERSION INFORMATION
 VERS.                2.0:   CWLS LOG ASCII STANDARD - VERSION 2.0
 WRAP.                 NO:   ONE LINE PER DEPTH STEP
~WELL INFORMATION
#MNEM.UNIT      DATA TYPE    INFORMATION
#----------   ------------   ------------------------------
 STRT.F           20.0000:   START DEPTH
 STOP.F          541.0000:   STOP DEPTH
 STEP.F            0.5000:   STEP LENGTH
 NULL.          -999.2500:   NO VALUE
 COMP. LAWRENCE/ALLISON INC:   COMPANY
 WELL.   NPR3 #58-66SHX10:   WELL
 FLD .             TEAPOT:   FIELD
 LOC .      S10 T38N R78W:   LOCATION
 CNTY.            NATRONA:   COUNTY
 STAT.            WYOMING:   STATE
 CTRY. UNITED STATES OF AMERICA:   COUNTRY
 SRVC.           Gearhart:   SERVICE COMPANY
 DATE.        15-JUN-1986:   LOGDATE
 API .       490251108800:   API NUMBER
~CURVE INFORMATION
#MNEM.UNIT       API CODE    CURVE DESCRIPTION
#----------   ------------   ------------------------------
 DEPT.F                  :   
 GRR .GAPI   07 310 01 00:   GAMMA RAY FROM RES. LOG.
 RILD.OHMM   07 120 46 00:   INDUCTION LOG DEEP RESISTIVITY
 RILM.OHMM   07 120 44 00:   INDUCTION LOG MEDIUM
~PARAMETER INFORMATION
#MNEM.UNIT          VALUE    DESCRIPTION
#----------   ------------   ------------------------------
 PD  .                 GL:   PERMANENT DATUM
 EPD .F              5196:   ELEVATION PERMANENT DATUM
 LMF .                 KB:   LOG MEASURED FROM
 DAPD.F                 5:   FEET ABOVE PERMANENT DATUM
 DMF .                 KB:   DRILLING MEASURED FROM
 EKB .F              5201:   KELLING BUSHING
 EGL .F              5196:   GROUND LEVEL
 DATE.          6-15-1986:   RUN DATE
 RUN .                  1:   RUN NUMBER
 DD  .F               554:   DEPTH DRILLER
 DL  .F               550:   DEPTH LOGGER
 BLI .F               549:   BOTTOM LOG INTERVAL
 TLI .F                47:   TOP LOG INTERVAL
 CS  .IN            8.625:   CASING SIZE
 CBD .F                47:   CASING BOTTOM DRILLER
 BS  .IN            7.875:   BIT SIZE
 BSD .F               554:   BIT SIZE AT DEPTH
 DFT .        AIR DRILLED:   DRILLING FLUID TYPE
 TLAB.HRS            0600:   TIME LOGGER AT BOTTOM
 MRT .F                65:   MAXIMUM RECORDED TEMPERATURE
 LUN .               7609:   LOGGING UNIT NUMBER
 LUL .           GILLETTE:   LOGGING UNIT LOCATION
 ENGI.         WEATHERMON:   RECORDING ENGINEER
 WITN.              FIVAS:   WITNESSED BY
 CLNT.            A2DTECH:   CLIENT CODE
 ORIG.       2", 5" PRINT:   ORIGIN OF DATA
 UWI .       490251108800:   UNIQUE WELL ID
 DICO. A2D Technologies, Inc.:   DIGITIZING COMPANY
~OTHER INFORMATION
~A   DEPT       GRR      RILD       RILM   
# ...
  475.0000    90.4700    10.9589    11.1663
  475.5000    92.4417    10.3397    10.7849
  476.0000    94.9946     9.6705    10.4089
  476.5000    97.6502     9.0467     9.9000
  477.0000    98.2069     8.4635     9.3264
  477.5000    98.6930     7.9179     8.7170
  478.0000    99.6627     7.4075     8.0617
  478.5000   105.4779     6.9300     7.4557
  479.0000   112.3793     6.5039     6.8952
  479.5000   119.3428     6.5039     6.3754
  480.0000   126.3635     6.5039     5.9221
  480.5000   127.5926     6.6263     5.9222
  481.0000   117.7098     6.7510     6.0931
  481.5000   109.1734     7.0145     6.5213
  482.0000   103.3295     7.5314     7.0933
  482.5000    99.0914     8.0863     7.7155
  483.0000    94.8216     8.6821     8.3922
  483.5000    93.9052     9.3218     9.1284
  484.0000    95.1298    10.0086     9.9381
  484.5000    97.7411    10.6787    10.4002
  485.0000    98.1641    11.0017    10.7582
  485.5000    97.9507    11.1269    10.9525
  486.0000    98.5259    11.2536    11.1618
  486.5000   101.8541    11.3817    11.3770
  487.0000   105.0667    11.5112    11.5965
  487.5000   106.7026    11.6423    11.8201
  488.0000   105.6707    11.8261    12.0486
  488.5000   104.1964    12.0551    12.2820
  489.0000   103.9684    12.2886    12.5199
  489.5000   104.3356    12.5266    12.7624
  490.0000   104.4949    12.7576    12.9967
  490.5000   103.2347    12.9321    13.1755
  491.0000   101.9594    13.1105    13.3572
  491.5000   102.1926    13.2910    13.5411
  492.0000   103.5378    13.4740    13.7275
  492.5000   104.9166    13.6255    13.8819
  493.0000   105.4066    13.7289    13.9873
  493.5000   103.5988    13.8332    14.0935
  494.0000   101.6954    13.9382    14.2005
  494.5000    99.7225    14.0440    14.3083
  495.0000    95.9411    14.1506    14.4168
  495.5000    92.9895    14.2317    14.4993
  496.0000    91.6708    14.1791    14.4460
  496.5000    92.0332    14.1370    14.4031
  497.0000    94.0065    14.0950    14.3603
  497.5000    96.4654    14.0532    14.3176
  498.0000    98.9063    14.0114    14.2751
  498.5000   101.3759    13.9698    14.2327
  499.0000   103.2802    13.9283    14.1905
  499.5000   101.3879    13.8870    14.1483
  500.0000    98.4538    13.8457    14.1063
  500.5000    96.9637    13.8046    14.0644
  501.0000    96.9540    13.7636    14.0226
  501.5000    97.1285    13.7228    13.9810
  502.0000    97.7399    13.5884    13.8442
  502.5000   101.2853    13.4172    13.6697
  503.0000   104.8727    13.2480    13.4974
  503.5000   108.5272    13.0810    13.3272
  504.0000   107.6007    12.9162    13.1592
  504.5000   104.9440    12.7534    12.9934
  505.0000   103.0016    12.5926    12.8296
  505.5000   104.6000    12.4339    12.6679
  506.0000   107.7292    12.2771    12.5082
  506.5000   110.5331    12.1224    12.3505
  507.0000   111.8698    11.9696    12.1948
  507.5000   111.4716    11.8187    12.0411
  508.0000   110.9208    11.6697    11.8893
  508.5000   108.9194    11.5226    11.7395
  509.0000   107.4493    11.3774    11.5915
  509.5000   108.1445    11.2340    11.4454
  510.0000   110.2548    11.1012    11.3073
  510.5000   112.4188    10.9775    11.1760
  511.0000   114.5522    10.8551    11.0463
  511.5000   113.8849    10.7341    10.9181
  512.0000   112.0863    10.6145    10.8374
  512.5000   111.3420    10.5332    10.7953
  513.0000   112.0730    10.4829    10.7533
  513.5000   112.7940    10.4328    10.7116
  514.0000   112.1411    10.3829    10.6700
  514.5000   110.2437    10.3333    10.6286
  515.0000   109.5340    10.2839    10.5872
  515.5000   109.7598    10.2348    10.5165
  516.0000   110.5042    10.1859    10.3944
  516.5000   112.7859    10.1043    10.2945
  517.0000   115.6232    10.0134    10.2018
  517.5000   117.8914     9.9233    10.1100
  518.0000   115.7775     9.8340    10.0191
  518.5000   112.6982     9.7455     9.9289
  519.0000   114.6082     9.6580     9.8395
  519.5000   117.1477     9.5505     9.7302
  520.0000   117.2526     9.4296     9.6071
  520.5000   114.9058     9.2615     9.4640
  521.0000   112.5987     9.0195     9.2888
  521.5000   112.5376     8.7834     9.1169
  522.0000   113.1466     8.5535     8.9111
  522.5000   112.5452     8.3298     8.6529
  523.0000   113.1117     8.1119     8.4021
  523.5000   114.6354     7.8997     8.1586
  524.0000   116.1529     7.6922     7.9222
  524.5000   116.7673     7.6208     7.6904
  525.0000   112.4009     8.0570     7.6869
  525.5000   107.9663     8.3844     7.9807
  526.0000  -999.2500     8.7252     8.3668
  526.5000  -999.2500     9.0799     8.7670
  527.0000  -999.2500     9.4490     9.1862
  527.5000  -999.2500     9.8328     9.6256
  528.0000  -999.2500    10.1460    10.0853
  528.5000  -999.2500    10.4127    10.5715
  529.0000  -999.2500    10.5491    10.7477
  529.5000  -999.2500    10.6908    10.8920
  530.0000  -999.2500    10.8344    11.0383
  530.5000  -999.2500    10.9319    11.1376
  531.0000  -999.2500    10.9622    11.1685
  531.5000  -999.2500    10.9622    11.1685
  532.0000  -999.2500    10.9622    11.1748
  532.5000  -999.2500    10.8054    11.1898
  533.0000  -999.2500    10.6551    11.2047
  533.5000  -999.2500    10.5068    11.2197
  534.0000  -999.2500    10.3606    11.2347
  534.5000  -999.2500    10.2165    11.2498
  535.0000  -999.2500    10.0800    11.2654
  535.5000  -999.2500     9.9718    11.2725
  536.0000  -999.2500     9.8938    11.1097
  536.5000  -999.2500    10.0385    10.9972
  537.0000  -999.2500    10.1564    10.8862
  537.5000  -999.2500  -999.2500    10.7751
  538.0000  -999.2500  -999.2500    10.6987
  538.5000  -999.2500  -999.2500    10.6039
  539.0000  -999.2500  -999.2500    10.5106
  539.5000  -999.2500  -999.2500    10.4181
  540.0000  -999.2500  -999.2500    10.3265
  540.5000  -999.2500  -999.2500    10.2355
  541.0000  -999.2500  -999.2500    10.1455
