~VERSION INFORMATION
 VERS.                2.0:   CWLS LOG ASCII STANDARD - VERSION 2.0
 WRAP.                 NO:   ONE LINE PER DEPTH STEP
~WELL INFORMATION
#MNEM.UNIT      DATA TYPE    INFORMATION
#----------   ------------   ------------------------------
 STRT.F            8.0000:   START DEPTH
 STOP.F         2320.0000:   STOP DEPTH
 STEP.F            0.5000:   STEP LENGTH
 NULL.          -999.2500:   NO VALUE
 COMP.    FENIX & SCISSON:   COMPANY
 WELL. N.P.R #3 #77-SHX-10:   WELL
 FLD .             TEAPOT:   FIELD
 LOC .      S10 T38N R78W:   LOCATION
 CNTY.            NATRONA:   COUNTY
 STAT.            WYOMING:   STATE
 CTRY. UNITED STATES OF AMERICA:   COUNTRY
 SRVC.              Welex:   SERVICE COMPANY
 DATE.        05-JUN-1980:   LOGDATE
 API .       490251064900:   API NUMBER
~CURVE INFORMATION
#MNEM.UNIT       API CODE    CURVE DESCRIPTION
#----------   ------------   ------------------------------
 DEPT.F                  :   
 GRD .GAPI   45 310 01 00:   GAMMA RAY FROM DENSITY LOG
 CALD.IN     45 280 60 00:   CALIPER FROM DENSITY LOG
 RHOB.G/C3   45 350 01 00:   BULK DENSITY
 DPHI.DEC    45 890 12 00:   DENSITY POROSITY SANDSTONE
 ILD .OHMM   05 120 46 00:   INDUCTION LOG DEEP
 CORR.G/C3   45 356 01 00:   DENSITY CORRECTION
~PARAMETER INFORMATION
#MNEM.UNIT          VALUE    DESCRIPTION
#----------   ------------   ------------------------------
 PD  .                 GL:   PERMANENT DATUM
 EPD .F              5210:   ELEVATION PERMANENT DATUM
 LMF .                 KB:   LOG MEASURED FROM
 DAPD.F                10:   FEET ABOVE PERMANENT DATUM
 DMF .                 KB:   DRILLING MEASURED FROM
 EKB .F              5220:   KELLING BUSHING
 EGL .F              5210:   GROUND LEVEL
 DATE.        05-JUN-1980:   RUN DATE
 RUN .                  1:   RUN NUMBER
 DD  .F              2358:   DEPTH DRILLER
 DL  .F              2322:   DEPTH LOGGER
 BLI .F              2320:   BOTTOM LOG INTERVAL
 TLI .F               900:   TOP LOG INTERVAL
 CS  .IN                7:   CASING SIZE
 BS  .IN             6.25:   BIT SIZE
 BSD .F              2358:   BIT SIZE AT DEPTH
 DFT .        AIR DRILLED:   DRILLING FLUID TYPE
 MRT .F               107:   MAXIMUM RECORDED TEMPERATURE
 ENGI.               REIN:   RECORDING ENGINEER
 WITN.              AMEND:   WITNESSED BY
 CLNT.            A2DTECH:   CLIENT CODE
 ORIG.           5" PRINT:   ORIGIN OF DATA
 UWI .       490251064900:   UNIQUE WELL ID
 DICO. A2D Technologies, Inc.:   DIGITIZING COMPANY
~OTHER INFORMATION
~A    DEPT      GRD      CALD       RHOB       DPHI        ILD       CORR   
# ...
  736.0000   108.0566    10.1071     2.4986     0.0257     5.9610     0.0332
  736.5000   106.7374    10.1683     2.5048     0.0292     5.9651     0.0334
  737.0000   104.3781    10.1999     2.5079     0.0316     5.9692     0.0335
  737.5000   101.2758    10.0370     2.5086     0.0307     5.9734     0.0367
  738.0000   102.9284    10.0492     2.5072     0.0183     5.9782     0.0383
  738.5000   106.9584    10.2062     2.5095     0.0120     5.9823     0.0415
  739.0000   107.1352    10.1785     2.5193     0.0183     5.9864     0.0431
  739.5000   108.3555    10.1212     2.5291     0.0327     5.9481     0.0418
  740.0000   110.0050    10.0491     2.5030     0.0411     5.9110     0.0315
  740.5000   109.1156     9.9474     2.4941     0.0433     5.9160     0.0301
  741.0000   104.5275     9.9049     2.4904     0.0439     5.8782     0.0302
  741.5000   105.8829     9.9068     2.4875     0.0382     5.9241     0.0319
  742.0000   108.4270     9.9384     2.4877     0.0322     5.8871     0.0365
  742.5000   108.5892    10.0600     2.4981     0.0357     5.8912     0.0442
  743.0000   107.7203    10.1961     2.5027     0.0348     5.8953     0.0458
  743.5000   107.7384    10.2262     2.5020     0.0270     5.9001     0.0475
  744.0000   107.9051    10.2726     2.5051     0.0146     5.8624     0.0596
  744.5000   108.2206    10.3487     2.5179     0.0077     5.9082     0.0792
  745.0000   109.9698    10.3654     2.5292     0.0149     5.9532     0.0883
  745.5000   113.0160    10.3373     2.5360     0.0170     5.9987     0.0735
  746.0000   113.3313    10.2953     2.5263     0.0178     6.0445     0.0647
  746.5000   112.0121    10.2972     2.5212     0.0214     6.0906     0.0573
  747.0000   109.9500    10.3436     2.5213     0.0255     6.0516     0.0515
  747.5000   108.7794    10.3456     2.5213     0.0282     6.1839     0.0472
  748.0000   107.0145    10.3639     2.5154     0.0228     6.4955     0.0458
  748.5000   105.2495    10.4092     2.5117     0.0128     6.7324     0.0491
  749.0000    99.4727    10.4408     2.5126     0.0149     7.0350     0.0556
  749.5000    96.2028    10.4576     2.5254     0.0230     7.4768     0.0628
  750.0000    95.4482    10.4891     2.5277     0.0262     7.5330     0.0464
  750.5000    92.2507    10.5207     2.5143     0.0192     7.9223     0.0406
  751.0000    91.3728    10.5375     2.5174     0.0229     8.2640     0.0407
  751.5000    90.8011    10.5542     2.5189     0.0267     8.6712     0.0409
  752.0000    90.0762    10.5413     2.5198     0.0198     8.9827     0.0410
  752.5000    92.0260    10.5433     2.5161     0.0183     9.1775     0.0427
  753.0000    94.5701    10.5305     2.5207     0.0233     9.2476     0.0398
  753.5000    94.7368    10.4588     2.5222     0.0194     9.3829     0.0370
  754.0000    98.6182    10.3275     2.5208     0.0167     9.3893     0.0356
  754.5000    99.5282    10.4331     2.5239     0.0205     9.3292     0.0343
  755.0000    99.9963    10.4054     2.5254     0.0202     9.2727     0.0360
  755.5000   102.2432    10.2296     2.5225     0.0187     9.3434     0.0391
  756.0000   103.4500    10.1570     2.5241     0.0139     9.4148     0.0376
  756.5000   103.1710    10.0854     2.5264     0.0078     9.4213     0.0452
  757.0000    99.0286    10.0429     2.5295     0.0150     9.4946     0.0483
  757.5000    95.6292    10.0004     2.5349     0.0281     9.7005     0.0484
  758.0000    97.4304     9.9727     2.5184     0.0285     9.8425     0.0375
  758.5000    98.7858     9.9598     2.5065     0.0260     9.9176     0.0203
  759.0000    98.9525     9.9919     2.5051     0.0311    10.0627     0.0174
  759.5000    99.1196    10.0976     2.5029     0.0356    10.1395     0.0161
  760.0000    99.2904    10.2329     2.5015     0.0160    10.1464     0.0222
  760.5000    99.3085    10.2792     2.5008     0.0184    10.2239     0.0328
  761.0000    99.6238    10.2659     2.5234     0.0217    10.3019     0.0344
  761.5000    99.4888    10.2382     2.5204     0.0234    10.3089     0.0330
  762.0000   102.3346    10.2703     2.5198     0.0191    10.3160     0.0332
  762.5000   102.6499    10.3463     2.5206     0.0066    10.3231     0.0423
  763.0000    99.2505    10.3779     2.5273    -0.0018    10.4034     0.0574
  763.5000    94.9595    10.3799     2.5492     0.0020    10.4105     0.0635
  764.0000    96.3271    10.3823     2.5530     0.0248    10.3439     0.0652
  764.5000    98.2994    10.3689     2.5194     0.0338    10.2794     0.0441
  765.0000    98.5800    10.3561     2.5000     0.0334    10.2154     0.0263
  765.5000    97.1168    10.2993     2.4926     0.0394    10.0835     0.0236
  766.0000    89.1111    10.2271     2.4919     0.0373     9.9498     0.0238
  766.5000    91.5066    10.1550     2.4942     0.0357     9.8210     0.0239
  767.0000    93.1592    10.1421     2.4966     0.0409     9.7600     0.0241
  767.5000    94.6632    10.1589     2.4914     0.0438     9.7668     0.0242
  768.0000    95.8700    10.2053     2.4884     0.0341     9.8415     0.0243
  768.5000    96.9283    10.2221     2.4878     0.0266     9.9181     0.0304
  769.0000    97.0951    10.2245     2.5059     0.0077     9.9248     0.0441
  769.5000    95.9366    10.2265     2.5179     0.0113    10.0700     0.0517
  770.0000    93.7182    10.2284     2.5397     0.0193    10.0769     0.0533
  770.5000    93.4346    10.2156     2.5270     0.0235    10.1538     0.0370
  771.0000    96.8748    10.1731     2.5211     0.0268    10.1606     0.0191
  771.5000    98.0816    10.1306     2.5144     0.0273    10.1675     0.0163
  772.0000    97.5053    10.0733     2.5070     0.0298    10.1744     0.0149
  772.5000    98.2664    10.0011     2.5034     0.0324    10.1813     0.0150
  773.0000    99.1760     9.9435     2.5012     0.0311    10.1882     0.0167
  773.5000    99.1942     9.8700     2.5035     0.0281    10.1953     0.0168
  774.0000    98.9084     9.7853     2.5088     0.0248    10.2023     0.0170
  774.5000    99.4677     9.6687     2.5127     0.0215    10.1402     0.0186
  775.0000   104.1564     9.8336     2.5172     0.0187    10.1471     0.0187
  775.5000   105.8090     9.9837     2.5218     0.0148    10.1540     0.0308
  776.0000   108.0560    10.1190     2.5264     0.0109    10.2691     0.0489
  776.5000   104.8051    10.1802     2.5309     0.0112    10.2767     0.0506
  777.0000   104.0758    10.1970     2.5302     0.0199    10.2115     0.0492
  777.5000   102.7611    10.1989     2.5206     0.0204    10.1486     0.0478
  778.0000    95.3498    10.2009     2.5207     0.0186    10.1580     0.0450
  778.5000    93.5847    10.1257     2.5215     0.0242    10.1656     0.0436
  779.0000    94.2354    10.1756     2.5133     0.0359    10.1732     0.0361
  779.5000    97.0377    10.2517     2.4999     0.0419    10.2515     0.0227
  780.0000   101.3703    10.2388     2.4918     0.0475    10.2591     0.0201
  780.5000   102.7257    10.2259     2.4851     0.0490    10.1959     0.0232
  781.0000   103.1896    10.2422     2.4799     0.0490    10.2037     0.0308
  781.5000   103.0591    10.2294     2.4778     0.0384    10.2840     0.0399
  782.0000    96.6880    10.2165     2.4898     0.0421    10.2916     0.0491
  782.5000    95.6659    10.1893     2.5019     0.0456    10.3709     0.0267
  783.0000    96.8728    10.0876     2.4914     0.0410    10.4507     0.0194
  783.5000   101.0514     9.9980     2.4877     0.0368    10.6781     0.0225
  784.0000   102.8525     9.8845     2.4931     0.0383    10.8350     0.0256
  784.5000   101.6865     9.8272     2.5044     0.0329    10.9943     0.0273
  785.0000   106.0136     9.7991     2.4985     0.0268    11.1560     0.0289
  785.5000   106.1758     9.8460     2.5031     0.0193    11.3986     0.0320
  786.0000    99.3634    10.0998     2.5151     0.0121    11.6510     0.0322
  786.5000    96.5538     9.6425     2.5249     0.0061    11.9124     0.0323
  787.0000    98.2109     9.9259     2.5347     0.0129    12.1611     0.0307
  787.5000   100.6064    10.0464     2.5430     0.0208    12.1701     0.0251
