~VERSION INFORMATION
 VERS.                2.0:   CWLS LOG ASCII STANDARD - VERSION 2.0
 WRAP.                 NO:   ONE LINE PER DEPTH STEP
~WELL INFORMATION
#MNEM.UNIT      DATA TYPE    INFORMATION
#----------   ------------   ------------------------------
 STRT.F            3.0000:   START DEPTH
 STOP.F          587.0000:   STOP DEPTH
 STEP.F            0.5000:   STEP LENGTH
 NULL.          -999.2500:   NO VALUE
 COMP.   FLUOR DANIEL INC:   COMPANY
 WELL. NAVAL PETROLEUM RESERVE 3 STX- #1-3:   WELL
 FLD .          N.P.R. #3:   FIELD
 LOC .       S3 T38N R78W:   LOCATION
 CNTY.            NATRONA:   COUNTY
 STAT.            WYOMING:   STATE
 CTRY. UNITED STATES OF AMERICA:   COUNTRY
 SRVC.      Western Atlas:   SERVICE COMPANY
 DATE.        03-FEB-1995:   LOGDATE
 API .       490252269200:   API NUMBER
~CURVE INFORMATION
#MNEM.UNIT       API CODE    CURVE DESCRIPTION
#----------   ------------   ------------------------------
 DEPT.F                  :   
 GRR .GAPI   07 310 01 00:   GAMMA RAY FROM RES. LOG.
 RILD.OHMM   07 120 46 00:   INDUCTION LOG DEEP RESISTIVITY
 RILM.OHMM   07 120 44 00:   INDUCTION LOG MEDIUM RESISTIVITY
~PARAMETER INFORMATION
#MNEM.UNIT          VALUE    DESCRIPTION
#----------   ------------   ------------------------------
 PD  .                 GL:   PERMANENT DATUM
 EPD .F              5226:   ELEVATION PERMANENT DATUM
 LMF .                 KB:   LOG MEASURED FROM
 DAPD.F                10:   FEET ABOVE PERMANENT DATUM
 DMF .                 KB:   DRILLING MEASURED FROM
 EKB .F              5236:   KELLING BUSHING
 EDF .F              5235:   DRILLING FLOOR
 EGL .F              5226:   GROUND LEVEL
 DATE.         3-FEB-1995:   RUN DATE
 RUN .                  1:   RUN NUMBER
 DD  .F               595:   DEPTH DRILLER
 DL  .F               595:   DEPTH LOGGER
 BLI .F               587:   BOTTOM LOG INTERVAL
 CS  .IN            9.625:   CASING SIZE
 CBD .F                55:   CASING BOTTOM DRILLER
 CBL .F                55:   CASING BOTTOM LOGGER
 BS  .IN             8.75:   BIT SIZE
 BSD .F               595:   BIT SIZE AT DEPTH
 DFT .                AIR:   DRILLING FLUID TYPE
 MRT .F                90:   MAXIMUM RECORDED TEMPERATURE
 LUN .             HL6274:   LOGGING UNIT NUMBER
 LUL .             CASPER:   LOGGING UNIT LOCATION
 ENGI.        VERN RAUTIO:   RECORDING ENGINEER
 WITN.        STEVE HARDY:   WITNESSED BY
 CLNT.            A2DTECH:   CLIENT CODE
 ORIG.           5" PRINT:   ORIGIN OF DATA
 UWI .       490252269200:   UNIQUE WELL ID
 DICO. A2D Technologies, Inc.:   DIGITIZING COMPANY
~OTHER INFORMATION
~A    DEPT      GRR      RILD       RILM   
# ...
   94.0000   119.1878     7.5509     7.4544
   94.5000   114.2707     7.3827     7.2547
   95.0000   111.5844     7.2182     7.0592
   95.5000   112.1675     7.0573     6.8698
   96.0000   114.1152     6.9001     6.6867
   96.5000   116.0345     6.7464     6.4972
   97.0000   116.7514     6.5573     6.4366
   97.5000   116.0753     6.5588     6.4366
   98.0000   115.0108     6.5576     6.5134
   98.5000   115.5720     6.7085     6.7481
   99.0000   116.0798     6.8438     6.9914
   99.5000   116.5169     6.9819     7.2433
  100.0000   115.3431     7.1227     7.4777
  100.5000   111.2853     7.2664     7.5009
  101.0000   106.2724     7.3389     7.5269
  101.5000   100.7783     7.3789     7.5529
  102.0000   100.3314     7.4234     7.5790
  102.5000   104.1902     7.4682     7.6052
  103.0000   108.0907     7.5133     7.6315
  103.5000   110.5147     7.5587     7.6579
  104.0000   111.5364     7.6043     7.6844
  104.5000   112.5024     7.6502     7.7109
  105.0000   115.6850     7.6908     7.7376
  105.5000   115.3194     7.6908     7.7644
  106.0000   113.8418     7.6908     7.7912
  106.5000   112.3913     7.6908     7.8182
  107.0000   111.8581     7.6908     7.8363
  107.5000   111.8323     7.6509     7.7453
  108.0000   113.3677     7.5965     7.6776
  108.5000   114.9113     7.5424     7.6102
  109.0000   114.3071     7.4887     7.5435
  109.5000   110.8111     7.4354     7.4774
  110.0000   110.4799     7.3825     7.4118
  110.5000   114.5209     7.3299     7.3469
  111.0000   117.5894     7.2778     7.2825
  111.5000   119.1819     7.2260     7.2187
  112.0000   117.7753     7.2003     7.1973
  112.5000   116.3501     7.1850     7.1819
  113.0000   115.7172     7.1697     7.1666
  113.5000   115.7241     7.1544     7.1514
  114.0000   115.9988     7.1356     7.1356
  114.5000   117.1960     7.1629     7.1726
  115.0000   119.0839     7.1999     7.2114
  115.5000   120.9400     7.2371     7.2506
  116.0000   119.8722     7.2744     7.2900
  116.5000   116.5960     7.3118     7.3296
  117.0000   114.7987     7.3495     7.3694
  117.5000   115.9791     7.3873     7.4094
  118.0000   117.8017     7.4253     7.4496
  118.5000   118.9185     7.4636     7.4901
  119.0000   119.5379     7.5020     7.5308
  119.5000   119.3845     7.5406     7.6658
  120.0000   117.8938     7.5794     7.8742
  120.5000   114.9600     7.6192     8.0883
  121.0000   112.1050     7.6382     8.2895
  121.5000   113.4316     7.6711     8.1628
  122.0000   116.0384     7.6908     8.0361
  122.5000   118.2350     7.7549     7.9846
  123.0000   118.1720     7.8649     8.0165
  123.5000   118.4049     7.9764     8.0987
  124.0000   118.8980     8.0896     8.1818
  124.5000   116.7298     8.2044     8.2657
  125.0000   114.8750     8.3207     8.3505
  125.5000   116.5394     8.3675     8.3675
  126.0000   120.8445     8.3675     8.3675
  126.5000   123.4055     8.3675     8.3675
  127.0000   121.6920     8.3675     8.3675
  127.5000   120.6312     8.3675     8.3673
  128.0000   121.0111     8.3675     8.3680
  128.5000   121.9721     8.3675     8.3665
  129.0000   122.9487     8.4473     8.4694
  129.5000   123.8161     8.5788     8.5983
  130.0000   122.3759     8.7123     8.7282
  130.5000   121.0185     8.8478     8.8601
  131.0000   120.6877     8.9855     8.9939
  131.5000   121.7872     9.1254     9.1298
  132.0000   122.2083     9.2674     9.2677
  132.5000   119.9135     9.4116     9.4078
  133.0000   117.7607     9.5580     9.5499
  133.5000   116.5483     9.7068     9.6942
  134.0000   115.3788     9.8578     9.8407
  134.5000   114.0721    10.0112     9.9892
  135.0000   112.2875    10.1670    10.1386
  135.5000   109.6000    10.3252    10.3798
  136.0000   106.4600    10.4859    10.2683
  136.5000   103.5233    10.5761    10.2082
  137.0000   107.4869    10.5349    10.1481
  137.5000   114.9467    10.4715    10.0891
  138.0000   119.9309    10.4085    10.0301
  138.5000   121.2549    10.3459     9.9714
  139.0000   121.0425    10.2836     9.9131
  139.5000   122.5016    10.2218     9.8551
  140.0000   123.0117    10.1602     9.7974
  140.5000   121.1001    10.0991     9.7401
  141.0000   119.2507    10.0383     9.7015
  141.5000   120.4609     9.9779     9.6725
  142.0000   123.5965     9.9179     9.6436
  142.5000   125.7227     9.8582     9.6147
  143.0000   124.5783     9.7989     9.5860
  143.5000   123.8550     9.7399     9.5573
  144.0000   123.3494     9.6138     9.5286
  144.5000   121.5308     9.5546     9.5000
  145.0000   119.8857     9.4958     9.4718
  145.5000   118.7464     9.4373     9.4514
  146.0000   117.5728     9.3792     9.6358
  146.5000   117.0361     9.3214     9.8492
  147.0000   118.9337     9.2640    10.0674
  147.5000   122.2071     9.1894    10.1112
  148.0000   124.6613     9.2558    10.1328
  148.5000   125.4956     9.3924    10.1545
  149.0000   124.9466     9.5309    10.1869
  149.5000   123.8257     9.6718    10.1721
  150.0000   121.6486     9.8146    10.1426
  150.5000   119.0386     9.9592    10.1131
  151.0000   114.0076    10.0937    10.0925
  151.5000   107.0548     9.9905    10.0023
  152.0000   103.5649     9.7898     9.8740
  152.5000   107.8716     9.5930     9.7474
  153.0000   116.9599     9.3999     9.6224
  153.5000   122.0847     9.2108     9.4991
  154.0000   122.7327     9.0779     9.3775
  154.5000   123.3940     8.8522     9.1124
  155.0000   125.7630     8.6321     8.8367
  155.5000   128.3962     8.4176     8.5693
  156.0000   128.1550     8.2083     8.3101
  156.5000   127.4293     8.0038     8.0586
  157.0000   126.7527     7.8052     7.8148
  157.5000   126.9734     7.6112     7.5783
  158.0000   128.1008     7.4777     7.4777
  158.5000   129.2338     7.4777     7.5353
  159.0000   129.6579     7.4777     7.5897
  159.5000   131.2867     7.4777     7.7092
  160.0000   132.4281     7.6820     7.9073
  160.5000   126.8050     7.8795     8.1105
  161.0000   120.5882     8.0820     8.3191
  161.5000   114.1596     8.2898     8.5329
  162.0000   111.1583     8.5029     8.7518
  162.5000   112.7680     8.7214     8.9773
  163.0000   114.0386     8.9347     9.1037
  163.5000   110.3885     8.9047     9.1037
  164.0000   106.6311     8.8378     9.0530
  164.5000   105.8569     8.7714     8.9750
  165.0000   110.0827     8.7055     8.8976
  165.5000   114.2854     8.6401     8.8209
  166.0000   117.3742     8.5752     8.7448
  166.5000   118.4438     8.5258     8.6878
  167.0000   119.5536     8.6772     8.9061
  167.5000   120.1035     8.8624     9.0890
  168.0000   119.6632     9.0515     9.2754
  168.5000   117.5308     9.2448     9.4653
  169.0000   114.9444     9.4422     9.6590
  169.5000   112.6089     9.7211     9.9047
  170.0000   110.8156     9.6611     9.8076
  170.5000   111.3623     9.5200     9.6908
  171.0000   112.5107     9.3811     9.5753
  171.5000   113.7361     9.2443     9.4612
  172.0000   115.3463     9.1094     9.3484
  172.5000   116.9514     8.9770     9.2370
  173.0000   117.4700     8.8464     9.1269
  173.5000   117.6614     8.7676     9.0188
  174.0000   116.8374     8.7694     9.0188
  174.5000   115.0568     8.7689     9.0188
  175.0000   113.2786     8.7690     9.0188
  175.5000   112.1052     8.7691     9.0188
  176.0000   115.4748     8.7478     9.0188
  176.5000   119.0652     8.7214     9.0188
  177.0000   121.8313     8.6952     9.0188
  177.5000   122.8332     8.6690     9.0188
  178.0000   122.2458     8.6429     9.0188
  178.5000   121.0819     8.6168     9.0188
  179.0000   120.2605     8.5909     9.0188
  179.5000   120.6089     8.5650     9.0190
  180.0000   120.9220     8.5392     9.0367
  180.5000   120.4879     8.5135     9.0837
  181.0000   118.1739     8.4879     9.1311
  181.5000   115.7110     8.4623     9.1894
  182.0000   114.8610     8.4463     9.1037
  182.5000   115.9036     8.4336     8.9148
  183.0000   117.2472     8.3994     8.7245
  183.5000   118.6035     8.3653     8.5817
  184.0000   119.5576     8.3313     8.4371
  184.5000   120.2994     8.2975     8.2895
