~VERSION INFORMATION
 VERS.                2.0:   CWLS LOG ASCII STANDARD - VERSION 2.0
 WRAP.                 NO:   ONE LINE PER DEPTH STEP
~WELL INFORMATION
#MNEM.UNIT      DATA TYPE    INFORMATION
#----------   ------------   ------------------------------
 STRT.F            2.0000:   START DEPTH
 STOP.F          565.0000:   STOP DEPTH
 STEP.F            0.5000:   STEP LENGTH
 NULL.          -999.2500:   NO VALUE
 COMP.       F D SERV INC:   COMPANY
 WELL. NAVAL PETROLEUM RESERVE 3 SX-3 #86-2 SX3:   WELL
 FLD .             TEAPOT:   FIELD
 LOC .       S3 T38N R78W:   LOCATION
 CNTY.            NATRONA:   COUNTY
 STAT.            WYOMING:   STATE
 CTRY. UNITED STATES OF AMERICA:   COUNTRY
 SRVC.     Atlas Wireline:   SERVICE COMPANY
 DATE.        23-OCT-1992:   LOGDATE
 API .       490252255400:   API NUMBER
~CURVE INFORMATION
#MNEM.UNIT       API CODE    CURVE DESCRIPTION
#----------   ------------   ------------------------------
 DEPT.F                  :   
 GRR .GAPI   07 310 01 00:   GAMMA RAY
 RILD.OHMM   07 120 46 00:   INDUCTION LOG DEEP RESISTIVITY
 RILM.OHMM   07 120 44 00:   RESITIVITY LONG MEDIUM
~PARAMETER INFORMATION
#MNEM.UNIT          VALUE    DESCRIPTION
#----------   ------------   ------------------------------
 PD  .                 GL:   PERMANENT DATUM
 EPD .F              5153:   ELEVATION PERMANENT DATUM
 LMF .                 KB:   LOG MEASURED FROM
 DAPD.F                10:   FEET ABOVE PERMANENT DATUM
 DMF .                 KB:   DRILLING MEASURED FROM
 EKB .F              5153:   KELLING BUSHING
 EDF .F              5152:   DRILLING FLOOR
 EGL .F              5143:   GROUND LEVEL
 DATE.        23-OCT-1992:   RUN DATE
 RUN .                  1:   RUN NUMBER
 DD  .F               575:   DEPTH DRILLER
 DL  .F               574:   DEPTH LOGGER
 BLI .F               566:   BOTTOM LOG INTERVAL
 CS  .IN            8.625:   CASING SIZE
 CBD .F                94:   CASING BOTTOM DRILLER
 CBL .F                98:   CASING BOTTOM LOGGER
 BS  .IN            7.875:   BIT SIZE
 BSD .F               575:   BIT SIZE AT DEPTH
 DFT .           AIR FOAM:   DRILLING FLUID TYPE
 TCS .HRS               1:   TIME CURCULATED STOPPED
 MRT .F                70:   MAXIMUM RECORDED TEMPERATURE
 LUN .            HL-6274:   LOGGING UNIT NUMBER
 LUL .             CASPER:   LOGGING UNIT LOCATION
 ENGI.             RAUTIO:   RECORDING ENGINEER
 WITN.        GARY STRONG:   WITNESSED BY
 CLNT.            A2DTECH:   CLIENT CODE
 ORIG.           5" PRINT:   ORIGIN OF DATA
 UWI .       490252255400:   UNIQUE WELL ID
 DICO. A2D Technologies, Inc.:   DIGITIZING COMPANY
~OTHER INFORMATION
~A    DEPT      GRR      RILD       RILM   
# ...
   93.0000    77.4775  -999.2500  -999.2500
   93.5000    76.8769  -999.2500  -999.2500
   94.0000    75.9760  -999.2500  -999.2500
   94.5000    75.3754  -999.2500  -999.2500
   95.0000    75.0751  -999.2500  -999.2500
   95.5000    77.1772  -999.2500  -999.2500
   96.0000    81.0811  -999.2500  -999.2500
   96.5000    83.5195  -999.2500  -999.2500
   97.0000    86.6627  -999.2500  -999.2500
   97.5000    98.7988  -999.2500  -999.2500
   98.0000   115.9159 10077.3369  9977.5000
   98.5000   121.6216  9992.4082  9755.0176
   99.0000   125.8258     5.4494     8.1067
   99.5000   128.8288     2.2439     3.4567
  100.0000   130.0300     2.4873     5.8236
  100.5000   126.1261     3.5260     7.4815
  101.0000   124.9367     5.9635     8.6597
  101.5000   124.9440    11.8250    12.6957
  102.0000   127.6525    17.6594    18.3766
  102.5000   129.4602    10.5136    19.1429
  103.0000   129.7649     9.1557    15.8725
  103.5000   128.8713     9.0299    12.6223
  104.0000   126.1745     8.6033    10.7603
  104.5000   122.2765     8.1403    11.2999
  105.0000   120.7808     8.0842    11.7843
  105.5000   121.1061     9.0926    11.3849
  106.0000   123.8919    10.5136    10.1893
  106.5000   128.6077    11.1962     9.8439
  107.0000   131.9169    10.9589     9.7106
  107.5000   132.8236    10.0863     9.6460
  108.0000   134.0307     9.3476     9.5818
  108.5000   135.2378     8.9059     9.5850
  109.0000   136.1445     8.9677     9.5212
  109.5000   136.7510     9.2832     9.3917
  110.0000   136.1563     9.3476     9.3949
  110.5000   135.2612     9.3476     9.3974
  111.0000   137.7457     9.3476     9.3342
  111.5000   139.4786     9.2832     9.1446
  112.0000   134.3794     9.0926     9.0838
  112.5000   135.2861     8.9059     8.8988
  113.0000   138.5953     8.6033     8.7067
  113.5000   143.7063     8.2536     8.3642
  114.0000   147.6160     8.0842     8.1933
  114.5000   150.3246     7.8637     7.9713
  115.0000   152.4326     7.6491     7.9182
  115.5000   152.7397     7.4921     7.9204
  116.0000   149.3293     7.4405     7.8671
  116.5000   145.5447     7.5441     7.8698
  117.0000   144.3479     7.6491     7.9268
  117.5000   143.1541     7.8637     7.9843
  118.0000   142.2590     8.0842     8.2117
  118.5000   141.0637     8.3109     8.4460
  119.0000   137.4660     8.4851     8.5072
  119.5000   132.6670     8.6630     8.6889
  120.0000   129.9702     8.7836     8.8744
  120.5000   126.6727     8.8445     8.9387
  121.0000   119.0991     8.8445     8.9411
  121.5000   117.3751     8.8445     9.0688
  122.0000   120.9861     8.8445     9.1345
  122.5000   125.1962     8.8445     9.1370
  123.0000   126.1029     8.9059     9.0691
  123.5000   126.4091     8.9937     9.0157
  124.0000   126.4149     9.0299     8.9557
  124.5000   125.2196     9.0926     8.9588
  125.0000   121.9222     9.0926     8.9612
  125.5000   119.5256     9.0926     8.9636
  126.0000   120.7728     9.0299     8.9661
  126.5000   128.9950     9.0299     8.9685
  127.0000   135.1603     9.0299     8.9709
  127.5000   136.0671     9.0299     8.9734
  128.0000   135.4709     9.0299     8.9758
  128.5000   135.1764     9.0299     8.9783
  129.0000   134.8835     9.0299     8.9813
  129.5000   135.1896     9.0926     8.9215
  130.0000   137.2976     9.0299     8.9239
  130.5000   140.0061     9.0299     8.9263
  131.0000   141.2132     9.0299     8.9288
  131.5000   141.5195     9.0114     8.9312
  132.0000   140.0252     8.9059     8.9336
  132.5000   132.2233     8.9059     8.9360
  133.0000   130.7276     8.8445     8.8765
  133.5000   129.5323     8.8423     8.8790
  134.0000   128.6373     8.7836     8.8820
  134.5000   127.4419     8.7836     8.8844
  135.0000   126.5454     8.7836     8.9488
  135.5000   125.6519     8.7836     8.9512
  136.0000   127.4595     8.7836     8.8910
  136.5000   130.5195     8.7836     8.8318
  137.0000   133.2693     8.7836     8.7735
  137.5000   134.9846     8.7231     8.7762
  138.0000   128.3853     8.6630     8.7786
  138.5000   124.7861     8.6630     8.7810
  139.0000   125.3941     8.6630     8.7224
  139.5000   131.1056     8.6630     8.6044
  140.0000   135.6160     8.6630     8.5471
  140.5000   134.4204     8.6630     8.5495
  141.0000   135.0271     8.6630     8.5524
  141.5000   138.0641     8.6630     8.5547
  142.0000   143.5916     8.6630     8.5570
  142.5000   147.0582     8.6620     8.5593
  143.0000   147.3644     8.5958     8.5018
  143.5000   147.0699     8.4266     8.5047
  144.0000   145.2740     8.3686     8.4479
  144.5000   140.1747     8.3686     8.4503
  145.0000   133.8743     8.3109     8.4526
  145.5000   134.1805     8.3686     8.3963
  146.0000   135.6878     8.3686     8.3404
  146.5000   138.9970     8.3686     8.3433
  147.0000   139.9038     8.3690     8.3455
  147.5000   135.4066     8.4851     8.3478
  148.0000   132.7098     8.6033     8.5260
  148.5000   131.8133     8.7231     8.5878
  149.0000   131.8206     8.8445     8.8324
  149.5000   132.7274     9.0299     9.0839
  150.0000   133.0335     9.2192     9.5394
  150.5000   132.7376     9.3476    10.0945
  151.0000   132.4445     9.4778    10.1614
  151.5000   127.9080     9.5435    10.1642
  152.0000   125.1852     9.5365     9.9571
  152.5000   125.5255     9.3476     9.8217
  153.0000   129.4294     9.1581     9.6216
  153.5000   133.6336     8.9619     9.0321
  154.0000   138.1381     8.8309     8.9089
  154.5000   143.5435     8.6418     8.7868
  155.0000   143.5936     8.5632     8.6670
  155.5000   140.2402     8.5062     8.6078
  156.0000   135.6957     8.3342     8.5493
  156.5000   134.5345     8.2794     8.4913
  157.0000   135.7357     8.1119     8.3174
  157.5000   138.7387     8.0587     8.2018
  158.0000   140.5405     7.9512     8.0834
  158.5000   140.5405     7.8990     7.9259
  159.0000   139.9399     7.9017     7.9270
  159.5000   135.7357     7.9045     7.9280
  160.0000   130.9309     7.9077     7.8739
  160.5000   131.0010     7.9653     7.8753
  161.0000   136.0360     8.0791     7.9313
  161.5000   139.0390     8.1380     8.0434
  162.0000   141.1411     8.2543     8.1036
  162.5000   141.4414     8.3145     8.2724
  163.0000   140.2402     8.3751     8.4481
  163.5000   137.5375     8.3779     8.6273
  164.0000   133.6336     8.4414     8.8103
  164.5000   132.1321     8.6192     8.9972
  165.0000   132.1321     8.7430     9.0612
  165.5000   133.3333     8.8067     9.0624
  166.0000   134.2342     8.8709     9.1269
  166.5000   134.8348     8.9977     9.2559
  167.0000   134.8348     9.0633     9.2574
  167.5000   135.4354     9.0663     9.2587
  168.0000   135.4354     9.0068     9.1318
  168.5000   132.4324     8.8859     9.0698
  169.0000   130.9309     8.8276     9.0713
  169.5000   130.9309     8.7030     9.0725
  170.0000   134.2342     8.6519     9.0109
  170.5000   136.0360     8.5951     8.8261
  171.0000   134.2342     8.5988     8.6998
  171.5000   133.0330     8.6017     8.5864
  172.0000   134.2342     8.6046     8.5879
  172.5000   135.1351     8.6075     8.5890
  173.0000   135.4354     8.6702     8.6501
  173.5000   135.7357     8.6732     8.6513
  174.0000   134.5345     8.8582     8.8348
  174.5000   132.1321     8.9892     9.0222
  175.0000   128.8288     9.1766     9.1497
  175.5000   128.2282     9.4383     9.3512
  176.0000   127.9279     9.5071     9.7434
  176.5000   127.0270     9.7774     9.9500
  177.0000   126.7267    10.0554    10.2320
  177.5000   126.7267     9.9888    10.5219
  178.0000   125.8258    10.2028    10.0933
  178.5000   122.8228    10.3486    10.1741
  179.0000   120.7207    10.4965    10.4535
  179.5000   121.3213    10.6465    10.7496
  180.0000   125.5255    10.7986    11.0542
  180.5000   126.4264    10.9529    11.2887
  181.0000   119.2192    11.3426    11.6895
  181.5000   116.2162    11.7463    12.0207
  182.0000   117.7979    12.0813    12.3613
  182.5000   120.7207    12.3391    12.7116
  183.0000   122.2222    12.6023    12.9813
  183.5000   121.9219    12.8712    13.1651
