~VERSION INFORMATION
 VERS.                2.0:   CWLS LOG ASCII STANDARD - VERSION 2.0
 WRAP.                 NO:   ONE LINE PER DEPTH STEP
~WELL INFORMATION
#MNEM.UNIT      DATA TYPE    INFORMATION
#----------   ------------   ------------------------------
 STRT.F           30.0000:   START DEPTH
 STOP.F          655.5000:   STOP DEPTH
 STEP.F            0.5000:   STEP LENGTH
 NULL.          -999.2500:   NO VALUE
 COMP. FENIX & SCISSON INC:   COMPANY
 WELL.    NPR-3 SX #52-15:   WELL
 FLD .             TEAPOT:   FIELD
 LOC .      S15 T38N R78W:   LOCATION
 CNTY.            NATRONA:   COUNTY
 STAT.            WYOMING:   STATE
 CTRY. UNITED STATES OF AMERICA:   COUNTRY
 SRVC.            Unknown:   SERVICE COMPANY
 DATE.        27-MAY-1978:   LOGDATE
 API .       490251062200:   API NUMBER
~CURVE INFORMATION
#MNEM.UNIT       API CODE    CURVE DESCRIPTION
#----------   ------------   ------------------------------
 DEPT.F                  :   
 GRD .GAPI   45 310 01 00:   GAMMA RAY FROM DENSITY LOG
 CALD.IN     45 280 60 00:   CALIPER
 RHOB.G/C3   45 350 01 00:   BULK DENSITY
 DPHI.DEC    45 890 12 00:   DENSITY POROSITY SANDSTONE
 CORR.G/C3   45 356 01 00:   DENSITY CORRECTION
 SN  .OHMM   05 040 16 00:   SHORT NORMAL 16"
 IL  .OHMM   05 120 00 00:   INDUCTION LOG
 SPR .MV     05 010 01 00:   SPONTANEOUS POTENTIAL FROM RES.
~PARAMETER INFORMATION
#MNEM.UNIT          VALUE    DESCRIPTION
#----------   ------------   ------------------------------
 PD  .                 GL:   PERMANENT DATUM
 EPD .F              5240:   ELEVATION PERMANENT DATUM
 LMF .                 KB:   LOG MEASURED FROM
 DAPD.F                 4:   FEET ABOVE PERMANENT DATUM
 DMF .                 GL:   DRILLING MEASURED FROM
 EKB .F              5244:   KELLING BUSHING
 EGL .F              5240:   GROUND LEVEL
 DATE.          5-27-1978:   RUN DATE
 RUN .                  1:   RUN NUMBER
 DD  .F               645:   DEPTH DRILLER
 DL  .F               655:   DEPTH LOGGER
 BLI .F               650:   BOTTOM LOG INTERVAL
 TLI .F                50:   TOP LOG INTERVAL
 CS  .IN            8.625:   CASING SIZE
 CBD .F                40:   CASING BOTTOM DRILLER
 CBL .F                40:   CASING BOTTOM LOGGER
 BS  .IN            7.875:   BIT SIZE
 BSD .F               645:   BIT SIZE AT DEPTH
 DFT .                KCL:   DRILLING FLUID TYPE
 DFD .                8.6:   DRILLING FLUID DENSITY
 DFV .                 32:   DRILLING FLUID VISCOSITY
 DFPH.               10.5:   DRILLING FLUID PH
 DFL .                7.4:   DRILLING FLUID LOSS
 MSS .           FLOWLINE:   MUD SAMPLE SOURCE
 RMS .OHMM            .30:   RESISTIVITY MUD SAMPLE
 MST .F                66:   MUD SAMPLE TEMPERATURE
 RMF .OHMM            .32:   RESISTIVITY MUD FILTRATE SAMPLE
 MFST.F                64:   MUD FILTRATE SAMPLE TEMPERATURE
 RMC .OHMM            .50:   RESISTIVITY MUD CAKE
 MCST.F                64:   MUD CAKE SAMPLE TEMPERATURE
 MFSS.           MEASURED:   MUD FILTRATE SAMPLE SOURCE
 BHT .F                68:   BOTTOM HOLE TEMPERATURE
 TCS .HRS               2:   TIME CURCULATED STOPPED
 MRT .F                68:   MAXIMUM RECORDED TEMPERATURE
 LUN .               2958:   LOGGING UNIT NUMBER
 LUL .              CASP.:   LOGGING UNIT LOCATION
 ENGI.            POINTER:   RECORDING ENGINEER
 WITN.           MCGINLEY:   WITNESSED BY
 CLNT.            A2DTECH:   CLIENT CODE
 ORIG.      2" , 5" PRINT:   ORIGIN OF DATA
 UWI .       490251062200:   UNIQUE WELL ID
 DICO. A2D Technologies, Inc.:   DIGITIZING COMPANY
~OTHER INFORMATION
~A   DEPT       GRD      CALD       RHOB       DPHI       CORR         SN         IL        SPR   
# ...
  475.5000    54.3881     7.6829     2.3941     0.1970     0.0682    15.8592    21.2631    -9.8730
  476.0000    54.7086     7.7040     2.3664     0.2056     0.0799    15.7818    21.3548    -9.4840
  476.5000    60.4992     7.6671     2.3405     0.2057     0.0914    15.7047    21.4304    -9.0958
  477.0000    62.5339     7.6294     2.3356     0.1997     0.1028    15.6283    20.8729    -8.7076
  477.5000    62.7116     7.5916     2.3332     0.1908     0.1143    15.5509    20.4115    -8.3243
  478.0000    62.8068     7.5539     2.3362     0.1755     0.1258    15.4202    19.9602    -8.0639
  478.5000    60.9874     7.5161     2.3626     0.1651     0.1371    15.2578    19.5190    -8.0682
  479.0000    59.0976     7.4784     2.3879     0.1739     0.1259    15.0981    19.0874    -8.0675
  479.5000    57.5277     7.4404     2.4054     0.1865     0.1082    14.9401    18.6655    -8.0684
  480.0000    57.5658     7.4048     2.3843     0.1990     0.0829    14.7838    18.3216    -8.0676
  480.5000    58.3944     7.4355     2.3616     0.2097     0.0612    14.6891    18.3252    -8.0190
  481.0000    61.4209     7.4712     2.3387     0.2043     0.0511    14.6899    18.3241    -7.8065
  481.5000    64.5190     7.5071     2.3309     0.1987     0.0497    14.6902    18.3244    -7.6020
  482.0000    65.9976     7.5431     2.3407     0.1932     0.0489    14.6903    18.3243    -7.3975
  482.5000    65.7567     7.5307     2.3505     0.2048     0.0481    14.6903    18.3235    -7.1930
  483.0000    65.1010     7.5150     2.3527     0.2032     0.0518    14.6903    18.3666    -6.9896
  483.5000    63.5162     7.5132     2.3389     0.1907     0.0565    14.6903    18.4246    -6.8707
  484.0000    60.3733     7.5676     2.3472     0.1785     0.0579    14.6903    18.4828    -6.8674
  484.5000    58.6221     7.6216     2.3610     0.1699     0.0576    14.6903    18.5413    -6.9018
  485.0000    59.6800     7.6762     2.3817     0.1739     0.0573    14.6903    18.5999    -7.5255
  485.5000    61.1344     7.6743     2.3958     0.1777     0.0569    14.6903    18.6587    -7.7516
  486.0000    64.3108     7.6617     2.3908     0.1811     0.0566    14.6903    18.7177    -7.8672
  486.5000    66.7350     7.6487     2.3821     0.1837     0.0563    14.6906    18.7768    -7.9794
  487.0000    66.8642     7.6448     2.3756     0.1861     0.0588    14.6676    18.8378    -8.0928
  487.5000    67.0294     7.6496     2.3738     0.1867     0.0639    14.6374    18.8378    -8.2045
  488.0000    67.1873     7.6700     2.3714     0.1873     0.0691    14.6073    18.8379    -8.1886
  488.5000    68.0833     7.6895     2.3664     0.1871     0.0709    14.5773    18.8378    -8.0170
  489.0000    69.2487     7.7091     2.3669     0.1858     0.0718    14.5473    18.8378    -7.8452
  489.5000    70.4002     7.7285     2.3691     0.1855     0.0735    14.5174    18.8378    -7.6784
  490.0000    70.4386     7.7430     2.3712     0.1853     0.0757    14.4876    18.8378    -7.8303
  490.5000    68.5174     7.7303     2.3703     0.1842     0.0779    14.4578    18.8382    -7.9991
  491.0000    66.0443     7.7180     2.3693     0.1800     0.0806    14.4280    18.8378    -8.4665
  491.5000    64.8383     7.7059     2.3718     0.1702     0.0916    14.3984    18.7021    -9.0607
  492.0000    65.8911     7.6937     2.3797     0.1633     0.1027    14.3688    18.5342    -9.2361
  492.5000    66.6352     7.6815     2.3936     0.1637     0.1099    14.3392    18.3679    -9.3964
  493.0000    67.1055     7.6693     2.4046     0.1642     0.1037    14.3097    18.1564    -9.5557
  493.5000    68.4937     7.6572     2.4056     0.1647     0.0975    14.2803    18.2740    -9.6695
  494.0000    69.8548     7.6451     2.4042     0.1650     0.0900    14.2510    18.4395    -9.6872
  494.5000    71.0939     7.6328     2.4038     0.1636     0.0896    14.2217    18.6069    -9.7068
  495.0000    71.2306     7.6053     2.4053     0.1622     0.0915    14.1924    18.8375    -9.7260
  495.5000    71.3976     7.5448     2.4067     0.1611     0.0935    14.1632    18.8122    -9.7453
  496.0000    71.5553     7.4892     2.4094     0.1623     0.0955    14.1341    18.7687    -9.7646
  496.5000    72.8190     7.5744     2.4121     0.1616     0.0974    14.1050    18.7264    -9.7838
  497.0000    74.8417     7.6689     2.4101     0.1577     0.1022    14.0760    18.6843    -9.8031
  497.5000    76.8205     7.6977     2.4086     0.1547     0.1087    14.0471    18.5110    -9.8223
  498.0000    78.2304     7.6880     2.4161     0.1547     0.1150    14.0182    18.2315    -9.8408
  498.5000    77.4941     7.6775     2.4211     0.1548     0.1252    13.9894    17.9561    -9.8646
  499.0000    76.8378     7.6671     2.4228     0.1521     0.1357    13.9606    17.6850    -9.9992
  499.5000    76.8173     7.6567     2.4247     0.1475     0.1463    13.9319    17.4179   -10.1366
  500.0000    77.2236     7.6463     2.4315     0.1451     0.1570    13.9005    17.1803   -10.2733
  500.5000    77.5343     7.6358     2.4378     0.1442     0.1678    13.8941    17.1803   -10.4099
  501.0000    77.1975     7.6253     2.4395     0.1283     0.1692    13.8876    17.1803   -10.5465
  501.5000    76.8740     7.6275     2.4416     0.1356     0.1701    13.8808    17.1803   -10.6829
  502.0000    76.5480     7.6306     2.4542     0.1497     0.1593    13.8740    17.1803   -10.8184
  502.5000    76.2193     7.6337     2.4662     0.1593     0.1289    13.8673    17.1803   -10.9609
  503.0000    75.8844     7.6368     2.4367     0.1615     0.1025    13.8605    17.1803   -11.2109
  503.5000    76.0806     7.6399     2.4179     0.1529     0.1067    13.8537    17.1803   -11.3106
  504.0000    77.4578     7.6429     2.4119     0.1479     0.1120    13.8470    17.1803   -11.3550
  504.5000    79.4989     7.6460     2.4219     0.1479     0.1114    13.8402    17.1803   -11.4018
  505.0000    80.2057     7.6491     2.4362     0.1440     0.1106    13.8335    17.1803   -11.4496
  505.5000    80.2232     7.6521     2.4369     0.1399     0.1097    13.8267    17.1803   -11.4973
  506.0000    80.4191     7.6552     2.4379     0.1421     0.1089    13.8200    17.1803   -11.5450
  506.5000    81.3137     7.6583     2.4472     0.1438     0.1086    13.8132    17.1804   -11.5927
  507.0000    82.1895     7.6613     2.4436     0.1430     0.1121    13.8065    17.1808   -11.6404
  507.5000    82.6884     7.6644     2.4437     0.1423     0.1157    13.7998    17.1821   -11.6881
  508.0000    82.5091     7.6675     2.4460     0.1415     0.1193    13.7930    17.0735   -11.7358
  508.5000    79.9433     7.6705     2.4483     0.1407     0.1223    13.7860    16.9584   -11.7836
  509.0000    77.3725     7.6736     2.4469     0.1391     0.1222    13.7740    16.8441   -11.8313
  509.5000    75.0104     7.6767     2.4453     0.1375     0.1222    13.7697    16.7121   -11.8790
  510.0000    74.5490     7.6798     2.4463     0.1310     0.1225    14.0206    16.8685   -11.9266
  510.5000    74.4944     7.6826     2.4565     0.1065     0.1307    14.4152    17.0575   -11.9742
  511.0000    74.8929     7.6721     2.4677     0.0844     0.1391    14.8208    17.2485   -12.0227
  511.5000    75.2912     7.6403     2.5035     0.0691     0.1424    15.2379    17.7791   -12.1193
  512.0000    75.4634     7.6087     2.5389     0.0538     0.1416    15.6667    18.6410   -12.3006
  512.5000    74.6611     7.5770     2.5715     0.0526     0.1272    16.1076    19.5447   -12.4765
  513.0000    70.7008     7.5453     2.5978     0.0537     0.1129    17.1910    20.7731   -12.6852
  513.5000    66.5699     7.5134     2.6004     0.0534     0.1059    18.3472    22.2708   -13.4928
  514.0000    65.4012     7.4864     2.6073     0.0537     0.1049    19.5812    23.8765   -14.2907
  514.5000    64.8269     7.5122     2.6002     0.0791     0.1037    19.7256    25.0628   -14.7173
  515.0000    64.3984     7.5495     2.5979     0.0978     0.0904    19.3656    24.8278   -14.8705
  515.5000    63.9481     7.5982     2.5640     0.1140     0.0706    18.7381    23.1680   -15.0168
