~VERSION INFORMATION
 VERS.                2.0:   CWLS LOG ASCII STANDARD - VERSION 2.0
 WRAP.                 NO:   ONE LINE PER DEPTH STEP
~WELL INFORMATION
#MNEM.UNIT      DATA TYPE    INFORMATION
#----------   ------------   ------------------------------
 STRT.F           80.0000:   START DEPTH
 STOP.F          820.0000:   STOP DEPTH
 STEP.F            0.5000:   STEP LENGTH
 NULL.          -999.2500:   NO VALUE
 COMP. U S NAVY/INTEX OIL CO:   COMPANY
 WELL.      GOVT #15-S-35:   WELL
 FLD .        EAST TEAPOT:   FIELD
 LOC .      S35 T39N R78W:   LOCATION
 CNTY.            NATRONA:   COUNTY
 STAT.            WYOMING:   STATE
 CTRY. UNITED STATES OF AMERICA:   COUNTRY
 SRVC.       Schlumberger:   SERVICE COMPANY
 DATE.        12-FEB-1961:   LOGDATE
 API .       490250654500:   API NUMBER
~CURVE INFORMATION
#MNEM.UNIT       API CODE    CURVE DESCRIPTION
#----------   ------------   ------------------------------
 DEPT.F                  :   
 SPR .MV     05 010 01 00:   SPONTANEOUS POTENTIAL FROM RES.
 ASN .OHMM   05 041 16 00:   AMPLIFIED SHORT NORMAL 16"
 ILD .OHMM   05 120 46 00:   INDUCTION LOG DEEP
 CILD.MMHO   05 110 46 00:   CONDUCTIVITY INDUCTION LOG DEEP
 GR  .GAPI   30 310 01 00:   GAMMA RAY
~PARAMETER INFORMATION
#MNEM.UNIT          VALUE    DESCRIPTION
#----------   ------------   ------------------------------
 PD  .                 GL:   PERMANENT DATUM
 EPD .F              5069:   ELEVATION PERMANENT DATUM
 LMF .                 KB:   LOG MEASURED FROM
 DAPD.F                 4:   FEET ABOVE PERMANENT DATUM
 DMF .                 KB:   DRILLING MEASURED FROM
 EKB .F              5073:   KELLING BUSHING
 EGL .F              5069:   GROUND LEVEL
 DATE.            2-12-61:   RUN DATE
 RUN .                  1:   RUN NUMBER
 DD  .F               820:   DEPTH DRILLER
 DL  .F               820:   DEPTH LOGGER
 BLI .F               819:   BOTTOM LOG INTERVAL
 TLI .F                90:   TOP LOG INTERVAL
 CBD .F                12:   CASING BOTTOM DRILLER
 BS  .IN            7.875:   BIT SIZE
 BSD .F               820:   BIT SIZE AT DEPTH
 DFT .   GEL OIL EMULSION:   DRILLING FLUID TYPE
 DFD .                9.5:   DRILLING FLUID DENSITY
 DFV .                 50:   DRILLING FLUID VISCOSITY
 DFPH.                  8:   DRILLING FLUID PH
 DFL .                  9:   DRILLING FLUID LOSS
 MSS .          FLOW LINE:   MUD SAMPLE SOURCE
 RMS .OHMM           1.04:   RESISTIVITY MUD SAMPLE
 MST .F                56:   MUD SAMPLE TEMPERATURE
 MFSS.                  C:   MUD FILTRATE SAMPLE SOURCE
 MCSS.                  C:   MUD CAKE SAMPLE SOURCE
 RMB .OHMM           2.78:   RESISTIVITY MUD AT BHT
 BHT .F                77:   BOTTOM HOLE TEMPERATURE
 TCS .HRS               1:   TIME CURCULATED STOPPED
 MRT .F                77:   MAXIMUM RECORDED TEMPERATURE
 LUN .               2523:   LOGGING UNIT NUMBER
 LUL .               CSPR:   LOGGING UNIT LOCATION
 ENGI.             KNOBEL:   RECORDING ENGINEER
 WITN.          JORGENSEN:   WITNESSED BY
 CLNT.            A2DTECH:   CLIENT CODE
 ORIG.       2", 5" PRINT:   ORIGIN OF DATA
 UWI .       490250654500:   UNIQUE WELL ID
 DICO. A2D Technologies, Inc.:   DIGITIZING COMPANY
~OTHER INFORMATION
~A   DEPT      SPR          ASN        ILD      CILD        GR   
# ...
  507.0000   -24.5935     9.9554     7.7288   131.4320  -999.2500
  507.5000   -24.5120     9.9807     7.8225   130.1195  -999.2500
  508.0000   -24.4304    10.0125     7.8447   128.8070  -999.2500
  508.5000   -24.3487    10.0981     7.8716   127.4942  -999.2500
  509.0000   -24.2681    10.1971     7.8988   126.1820  -999.2500
  509.5000   -24.2225    10.3045     7.9258   124.8695  -999.2500
  510.0000   -24.2817    10.3894     7.9529   123.5570  -999.2500
  510.5000   -24.3378    10.3200     7.9796   123.3975  -999.2500
  511.0000   -24.3937    10.2124     8.0067   124.4160  -999.2500
  511.5000   -24.4499    10.2250     7.9843   125.4346  -999.2500
  512.0000   -24.5059    10.2462     7.9295   126.4531  -999.2500
  512.5000   -24.5620    10.2673     7.8742   127.4716  -999.2500
  513.0000   -24.6181    10.2884     7.8185   128.4901  -999.2500
  513.5000   -24.6741    10.3076     7.7628   129.5086  -999.2500
  514.0000   -24.7302    10.2825     7.7075   130.5277  -999.2500
  514.5000   -24.7863    10.2557     7.6529   131.5477  -999.2500
  515.0000   -24.8423    10.2298     7.6543   132.5642  -999.2500
  515.5000   -24.8984    10.2193     7.7380   133.5827  -999.2500
  516.0000   -24.9545    10.2733     7.8210   132.9690  -999.2500
  516.5000   -25.0106    10.3262     7.9043   131.3781  -999.2500
  517.0000   -25.0666    10.3790     7.9870   129.7872  -999.2500
  517.5000   -25.1226    10.4999     8.0708   128.1963  -999.2500
  518.0000   -25.1814    10.7112     8.1606   126.4047  -999.2500
  518.5000   -25.1695    10.9216     8.3597   123.9881  -999.2500
  519.0000   -25.1287    11.1322     8.5554   121.5714  -999.2500
  519.5000   -25.0869    11.3427     8.7503   119.1547  -999.2500
  520.0000   -25.0445    11.5533     8.9454   116.7381  -999.2500
  520.5000   -25.0023    11.7640     9.1406   114.3214  -999.2500
  521.0000   -25.0571    11.9743     9.3358   111.9047  -999.2500
  521.5000   -25.1209    12.1284     9.5304   109.4881  -999.2500
  522.0000   -25.1844    12.2739     9.7142   107.0714  -999.2500
  522.5000   -25.2478    12.4193     9.8511   104.6547  -999.2500
  523.0000   -25.3112    12.5647     9.9819   102.2381  -999.2500
  523.5000   -25.3745    12.7101    10.1124    99.8214  -999.2500
  524.0000   -25.4379    12.8556    10.2428    97.6359  -999.2500
  524.5000   -25.5013    13.0010    10.3732    96.0143  -999.2500
  525.0000   -25.5647    13.1465    10.5036    94.3927  -999.2500
  525.5000   -25.6282    13.2921    10.6341    92.7711  -999.2500
  526.0000   -25.6912    13.4390    10.7655    91.1495  -999.2500
  526.5000   -25.7536    13.5897    10.9018    89.5278  -999.2500
  527.0000   -25.7404    13.5973    10.9880    87.9062  -999.2500
  527.5000   -25.6249    13.5953    11.0748    86.1554  -999.2500
  528.0000   -25.5100    13.5702    11.1627    87.1185  -999.2500
  528.5000   -25.3944    13.4782    11.1363    88.1659  -999.2500
  529.0000   -25.2806    13.3895    11.0087    89.2106  -999.2500
  529.5000   -25.2213    13.3009    10.8807    90.2580  -999.2500
  530.0000   -25.3261    13.2121    10.7519    91.3046  -999.2500
  530.5000   -25.4260    13.1234    10.6233    92.3511  -999.2500
  531.0000   -25.5256    13.0347    10.4946    93.3976  -999.2500
  531.5000   -25.6254    12.9460    10.3656    94.4441  -999.2500
  532.0000   -25.7254    12.8573    10.2658    95.3165  -999.2500
  532.5000   -25.8128    12.7686    10.1882    95.8721  -999.2500
  533.0000   -25.8833    12.6797    10.1129    96.4276  -999.2500
  533.5000   -25.9522    12.5902    10.1535    96.9832  -999.2500
  534.0000   -26.0209    12.5035    10.2007    97.5387  -999.2500
  534.5000   -26.0896    12.5385    10.2474    98.1018  -999.2500
  535.0000   -26.1595    12.5798    10.2939    96.6020  -999.2500
  535.5000   -26.1339    12.6205    10.3405    95.0662  -999.2500
  536.0000   -26.0496    12.6611    10.3871    93.5254  -999.2500
  536.5000   -25.9648    12.7017    10.4335    91.9905  -999.2500
  537.0000   -25.8797    12.7420    10.4793    90.4520  -999.2500
  537.5000   -25.7947    12.7839    10.4580    91.4246  -999.2500
  538.0000   -25.7098    12.7027    10.3286    93.0375  -999.2500
  538.5000   -25.6247    12.5449    10.2006    94.6504  -999.2500
  539.0000   -25.5395    12.3866    10.0723    96.2633  -999.2500
  539.5000   -25.4557    12.2279     9.9440    97.8762  -999.2500
  540.0000   -25.4160    12.0692     9.8159    99.4891  -999.2500
  540.5000   -25.5032    11.9106     9.6877   101.1020  -999.2500
  541.0000   -25.5864    11.7525     9.5589   102.7150  -999.2500
  541.5000   -25.6694    11.5952     9.4697   104.3279  -999.2500
  542.0000   -25.7528    11.4777     9.4018   105.9408  -999.2500
  542.5000   -25.8030    11.4147     9.3342   107.5537  -999.2500
  543.0000   -25.8263    11.3517     9.2667   109.1666  -999.2500
  543.5000   -25.8496    11.2893     9.1992   110.4379  -999.2500
  544.0000   -25.8728    11.2269     9.1316   111.2822  -999.2500
  544.5000   -25.8960    11.1644     9.0640   112.1326  -999.2500
  545.0000   -25.9192    11.1018     8.9965   112.9805  -999.2500
  545.5000   -25.9427    11.0393     8.9289   113.8277  -999.2500
  546.0000   -25.9671    10.9478     8.8613   114.6752  -999.2500
  546.5000   -25.9826    10.8225     8.7937   115.5227  -999.2500
  547.0000   -25.8184    10.6980     8.7261   116.3701  -999.2500
  547.5000   -25.6506    10.5737     8.6585   117.2176  -999.2500
  548.0000   -25.4837    10.5304     8.5905   118.0668  -999.2500
  548.5000   -25.3186    10.5755     8.5240   118.9155  -999.2500
  549.0000   -25.2040    10.6203     8.5648   119.7634  -999.2500
  549.5000   -25.2463    10.6658     8.6203   119.3856  -999.2500
  550.0000   -25.2846    10.7112     8.6759   118.0944  -999.2500
  550.5000   -25.3229    10.7567     8.7310   116.8056  -999.2500
  551.0000   -25.3616    10.8019     8.7859   115.5167  -999.2500
  551.5000   -25.3922    10.8077     8.7741   114.2279  -999.2500
  552.0000   -25.3260    10.8056     8.6934   113.0478  -999.2500
  552.5000   -25.2614    10.7438     8.6062   117.4851  -999.2500
  553.0000   -25.1976    10.4897     8.3407   121.5772  -999.2500
  553.5000   -25.1337    10.2427     8.0820   125.6693  -999.2500
  554.0000   -25.0688    10.0889     7.8250   129.7614  -999.2500
  554.5000   -25.0038     9.9794     7.5681   133.8536  -999.2500
  555.0000   -25.1265     9.6446     7.3128   137.9457  -999.2500
  555.5000   -25.2689     9.3183     7.1045   142.0379  -999.2500
  556.0000   -25.3909     9.0556     7.0589   145.9163  -999.2500
  556.5000   -25.3131     9.0432     7.0092   145.1707  -999.2500
  557.0000   -25.2358     9.1079     6.9603   143.7038  -999.2500
  557.5000   -25.1596     9.2497     6.9401   141.8224  -999.2500
  558.0000   -25.0836     9.3903     7.0287   139.9409  -999.2500
  558.5000   -25.0076     9.4820     7.1147   138.0595  -999.2500
  559.0000   -24.9316     9.5067     7.2005   136.1781  -999.2500
  559.5000   -24.8556     9.5343     7.2864   134.2966  -999.2500
  560.0000   -24.7796     9.6259     7.3722   133.4073  -999.2500
  560.5000   -24.7036     9.7181     7.4581   132.7309  -999.2500
  561.0000   -24.6275     9.8006     7.5440   132.0545  -999.2500
  561.5000   -24.5512     9.8274     7.6298   131.3781  -999.2500
  562.0000   -24.4745     9.7466     7.7158   130.5387  -999.2500
  562.5000   -24.4114     9.7586     7.8018   129.4604  -999.2500
  563.0000   -24.5017     9.8359     7.8401   128.3821  -999.2500
  563.5000   -24.5901     9.9413     7.8671   127.3038  -999.2500
  564.0000   -24.6774    10.0409     7.8938   126.2255  -999.2500
  564.5000   -24.7647    10.3976     7.9206   125.1472  -999.2500
  565.0000   -24.8521    10.4103     7.9475   124.0689  -999.2500
  565.5000   -24.9384    10.4088     7.9743   122.9841  -999.2500
  566.0000   -24.9885    10.4088     8.0007   121.8993  -999.2500
  566.5000   -24.9373    10.4072     8.0016   121.2653  -999.2500
  567.0000   -24.8891    10.3487     7.9547   122.8374  -999.2500
  567.5000   -24.8410    10.2864     7.9086   124.4129  -999.2500
