~VERSION INFORMATION
 VERS.                2.0:   CWLS LOG ASCII STANDARD - VERSION 2.0
 WRAP.                 NO:   ONE LINE PER DEPTH STEP
~WELL INFORMATION
#MNEM.UNIT      DATA TYPE    INFORMATION
#----------   ------------   ------------------------------
 STRT.F           38.0000:   START DEPTH
 STOP.F          637.0000:   STOP DEPTH
 STEP.F            0.5000:   STEP LENGTH
 NULL.          -999.2500:   NO VALUE
 COMP. FENIX & SCISSON INC:   COMPANY
 WELL.    NPR ##3 57-S-34:   WELL
 FLD .             TEAPOT:   FIELD
 LOC .      S34 T39N R78W:   LOCATION
 CNTY.            NATRONA:   COUNTY
 STAT.            WYOMING:   STATE
 CTRY. UNITED STATES OF AMERICA:   COUNTRY
 SRVC.              Welex:   SERVICE COMPANY
 DATE.        12-MAR-1977:   LOGDATE
 API .       490251030600:   API NUMBER
~CURVE INFORMATION
#MNEM.UNIT       API CODE    CURVE DESCRIPTION
#----------   ------------   ------------------------------
 DEPT.F                  :   
 SPR .MV     07 010 01 00:   SPONTANEOUS POTENTIAL
 ILM .OHMM   07 120 44 00:   INDUCTION LOG MEDIUM
 ILD .OHMM   07 120 46 00:   INDUCTION LOG DEEP
 SGRD.OHMM   07 221 05 00:   SHALLOW SHORT GUARD RESISTIVITY
 CALD.IN     45 280 60 00:   CALIPER FROM DENSITY LOG
 GRD .GAPI   45 310 01 00:   GAMMA RAY FROM DENSITY LOG
 CORR.G/C3   45 356 01 00:   DENSITY CORRECTION
 DPHI.DEC    45 890 12 00:   DENSITY POROSITY SANDSTONE
 RHOB.G/C3   45 350 01 00:   BULK DENSITY
~PARAMETER INFORMATION
#MNEM.UNIT          VALUE    DESCRIPTION
#----------   ------------   ------------------------------
 PD  .                 GL:   PERMANENT DATUM
 EPD .F              5107:   ELEVATION PERMANENT DATUM
 LMF .                 GL:   LOG MEASURED FROM
 DMF .                 GL:   DRILLING MEASURED FROM
 EGL .F              5107:   GROUND LEVEL
 DATE.          3-12-1977:   RUN DATE
 RUN .                  1:   RUN NUMBER
 DD  .F               650:   DEPTH DRILLER
 DL  .F               637:   DEPTH LOGGER
 BLI .F               636:   BOTTOM LOG INTERVAL
 TLI .F                46:   TOP LOG INTERVAL
 CS  .IN            8.625:   CASING SIZE
 CBD .F                45:   CASING BOTTOM DRILLER
 CBL .F                46:   CASING BOTTOM LOGGER
 BS  .IN            7.875:   BIT SIZE
 BSD .F               650:   BIT SIZE AT DEPTH
 DFT .            KCL MUD:   DRILLING FLUID TYPE
 DFD .                8.9:   DRILLING FLUID DENSITY
 DFV .                 35:   DRILLING FLUID VISCOSITY
 MSS .            MUD PIT:   MUD SAMPLE SOURCE
 RMS .OHMM            .53:   RESISTIVITY MUD SAMPLE
 MST .F                68:   MUD SAMPLE TEMPERATURE
 RMF .OHMM            .41:   RESISTIVITY MUD FILTRATE SAMPLE
 MFST.F                69:   MUD FILTRATE SAMPLE TEMPERATURE
 RMC .OHMM            .62:   RESISTIVITY MUD CAKE
 MCST.F                65:   MUD CAKE SAMPLE TEMPERATURE
 MFSS.           MEASURED:   MUD FILTRATE SAMPLE SOURCE
 MCSS.           MEASURED:   MUD CAKE SAMPLE SOURCE
 RMB .OHMM            .60:   RESISTIVITY MUD AT BHT
 BHT .F                60:   BOTTOM HOLE TEMPERATURE
 TCS .HRS               1:   TIME CURCULATED STOPPED
 MRT .F                60:   MAXIMUM RECORDED TEMPERATURE
 LUN .               0716:   LOGGING UNIT NUMBER
 LUL .             VERNAL:   LOGGING UNIT LOCATION
 ENGI.        E. CALLAHAN:   RECORDING ENGINEER
 WITN.         STUEBUNGER:   WITNESSED BY
 CLNT.            A2DTECH:   CLIENT CODE
 ORIG.           5" PRINT:   ORIGIN OF DATA
 UWI .       490251030600:   UNIQUE WELL ID
 DICO. A2D Technologies, Inc.:   DIGITIZING COMPANY
~OTHER INFORMATION
~A   DEPT      SPR        ILM        ILD       SGRD       CALD        GRD       CORR       DPHI       RHOB   
# ...
  330.0000   -33.5139     6.2836     5.3076     7.1276     8.1702   110.3405     0.0768     0.1196     2.4450
  330.5000   -33.5239     5.9050     5.0543     7.0752     8.1697   112.9690     0.0829     0.1149     2.4543
  331.0000   -33.3842     5.4333     4.8465     6.8790     8.1693   112.9659     0.0860     0.1202     2.4559
  331.5000   -33.2449     4.8631     4.5751     6.4610     8.1688   110.7874     0.0859     0.1192     2.4489
  332.0000   -33.2574     4.4438     4.3340     5.5467     8.1684   108.8979     0.0827     0.1245     2.4441
  332.5000   -33.1154     4.3512     4.1847     4.0049     8.1679   108.6224     0.0811     0.1255     2.4395
  333.0000   -33.1279     4.7002     4.0405     3.7624     8.1674   110.0990     0.0811     0.1267     2.4350
  333.5000   -32.8390     5.1322     4.2391     7.0548     8.1670   111.7115     0.0810     0.1282     2.4296
  334.0000   -32.5500     5.3109     4.4176     7.3502     8.1821   110.6248     0.0732     0.1230     2.4420
  334.5000   -32.2635     5.4579     4.6978     7.4492     8.1816   111.3958     0.0731     0.1199     2.4466
  335.0000   -31.9721     5.7662     4.8610     7.5493     8.1811   114.0243     0.0809     0.1069     2.4845
  335.5000   -31.5362     6.0919     5.0298     7.6509     8.1806   113.2473     0.0800     0.1035     2.4729
  336.0000   -30.7988     6.4489     5.3136     7.6995     8.1801   110.4578     0.0760     0.1069     2.4675
  336.5000   -29.6130     6.8460     5.6134     7.8031     8.1797   110.1459     0.0791     0.1055     2.4868
  337.0000   -28.2123     7.0356     5.9744     7.8545     8.1792   112.1545     0.0666     0.1010     2.4830
  337.5000   -26.6459     7.1805     6.3514     7.9045     8.1633   113.3898     0.0619     0.1032     2.4768
  338.0000   -27.1043     7.3285     6.7098     8.0108     8.1628   115.2444     0.0618     0.1050     2.4683
  338.5000   -28.4596     7.4287     6.9428     8.1177     8.1779   115.3969     0.0649     0.1044     2.4799
  339.0000   -29.9644     7.5289     7.0363     8.1712     8.1774   116.3220     0.0617     0.0982     2.4830
  339.5000   -31.5052     7.6311     7.0819     8.2240     8.1769   115.3900     0.0555     0.1013     2.4884
  340.0000   -32.6775     7.7341     7.1342     8.3337     8.1920   114.7678     0.0523     0.1023     2.4776
  340.5000   -32.8369     7.7315     7.1739     8.5045     8.1914   114.7647     0.0492     0.1038     2.4760
  341.0000   -32.9964     7.8365     7.1203     8.6189     8.1910   115.0835     0.0429     0.1054     2.4737
  341.5000   -33.1559     7.8883     7.0679     8.7349     8.2060   115.8710     0.0382     0.1044     2.4698
  342.0000   -33.1659     7.9403     7.0647     8.7914     8.2055   116.7679     0.0428     0.1032     2.4737
  342.5000   -32.8769     8.0481     6.9643     8.9097     8.2207   117.6929     0.0551     0.1013     2.4853
  343.0000   -32.5905     8.1013     6.8646     8.9665     8.2201   118.7734     0.0581     0.0979     2.4892
  343.5000   -32.0026     8.1547     6.8614     9.0870     8.2196   120.3184     0.0534     0.1023     2.4796
  344.0000   -31.5616     8.1514     6.8110     9.2082     8.2192   122.9476     0.0611     0.1007     2.4706
  344.5000   -30.9762     8.0316     6.8078     9.2039     8.2187   122.6342     0.0611     0.1045     2.4799
  345.0000   -30.5182     7.9232     6.8046     9.1996     8.2183   123.0956     0.0594     0.1048     2.4776
  345.5000   -30.3983     7.8661     6.8014     9.1954     8.2178   123.5577     0.0594     0.1034     2.4776
  346.0000   -31.1582     7.8635     6.7981     9.1278     8.2173   121.0771     0.0609     0.1045     2.4799
  346.5000   -31.7661     7.8609     6.7475     9.1174     8.2168   119.8356     0.0546     0.1110     2.4845
  347.0000   -32.0750     7.8583     6.6979     9.0554     8.2163   118.1298     0.0499     0.1131     2.4644
  347.5000   -32.2446     7.8015     6.6486     8.9889     8.2159   120.4487     0.0501     0.1110     2.4613
  348.0000   -32.6954     7.7447     6.6455     8.8613     8.2310   121.0648     0.0674     0.0946     2.4822
  348.5000   -32.8549     7.7421     6.6424     8.7356     8.2304   121.0867     0.0698     0.0921     2.4946
  349.0000   -33.0144     7.7395     6.5928     8.6713     8.2456   120.1299     0.0636     0.0921     2.4938
  349.5000   -33.0244     7.6837     6.5898     8.6074     8.2450   119.5077     0.0728     0.0884     2.4930
  350.0000   -33.1839     7.6283     6.5235     8.4854     8.2291   116.4087     0.0695     0.0905     2.5054
  350.5000   -33.3458     7.5903     6.4070     8.6014     8.2289   117.0279     0.0673     0.0961     2.4853
  351.0000   -33.3574     7.4684     6.2708     8.4220     8.2288   117.4923     0.0649     0.1020     2.4714
  351.5000   -33.5187     7.4155     6.1399     8.2396     8.2441   115.4799     0.0695     0.1005     2.4697
  352.0000   -33.3804     7.2619     5.9291     7.8546     8.2440   114.8070     0.0741     0.1039     2.4664
  352.5000   -33.2454     6.9656     5.7256     7.4299     8.2438   113.9319     0.0663     0.1098     2.4596
  353.0000   -33.1045     6.3660     5.4530     7.0282     8.2437   113.9463     0.0554     0.1231     2.4504
  353.5000   -33.1190     5.5670     5.0781     6.3780     8.2435   114.7224     0.0523     0.1281     2.4404
  354.0000   -32.9806     4.9277     4.4892     5.8686     8.2433   114.8607     0.0538     0.1355     2.4241
  354.5000   -32.9926     4.5661     4.0452     5.4716     8.2432   114.2415     0.0708     0.1368     2.4172
  355.0000   -32.8546     4.1730     3.6960     5.0027     8.2276   113.6223     0.0645     0.1430     2.3963
  355.5000   -32.7167     3.6589     3.2620     4.5714     8.2274   114.7059     0.0614     0.1529     2.3746
  356.0000   -32.4293     3.2303     2.9394     3.8447     8.2272   116.7472     0.0660     0.1665     2.3437
  356.5000   -32.2913     2.9290     2.7043     3.2335     8.2271   116.7183     0.0598     0.1854     2.3212
  357.0000   -32.1534     2.6063     2.4846     2.8346     8.2269   116.5635     0.0551     0.2025     2.2995
  357.5000   -32.1678     2.5173     2.3694     2.6814     8.2268   116.7183     0.0550     0.2112     2.2887
  358.0000   -31.8804     2.4995     2.3039     2.7627     8.2111   117.1827     0.0651     0.2133     2.2879
  358.5000   -31.8924     2.5868     2.2715     3.1417     8.2110   117.9567     0.0735     0.2140     2.2872
  359.0000   -31.7540     2.7333     2.2867     3.7336     8.2108   119.9690     0.0719     0.2115     2.2995
  359.5000   -31.6160     3.0383     2.3499     5.2742     8.2107   121.6718     0.0781     0.1873     2.3344
  360.0000   -31.6305     3.3247     2.5001     3.1176     8.2105   125.2322     0.0702     0.1570     2.3785
  360.5000   -31.4896     3.5030     2.7082     3.0410     8.2104   127.2714     0.0640     0.1514     2.3978
  361.0000   -31.6535     3.9117     3.2049     4.3026     8.2257   127.0898     0.0609     0.1418     2.4119
  361.5000   -31.5156     4.1907     3.4572     6.7573     8.2255   127.8638     0.0639     0.1310     2.4241
  362.0000   -31.3776     4.6154     3.7553     6.9932     8.2254   125.5418     0.0704     0.1177     2.4553
  362.5000   -31.2397     4.9788     4.0791     7.0891     8.2252   126.0062     0.0592     0.1136     2.4667
  363.0000   -30.9523     5.3393     4.4616     7.1855     8.2251   127.0805     0.0592     0.0972     2.4845
  363.5000   -30.8143     5.7537     4.8850     7.1341     8.2249   128.0186     0.0638     0.0985     2.4892
  364.0000   -30.5298     6.0376     5.2636     7.1322     8.2247   128.9474     0.0702     0.1009     2.4805
  364.5000   -30.5413     6.2486     5.4471     7.1302     8.2246   129.7461     0.0637     0.0982     2.4830
  365.0000   -30.4034     6.4224     5.6370     7.1279     8.2400   129.7214     0.0621     0.1075     2.4799
  365.5000   -30.4178     6.4657     5.7141     7.1260     8.2398   131.1145     0.0527     0.1148     2.4628
  366.0000   -30.4293     6.4644     5.7918     7.1241     8.2396   131.7337     0.0480     0.1196     2.4505
