~VERSION INFORMATION
 VERS.                2.0:   CWLS LOG ASCII STANDARD - VERSION 2.0
 WRAP.                 NO:   ONE LINE PER DEPTH STEP
~WELL INFORMATION
#MNEM.UNIT      DATA TYPE    INFORMATION
#----------   ------------   ------------------------------
 STRT.F           70.0000:   START DEPTH
 STOP.F          865.0000:   STOP DEPTH
 STEP.F            0.5000:   STEP LENGTH
 NULL.          -999.2500:   NO VALUE
 COMP. U S NAVY/INTEX OIL CO:   COMPANY
 WELL.   54S 11 NPR #3-11:   WELL
 FLD .             TEAPOT:   FIELD
 LOC .      S11 T38N R78W:   LOCATION
 CNTY.            NATRONA:   COUNTY
 STAT.            WYOMING:   STATE
 CTRY. UNITED STATES OF AMERICA:   COUNTRY
 SRVC.         Lane Wells:   SERVICE COMPANY
 DATE.        11-MAR-1960:   LOGDATE
 API .       490250634900:   API NUMBER
~CURVE INFORMATION
#MNEM.UNIT       API CODE    CURVE DESCRIPTION
#----------   ------------   ------------------------------
 DEPT.F                  :   
 SPR .MV     05 010 01 00:   SPONTANEOUS POTENTIAL FROM RES.
 ASN .OHMM   05 041 16 00:   AMPLIFIED SHORT NORMAL 16"
 ILD .OHMM   05 120 46 00:   INDUCTION LOG DEEP
 CILD.MMHO   05 110 46 00:   CONDUCTIVITY INDUCTION LOG DEEP
~PARAMETER INFORMATION
#MNEM.UNIT          VALUE    DESCRIPTION
#----------   ------------   ------------------------------
 PD  .                 GL:   PERMANENT DATUM
 EPD .F              5198:   ELEVATION PERMANENT DATUM
 LMF .                 KB:   LOG MEASURED FROM
 DAPD.F                 5:   FEET ABOVE PERMANENT DATUM
 DMF .                 KB:   DRILLING MEASURED FROM
 EKB .F              5203:   KELLING BUSHING
 EGL .F              5198:   GROUND LEVEL
 DATE.            3-11-60:   RUN DATE
 RUN .                  1:   RUN NUMBER
 DD  .F               870:   DEPTH DRILLER
 DL  .F               867:   DEPTH LOGGER
 BLI .F               865:   BOTTOM LOG INTERVAL
 TLI .F                70:   TOP LOG INTERVAL
 CS  .IN            8.625:   CASING SIZE
 CBD .F                12:   CASING BOTTOM DRILLER
 BS  .IN            7.875:   BIT SIZE
 BSD .F               870:   BIT SIZE AT DEPTH
 DFT .   GEL/OIL EMULSION:   DRILLING FLUID TYPE
 DFD .                9.2:   DRILLING FLUID DENSITY
 DFV .                 36:   DRILLING FLUID VISCOSITY
 DFPH.                7.5:   DRILLING FLUID PH
 DFL .                4.4:   DRILLING FLUID LOSS
 MSS .                PIT:   MUD SAMPLE SOURCE
 RMS .OHMM            6.8:   RESISTIVITY MUD SAMPLE
 MST .F                54:   MUD SAMPLE TEMPERATURE
 RMF .OHMM            4.2:   RESISTIVITY MUD FILTRATE SAMPLE
 MFST.F                69:   MUD FILTRATE SAMPLE TEMPERATURE
 RMC .OHMM            5.1:   RESISTIVITY MUD CAKE
 MCST.F                69:   MUD CAKE SAMPLE TEMPERATURE
 MFSS.              PRESS:   MUD FILTRATE SAMPLE SOURCE
 MCSS.              PRESS:   MUD CAKE SAMPLE SOURCE
 RMB .OHMM            5.2:   RESISTIVITY MUD AT BHT
 BHT .F                70:   BOTTOM HOLE TEMPERATURE
 TCS .HRS              .5:   TIME CURCULATED STOPPED
 MRT .F                70:   MAXIMUM RECORDED TEMPERATURE
 LUN .             L-4474:   LOGGING UNIT NUMBER
 LUL .             CASPER:   LOGGING UNIT LOCATION
 ENGI.      GRIGGS/NELSON:   RECORDING ENGINEER
 WITN.   JORGENSEN/HUDSON:   WITNESSED BY
 CLNT.            A2DTECH:   CLIENT CODE
 ORIG.       2", 5" PRINT:   ORIGIN OF DATA
 UWI .       490250634900:   UNIQUE WELL ID
 DICO. A2D Technologies, Inc.:   DIGITIZING COMPANY
~OTHER INFORMATION
~A   DEPT       SPR         ASN        ILD      CILD  
# ...
  654.0000   -11.9135     4.3226     4.5461   273.1356
  654.5000   -12.2126     4.0814     4.5139   278.3906
  655.0000   -12.5173     3.9063     4.4818   283.6455
  655.5000   -12.5971     3.8422     4.4493   288.9005
  656.0000   -12.5412     3.7762     4.4153   292.4731
  656.5000   -12.4826     3.6978     4.4732   290.0049
  657.0000   -12.4238     3.7515     4.5480   287.6344
  657.5000   -12.3655     3.9089     4.6234   279.9899
  658.0000   -12.3082     4.0516     4.7061   272.6367
  658.5000   -12.3283     4.0831     4.8242   265.2834
  659.0000   -12.4425     4.3183     4.9397   257.9301
  659.5000   -12.5544     4.6705     5.0551   250.5768
  660.0000   -12.6109     4.9025     5.1705   243.2236
  660.5000   -12.5041     5.1120     5.2859   235.8703
  661.0000   -12.3632     5.3222     5.4010   228.5170
  661.5000   -12.1803     5.5385     5.5173   221.1638
  662.0000   -12.1503     5.6542     5.5940   215.8065
  662.5000   -12.2454     5.7474     5.6713   212.1864
  663.0000   -12.3423     5.7812     5.7459   210.8244
  663.5000   -12.4397     5.7582     5.7492   211.2769
  664.0000   -12.5373     5.7235     5.7490   211.7294
  664.5000   -12.6308     5.6844     5.7488   212.1819
  665.0000   -12.6122     5.6235     5.7331   214.0341
  665.5000   -12.5884     5.5479     5.6440   216.8428
  666.0000   -12.5650     5.4712     5.5563   219.6515
  666.5000   -12.5418     5.3820     5.4688   222.4601
  667.0000   -12.5184     5.2734     5.3812   225.2688
  667.5000   -12.4943     5.1738     5.2937   228.0775
  668.0000   -12.4726     5.0826     5.2063   231.8740
  668.5000   -12.5315     4.9625     5.1228   237.0456
  669.0000   -12.8779     4.8045     5.0561   242.2171
  669.5000   -13.2104     4.6473     4.9917   247.3886
  670.0000   -13.5436     4.4897     4.9272   252.5602
  670.5000   -13.5081     4.3317     4.8601   257.7317
  671.0000   -13.1647     4.1741     4.7825   262.9032
  671.5000   -13.4332     4.0332     4.6978   263.5193
  672.0000   -13.7216     4.0344     4.6798   262.5448
  672.5000   -14.0077     4.1472     4.7293   256.0870
  673.0000   -14.2341     4.2943     4.8811   249.2214
  673.5000   -14.0925     4.4478     5.0311   242.3557
  674.0000   -13.9565     4.7092     5.1812   235.4901
  674.5000   -13.8216     4.9793     5.3313   228.6244
  675.0000   -13.6868     5.2400     5.4816   222.3716
  675.5000   -13.5520     5.3749     5.6314   218.6007
  676.0000   -13.4172     5.4472     5.7557   214.8297
  676.5000   -13.2824     5.5146     5.7751   213.2280
  677.0000   -13.1476     5.5821     5.7962   212.0968
  677.5000   -13.0147     5.6489     5.8176   210.9655
  678.0000   -12.8899     5.7005     5.8391   210.0012
  678.5000   -12.7676     5.7484     5.8605   209.1253
  679.0000   -12.6390     5.7947     5.8820   208.2495
  679.5000   -12.9520     5.8573     5.9036   207.3737
  680.0000   -13.3174     5.8931     5.9246   206.4979
  680.5000   -13.6911     5.8987     5.9025   205.6220
  681.0000   -13.6871     5.9044     5.8752   203.4800
  681.5000   -13.6563     5.9032     5.8478   204.1114
  682.0000   -13.6274     5.8550     5.8205   204.7428
  682.5000   -13.5989     5.8069     5.7932   205.3743
  683.0000   -13.5710     5.7618     5.7660   206.0057
  683.5000   -13.5417     5.7385     5.7387   206.6371
  684.0000   -13.6805     5.7146     5.7114   207.2685
  684.5000   -13.8937     5.6961     5.6841   207.8999
  685.0000   -13.8868     5.7051     5.6568   208.5313
  685.5000   -13.9025     5.7118     5.6296   209.7833
  686.0000   -14.2930     5.6784     5.6021   212.2516
  686.5000   -14.6094     5.6431     5.5751   215.0410
  687.0000   -14.5074     5.5849     5.5400   218.9230
  687.5000   -14.4092     5.4926     5.4930   222.7975
  688.0000   -14.3116     5.3862     5.4457   226.6769
  688.5000   -14.2148     5.2715     5.3997   230.5556
  689.0000   -14.1210     5.0229     5.3378   234.4342
  689.5000   -14.2325     4.8414     5.2753   238.3129
  690.0000   -14.5737     4.6952     5.2127   241.0394
  690.5000   -14.9077     4.6298     5.1501   241.0394
  691.0000   -15.1458     4.5836     5.0876   241.0394
  691.5000   -15.0414     4.7027     5.0250   241.0394
  692.0000   -15.0689     4.8111     4.9597   241.7149
  692.5000   -15.3957     4.7855     4.9777   246.5881
  693.0000   -15.7219     4.6527     5.0192   251.4613
  693.5000   -15.6852     4.4920     5.0613   252.7670
  694.0000   -15.3881     4.3237     5.1032   251.3190
  694.5000   -15.1819     4.3174     5.1451   249.8710
  695.0000   -15.4518     4.4262     5.1870   248.4229
  695.5000   -15.7073     4.4743     5.2291   246.9749
  696.0000   -15.6848     4.5525     5.2707   242.7121
  696.5000   -14.7929     4.8201     5.2952   236.6748
  697.0000   -14.4094     5.0708     5.2506   230.6252
  697.5000   -14.0486     5.1787     5.2076   224.8886
  698.0000   -13.7100     5.2170     5.1647   224.9104
  698.5000   -13.5924     5.2484     5.1218   229.1716
  699.0000   -13.4835     5.2224     5.0789   233.1940
  699.5000   -13.3741     5.1686     5.0362   237.2162
  700.0000   -13.2641     5.0173     4.9935   241.2281
  700.5000   -13.1549     4.8966     4.9477   247.8966
  701.0000   -13.0444     4.6292     4.8099   254.5652
  701.5000   -13.0957     4.3321     4.6596   261.2337
  702.0000   -13.2885     4.1342     4.5117   263.8970
  702.5000   -13.4863     4.1609     4.4506   263.0743
  703.0000   -13.6284     4.1645     4.5732   261.4695
  703.5000   -13.7609     4.1562     4.6920   254.6819
  704.0000   -13.8727     4.2909     4.8084   249.2063
  704.5000   -13.4373     4.6583     5.0503   237.5704
  705.0000   -13.4048     5.0225     5.2911   225.9345
  705.5000   -13.4700     5.3056     5.5313   217.3899
  706.0000   -13.5384     5.5932     5.7717   210.9495
  706.5000   -13.6057     5.7722     6.0112   204.4636
  707.0000   -13.6711     5.9490     6.2024   202.5365
  707.5000   -13.6371     6.0242     6.2170   201.4923
  708.0000   -13.4717     6.0929     6.2347   200.4480
  708.5000   -13.3347     6.1831     6.2526   199.4072
  709.0000   -13.2732     6.2481     6.2706   198.3492
  709.5000   -13.2156     6.2859     6.2886   197.0093
  710.0000   -13.2718     6.3393     6.3066   195.4898
  710.5000   -13.6941     6.3904     6.3246   193.9815
  711.0000   -13.8306     6.4335     6.3426   192.4731
  711.5000   -13.7279     6.4554     6.3606   190.8602
  712.0000   -13.6216     6.4795     6.3786   192.0520
  712.5000   -13.5147     6.5379     6.3966   193.3554
  713.0000   -13.4082     6.5508     6.4146   194.6485
  713.5000   -13.3015     6.5387     6.4326   195.9421
  714.0000   -13.1926     6.4741     6.4506   194.8387
  714.5000   -13.1720     6.4598     6.4686   193.0287
  715.0000   -13.1718     6.4814     6.4866   191.2186
  715.5000   -13.1728     6.5822     6.5048   189.4086
  716.0000   -13.1781     6.7436     6.5229   190.4040
  716.5000   -12.9458     6.9169     6.5391   192.0495
  717.0000   -12.6609     7.0117     6.4612   193.7993
  717.5000   -12.9438     7.0462     6.2526   197.6802
  718.0000   -13.1561     6.9470     6.0519   202.7081
  718.5000   -13.3456     6.6394     5.7363   214.6655
  719.0000   -13.2784     6.2177     5.4107   227.7379
  719.5000   -13.2092     5.6480     5.0862   240.8104
  720.0000   -13.2714     5.0990     4.8644   248.7199
  720.5000   -13.4736     4.6593     4.9800   244.4103
  721.0000   -13.6768     4.8078     5.0925   240.1007
  721.5000   -13.8768     4.9862     5.2129   235.7911
  722.0000   -13.6393     5.2177     5.5448   229.7175
  722.5000   -13.3544     5.8008     5.9015   212.6980
  723.0000   -12.9027     6.6250     6.2587   195.6692
  723.5000   -13.0298     7.4646     6.6149   178.4822
  724.0000   -13.3100     7.7800     6.9397   172.3461
  724.5000   -13.5952     7.9479     7.0847   169.1602
  725.0000   -13.8222     8.1165     7.2341   166.0408
  725.5000   -14.0135     8.1840     7.3841   162.9136
  726.0000   -14.2040     8.2402     7.5342   159.7808
  726.5000   -14.3918     8.2882     7.6842   156.6481
