~VERSION INFORMATION
 VERS.                2.0:   CWLS LOG ASCII STANDARD - VERSION 2.0
 WRAP.                 NO:   ONE LINE PER DEPTH STEP
~WELL INFORMATION
#MNEM.UNIT      DATA TYPE    INFORMATION
#----------   ------------   ------------------------------
 STRT.F            0.0000:   START DEPTH
 STOP.F          844.0000:   STOP DEPTH
 STEP.F            0.5000:   STEP LENGTH
 NULL.          -999.2500:   NO VALUE
 COMP. BROWN JOHN E&C INC:   COMPANY
 WELL. NAVAL PETROLEUM RESERVE 3 SX-1 #42-1-14:   WELL
 FLD .             TEAPOT:   FIELD
 LOC .      S14 T38N R78W:   LOCATION
 CNTY.            NATRONA:   COUNTY
 STAT.            WYOMING:   STATE
 CTRY. UNITED STATES OF AMERICA:   COUNTRY
 SRVC.     Atlas Wireline:   SERVICE COMPANY
 DATE.        11-JAN-1992:   LOGDATE
 API .       490252247700:   API NUMBER
~CURVE INFORMATION
#MNEM.UNIT       API CODE    CURVE DESCRIPTION
#----------   ------------   ------------------------------
 DEPT.F                  :   
 GRR .GAPI   07 310 01 00:   GAMMA RAY
 RFOC.OHMM   07 220 04 00:   RESISTIVITY FOCUSED LOG
 RILD.OHMM   07 120 46 00:   INDUCTION LOG DEEP RESISTIVITY
 RILM.OHMM   07 120 44 00:   INDUCTION LOG MEDIUM RESISTIVITY
 SPR .MV     07 010 01 00:   SPONTANEOUS POTENTIAL
~PARAMETER INFORMATION
#MNEM.UNIT          VALUE    DESCRIPTION
#----------   ------------   ------------------------------
 PD  .                 GL:   PERMANENT DATUM
 EPD .F              5201:   ELEVATION PERMANENT DATUM
 LMF .                 KB:   LOG MEASURED FROM
 DAPD.F                10:   FEET ABOVE PERMANENT DATUM
 DMF .                 KB:   DRILLING MEASURED FROM
 EKB .F              5211:   KELLING BUSHING
 EGL .F              5201:   GROUND LEVEL
 DATE.        11-JAN-1992:   RUN DATE
 RUN .                  1:   RUN NUMBER
 DD  .F               848:   DEPTH DRILLER
 DL  .F               847:   DEPTH LOGGER
 BLI .F               845:   BOTTOM LOG INTERVAL
 CS  .IN            10.75:   CASING SIZE
 CBD .F               101:   CASING BOTTOM DRILLER
 CBL .F               101:   CASING BOTTOM LOGGER
 BS  .IN             8.75:   BIT SIZE
 BSD .F               848:   BIT SIZE AT DEPTH
 DFT .               CHEM:   DRILLING FLUID TYPE
 DFD .                9.0:   DRILLING FLUID DENSITY
 DFV .                 40:   DRILLING FLUID VISCOSITY
 DFPH.                9.0:   DRILLING FLUID PH
 DFL .                8.4:   DRILLING FLUID LOSS
 MSS .           FLOWLINE:   MUD SAMPLE SOURCE
 RMS .OHMM           0.22:   RESISTIVITY MUD SAMPLE
 MST .F                78:   MUD SAMPLE TEMPERATURE
 RMF .OHMM           0.17:   RESISTIVITY MUD FILTRATE SAMPLE
 MFST.F                78:   MUD FILTRATE SAMPLE TEMPERATURE
 RMC .OHMM           0.28:   RESISTIVITY MUD CAKE
 MCST.F                78:   MUD CAKE SAMPLE TEMPERATURE
 MFSS.               MEAS:   MUD FILTRATE SAMPLE SOURCE
 MCSS.               CALC:   MUD CAKE SAMPLE SOURCE
 RMB .OHMM           0.14:   RESISTIVITY MUD AT BHT
 BHT .F               126:   BOTTOM HOLE TEMPERATURE
 TCS .HRS               3:   TIME CURCULATED STOPPED
 MRT .F               126:   MAXIMUM RECORDED TEMPERATURE
 LUN .            HL-6274:   LOGGING UNIT NUMBER
 LUL .         CASPER, WY:   LOGGING UNIT LOCATION
 ENGI.             ZIEGER:   RECORDING ENGINEER
 WITN.         MR. STRONG:   WITNESSED BY
 CLNT.            A2DTECH:   CLIENT CODE
 ORIG.           5" PRINT:   ORIGIN OF DATA
 UWI .       490252247700:   UNIQUE WELL ID
 DICO. A2D Technologies, Inc.:   DIGITIZING COMPANY
~OTHER INFORMATION
~A    DEPT      GRR      RFOC       RILD       RILM        SPR   
# ...
  122.0000    98.5946     4.3804     4.3092     3.9143    -2.4541
  122.5000    97.4496     4.3773     4.1896     3.7008    -2.6090
  123.0000   101.9184     4.0249     4.1019     3.5234    -2.4628
  123.5000   107.2952     3.5237     4.0161     3.5719    -2.4682
  124.0000   112.0715     3.2851     3.9873     3.8038    -2.3211
  124.5000   103.7057     3.2835     3.9898     4.0759    -2.1750
  125.0000    97.5928     3.9076     4.1560     4.2493    -2.3308
  125.5000    99.0658     4.2472     4.3939     4.3683    -2.6370
  126.0000    98.7369     4.3357     4.6131     4.4905    -2.6413
  126.5000    95.1048     4.3335     4.8432     4.5527    -2.4942
  127.0000    93.2673     4.2717     4.9796     4.6474    -2.0485
  127.5000    92.6453     4.2700     5.0837     4.7114    -1.7521
  128.0000    93.8108     4.3278     5.0473     4.7432    -1.4556
  128.5000    94.3828     4.3869     5.0052     4.7086    -1.0088
  129.0000    94.9549     4.4779     4.9061     4.6746    -0.7124
  129.5000    96.7210     4.5078     4.8709     4.6086    -0.4160
  130.0000    96.3921     4.4431     4.9043     4.5753    -0.4214
  130.5000    95.7701     4.4413     4.9377     4.5101    -0.8769
  131.0000    97.2359     4.5019     4.9021     4.3851    -1.1820
  131.5000    99.6098     4.1964     4.7329     4.2041    -1.7889
  132.0000    97.7723     4.1078     4.4436     3.9748    -2.2443
  132.5000    93.5395     4.1353     4.1431     3.6802    -2.5494
  133.0000    88.4058     4.1332     3.6530     3.2905    -2.7041
  133.5000    88.6787     4.0743     2.8804     2.8019    -2.7085
  134.0000    94.2144     3.9057     2.4354     2.3631    -2.7128
  134.5000   100.3251     3.5549     2.2999     1.9893    -2.8677
  135.0000    99.6959     2.9109     2.2076     1.8941    -2.8729
  135.5000    95.7537     2.2011     2.1766     2.0162    -3.3284
  136.0000    91.8262     2.0808     2.1914     2.1917    -3.7838
  136.5000    92.9989     2.2616     2.2373     2.4499    -4.3897
  137.0000    93.5780     2.9470     2.3489     2.7978    -4.6947
  137.5000    90.8397     3.6318     2.5716     3.2070    -5.0000
  138.0000    87.5075     4.4197     3.0410     3.5928    -5.1556
  138.5000    87.7795     4.5684     3.6117     3.8784    -5.1599
  139.0000    88.3516     4.3485     4.2785     4.0999    -5.1643
  139.5000    88.9165     4.1107     4.7833     4.2151    -5.0171
  140.0000    89.1892     3.9406     4.9525     4.2432    -4.7218
  140.5000    92.7712     3.8844     4.8149     4.1807    -4.5758
  141.0000    99.6345     3.9650     4.6813     4.1528    -4.1300
  141.5000    99.0053     4.1935     4.5833     4.1810    -4.1344
  142.0000    95.0729     4.3375     4.4837     4.2092    -4.1387
  142.5000    93.2425     4.3056     4.3022     4.2078    -4.2934
  143.0000    94.7467     4.2442     4.1828     4.2361    -4.5985
  143.5000    95.8881     4.1837     4.0668     4.2053    -4.9288
  144.0000    96.1599     4.0954     3.9817     4.0795    -5.3601
  144.5000    96.1242     4.0370     3.8983     3.9748    -5.9660
  145.0000    95.7757     3.9494     3.7638     3.7580    -6.4214
  145.5000    97.9099     3.9223     3.5338     3.4073    -6.8769
  146.0000    98.7412     3.8664     3.2871     3.1991    -7.4827
  146.5000    97.2040     3.8113     3.0292     3.0035    -8.1138
  147.0000    96.5749     3.7049     2.9452     2.8580    -8.2432
  147.5000    97.1469     3.5268     2.9038     2.7800    -7.4968
  148.0000    97.7190     3.3340     2.9032     2.8183    -7.3497
  148.5000    97.6833     2.9953     2.9435     2.8771    -7.5054
  149.0000    97.3544     2.6644     3.0262     3.0203    -7.6602
  149.5000    97.0256     2.7967     3.1565     3.2152    -7.6656
  150.0000    95.7958     3.2367     3.3240     3.5195    -8.2707
  150.5000    92.4034     4.0731     3.6010     4.6186    -7.9699
  151.0000    90.9582     4.6163     3.8877     4.8481    -7.9699
  151.5000    92.7455     4.5505     4.3161     4.9836    -8.2707
  152.0000    95.1333     4.3906     4.6597     5.0519    -8.7218
  152.5000    97.2208     4.3296     4.9957     5.0498    -9.1729
  153.0000   100.2093     4.4194     5.1362     5.0481    -9.7744
  153.5000   103.1977     4.5427     5.2074     5.0113   -10.2256
  154.0000   101.3813     4.6698     5.2428     4.9748    -9.7744
  154.5000    94.0271     4.7335     5.1688     4.9385    -9.0226
  155.0000    89.3402     4.7311     5.0606     4.8009    -9.1780
  155.5000    92.6253     4.6637     4.8182     4.5072    -9.4737
  156.0000    98.6167     4.5330     4.4300     4.0826    -9.9248
  156.5000    99.8070     4.2852     3.9887     3.6428   -10.5263
  157.0000    99.1882     3.9948     3.5653     3.2890   -10.9774
  157.5000   100.3748     3.6981     3.1793     3.0663   -11.5789
  158.0000   104.8648     3.3062     2.9522     2.9191   -11.8797
  158.5000   115.5638     3.0182     2.8703     2.8577   -12.0301
  159.0000   118.9498     2.8532     2.8696     2.8969   -11.8797
  159.5000   113.5261     2.9325     2.9710     3.0408   -11.4286
  160.0000   103.3014     3.5390     3.1631     3.1920   -11.2782
  160.5000    97.5811     4.1245     3.3441     3.3763   -11.2782
  161.0000    95.1641     4.2105     3.5355     3.5786   -11.4286
  161.5000    96.0505     3.9522     3.6861     3.7961   -11.5789
  162.0000    98.1380     4.0624     3.8970     3.9570   -12.1805
  162.5000    99.0490     4.4463     4.2405     4.1248   -12.1805
  163.0000   101.1082     4.4441     4.3559     4.2997   -12.1805
  163.5000   104.6973     4.4118     4.3856     4.4199   -12.4812
  164.0000   108.2863     4.5029     4.4461     4.5435   -12.3308
  164.5000   108.2717     4.5963     4.5079     4.6058   -12.0301
  165.0000   103.4524     4.6271     4.6022     4.6042   -11.4135
  165.5000    97.4318     4.6247     4.6335     4.6022   -11.2782
  166.0000    95.3151     4.5577     4.5988     4.5054   -11.8797
  166.5000    95.0000     4.3697     4.3798     4.3494   -12.1805
  167.0000    95.2823     4.1888     4.2286     4.1407   -12.1805
  167.5000    99.4720     3.9875     3.9981     3.8873   -11.5789
  168.0000   101.8598     4.0138     3.7801     3.7267   -10.9774
  168.5000   102.7462     4.0971     3.5990     3.5727   -11.2782
  169.0000   101.8307     4.0387     3.4507     3.4490   -11.8797
  169.5000   100.9152     3.7630     3.3784     3.3723   -12.1895
  170.0000    97.5974     3.4491     3.3286     3.2821   -12.0301
  170.5000    96.0811     3.1156     3.2839     3.2355   -11.8797
  171.0000    96.6673     3.2703     3.3062     3.2119   -12.0311
  171.5000    95.7482     3.5544     3.2145     3.1663   -12.4812
  172.0000    93.3312     3.7308     3.1036     3.1214   -13.0827
  172.5000    89.4128     3.7326     2.9549     3.0557   -13.3835
  173.0000    87.5964     3.4758     2.8530     2.9706   -13.3835
  173.5000    87.8821     3.1890     2.7537     2.8879   -13.0827
  174.0000    89.9697     2.9791     2.6353     2.8032   -12.7820
  174.5000    98.0891     2.9991     2.4968     2.5989   -12.1805
  175.0000   100.8008     2.9767     2.3939     2.4061   -11.8797
  175.5000   101.6377     2.9343     2.2952     2.2590   -11.5789
  176.0000    99.8177     2.8325     2.2315     2.3711   -11.5789
  176.5000    98.9022     2.6963     2.3758     2.4716   -11.5789
  177.0000    98.8876     2.7477     2.5294     2.6126   -11.7293
  177.5000    99.4773     3.1409     2.6784     2.8004   -12.1805
  178.0000   100.0601     3.5598     2.9687     3.0018   -12.6316
  178.5000   100.3455     3.9787     3.2275     3.2402   -12.7820
  179.0000    99.3834     3.9220     3.4362     3.4490   -13.0827
  179.5000    97.0094     3.8392     3.6329     3.5459   -12.7820
  180.0000    92.7906     3.8376     3.7612     3.5940   -12.6316
  180.5000    90.6739     3.8093     3.8400     3.5675   -12.1805
  181.0000    91.2600     3.8341     3.8392     3.5169   -12.0190
  181.5000    93.6478     3.8326     3.7261     3.4429   -11.7028
  182.0000    95.1348     3.7517     3.4801     3.3006   -11.8797
  182.5000    97.2322     3.5465     3.2674     3.1203   -12.1805
