~VERSION INFORMATION
 VERS.                2.0:   CWLS LOG ASCII STANDARD - VERSION 2.0
 WRAP.                 NO:   ONE LINE PER DEPTH STEP
~WELL INFORMATION
#MNEM.UNIT      DATA TYPE    INFORMATION
#----------   ------------   ------------------------------
 STRT.F            0.0000:   START DEPTH
 STOP.F          528.0000:   STOP DEPTH
 STEP.F            0.5000:   STEP LENGTH
 NULL.          -999.2500:   NO VALUE
 COMP.   FLUOR DANIEL INC:   COMPANY
 WELL. NAVAL PETROLEUM RESERVE 3 SX-3 53 #2-3:   WELL
 FLD .             TEAPOT:   FIELD
 LOC .       S3 T38N R78W:   LOCATION
 CNTY.            NATRONA:   COUNTY
 STAT.            WYOMING:   STATE
 CTRY. UNITED STATES OF AMERICA:   COUNTRY
 SRVC.      Western Atlas:   SERVICE COMPANY
 DATE.        06-JUL-1995:   LOGDATE
 API .       490252273900:   API NUMBER
~CURVE INFORMATION
#MNEM.UNIT       API CODE    CURVE DESCRIPTION
#----------   ------------   ------------------------------
 DEPT.F                  :   
 GRR .GAPI   07 310 01 00:   GAMMA RAY FROM RES. LOG.
 RILD.OHMM   07 120 46 00:   INDUCTION LOG DEEP RESISTIVITY
 RILM.OHMM   07 120 44 00:   INDUCTION LOG MEDIUM
~PARAMETER INFORMATION
#MNEM.UNIT          VALUE    DESCRIPTION
#----------   ------------   ------------------------------
 PD  .                 GL:   PERMANENT DATUM
 EPD .F              5146:   ELEVATION PERMANENT DATUM
 LMF .                 KB:   LOG MEASURED FROM
 DAPD.F                10:   FEET ABOVE PERMANENT DATUM
 DMF .                 KB:   DRILLING MEASURED FROM
 EKB .F              5156:   KELLING BUSHING
 EDF .F              5155:   DRILLING FLOOR
 EGL .F              5146:   GROUND LEVEL
 DATE.             7-6-95:   RUN DATE
 RUN .                  1:   RUN NUMBER
 DD  .F               535:   DEPTH DRILLER
 DL  .F               536:   DEPTH LOGGER
 BLI .F               528:   BOTTOM LOG INTERVAL
 TLI .F                53:   TOP LOG INTERVAL
 CS  .IN            9.625:   CASING SIZE
 CBD .F                52:   CASING BOTTOM DRILLER
 CBL .F                53:   CASING BOTTOM LOGGER
 BS  .IN             8.75:   BIT SIZE
 BSD .F               535:   BIT SIZE AT DEPTH
 DFT .                AIR:   DRILLING FLUID TYPE
 BHT .F               102:   BOTTOM HOLE TEMPERATURE
 MRT .F               102:   MAXIMUM RECORDED TEMPERATURE
 LUN .            HL 6530:   LOGGING UNIT NUMBER
 LUL .             CASPER:   LOGGING UNIT LOCATION
 ENGI.             RAUTIO:   RECORDING ENGINEER
 WITN.             STRONG:   WITNESSED BY
 CLNT.            A2DTECH:   CLIENT CODE
 ORIG. 2", 2.5", 5" PRINT:   ORIGIN OF DATA
 UWI .       490252273900:   UNIQUE WELL ID
 DICO. A2D Technologies, Inc.:   DIGITIZING COMPANY
~OTHER INFORMATION
~A    DEPT      GRR      RILD       RILM   
# ...
  273.0000   152.4292     6.3060     6.4615
  273.5000   151.0383     6.1711     6.4426
  274.0000   151.8285     6.0038     6.2029
  274.5000   152.5608     5.8406     5.9117
  275.0000   152.1490     5.6837     5.6342
  275.5000   149.5965     5.5769     5.3548
  276.0000   145.0530     5.5211     5.3548
  276.5000   141.0280     5.4547     5.4972
  277.0000   140.4902     5.5367     5.6833
  277.5000   140.2005     5.6374     5.8736
  278.0000   140.7167     5.7400     6.1697
  278.5000   141.1907     6.0246     6.4530
  279.0000   141.6696     6.5178     6.7475
  279.5000   141.6735     6.8822     6.8946
  280.0000   140.3963     7.1779     7.0414
  280.5000   139.6510     7.2656     7.2006
  281.0000   143.7308     7.0733     7.1213
  281.5000   146.2357     6.7413     7.0193
  282.0000   141.9866     6.4248     6.5571
  282.5000   139.0113     6.1230     6.0570
  283.0000   139.9856     5.8347     5.5950
  283.5000   143.8334     5.5572     5.1603
  284.0000   148.3024     5.4699     5.2044
  284.5000   149.7291     5.3829     5.2025
  285.0000   146.6803     5.3548     5.5805
  285.5000   140.8408     5.5472     5.9101
  286.0000   140.3076     5.7683     6.2564
  286.5000   141.7433     5.9981     6.6230
  287.0000   142.3005     6.3713     7.0111
  287.5000   141.6396     6.7979     7.4220
  288.0000   139.3355     7.2530     7.8569
  288.5000   133.9551     7.7387     8.1033
  289.0000   132.8430     8.0696     8.2851
  289.5000   134.7280     8.1346     8.4242
  290.0000   135.0746     8.2000     8.4242
  290.5000   130.5549     8.2698     8.4243
  291.0000   128.8280     8.3370     8.4242
  291.5000   131.7961     8.4089     8.4242
  292.0000   135.5885     8.4815     8.4242
  292.5000   136.4419     8.5548     8.4242
  293.0000   135.1953     8.6281     8.4242
  293.5000   133.1161     8.6612     8.4242
  294.0000   130.9099     8.6434     8.4242
  294.5000   131.0954     8.6304     8.4242
  295.0000   131.1449     8.6175     8.4242
  295.5000   130.9183     8.6045     8.4237
  296.0000   131.3178     8.5914     8.4233
  296.5000   134.9144     8.5814     8.5362
  297.0000   138.6701     8.7364     8.6519
  297.5000   141.3679     8.9275     8.7691
  298.0000   139.4986     9.1228     8.8880
  298.5000   133.6174     9.3262     8.9875
  299.0000   127.7739     8.6846     8.9875
  299.5000   125.5354     7.9339     8.1371
  300.0000   124.3764     7.2481     7.2154
  300.5000   127.5465     6.6216     6.3981
  301.0000   133.1680     6.0388     5.6603
  301.5000   139.4793     6.0388     5.4636
  302.0000   145.8094     6.0388     5.3548
  302.5000   149.3277     6.0388     5.7129
  303.0000   145.6167     6.2627     6.4228
  303.5000   136.4597     6.6213     7.1471
  304.0000   127.3689     7.1967     7.9531
  304.5000   125.4804     7.9000     8.7562
  305.0000   124.7987     8.6729     9.5017
  305.5000   124.9287     9.3004     9.8343
  306.0000   125.0242     9.7585    10.3250
  306.5000   125.1286    10.1753    10.3049
  307.0000   125.5358    10.3653    10.2801
  307.5000   126.9917    10.5588    10.2577
  308.0000   128.3977    10.8294    10.2298
  308.5000   129.5301    11.2541    10.7148
  309.0000   129.5719    11.6955    11.6427
  309.5000   125.3972    12.6481    12.8210
  310.0000   114.7209    13.9955    14.3582
  310.5000   103.4834    15.4865    16.0797
  311.0000    92.2798    17.1698    18.0075
  311.5000    81.0455    19.0919    20.1665
  312.0000    69.8268    21.2734    22.5844
  312.5000    59.9017    23.7042    24.2973
  313.0000    60.2640    26.1787    25.0315
  313.5000    67.0026    27.2999    25.7893
  314.0000    72.9952    28.4791    26.5654
  314.5000    77.6923    29.6314    27.3028
  315.0000    78.5431    30.0624    27.9648
  315.5000    78.7192    30.4783    28.9302
  316.0000    78.7332    30.7452    29.7770
  316.5000    76.1820    31.0308    30.4769
  317.0000    73.6138    30.2916    29.4362
  317.5000    71.5274    29.7759    28.3035
  318.0000    73.0694    28.8781    27.2104
  318.5000    79.0059    27.8553    26.1602
  319.0000    82.7225    26.8672    25.4328
  319.5000    82.3178    25.9142    24.8684
  320.0000    81.6971    25.0803    24.3166
  320.5000    81.0561    25.5573    23.9521
  321.0000    81.7680    25.5419    26.2737
  321.5000    83.1859    27.3435    28.5058
  322.0000    83.0059    28.9677    30.9274
  322.5000    80.6528    30.6884    34.3534
  323.0000    78.1681    32.1836    34.0608
  323.5000    76.7521    33.0549    33.6538
  324.0000    78.0575    33.7031    33.2516
  324.5000    81.8376    34.6679    32.8543
  325.0000    85.6723    34.0614    31.9543
  325.5000    89.3057    33.1488    31.0029
  326.0000    89.1864    32.2694    30.0799
  326.5000    87.3187    31.4138    29.1843
  327.0000    85.0280    30.5809    28.3154
  327.5000    83.3500    29.7701    27.4723
  328.0000    83.5299    29.0656    26.7631
  328.5000    85.0803    28.9162    26.9095
  329.0000    87.1751    28.7677    27.0392
  329.5000    86.7978    28.6198    27.1695
  330.0000    84.4983    28.4727    27.2627
  330.5000    83.8430    28.3264    26.7915
  331.0000    84.5851    27.8033    26.3647
  331.5000    85.3244    26.9515    25.9384
  332.0000    86.0555    26.1259    25.0748
  332.5000    86.4876    25.4143    23.9862
  333.0000    86.4893    24.9364    23.0823
  333.5000    87.0769    24.4676    22.8631
  334.0000    92.8258    24.0075    22.6329
  334.5000    99.6577    23.5561    22.4049
  335.0000   101.5065    23.1132    22.2441
  335.5000    98.2004    22.6786    22.0379
  336.0000    94.2968    22.2441    21.8120
  336.5000    92.1563    22.4392    21.6355
  337.0000    94.1980    22.6399    21.9570
  337.5000    94.0082    22.8424    22.1037
  338.0000    90.6137    23.0467    22.2514
  338.5000    89.2599    23.2529    22.4000
  339.0000    88.2851    23.4487    22.5497
  339.5000    87.7333    23.6427    22.7003
  340.0000    89.7346    23.8384    22.8519
  340.5000    92.6672    24.0358    23.0046
  341.0000    92.7479    24.2347    23.1583
  341.5000    91.8821    24.4358    23.3130
  342.0000    93.8031    24.6259    23.4687
  342.5000    95.3589    24.6265    23.6255
  343.0000    93.9053    24.6259    23.7316
  343.5000    91.7923    24.6252    23.6629
  344.0000    92.3779    24.5430    23.6112
  344.5000    94.6882    24.4589    23.5597
  345.0000    94.8835    24.3750    23.5132
  345.5000    93.3817    24.2915    23.2274
  346.0000    92.2934    24.2082    22.9697
  346.5000    93.6322    24.0133    22.7149
  347.0000    94.9392    23.7452    22.4629
  347.5000    94.9436    23.4802    22.2137
  348.0000    93.1586    23.2180    21.9673
  348.5000    91.6564    22.9588    21.7236
  349.0000    92.6429    22.7024    21.4826
  349.5000    96.2003    22.4490    21.2443
  350.0000    97.7736    22.1983    21.0086
  350.5000    96.9763    21.9505    20.7754
  351.0000    96.8725    21.7054    20.5451
  351.5000    97.7261    21.4631    20.3172
  352.0000    98.6573    21.2390    20.2064
  352.5000    95.8430    21.2582    20.0448
  353.0000    92.5659    21.2761    19.9077
  353.5000    93.0256    21.2941    19.9930
  354.0000    94.8047    21.3121    20.0828
  354.5000    96.7022    21.3301    20.1730
  355.0000    96.1580    21.3482    20.2637
  355.5000    92.7681    21.3662    20.3547
  356.0000    90.5223    21.3843    20.4461
  356.5000    91.3587    21.4028    20.5380
  357.0000    92.4770    21.4205    20.6302
  357.5000    93.2278    21.4363    20.6579
  358.0000    94.0735    21.2370    20.6579
  358.5000    96.2533    21.0613    20.2416
  359.0000    97.6170    20.8871    19.8636
  359.5000    97.2381    20.7143    19.4926
  360.0000    97.3092    20.5429    19.1286
  360.5000    98.3947    20.3730    18.8333
  361.0000    99.2743    20.2045    18.7697
  361.5000    96.5570    20.0373    18.7052
  362.0000    94.4251    19.8717    18.6599
  362.5000    94.4919    19.7078    18.8956
  363.0000    95.3896    19.5428    19.0082
  363.5000    95.4101    19.2345    18.5793
