~VERSION INFORMATION
 VERS.                2.0:   CWLS LOG ASCII STANDARD - VERSION 2.0
 WRAP.                 NO:   ONE LINE PER DEPTH STEP
~WELL INFORMATION
#MNEM.UNIT      DATA TYPE    INFORMATION
#----------   ------------   ------------------------------
 STRT.F            0.0000:   START DEPTH
 STOP.F          416.0000:   STOP DEPTH
 STEP.F            0.5000:   STEP LENGTH
 NULL.          -999.2500:   NO VALUE
 COMP. DEPARTMENT OF ENERGY:   COMPANY
 WELL. NPR 3 #55-61 SX 3 C1:   WELL
 FLD . TEAPOT NAVAL RESERVE:   FIELD
 LOC .       S3 T38N R78W:   LOCATION
 CNTY.            NATRONA:   COUNTY
 STAT.            WYOMING:   STATE
 CTRY. UNITED STATES OF AMERICA:   COUNTRY
 SRVC.      Dresser Atlas:   SERVICE COMPANY
 DATE.        26-JUN-1985:   LOGDATE
 API .       490251134400:   API NUMBER
~CURVE INFORMATION
#MNEM.UNIT       API CODE    CURVE DESCRIPTION
#----------   ------------   ------------------------------
 DEPT.F                  :   
 RILD.OHMM   07 120 46 00:   INDUCTION LOG DEEP RESISTIVITY
 RILM.OHMM   07 120 44 00:   INDUCTION LOG MEDIUM RESISTIVITY
 GRD .GAPI   45 310 01 00:   GAMMA RAY FROM DENSITY LOG
 NPHI.DEC    42 890 03 00:   NEUTRON POROSITY SANDSTONE
~PARAMETER INFORMATION
#MNEM.UNIT          VALUE    DESCRIPTION
#----------   ------------   ------------------------------
 PD  .                 GL:   PERMANENT DATUM
 EPD .F            5160.8:   ELEVATION PERMANENT DATUM
 LMF .                 GL:   LOG MEASURED FROM
 DMF .                 GL:   DRILLING MEASURED FROM
 EGL .F            5160.8:   GROUND LEVEL
 DATE.        26-JUN-1985:   RUN DATE
 RUN .                  1:   RUN NUMBER
 DD  .F               420:   DEPTH DRILLER
 DL  .F               420:   DEPTH LOGGER
 BLI .F               416:   BOTTOM LOG INTERVAL
 CS  .IN            8.625:   CASING SIZE
 CBD .F                79:   CASING BOTTOM DRILLER
 CBL .F                79:   CASING BOTTOM LOGGER
 BS  .IN            4.875:   BIT SIZE
 BSD .F               420:   BIT SIZE AT DEPTH
 DFT .           FOAM AIR:   DRILLING FLUID TYPE
 TCS .HRS               2:   TIME CURCULATED STOPPED
 MRT .F                60:   MAXIMUM RECORDED TEMPERATURE
 LUN .            HL 6274:   LOGGING UNIT NUMBER
 LUL .           GILLETTE:   LOGGING UNIT LOCATION
 ENGI.             RAUTIO:   RECORDING ENGINEER
 WITN.             TAYLOR:   WITNESSED BY
 CLNT.            A2DTECH:   CLIENT CODE
 ORIG.           5" PRINT:   ORIGIN OF DATA
 UWI .       490251134400:   UNIQUE WELL ID
 DICO. A2D Technologies, Inc.:   DIGITIZING COMPANY
~OTHER INFORMATION
~A    DEPT    RILD       RILM         GRD      NPHI   
# ...
  365.0000    11.4338    11.5138   107.9175     0.1272
  365.5000    12.3460    12.5194   107.3221     0.1268
  366.0000    13.2384    13.5182   111.5666     0.1259
  366.5000    14.4954    14.3947   112.7839     0.1238
  367.0000    15.7614    15.3279   106.7565     0.1235
  367.5000    16.5509    16.5508   101.0281     0.1240
  368.0000    17.3799    17.6389    96.2061     0.1116
  368.5000    18.9168    19.2976    95.9154     0.1052
  369.0000    20.0363    20.6924    97.4383     0.1076
  369.5000    20.7684    20.9844    97.1481     0.1088
  370.0000    21.1921    20.9858    94.7029     0.1082
  370.5000    21.4925    21.2820    92.5539     0.1058
  371.0000    21.6458    21.5823    89.9358     0.1089
  371.5000    21.8002    21.8868    87.5308     0.1131
  372.0000    21.8032    21.8883    85.7299     0.1163
  372.5000    21.5041    21.4370    85.7418     0.1160
  373.0000    21.1936    20.9947    86.3579     0.1145
  373.5000    20.6293    20.4186    85.7655     0.1099
  374.0000    20.3457    19.8584    83.6626     0.1029
  374.5000    19.7895    19.4486    84.2787     0.1080
  375.0000    19.3825    19.0473    88.8222     0.1141
  375.5000    18.9838    18.7666    91.2510     0.1174
  376.0000    18.7234    18.2697    94.2840     0.1186
  376.5000    18.4667    18.0176    96.1088     0.1158
  377.0000    18.2134    17.7693    96.1208     0.1164
  377.5000    17.7154    17.4030    95.5281     0.1213
  378.0000    17.4725    17.0438    94.9357     0.1262
  378.5000    17.1131    16.6922    94.9505     0.1285
  379.0000    16.7606    16.4485    97.9835     0.1282
  379.5000    16.3023    16.1228    98.8988     0.1266
  380.0000    16.0788    16.1239    96.7988     0.1248
  380.5000    15.9692    16.1249    96.2034     0.1233
  381.0000    16.0836    16.1260    97.7288     0.1208
  381.5000    16.3117    16.2399    99.5534     0.1178
  382.0000    16.5430    16.3547    98.0547     0.1162
  382.5000    16.7775    16.5971    96.8580     0.1168
  383.0000    17.0154    17.0559    98.7190     0.1180
  383.5000    17.2567    17.2966   101.1945     0.1186
  384.0000    17.2596    17.4185   102.0296     0.1192
  384.5000    17.2619    17.2987   100.2317     0.1085
  385.0000    17.0246    17.0603    95.7119     0.0872
  385.5000    16.7911    16.9431    90.2856     0.0643
  386.0000    16.7939    17.0629    86.0679     0.0631
  386.5000    16.7962    17.0643    83.9620     0.0825
  387.0000    16.7985    16.8291    89.1127     0.1006
  387.5000    16.5299    16.5969    93.9585     0.1106
  388.0000    16.0031    16.1418    95.7830     0.1151
  388.5000    15.6734    15.9191    95.1903     0.1160
  389.0000    15.3516    15.6999    95.2025     0.1151
  389.5000    15.2465    15.5919    97.6657     0.1139
  390.0000    15.3557    15.5932   101.0070     0.1144
  390.5000    15.4653    15.5943   100.0749     0.1178
  391.0000    15.4833    15.5953    98.5761     0.1223
  391.5000    15.6872    15.7055    97.6816     0.1265
  392.0000    15.6893    16.0385    97.6935     0.1281
  392.5000    15.5824    16.0508    98.0075     0.1274
  393.0000    15.4757    15.7043    98.3214     0.1207
  393.5000    15.3874    15.2777    97.7261     0.1031
  394.0000    15.0546    14.9627    95.9282     0.0783
  394.5000    14.8351    14.6539    94.3756     0.0540
  395.0000    14.4422    14.4517    96.8583     0.0582
  395.5000    14.2436    14.2526    98.9850     0.0797
  396.0000    13.9511    14.0564   101.4139     0.1121
  396.5000    13.7593    13.8627   101.4652     0.1296
  397.0000    13.5711    13.7520   104.4616     0.1439
  397.5000    13.4786    13.5778   108.7030     0.1765
  398.0000    13.4805    13.4841   110.5246     0.2049
  398.5000    13.3886    13.2983   106.0077     0.2491
  399.0000    13.2973    13.2068   100.2794     0.2537
  399.5000    13.2996    13.1161    96.6659     0.2537
  400.0000    13.3014    13.2088    99.0946     0.2525
  400.5000    13.2103    13.1052   100.9192     0.2512
  401.0000    13.0295    12.7582    99.4205     0.2503
  401.5000    12.7616    12.5822    98.5257     0.2506
  402.0000    12.4127    12.4088    99.1421     0.2521
  402.5000    12.0729    12.4098   100.6798     0.2551
  403.0000    11.9069    12.4106    98.4472     0.2578
  403.5000    11.5814    12.2396    92.8362     0.2602
  404.0000    11.5829    11.9771    89.6556     0.2617
  404.5000    11.9121    11.8219  -999.2500     0.2632
  405.0000    11.9971    11.7405  -999.2500     0.2638
  405.5000    11.8330    11.6599  -999.2500     0.2644
  406.0000    11.7519    11.5795  -999.2500     0.2656
  406.5000    11.6718    11.6615  -999.2500     0.2659
  407.0000    11.5923    11.5812  -999.2500     0.2661
  407.5000    11.7571    11.6631  -999.2500     0.2667
  408.0000    11.7587    11.5828  -999.2500     0.2670
  408.5000    11.5974    11.6648  -999.2500     0.2667
  409.0000    11.5187    11.7472  -999.2500     0.2667
  409.5000    11.4399    11.9130  -999.2500     0.2663
  410.0000    11.4418    11.9138  -999.2500     0.2663
  410.5000    11.4433    11.9146  -999.2500     0.2663
  411.0000    11.4449    11.9154  -999.2500     0.2663
  411.5000    11.6072    11.9998  -999.2500     0.2666
  412.0000    11.7717    12.1996  -999.2500     0.2666
  412.5000  -999.2500  -999.2500  -999.2500     0.2671
  413.0000  -999.2500  -999.2500  -999.2500     0.2671
  413.5000  -999.2500  -999.2500  -999.2500     0.2671
  414.0000  -999.2500  -999.2500  -999.2500     0.2671
  414.5000  -999.2500  -999.2500  -999.2500     0.2671
  415.0000  -999.2500  -999.2500  -999.2500     0.2671
  415.5000  -999.2500  -999.2500  -999.2500     0.2670
  416.0000  -999.2500  -999.2500  -999.2500     0.2670
