~VERSION INFORMATION
 VERS.                2.0:   CWLS LOG ASCII STANDARD - VERSION 2.0
 WRAP.                 NO:   ONE LINE PER DEPTH STEP
~WELL INFORMATION
#MNEM.UNIT      DATA TYPE    INFORMATION
#----------   ------------   ------------------------------
 STRT.F           42.0000:   START DEPTH
 STOP.F          866.0000:   STOP DEPTH
 STEP.F            0.5000:   STEP LENGTH
 NULL.          -999.2500:   NO VALUE
 COMP. FENIX & SCISSON INC:   COMPANY
 WELL.      NPR-SX #47-11:   WELL
 FLD .             TEAPOT:   FIELD
 LOC .      S11 T38N R78W:   LOCATION
 CNTY.            NATRONA:   COUNTY
 STAT.            WYOMING:   STATE
 CTRY. UNITED STATES OF AMERICA:   COUNTRY
 SRVC.            Unknown:   SERVICE COMPANY
 DATE.        25-FEB-1978:   LOGDATE
 API .       490251058700:   API NUMBER
~CURVE INFORMATION
#MNEM.UNIT       API CODE    CURVE DESCRIPTION
#----------   ------------   ------------------------------
 DEPT.F                  :   
 SPR .MV     07 010 01 00:   SPONTANEOUS POTENTIAL
 SN  .OHMM   07 040 16 00:   SHORT NORMAL 16'
 ILD .OHMM   07 120 46 00:   INDUCTION LOG DEEP
 CORR.G/C3   45 356 01 00:   DENSITY CORRECTION
 RHOB.G/C3   45 350 01 00:   BULK DENSITY
 DPHI.DEC    45 890 12 00:   DENSITY POROSITY SANDSTONE
 CALD.IN     45 280 60 00:   CALIPER FROM DENSITY LOG
 GRD .GAPI   45 310 01 00:   GAMMA RAY FROM DENSITY LOG
~PARAMETER INFORMATION
#MNEM.UNIT          VALUE    DESCRIPTION
#----------   ------------   ------------------------------
 PD  .                 GL:   PERMANENT DATUM
 EPD .F              5202:   ELEVATION PERMANENT DATUM
 LMF .                 KB:   LOG MEASURED FROM
 DAPD.F                 4:   FEET ABOVE PERMANENT DATUM
 DMF .                 KB:   DRILLING MEASURED FROM
 EKB .F              5206:   KELLING BUSHING
 EGL .F              5202:   GROUND LEVEL
 DATE.            2-25-78:   RUN DATE
 RUN .                  1:   RUN NUMBER
 DD  .F               870:   DEPTH DRILLER
 DL  .F               870:   DEPTH LOGGER
 BLI .F               865:   BOTTOM LOG INTERVAL
 TLI .F                47:   TOP LOG INTERVAL
 CS  .IN            8.625:   CASING SIZE
 CBD .F                40:   CASING BOTTOM DRILLER
 CBL .F                47:   CASING BOTTOM LOGGER
 BS  .IN            7.875:   BIT SIZE
 BSD .F               870:   BIT SIZE AT DEPTH
 DFT .                KCL:   DRILLING FLUID TYPE
 DFD .                8.7:   DRILLING FLUID DENSITY
 DFV .                 35:   DRILLING FLUID VISCOSITY
 DFL .                4.8:   DRILLING FLUID LOSS
 MSS .         CIRCULATED:   MUD SAMPLE SOURCE
 RMS .OHMM            1.5:   RESISTIVITY MUD SAMPLE
 MST .F                70:   MUD SAMPLE TEMPERATURE
 RMF .OHMM            .75:   RESISTIVITY MUD FILTRATE SAMPLE
 MFST.F                74:   MUD FILTRATE SAMPLE TEMPERATURE
 RMC .OHMM            1.8:   RESISTIVITY MUD CAKE
 MCST.F                68:   MUD CAKE SAMPLE TEMPERATURE
 MFSS.              PRESS:   MUD FILTRATE SAMPLE SOURCE
 RMB .OHMM            1.5:   RESISTIVITY MUD AT BHT
 BHT .F                70:   BOTTOM HOLE TEMPERATURE
 TCS .HRS               2:   TIME CURCULATED STOPPED
 MRT .F                70:   MAXIMUM RECORDED TEMPERATURE
 LUN .               2958:   LOGGING UNIT NUMBER
 LUL .               CASP:   LOGGING UNIT LOCATION
 CLNT.            A2DTECH:   CLIENT CODE
 ORIG.        2" 5" PRINT:   ORIGIN OF DATA
 UWI .       490251058700:   UNIQUE WELL ID
 DICO. A2D Technologies, Inc.:   DIGITIZING COMPANY
~OTHER INFORMATION
~A   DEPT      SPR         SN        ILD       CORR       RHOB       DPHI         CALD      GRD   
# ...
  163.5000   -19.8207     4.0860     3.9727     0.0054     2.3103     0.2228     8.5893    91.9651
  164.0000   -19.8207     3.8310     3.7297     0.0084     2.2890     0.2153     8.5893    91.2870
  164.5000   -19.8207     3.6035     3.5015     0.0154     2.2815     0.1960     8.5893    90.1576
  165.0000   -19.8207     3.4252     3.2706     0.0282     2.2970     0.1802     8.5893    90.3377
  165.5000   -19.8207     3.4750     3.2706     0.0273     2.3279     0.1722     8.5893    90.9497
  166.0000   -19.8207     3.5455     3.3250     0.0058     2.3590     0.1736     8.5893    90.4987
  166.5000   -19.8207     3.6174     3.3625     0.0016     2.3650     0.1731     8.5893    90.1217
  167.0000   -19.8207     3.6873     3.4868     0.0034     2.3644     0.1680     8.5893    89.2200
  167.5000   -19.8207     3.8296     3.6305     0.0056     2.3698     0.1625     8.5893    88.5545
  168.0000   -19.8207     3.9640     3.7801     0.0060     2.3767     0.1602     8.5893    89.5862
  168.5000   -19.8207     4.1030     3.9358     0.0046     2.3836     0.1576     8.5893    89.8672
  169.0000   -19.8207     4.2466     4.0978     0.0058     2.3895     0.1544     8.5893    90.4439
  169.5000   -19.8207     4.3955     4.2665     0.0061     2.3872     0.1512     8.5893    92.1774
  170.0000   -19.8207     4.4775     4.3955     0.0054     2.3811     0.1477     8.5893    93.0151
  170.5000   -19.8207     4.5190     4.4726     0.0047     2.3740     0.1477     8.5893    96.3765
  171.0000   -19.8207     4.5872     4.5465     0.0074     2.3889     0.1511     8.5893    94.3452
  171.5000   -19.8209     4.6937     4.6033     0.0107     2.3942     0.1568     8.5893    95.1845
  172.0000   -19.8208     4.7327     4.4730     0.0109     2.3988     0.1615     8.5893    94.9802
  172.5000   -19.7784     4.4890     4.3515     0.0109     2.3895     0.1648     8.5893    97.3522
  173.0000   -19.7290     4.3040     4.2333     0.0113     2.3836     0.1708     8.5893    97.1239
  173.5000   -19.6798     4.2361     4.1181     0.0079     2.3765     0.1761     8.5893    96.8900
  174.0000   -19.6310     4.1760     4.0074     0.0030     2.3683     0.1845     8.5893    98.4502
  174.5000   -19.7111     4.0347     3.8644    -0.0015     2.3532     0.1939     8.5893   100.6465
  175.0000   -19.9317     3.9535     3.7281     0.0000     2.3400     0.2121     8.5893    99.4050
  175.5000   -20.1543     3.8220     3.5966     0.0025     2.3202     0.2099     8.5893    99.6826
  176.0000   -20.3725     3.6948     3.4696     0.0081     2.2878     0.2036     8.5893    98.0845
  176.5000   -20.5774     3.5719     3.3838     0.0245     2.2992     0.1908     8.5893    93.3988
  177.0000   -20.3945     3.4891     3.3625     0.0267     2.3158     0.1842     8.5893    91.7237
  177.5000   -20.2269     3.4891     3.3248     0.0235     2.3326     0.1926     8.5893    89.9880
  178.0000   -20.0577     3.4080     3.2600     0.0181     2.3386     0.2022     8.5893    86.8969
  178.5000   -19.9658     3.3010     3.1965     0.0115     2.3262     0.2138     8.5893    85.3546
  179.0000   -19.7712     3.3010     3.1230     0.0057     2.3079     0.2206     8.5893    86.4101
  179.5000   -19.5898     3.3010     3.0841     0.0076     2.2808     0.2248     8.5896    87.5750
  180.0000   -19.4442     3.2781     3.0330     0.0095     2.2773     0.2296     8.5899    88.4251
  180.5000   -19.2216     3.1204     2.9167     0.0081     2.2663     0.2349     8.5902    88.1227
  181.0000   -19.2680     2.9702     2.7507     0.0065     2.2585     0.2440     8.5905    89.2284
  181.5000   -19.3239     2.8273     2.5948     0.0060     2.2477     0.2530     8.5908    90.1197
  182.0000   -19.3834     2.6913     2.4476     0.0072     2.2329     0.2462     8.5911    89.8375
  182.5000   -19.4434     2.5618     2.3238     0.0230     2.2223     0.2318     8.5914    92.8497
  183.0000   -19.5033     2.5020     2.3949     0.0276     2.2436     0.1953     8.5917    96.2587
  183.5000   -19.5632     2.5455     2.4756     0.0347     2.2700     0.1764     8.5920    96.6364
  184.0000   -19.6208     2.6347     2.5591     0.0147     2.3376     0.1670     8.5923    97.0984
  184.5000   -19.6436     2.7189     2.6203     0.0041     2.3563     0.1622     8.5926    97.3184
  185.0000   -19.6649     2.7189     2.6446     0.0134     2.3810     0.1633     8.5929    92.7524
  185.5000   -19.6863     2.9619     2.7327     0.0126     2.3825     0.1691     8.5932    87.2030
  186.0000   -19.7077     3.3605     3.0334     0.0082     2.3791     0.1758     8.5935    85.5911
  186.5000   -19.7291     3.7222     3.4024     0.0072     2.3616     0.1760     8.5938    89.1141
  187.0000   -19.7506     3.8084     3.6540     0.0087     2.3589     0.1758     8.5941    90.1368
  187.5000   -19.7719     3.8746     3.7567     0.0103     2.3597     0.1784     8.5944    90.8403
  188.0000   -19.7934     3.9343     3.6903     0.0119     2.3602     0.1848     8.5947    91.8632
  188.5000   -19.8166     3.8201     3.5898     0.0125     2.3482     0.1913     8.5950    98.8541
  189.0000   -19.7746     3.6540     3.5366     0.0117     2.3396     0.1982     8.5953   102.0635
  189.5000   -19.7122     3.6204     3.4411     0.0073     2.3352     0.2027     8.5956   103.2330
  190.0000   -19.6491     3.5871     3.3170     0.0098     2.3174     0.2100     8.5959   105.0702
  190.5000   -19.5861     3.3844     3.1974     0.0105     2.3039     0.2186     8.5962   103.2263
  191.0000   -19.5232     3.1737     3.0173     0.0089     2.2952     0.2336     8.5965   103.5862
  191.5000   -19.4603     2.9761     2.8094     0.0084     2.2811     0.2369     8.5968   102.0927
  192.0000   -19.3972     2.7908     2.6161     0.0149     2.2515     0.2403     8.5971    98.1472
  192.5000   -19.3341     2.6171     2.4336     0.0216     2.2454     0.2415     8.5974    96.0843
  193.0000   -19.2718     2.5486     2.4336     0.0295     2.2403     0.2316     8.5976    96.0919
  193.5000   -19.2260     2.5486     2.5058     0.0408     2.2498     0.1890     8.5979    95.5936
  194.0000   -19.2484     2.6935     2.5813     0.0565     2.2685     0.1857     8.5983    93.3356
  194.5000   -19.2690     2.8386     2.6592     0.0419     2.3377     0.1612     8.5985    91.6188
  195.0000   -19.2895     2.9546     2.7953     0.0077     2.3886     0.1549     8.5988    87.5660
  195.5000   -19.3100     3.1230     2.8800     0.0058     2.3954     0.1504     8.5991    85.5783
  196.0000   -19.3306     3.5898     3.1284     0.0046     2.4027     0.1526     8.5994    83.9281
  196.5000   -19.3510     4.1545     3.6831     0.0035     2.4046     0.1542     8.5997    83.2046
  197.0000   -19.3715     4.4163     4.1466     0.0038     2.3973     0.1512     8.6000    87.6805
  197.5000   -19.3931     4.5710     4.3551     0.0042     2.3904     0.1477     8.6003    83.5587
  198.0000   -19.4143     4.7316     4.4994     0.0045     2.4034     0.1467     8.6006    83.7041
  198.5000   -19.6014     4.8789     4.6215     0.0013     2.4048     0.1442     8.6009    82.6281
  199.0000   -19.9283     4.9922     4.7766    -0.0008     2.4134     0.1382     8.6012    81.2141
  199.5000   -20.2171     5.1084     4.8662    -0.0018     2.4144     0.1403     8.6015    87.7031
  200.0000   -20.2122     5.2267     4.9557    -0.0049     2.4277     0.1426     8.6018    90.7640
  200.5000   -20.1954     5.3779     5.1170    -0.0058     2.4237     0.1447     8.6021    89.2334
  201.0000   -20.1795     5.6713     5.2829    -0.0063     2.4184     0.1430     8.6024    88.4804
  201.5000   -20.1636     5.9621     5.4535    -0.0028     2.4155     0.1394     8.6027    83.9953
  202.0000   -20.1478     6.2229     5.6296     0.0023     2.4248     0.1372     8.6030    86.0669
  202.5000   -20.1319     6.4592     5.8112     0.0008     2.4259     0.1390     8.6033    86.7501
  203.0000   -20.1161     6.6611     5.9987     0.0005     2.4204     0.1424     8.6036    90.3135
  203.5000   -20.1002     6.6611     6.3019     0.0003     2.4195     0.1381     8.6039    87.8808
