~VERSION INFORMATION
 VERS.                2.0:   CWLS LOG ASCII STANDARD - VERSION 2.0
 WRAP.                 NO:   ONE LINE PER DEPTH STEP
~WELL INFORMATION
#MNEM.UNIT      DATA TYPE    INFORMATION
#----------   ------------   ------------------------------
 STRT.F           12.0000:   START DEPTH
 STOP.F          448.0000:   STOP DEPTH
 STEP.F            0.5000:   STEP LENGTH
 NULL.          -999.2500:   NO VALUE
 COMP. LAWRENCE/ALLISON INC:   COMPANY
 WELL. LI2 -52-61 SX10 #10-10:   WELL
 FLD .             TEAPOT:   FIELD
 LOC .      S10 T38N R78W:   LOCATION
 CNTY.            NATRONA:   COUNTY
 STAT.            WYOMING:   STATE
 CTRY. UNITED STATES OF AMERICA:   COUNTRY
 SRVC.      Dresser Atlas:   SERVICE COMPANY
 DATE.        13-JAN-1985:   LOGDATE
 API .       490251100400:   API NUMBER
~CURVE INFORMATION
#MNEM.UNIT       API CODE    CURVE DESCRIPTION
#----------   ------------   ------------------------------
 DEPT.F                  :   
 AC  .US/F   60 520 00 00:   ACCOUSTIC
 SPR .MV     11 010 01 00:   SPONTANEOUS POTENTIAL FROM RES.
 RD  .OHMM   11 220 10 00:   RESISTIVITY DEEP
 RS  .OHMM   11 220 09 00:   RESISTIVITY SHALLOW
 RMLL.OHMM   11 270 04 00:   MICRO LATEROLOG
 GRD .GAPI   45 310 01 00:   GAMMA RAY FROM DENSITY LOG
 CALD.IN     45 280 60 00:   CALIPER FROM DENSITY LOG
 CORR.G/C3   45 356 01 00:   DENSITY CORRECTION
 DEN .G/C3   45 350 01 00:   COMPENSATED BULK DENSTIY
 PORD.DEC    45 890 12 00:   POROSITY DENSITY SANDSTONE
 CNC .DEC    42 890 03 00:   NEUTRON POROSITY SANDSTONE
~PARAMETER INFORMATION
#MNEM.UNIT          VALUE    DESCRIPTION
#----------   ------------   ------------------------------
 PD  .                 GL:   PERMANENT DATUM
 EPD .F              5156:   ELEVATION PERMANENT DATUM
 LMF .                 GL:   LOG MEASURED FROM
 DMF .                 GL:   DRILLING MEASURED FROM
 EGL .F              5156:   GROUND LEVEL
 DATE.        13-JAN-1985:   RUN DATE
 RUN .                  1:   RUN NUMBER
 DD  .F               450:   DEPTH DRILLER
 DL  .F               450:   DEPTH LOGGER
 BLI .F               448:   BOTTOM LOG INTERVAL
 TLI .F                20:   TOP LOG INTERVAL
 CS  .IN            8.625:   CASING SIZE
 CBD .F                20:   CASING BOTTOM DRILLER
 CBL .F                20:   CASING BOTTOM LOGGER
 BS  .IN            7.875:   BIT SIZE
 BSD .F               450:   BIT SIZE AT DEPTH
 DFT .            KCL-H2O:   DRILLING FLUID TYPE
 MSS .               TANK:   MUD SAMPLE SOURCE
 RMS .OHMM           0.16:   RESISTIVITY MUD SAMPLE
 MST .F                20:   MUD SAMPLE TEMPERATURE
 RMF .OHMM           0.12:   RESISTIVITY MUD FILTRATE SAMPLE
 MFST.F                20:   MUD FILTRATE SAMPLE TEMPERATURE
 RMC .OHMM            0.2:   RESISTIVITY MUD CAKE
 MCST.F                20:   MUD CAKE SAMPLE TEMPERATURE
 MFSS.               CALC:   MUD FILTRATE SAMPLE SOURCE
 MCSS.               CALC:   MUD CAKE SAMPLE SOURCE
 BHT .F               100:   BOTTOM HOLE TEMPERATURE
 TCS .HRS               2:   TIME CURCULATED STOPPED
 MRT .F               100:   MAXIMUM RECORDED TEMPERATURE
 LUN .               6270:   LOGGING UNIT NUMBER
 LUL .                 FM:   LOGGING UNIT LOCATION
 ENGI.          E. GOVETT:   RECORDING ENGINEER
 WITN.             GROOMS:   WITNESSED BY
 CLNT.            A2DTECH:   CLIENT CODE
 ORIG.        2" 5" PRINT:   ORIGIN OF DATA
 UWI .       490251100400:   UNIQUE WELL ID
 DICO. A2D Technologies, Inc.:   DIGITIZING COMPANY
 R1  . POROSITY WITH SANDSTONE:   REMARKS 1
~OTHER INFORMATION
~A   DEPT       AC        SPR         RD         RS       RMLL         GRD      CALD       CORR        DEN       PORD        CNC   
# ...
  347.5000    94.5983   -27.3657    23.3564    22.4118    13.5751    83.1958     7.9751     0.0275     2.3691     0.1868     0.2814
  348.0000    93.1752   -27.5250    23.8370    23.0100    14.3463    85.1417     7.9591     0.0199     2.3642     0.1884     0.2594
  348.5000    90.0242   -27.6842    24.3300    23.8181    17.2213    87.0893     7.9127     0.0231     2.3679     0.1847     0.2463
  349.0000    84.8446   -27.8434    24.8332    24.3139    19.4674    87.2343     7.8666     0.0394     2.3777     0.1760     0.2361
  349.5000    80.8671   -28.1536    25.1736    24.8200    21.9762    84.3681     7.7904     0.0454     2.3958     0.1657     0.2280
  350.0000    79.2938   -28.3446    25.1610    24.8134    22.8269    79.5489     7.8355     0.0397     2.4086     0.1623     0.2256
  350.5000    79.7032   -28.7475    23.7870    23.7443    18.3875    79.2415     7.9339     0.0327     2.4070     0.1614     0.2258
  351.0000    82.7373   -29.0793    22.9610    22.3321    15.8809    81.4882     7.9535     0.0301     2.3911     0.1652     0.2486
  351.5000    87.7956   -29.3862    21.8589    20.9670    14.6022    83.5863     7.9526     0.0390     2.3820     0.1772     0.2526
  352.0000    92.4575   -29.5426    21.1019    20.2407    13.5202    84.4813     7.9519     0.0450     2.3797     0.1794     0.2505
  352.5000    94.5649   -29.6990    20.6564    19.8112    12.9615    81.6152     7.9510     0.0465     2.3865     0.1773     0.2360
  353.0000    95.6955   -29.8584    20.2203    19.5284    13.0531    81.1569     7.9503     0.0358     2.3955     0.1734     0.2287
  353.5000    95.9997   -30.0132    19.7935    19.1162    13.5940    81.6009     7.9496     0.0251     2.3970     0.1710     0.2275
  354.0000    95.4775   -30.3202    19.5108    18.8433    13.5876    84.6012     7.9488     0.0221     2.3901     0.1709     0.2285
  354.5000    94.7299   -30.6272    19.3643    18.5743    13.5813    86.6993     7.9481     0.0280     2.3878     0.1744     0.2300
  355.0000    94.2077   -31.0848    19.0879    18.1820    13.5750    86.0888     7.9474     0.0233     2.3886     0.1741     0.2358
  355.5000    93.7606   -31.3918    19.0790    17.7963    13.6634    85.9330     7.9465     0.0128     2.3915     0.1726     0.2443
  356.0000    93.3886   -31.8494    18.9379    17.5422    13.6569    87.2774     7.9458     0.0202     2.3922     0.1717     0.2488
  356.5000    93.0167   -32.3084    18.7978    17.4125    13.6490    88.6236     7.9603     0.0383     2.3914     0.1708     0.2450
  357.0000    92.6447   -32.6154    18.6586    17.2837    13.6426    86.9623     7.9594     0.0458     2.3914     0.1709     0.2313
  357.5000    92.1976   -33.0729    18.6479    17.3962    13.6363    86.3536     7.9586     0.0336     2.3921     0.1709     0.2226
  358.0000    91.6654   -33.5305    18.6392    17.8984    13.6299    88.1492     7.9578     0.0273     2.3950     0.1706     0.2208
  358.5000    91.2084   -33.8375    18.5014    18.2473    13.6235    88.4445     7.9570     0.0214     2.4003     0.1685     0.2347
  359.0000    90.8563   -34.1446    18.3645    18.1102    13.4288    87.0822     7.9563     0.0168     2.3995     0.1664     0.2423
  359.5000    90.7849   -34.4529    18.2287    17.7279    13.0529    86.7564     7.9556     0.0137     2.3934     0.1682     0.2497
  360.0000    90.8646   -34.7599    18.0936    16.6443    12.8666    86.6867     7.9699     0.0134     2.3926     0.1704     0.2538
  360.5000    90.8683   -34.9163    17.9580    16.4017    12.9503    85.4797     7.9692     0.0257     2.3976     0.1698     0.2532
  361.0000    90.8720   -34.9221    17.8252    16.0584    13.2173    83.2188     7.9833     0.0195     2.4076     0.1646     0.2469
  361.5000    90.7997   -34.9278    17.8169    15.9397    13.7742    82.6146     7.9826     0.0073     2.4106     0.1626     0.2448
  362.0000    90.8043   -35.0964    17.6851    15.9323    13.7674    83.3658     7.9819     0.0058     2.4121     0.1608     0.2436
  362.5000    90.6577   -35.3927    17.6768    16.0379    13.5696    84.4183     7.9812     0.0132     2.4135     0.1593     0.2361
  363.0000    90.5111   -35.5490    17.7919    16.1404    13.4692    85.1995     7.9502     0.0237     2.4150     0.1578     0.2378
  363.5000    90.2143   -35.7054    17.7816    16.1329    13.7469    86.5227     7.9194     0.0391     2.4172     0.1572     0.2491
  364.0000    90.0676   -36.0124    17.8994    16.3513    14.0302    88.0269     7.9036     0.0492     2.4172     0.1566     0.2401
  364.5000    90.0714   -36.1688    18.0160    16.4577    13.8273    88.0251     7.8879     0.0537     2.4148     0.1576     0.2371
  365.0000    90.2254   -36.3403    18.0054    16.4482    13.3494    88.0233     7.8721     0.0430     2.4103     0.1612     0.2410
  365.5000    90.2291   -36.7842    17.8673    16.2133    13.2506    90.1502     7.8714     0.0309     2.4087     0.1603     0.2562
  366.0000    90.2329   -36.9406    17.6151    15.9819    13.1526    95.3987     7.8707     0.0248     2.4110     0.1594     0.2565
  366.5000    90.0120   -37.0970    17.4848    15.7534    13.0554    98.4090     7.8698     0.0217     2.4101     0.1615     0.2496
  367.0000    89.7152   -37.2533    17.4766    15.7445    12.9588   100.6662     7.8691     0.0186     2.4056     0.1634     0.2472
  367.5000    89.5686   -37.4097    17.4685    15.6281    13.0432   100.6644     7.8684     0.0170     2.4055     0.1622     0.2475
  368.0000    89.4211   -37.4157    17.3393    15.5125    13.3105   102.1686     7.8676     0.0154     2.4092     0.1610     0.2614
  368.5000    89.2003   -37.5733    17.3310    15.5053    13.3987   104.1772     7.8669     0.0153     2.4100     0.1640     0.2693
  369.0000    89.1280   -37.7297    17.2010    15.4980    13.2981   105.4783     7.8660     0.0153     2.4054     0.1634     0.2708
  369.5000    89.1326   -38.0367    16.9554    15.4890    13.1082   101.5604     7.8805     0.0212     2.4046     0.1613     0.2642
  370.0000    89.3617   -38.1931    16.7134    15.3745    12.8315    96.2875     7.8948     0.0257     2.4098     0.1562     0.2530
  370.5000    89.5908   -38.3494    16.5898    15.2608    12.7270    91.6170     7.9240     0.0331     2.4234     0.1511     0.2479
  371.0000    89.8950   -38.5271    16.5820    14.9386    12.5533    89.6423     7.9383     0.0376     2.4294     0.1493     0.2482
  371.5000    89.6733   -38.9649    16.7038    14.8281    12.3741    88.6009     7.9677     0.0345     2.4293     0.1493     0.2464
  372.0000    89.1511   -38.9706    17.0320    14.8210    12.3683    89.0509     7.9668     0.0313     2.4293     0.1490     0.2413
  372.5000    88.2532   -39.1270    17.1449    15.0219    12.4488    89.6520     7.9811     0.0268     2.4307     0.1478     0.2359
  373.0000    87.7962   -39.2834    17.4983    15.3315    13.0639    90.4028     7.9804     0.0403     2.4322     0.1406     0.2335
  373.5000    87.4242   -39.4398    17.7331    15.6457    13.5336    91.6058     7.9797     0.0569     2.4390     0.1346     0.2317
  374.0000    87.0631   -39.4458    17.8486    16.0797    13.7971    92.5076     7.9789     0.0659     2.4563     0.1206     0.2357
  374.5000    86.8414   -39.4528    17.8399    16.5257    13.7906    92.2041     7.9782     0.0582     2.4741     0.1083     0.2393
  375.0000    86.8451   -39.6092    17.7062    16.9821    13.7842    91.9011     7.9623     0.0400     2.4955     0.1050     0.2421
  375.5000    86.9991   -39.6149    17.4534    17.2120    13.3997    92.3511     7.9616     0.0279     2.5045     0.1041     0.2430
  376.0000    87.8292   -39.6207    17.2043    17.3261    12.9344    93.2530     7.9308     0.0293     2.5075     0.1211     0.2433
  376.5000    88.9599   -39.7771    16.9586    16.9583    12.4861    94.0042     7.9301     0.0323     2.4817     0.1283     0.2433
  377.0000    89.6397   -39.9349    16.8331    15.3775    12.2225    94.9055     7.9293     0.0367     2.4710     0.1302     0.2494
  377.5000    90.0191   -39.9407    16.5910    14.9432    12.1321    95.8073     7.9284     0.0366     2.4620     0.1261     0.2576
