~VERSION INFORMATION
 VERS.                2.0:   CWLS LOG ASCII STANDARD - VERSION 2.0
 WRAP.                 NO:   ONE LINE PER DEPTH STEP
~WELL INFORMATION
#MNEM.UNIT      DATA TYPE    INFORMATION
#----------   ------------   ------------------------------
 STRT.F           30.0000:   START DEPTH
 STOP.F         2423.0000:   STOP DEPTH
 STEP.F            0.5000:   STEP LENGTH
 NULL.          -999.2500:   NO VALUE
 COMP. DEPARTMENT OF ENERGY:   COMPANY
 WELL.   NPR-3 #35-1 X 10:   WELL
 FLD .        TEAPOT DOME:   FIELD
 LOC .      S10 T38N R78W:   LOCATION
 CNTY.            NATRONA:   COUNTY
 STAT.            WYOMING:   STATE
 CTRY. UNITED STATES OF AMERICA:   COUNTRY
 SRVC.       Schlumberger:   SERVICE COMPANY
 DATE.        15-JAN-1999:   LOGDATE
 API .       490252282200:   API NUMBER
~CURVE INFORMATION
#MNEM.UNIT       API CODE    CURVE DESCRIPTION
#----------   ------------   ------------------------------
 DEPT.F                  :   
 GRR .GAPI   06 310 01 00:   GAMMA RAY FROM RESISTIVITY
 SPR .MV     06 010 01 00:   SPONTANEOUS POTENTIAL FROM RES.
 HD  .IN     06 280 01 00:   HOLE DIAMETER
 AT90.OHMM   06 120 90 00:   90-IN. RESISTIVITY, 2-FT RESOLUTION
 AT30.OHMM   06 120 30 00:   30-IN. RESISTIVITY, 2-FT RESOLUTION
 AT10.OHMM   06 120 10 00:   10-IN. RESISTIVITY, 2-FT RESOLUTION
~PARAMETER INFORMATION
#MNEM.UNIT          VALUE    DESCRIPTION
#----------   ------------   ------------------------------
 PD  .                 GL:   PERMANENT DATUM
 EPD .F              5228:   ELEVATION PERMANENT DATUM
 LMF .                 KB:   LOG MEASURED FROM
 DAPD.F                10:   FEET ABOVE PERMANENT DATUM
 DMF .                 KB:   DRILLING MEASURED FROM
 EKB .F              5238:   KELLING BUSHING
 EDF .F              5237:   DRILLING FLOOR
 EGL .F              5228:   GROUND LEVEL
 DATE.        15-JAN-1999:   RUN DATE
 RUN .                  1:   RUN NUMBER
 DD  .F              2400:   DEPTH DRILLER
 DL  .F              2421:   DEPTH LOGGER
 BLI .F              2393:   BOTTOM LOG INTERVAL
 TLI .F                30:   TOP LOG INTERVAL
 CS  .IN            9.625:   CASING SIZE
 CBD .F               778:   CASING BOTTOM DRILLER
 CBL .F               773:   CASING BOTTOM LOGGER
 BS  .IN              8.5:   BIT SIZE
 BSD .F              2400:   BIT SIZE AT DEPTH
 DFT .            GEL/KCL:   DRILLING FLUID TYPE
 DFD .                8.9:   DRILLING FLUID DENSITY
 DFV .                 39:   DRILLING FLUID VISCOSITY
 DFPH.                  9:   DRILLING FLUID PH
 DFL .                8.8:   DRILLING FLUID LOSS
 MSS .            MUD PIT:   MUD SAMPLE SOURCE
 RMS .OHMM            .29:   RESISTIVITY MUD SAMPLE
 MST .F                65:   MUD SAMPLE TEMPERATURE
 RMF .OHMM            .22:   RESISTIVITY MUD FILTRATE SAMPLE
 MFST.F                65:   MUD FILTRATE SAMPLE TEMPERATURE
 RMC .OHMM            .43:   RESISTIVITY MUD CAKE
 MCST.F                65:   MUD CAKE SAMPLE TEMPERATURE
 MFSS.          MUD PRESS:   MUD FILTRATE SAMPLE SOURCE
 MCSS.         CALCULATED:   MUD CAKE SAMPLE SOURCE
 RMB .OHMM           .195:   RESISTIVITY MUD AT BHT
 BHT .F               100:   BOTTOM HOLE TEMPERATURE
 TCS .HRS            2015:   TIME CURCULATED STOPPED
 TLAB.HRS            2315:   TIME LOGGER AT BOTTOM
 MRT .F               100:   MAXIMUM RECORDED TEMPERATURE
 LUN .               2102:   LOGGING UNIT NUMBER
 LUL .             CASPER:   LOGGING UNIT LOCATION
 ENGI.    TISOVEC/PIERSON:   RECORDING ENGINEER
 WITN.           ESMERSON:   WITNESSED BY
 CLNT.            A2DTECH:   CLIENT CODE
 ORIG.       2", 5" PRINT:   ORIGIN OF DATA
 UWI .       490252282200:   UNIQUE WELL ID
 DICO. A2D Technologies, Inc.:   DIGITIZING COMPANY
~OTHER INFORMATION
~A   DEPT       GRR       SPR         HD       AT90       AT30       AT10   
# ...
 1486.0000   102.6072    -7.9779     8.6970     7.3449     7.0120     6.5106
 1486.5000   106.5583    -8.1556     8.6970     7.3884     7.0899     6.6389
 1487.0000   109.6519    -8.3418     8.6970     7.5074     7.1770     6.8175
 1487.5000   111.5882    -8.5129     8.6970     7.5521     7.2599     6.9499
 1488.0000   111.0844    -8.7124     8.6970     7.5521     7.3438     6.9467
 1488.5000   108.7049    -8.7529     8.6970     7.5521     7.4294     6.9413
 1489.0000   107.7711    -8.6349     8.6970     7.6299     7.5502     6.9348
 1489.5000   108.3530    -8.5444     8.6970     7.8376     7.4714     6.9294
 1490.0000   107.5191    -8.4374     8.6970     7.6864     7.2534     6.9674
 1490.5000   105.7889    -8.3736     8.6970     7.2771     6.9473     6.5908
 1491.0000   104.3027    -8.4045     8.6970     7.2771     7.0216     6.8981
 1491.5000   102.6075    -8.1729     8.6970     7.3811     7.1347     6.7495
 1492.0000   102.0198    -7.6270     8.6970     7.4824     7.2099     6.3976
 1492.5000   102.4775    -7.5223     8.6970     7.4133     7.1433     6.4930
 1493.0000   100.6197    -7.4682     8.6970     7.5486     7.2555     6.7953
 1493.5000    96.6543    -7.3993     8.6970     7.8376     7.4453     7.1111
 1494.0000    92.4091    -7.3834     8.6970     7.8330     7.6225     7.4895
 1494.5000    96.6170    -7.5232     8.6970     7.8192     7.5914     7.4447
 1495.0000   103.6691    -7.6655     8.6970     7.7885     7.5568     7.3913
 1495.5000   108.5457    -7.7713     8.6970     7.7913     7.5224     7.3384
 1496.0000   109.3133    -7.7789     8.6970     7.7704     7.4824     7.2771
 1496.5000   109.2267    -7.7729     8.6970     7.5960     7.3051     6.6325
 1497.0000   111.4867    -7.7852     8.6970     7.3498     7.0774     6.7503
 1497.5000   113.7434    -7.7589     8.6970     7.4534     7.2099     7.0120
 1498.0000   112.9980    -7.9865     8.6970     7.5538     7.1212     6.8608
 1498.5000   110.9042    -8.4725     8.6970     7.2776     6.8751     6.5921
 1499.0000   109.2236    -8.7745     8.6970     7.0037     6.5106     6.3338
 1499.5000   108.7691    -8.7914     8.6970     6.7566     6.5711     6.1013
 1500.0000   108.3132    -8.7893     8.6970     7.0199     6.7074     6.3370
 1500.5000   107.6847    -8.7933     8.6970     7.3449     6.8465     6.6943
 1501.0000   106.9292    -8.7690     8.6970     7.3354     7.0120     6.5106
 1501.5000   106.1630    -8.5709     8.6979     7.3084     7.0491     6.5448
 1502.0000   106.2293    -8.3849     8.6991     7.2771     7.0774     6.6325
 1502.5000   109.4138    -8.1933     8.7002     7.0861     6.8602     6.4432
 1503.0000   113.1476    -8.0091     8.7015     6.8832     6.5712     6.1690
 1503.5000   118.7469    -7.8152     8.7026     6.9962     6.6253     6.3951
 1504.0000   117.9180    -7.6367     8.7038     7.1016     6.8005     6.6069
 1504.5000   112.0547    -7.4329     8.7050     7.2099     6.9473     6.6964
 1505.0000   107.3428    -7.4357     8.7062     7.1869     6.9292     6.5382
 1505.5000   105.2213    -7.5901     8.7074     7.1433     6.8991     5.9426
 1506.0000   106.7553    -7.7102     8.7086     7.1856     6.8832     6.0265
 1506.5000   109.7328    -7.8479     8.7098     7.2767     7.0029     6.3767
 1507.0000   110.1954    -7.9733     8.7109     7.3689     7.1156     6.3174
 1507.5000   109.1148    -8.1123     8.7121     7.4824     7.2099     6.4662
 1508.0000   108.6581    -8.2205     8.7133     7.4190     7.1204     6.7465
 1508.5000   109.7105    -8.2956     8.7145     7.2771     7.0774     6.5738
 1509.0000   109.1197    -8.3785     8.7157     7.4824     7.2099     6.9472
 1509.5000   107.7920    -8.4579     8.7169     7.4292     7.2099     6.7888
 1510.0000   107.5066    -8.5386     8.7183     7.2771     7.0120     6.4504
 1510.5000   108.8198    -8.6193     8.7199     7.6156     7.2152     6.7569
 1511.0000   108.7458    -8.6999     8.7215     8.1338     7.5969     7.2252
 1511.5000   105.3376    -8.7767     8.7230     8.0587     7.9843     7.4133
 1512.0000   102.2222    -8.7186     8.7246     8.3633     7.7923     7.2771
 1512.5000   103.8009    -8.6325     8.7261     7.9474     7.5047     6.9152
 1513.0000   107.9707    -8.5510     8.7277     7.5521     7.2099     6.5920
 1513.5000   108.2945    -8.4680     8.7292     7.5521     7.2099     6.4504
 1514.0000   105.2676    -8.3852     8.7308     7.4564     7.2099     6.9473
 1514.5000   102.3244    -8.3026     8.7324     7.2935     7.1167     6.7501
 1515.0000   100.9993    -8.2196     8.7338     7.1433     7.0120     6.5712
 1515.5000   101.3606    -8.1517     8.7354     7.4827     7.0980     6.7740
 1516.0000   101.8976    -8.1023     8.7374     7.8183     7.4104     6.9473
 1516.5000   105.2800    -8.0468     8.7467     7.9320     7.6225     6.9175
 1517.0000   109.2551    -7.9991     8.7592     7.9612     7.2771     6.8625
 1517.5000   111.5047    -7.9202     8.7712     8.0587     7.6587     6.8196
 1518.0000   111.1169    -8.0139     8.7835     9.3480     8.4676     7.9599
 1518.5000   109.3906    -8.0711     8.7956     9.0303     8.0823     7.5316
 1519.0000   108.7242    -8.1254     8.8080     7.6225     7.0311     6.8529
 1519.5000   108.8401    -8.1790     8.8197     7.7050     7.2950     6.0016
 1520.0000   108.0126    -8.2343     8.8328     7.9106     7.2605     6.1477
 1520.5000   107.2716    -8.2877     8.8390     7.2032     6.7297     6.1251
 1521.0000   106.5104    -8.3440     8.8383     6.5712     6.3094     6.1939
 1521.5000   105.9196    -8.3953     8.8379     6.2155     6.0943     5.6126
 1522.0000   105.8026    -8.4554     8.8309     7.7652     6.6944     6.1358
 1522.5000   105.6825    -8.4988     8.8221     7.6331     7.3408     6.6943
 1523.0000   105.6561    -8.5751     8.8185     7.5521     7.0807     6.1581
 1523.5000   105.2928    -8.4649     8.8221     7.6225     7.1471     6.1774
 1524.0000   104.4446    -8.1655     8.8244     7.5277     7.1417     6.2155
 1524.5000   103.3017    -7.8885     8.8281     7.3079     6.9220     5.9436
 1525.0000   103.4788    -7.6110     8.8302     7.0946     6.7144     5.6649
 1525.5000   106.0051    -7.3099     8.8351     6.7540     6.5172     5.6941
 1526.0000   109.3907    -7.1563     8.8343     6.9514     6.3909     5.9885
 1526.5000   108.5557    -7.1768     8.8671     7.5368     6.9508     6.5177
 1527.0000   105.9753    -7.1667     8.9343     8.5063     7.6935     7.0774
 1527.5000   104.2273    -7.1718     8.9983     7.9076     6.7582     6.2194
 1528.0000   107.3026    -7.1700     9.0481     6.6950     6.0450     4.9751
 1528.5000   109.0920    -7.1697     8.9466     7.1530     6.5683     5.8215
 1529.0000   108.9278    -7.1735     8.8328     7.8668     7.2065     6.9383
 1529.5000   108.8094    -7.1669     8.8000     8.8420     8.1338     7.6273
 1530.0000   110.6429    -7.1795     8.7768     8.5395     7.9356     7.0608
 1530.5000   114.6408    -7.1559     8.7839     8.0588     7.4688     6.8533
 1531.0000   117.8017    -7.3326     8.7857     7.6052     7.0295     5.3824
 1531.5000   117.6364    -7.4813     8.7906     7.1433     6.8196     5.4952
 1532.0000   116.5758    -7.5576     8.7937     7.2099     6.8832     5.8436
 1532.5000   116.7514    -7.5166     8.7980     6.8196     6.6705     6.1499
 1533.0000   116.6031    -7.4333     8.8018     6.8523     6.3082     5.5786
 1533.5000   114.1733    -7.3738     8.8056     6.9473     6.0450     5.0682
 1534.0000   106.1323    -7.3327     8.8095     7.7652     7.3449     5.9404
 1534.5000   102.2159    -7.2960     8.8131     7.6812     7.2926     7.0120
 1535.0000   103.6969    -7.2625     8.8170     7.5134     7.1202     6.8310
 1535.5000   109.6246    -7.2216     8.8177     7.3449     7.0120     6.6325
 1536.0000   113.9520    -7.1960     8.8183     7.4824     7.0774     6.8196
 1536.5000   114.3784    -7.0847     8.8162     7.2412     6.8578     6.3337
 1537.0000   115.1850    -6.8353     8.8117     6.8196     6.3319     5.6649
 1537.5000   115.1510    -6.5973     8.7942     6.9080     6.4125     5.7557
