~VERSION INFORMATION
 VERS.                2.0:   CWLS LOG ASCII STANDARD - VERSION 2.0
 WRAP.                 NO:   ONE LINE PER DEPTH STEP
~WELL INFORMATION
#MNEM.UNIT      DATA TYPE    INFORMATION
#----------   ------------   ------------------------------
 STRT.F           80.0000:   START DEPTH
 STOP.F          782.0000:   STOP DEPTH
 STEP.F            0.5000:   STEP LENGTH
 NULL.          -999.2500:   NO VALUE
 COMP.            US NAVY:   COMPANY
 WELL. NPR 3 TEAPOT DOM #87-S-34:   WELL
 FLD .             TEAPOT:   FIELD
 LOC .      S34 T39N R78W:   LOCATION
 CNTY.            NATRONA:   COUNTY
 STAT.            WYOMING:   STATE
 CTRY. UNITED STATES OF AMERICA:   COUNTRY
 SRVC.       Schlumberger:   SERVICE COMPANY
 DATE.        07-AUG-1961:   LOGDATE
 API .       490250651100:   API NUMBER
~CURVE INFORMATION
#MNEM.UNIT       API CODE    CURVE DESCRIPTION
#----------   ------------   ------------------------------
 DEPT.F                  :   
 GR  .GAPI   30 310 01 00:   GAMMA RAY
 SPR .MV     05 010 01 00:   SPONTANEOUS POTENTIAL FROM RES.
 ASN .OHMM   05 041 16 00:   AMPLIFIED SHORT NORMAL 16"
 ILD .OHMM   05 120 46 00:   INDUCTION LOG DEEP
 CILD.MMHO   05 110 46 00:   CONDUCTIVITY INDUCTION LOG DEEP
~PARAMETER INFORMATION
#MNEM.UNIT          VALUE    DESCRIPTION
#----------   ------------   ------------------------------
 PD  .                 KB:   PERMANENT DATUM
 EPD .F                  :   ELEVATION PERMANENT DATUM
 LMF .                 KB:   LOG MEASURED FROM
 DAPD.F                  :   FEET ABOVE PERMANENT DATUM
 DMF .                 KB:   DRILLING MEASURED FROM
 EKB .F              5102:   KELLING BUSHING
 EDF .F                  :   DRILLING FLOOR
 EGL .F              5097:   GROUND LEVEL
 DATE.        07-AUG-1961:   RUN DATE
 RUN .                  1:   RUN NUMBER
 DD  .F               770:   DEPTH DRILLER
 DL  .F               783:   DEPTH LOGGER
 BLI .F               782:   BOTTOM LOG INTERVAL
 TLI .F               100:   TOP LOG INTERVAL
 CS  .IN                 :   CASING SIZE
 CBD .F                  :   CASING BOTTOM DRILLER
 CBL .F                  :   CASING BOTTOM LOGGER
 BS  .IN             6.75:   BIT SIZE
 BSD .F               770:   BIT SIZE AT DEPTH
 DFT .       OIL EMULSION:   DRILLING FLUID TYPE
 DFD .               10.4:   DRILLING FLUID DENSITY
 DFV .                 45:   DRILLING FLUID VISCOSITY
 DFPH.                   :   DRILLING FLUID PH
 DFL .                   :   DRILLING FLUID LOSS
 MSS .                   :   MUD SAMPLE SOURCE
 RMS .OHMM           0.95:   RESISTIVITY MUD SAMPLE
 MST .F                72:   MUD SAMPLE TEMPERATURE
 RMF .OHMM               :   RESISTIVITY MUD FILTRATE SAMPLE
 MFST.F                  :   MUD FILTRATE SAMPLE TEMPERATURE
 RMC .OHMM               :   RESISTIVITY MUD CAKE
 MCST.F                  :   MUD CAKE SAMPLE TEMPERATURE
 MFSS.                   :   MUD FILTRATE SAMPLE SOURCE
 MCSS.                   :   MUD CAKE SAMPLE SOURCE
 RMB .OHMM               :   RESISTIVITY MUD AT BHT
 BHT .F                  :   BOTTOM HOLE TEMPERATURE
 TCS .HRS               1:   TIME CURCULATED STOPPED
 TLAB.HRS                :   TIME LOGGER AT BOTTOM
 MRT .F                  :   MAXIMUM RECORDED TEMPERATURE
 LUN .               2544:   LOGGING UNIT NUMBER
 LUL .                   :   LOGGING UNIT LOCATION
 ENGI.             QUINBY:   RECORDING ENGINEER
 WITN.          JORGENSON:   WITNESSED BY
 CLNT.            A2DTECH:   CLIENT CODE
 ORIG.       2", 5" PRINT:   ORIGIN OF DATA
 UWI .       490250651100:   UNIQUE WELL ID
 DICO. A2D Technologies, Inc.:   DIGITIZING COMPANY
 OS  .                   :   OTHER SERVICES
 PWI .                   :   PRIMARY WELL IDENTIFIER
 R1  .                   :   REMARKS 1
 R2  .                   :   REMARKS 2
~OTHER INFORMATION
~A   DEPT       GR        SPR         ASN         ILD      CILD  
# ...
  568.0000    81.2767   -23.5903     8.3405     5.8100   148.3296
  568.5000    82.5307   -23.2877     8.3704     5.8073   146.8114
  569.0000    85.3492   -23.2859     8.3852     5.7296   146.7970
  569.5000    87.2287   -23.2844     8.4001     5.6514   146.7789
  570.0000    85.6653   -23.4336     8.4151     5.7247   148.2719
  570.5000    83.1630   -23.4321     8.4300     5.7225   148.2538
  571.0000    83.6341   -23.5813     8.4298     5.5693   149.7468
  571.5000    88.3305   -23.7304     8.4296     5.4161   149.7287
  572.0000    90.2910   -24.0302     8.4144     5.4139   149.7143
  572.5000    93.4471   -24.3296     8.2639     5.4867   149.6962
  573.0000    98.8483   -24.3281     8.0983     5.4090   149.6818
  573.5000   100.0741   -24.3267     8.0681     5.3313   149.6674
  574.0000   100.5446   -24.1746     8.0680     5.1781   151.1603
  574.5000    98.0423   -24.1732     8.0528     4.9493   151.1423
  575.0000    98.8264   -24.0208     7.9774     4.7205   160.1504
  575.5000   101.0189   -23.8687     7.8119     3.7360   175.1699
  576.0000   101.3334   -23.4155     7.5862     3.2051   211.2457
  576.5000   100.8652   -23.1128     6.8191     2.9008   218.7501
  577.0000   102.9016   -22.8102     6.2475     2.8231   221.7468
  577.5000   103.2161   -22.6581     5.9015     2.7454   223.2361
  578.0000   102.9043   -22.6566     5.8412     2.7432   224.7218
  578.5000   102.7498   -22.5043     5.7959     2.7405   224.7038
  579.0000   102.2819   -22.6538     5.7056     2.8894   224.6893
  579.5000    96.3367   -22.8029     6.0459     3.1893   223.1711
  580.0000    93.5214   -23.1027     6.7128     3.3387   212.6304
  580.5000    91.1752   -23.4021     6.8630     3.5626   205.0972
  581.0000    92.4528   -23.5703     6.9080     3.5604   200.5714
  581.5000    88.6137   -24.0012     6.8326     3.5577   203.5645
  582.0000    86.7792   -24.1508     6.5919     3.5555   203.5465
  582.5000    86.0172   -24.1490     6.2158     3.5534   203.5320
  583.0000    86.4883   -24.1475     6.0352     3.5512   203.5176
  583.5000    86.6667   -23.9955     6.1102     3.6245   203.5032
  584.0000    84.3005   -23.9940     6.1552     3.6979   201.9850
  584.5000    80.7028   -23.8416     6.3054     3.8462   197.4556
  585.0000    78.5134   -23.8402     6.6962     4.2217   191.4262
  585.5000    76.7936   -23.5375     7.1021     4.4466   179.3817
  586.0000    78.6731   -23.2349     7.3877     4.7460   168.8409
  586.5000    77.7357   -23.2334     7.4627     4.8199   162.8114
  587.0000    75.7025   -23.2320     7.5528     4.9683   159.7895
  587.5000    79.1473   -23.2302     7.5827     5.1166   158.2677
  588.0000    79.9314   -23.3793     7.5675     5.1144   158.2532
  588.5000    78.2115   -23.3779     7.5523     4.3570   171.7726
  589.0000    76.9612   -23.3764     7.4770     3.6750   186.7958
  589.5000    74.6228   -23.6762     7.3866     3.2197   198.8114
  590.0000    72.3631   -23.9759     7.0406     3.0665   207.8195
  590.5000    71.3196   -24.1251     6.2134     3.0637   209.3089
  591.0000    70.7043   -24.2742     6.0027     3.0616   209.2908
  591.5000    70.0830   -24.2724     5.9123     3.1355   209.2764
  592.0000    69.6151   -24.2710     5.8971     3.2088   207.7582
  592.5000    69.4367   -24.2695     6.0474     3.3572   204.7363
  593.0000    70.2442   -24.2681     6.4683     3.8082   198.7068
  593.5000    70.7153   -24.1157     7.4155     4.5607   182.1474
  594.0000    74.3162   -23.9636     7.7161     5.3138   162.5841
  594.5000    78.8562   -23.6610     8.0317     5.9159   150.5396
  595.0000    81.0487   -23.3583     8.3022     6.2914   143.0063
  595.5000    81.2068   -23.0557     8.4976     6.4402   136.9769
  596.0000    80.7385   -22.7530     8.6628     6.5891   135.4586
  596.5000    80.2706   -22.6006     8.7529     6.6625   132.4331
  597.0000    80.2726   -22.5992     8.8580     6.5087   132.4186
  597.5000    80.1177   -22.5977     8.9306     6.5826   132.4042
  598.0000    79.9628   -22.5963     8.9817     6.6560   130.8860
  598.5000    78.8685   -22.7455     9.0254     6.6532   129.3678
  599.0000    78.7136   -22.8956     9.0691     6.5755   129.3534
  599.5000    79.9759   -23.1943     9.0831     6.5728   129.3353
  600.0000    80.1252   -23.3704     9.0813     6.6264   129.3566
  600.5000    74.8054   -23.7066     9.1096     6.5504   129.7576
  601.0000    69.8030   -23.7982     9.1684     6.4744   130.1587
  601.5000    69.6489   -23.8000     9.2423     6.4735   130.5597
  602.0000    70.4352   -23.8014     9.2710     6.4728   130.8879
  602.5000    71.3773   -23.6519     9.1792     6.4721   130.9023
  603.0000    72.4759   -23.5031     8.9633     6.4713   129.4164
  603.5000    69.3491   -23.5045     8.8145     6.6212   129.4307
  604.0000    66.8483   -23.3553     8.7528     6.6958   127.9377
  604.5000    65.2865   -23.2061     8.7965     6.7702   127.9556
  605.0000    64.5071   -23.0570     8.9758     6.7695   127.9699
  605.5000    63.4147   -22.7576     9.2003     6.5429   127.9878
  606.0000    63.2614   -22.7590     9.4145     5.8644   131.0097
  606.5000    63.2725   -22.7608     9.4987     5.1747   141.5503
  607.0000    67.1984   -22.7622     9.3614     4.3568   161.1135
  607.5000    67.8090   -22.7637     8.9638     3.9796   176.1654
  608.0000    67.1861   -22.7651     8.0328     3.8282   185.2059
  608.5000    66.7010   -22.7666     7.2784     3.8275   191.2352
  609.0000    65.9176   -22.7683     6.7800     3.8268   194.2571
  609.5000    65.1342   -22.9203     6.6580     3.9014   194.2714
  610.0000    61.8786   -23.5242     6.7771     3.9760   192.7820
  610.5000    57.6563   -23.8268     7.2762     4.2010   185.2811
  611.0000    55.4677   -23.8283     8.3401     4.9533   174.7691
  611.5000    57.6625   -23.6791     9.2573     5.8562   153.7307
  612.0000    58.2916   -23.6809    10.2424     7.2208   131.1887
  612.5000    57.1993   -23.6823    10.8807     8.3395   116.1654
  613.0000    57.6719   -23.5331    11.1052     8.8659   105.6570
  613.5000    55.6405   -23.3604    11.1037     8.9406   102.6602
  614.0000    53.2962   -22.9336    11.1780     8.9397   102.6781
  614.5000    50.9519   -22.6342    11.2515     8.8637   102.6924
  615.0000    46.5732   -22.6356    11.4006     9.1640   102.7068
  615.5000    41.8815   -22.6371    11.6247     9.5398    99.7172
  616.0000    37.6592   -22.7895    12.1504    10.0662    98.2241
  616.5000    32.1850   -22.7909    13.0526    10.8185    90.7232
  617.0000    26.5543   -22.7923    14.4065    11.5708    86.2227
  617.5000    15.4463   -22.9444    15.8358    12.4986    80.2256
  618.0000     8.8767   -23.0964    17.1476    13.9035    72.7247
  618.5000     3.8719   -23.7006    18.3175    15.1829    66.7240
  619.0000     3.4048   -24.3044    19.1444    16.6129    60.7232
  619.5000     3.5652   -24.4565    19.9713    18.2688    56.2227
  620.0000     2.6293   -24.4579    20.7981    19.2470    53.2331
  620.5000    -2.0624   -24.4593    21.6356    20.0744    53.2510
  621.0000    -3.9372   -24.3102    22.6021    20.5255    51.7580
  621.5000    -4.7166   -24.1610    23.2784    21.3531    50.2685
  622.0000    -2.9921   -24.0118    23.7288    22.1054    48.7791
  622.5000    -2.5195   -23.7121    24.1791    22.7824    47.2932
  623.0000    -1.1079   -23.4126    24.6295    23.5498    47.3111
  623.5000     2.4946   -23.4144    25.4851    24.0609    45.8217
  624.0000     6.4101   -23.5665    26.2829    24.5120    44.3323
  624.5000     9.0736   -23.7185    26.8085    25.0383    42.8428
  625.0000     5.9468   -23.7199    27.7107    25.7153    41.3534
  625.5000     1.3618   -23.7214    28.7635    26.4714    38.3602
  626.0000    -2.2185   -23.7232    29.6717    27.5962    36.8707
  626.5000    -3.5900   -23.8752    30.7181    28.4991    36.8886
  627.0000    -2.1784   -24.3284    31.5450    29.4773    36.9030
  627.5000    -2.0188   -24.9323    32.2965    30.1543    36.9173
  628.0000    -2.1723   -25.2349    32.8975    30.5301    36.9352
  628.5000    -2.1691   -25.2367    33.2726    30.3700    36.9495
