~VERSION INFORMATION
 VERS.                2.0:   CWLS LOG ASCII STANDARD - VERSION 2.0
 WRAP.                 NO:   ONE LINE PER DEPTH STEP
~WELL INFORMATION
#MNEM.UNIT      DATA TYPE    INFORMATION
#----------   ------------   ------------------------------
 STRT.F           37.5000:   START DEPTH
 STOP.F          525.5000:   STOP DEPTH
 STEP.F            0.5000:   STEP LENGTH
 NULL.          -999.2500:   NO VALUE
 COMP. LAWRENCE/ALLISON INC:   COMPANY
 WELL.    74-11 SX #10-10:   WELL
 FLD .             TEAPOT:   FIELD
 LOC .      S10 T38N R78W:   LOCATION
 CNTY.            NATRONA:   COUNTY
 STAT.            WYOMING:   STATE
 CTRY. UNITED STATES OF AMERICA:   COUNTRY
 SRVC.            Unknown:   SERVICE COMPANY
 DATE.        08-AUG-1984:   LOGDATE
 API .       490251097800:   API NUMBER
~CURVE INFORMATION
#MNEM.UNIT       API CODE    CURVE DESCRIPTION
#----------   ------------   ------------------------------
 DEPT.F                  :   
 CNC .DEC    42 890 03 00:   NEUTRON POROSITY SANDSTONE
 AC  .US/F   60 520 00 00:   ACCOUSTIC
 GRD .GAPI   45 310 01 00:   GAMMA RAY FROM DENSITY LOG
 CALD.IN     45 280 60 00:   CALIPER FROM DENSITY LOG
 CORR.G/C3   45 356 01 00:   DENSITY CORRECTION
 DPHI.DEC    45 890 12 00:   DENSITY POROSITY SANDSTONE
 DEN .G/C3   45 350 01 00:   COMPENSATED BULK DENSTIY
 RILD.OHMM   07 120 46 00:   RESISTIVITY INDUCTION LOG DEEP
 RILM.OHMM   07 120 44 00:   RESISTIVITY INDUCTION LOG MEDIUM
 RFOC.OHMM   07 220 04 00:   RESISTIVITY FOCUSED LOG
 SPR .MV     07 010 01 00:   SPONTANEOUS POTENTIAL FROM RES.
~PARAMETER INFORMATION
#MNEM.UNIT          VALUE    DESCRIPTION
#----------   ------------   ------------------------------
 PD  .                 GL:   PERMANENT DATUM
 EPD .F              5180:   ELEVATION PERMANENT DATUM
 LMF .                 GL:   LOG MEASURED FROM
 DMF .                 GL:   DRILLING MEASURED FROM
 EGL .F              5180:   GROUND LEVEL
 DATE.             8-8-84:   RUN DATE
 RUN .                  1:   RUN NUMBER
 DD  .F               525:   DEPTH DRILLER
 DL  .F               526:   DEPTH LOGGER
 BLI .F               525:   BOTTOM LOG INTERVAL
 TLI .F                42:   TOP LOG INTERVAL
 CS  .IN            9.625:   CASING SIZE
 CBD .F                42:   CASING BOTTOM DRILLER
 CBL .F                42:   CASING BOTTOM LOGGER
 BS  .IN            7.875:   BIT SIZE
 BSD .F               525:   BIT SIZE AT DEPTH
 DFT .          KCL WATER:   DRILLING FLUID TYPE
 MSS .           FLOWLINE:   MUD SAMPLE SOURCE
 RMS .OHMM           .141:   RESISTIVITY MUD SAMPLE
 MST .F                78:   MUD SAMPLE TEMPERATURE
 RMF .OHMM            .12:   RESISTIVITY MUD FILTRATE SAMPLE
 MFST.F                78:   MUD FILTRATE SAMPLE TEMPERATURE
 RMC .OHMM             .2:   RESISTIVITY MUD CAKE
 MCST.F                78:   MUD CAKE SAMPLE TEMPERATURE
 MFSS.               MEAS:   MUD FILTRATE SAMPLE SOURCE
 MCSS.               MEAS:   MUD CAKE SAMPLE SOURCE
 RMB .OHMM            .13:   RESISTIVITY MUD AT BHT
 BHT .F                89:   BOTTOM HOLE TEMPERATURE
 MRT .F                89:   MAXIMUM RECORDED TEMPERATURE
 LUN .               6307:   LOGGING UNIT NUMBER
 LUL .               GLTE:   LOGGING UNIT LOCATION
 ENGI.            JOHNSON:   RECORDING ENGINEER
 WITN.              FIVAS:   WITNESSED BY
 CLNT.            A2DTECH:   CLIENT CODE
 ORIG.           5" PRINT:   ORIGIN OF DATA
 UWI .       490251097800:   UNIQUE WELL ID
 DICO. A2D Technologies, Inc.:   DIGITIZING COMPANY
~OTHER INFORMATION
~A   DEPT      CNC         AC        GRD       CALD       CORR       DPHI        DEN       RILD       RILM       RFOC        SPR   
# ...
  251.0000     0.3012    95.5230    93.7210     8.0440     0.0340     0.1150     2.4890    11.3510     8.0340    12.5810   -60.2070
  251.5000     0.3118    95.1170    91.0910     8.0430     0.0450     0.1090     2.4930    12.4830     8.2500    12.3320   -60.1790
  252.0000     0.3124    95.1150    92.0310     8.0430     0.0830     0.1070     2.4970    13.9000     8.5320    12.4530   -60.1500
  252.5000     0.2919    95.3690    94.1440     8.0430     0.0600     0.1110     2.4970    13.7570     8.3980    12.6770   -60.1190
  253.0000     0.2916    95.5670    95.8400     8.0420     0.0490     0.1170     2.4900    13.4690     8.2070    12.5370   -60.0890
  253.5000     0.3005    96.4710    96.4790     8.0420     0.0390     0.1220     2.4770    13.1530     8.0730    12.3370   -60.0590
  254.0000     0.2903    97.2100    97.0990     8.0410     0.0370     0.1270     2.4680    14.0430     8.6900    12.1360   -60.0320
  254.5000     0.2807    97.9490    96.5850     8.0410     0.0330     0.1280     2.4650    15.0310     9.1650    11.9960   -59.8140
  255.0000     0.2740    98.8060    91.2780     8.0410     0.0260     0.1290     2.4630    16.0200     9.6400    12.8410   -59.5130
  255.5000     0.2715    99.0080    85.3090     8.0400     0.0180     0.1340     2.4580    17.8000    10.1150    13.6560   -59.2000
  256.0000     0.2805    97.6820    73.0690     8.0400     0.0270     0.1400     2.4510    21.4270    10.6690    16.0390   -58.8660
  256.5000     0.2829    96.4120    59.6070     8.0400     0.0410     0.1430     2.4440    25.0530    11.4070    19.0950   -58.4600
  257.0000     0.2863    95.9720    53.5680     8.0390     0.0540     0.1440     2.4420    29.0420    12.2190    21.9220   -57.7890
  257.5000     0.2969    97.2290    51.2060     8.0390     0.0520     0.1440     2.4400    33.0840    12.6150    23.2830   -57.1370
  258.0000     0.2994    98.6970    51.5740     8.0390     0.0310     0.1500     2.4390    37.6680    13.2750    24.0510   -56.8680
  258.5000     0.3019   100.1650    55.0590     8.0380     0.0190     0.1600     2.4260    42.4720    13.1530    26.1860   -56.6020
  259.0000     0.3045   101.4410    58.5990     8.0380     0.0310     0.1780     2.3990    47.7560    13.2280    28.9090   -56.3280
  259.5000     0.3070   102.2030    62.2260     8.0380     0.0440     0.1950     2.3690    50.9250    13.2860    29.3110   -56.3160
  260.0000     0.3117   106.5410    61.2450     8.0390     0.0570     0.2130     2.3380    54.4470    13.3430    28.5510   -56.4060
  260.5000     0.3133   112.5810    58.9610     8.0390     0.0650     0.2160     2.3210    59.0240    13.4010    27.4640   -56.4980
  261.0000     0.3135   118.6220    57.0920     8.0400     0.0660     0.2130     2.3190    57.0470    13.4580    26.4870   -56.5900
  261.5000     0.3135   124.1090    58.0660     8.0410     0.0510     0.2110     2.3220    53.0930    13.5220    26.4870   -56.6830
  262.0000     0.3138   124.9190    59.3430     8.0410     0.0300     0.2170     2.3200    49.1390    13.5220    27.8400   -56.7770
  262.5000     0.3137   121.2750    58.0950     8.0420     0.0330     0.2240     2.3090    45.1840    13.6850    28.7760   -56.8910
  263.0000     0.3127   117.6170    55.7310     8.0430     0.0360     0.2300     2.2990    40.4600    13.8660    28.1680   -57.0810
  263.5000     0.3080   114.5950    52.5830     8.0430     0.0320     0.2370     2.2890    41.5900    14.0290    27.6160   -57.2700
  264.0000     0.2958   120.9460    52.8900     8.0440     0.0430     0.2380     2.2810    43.2050    15.3120    27.2290   -57.4570
  264.5000     0.2954   126.6800    57.5450     8.0450     0.0550     0.2310     2.2860    44.8190    16.4780    27.7250   -57.6230
  265.0000     0.2842   130.9110    60.9550     8.0450     0.0670     0.2190     2.3010    46.4340    17.6440    27.7350   -57.9670
  265.5000     0.2743   131.9270    60.7290     8.0460     0.0750     0.2070     2.3240    48.0480    18.8100    28.3180   -58.3460
  266.0000     0.2875   132.6110    59.4600     8.0460     0.0750     0.1910     2.3470    49.6620    20.0920    31.2140   -58.7280
  266.5000     0.2909   126.4190    58.4860     8.0470     0.0610     0.1760     2.3700    51.1700    19.3140    35.0730   -59.1110
  267.0000     0.2928   115.1130    57.8510     8.0480     0.0430     0.1720     2.3920    52.5700    18.4650    38.9320   -59.4940
  267.5000     0.2954   103.8080    58.2640     8.0480     0.0510     0.1780     2.3860    53.8310    17.6170    40.8350   -59.8820
  268.0000     0.3000    96.2890    59.4670     8.0490     0.0620     0.1870     2.3710    57.2260    17.0230    43.1550   -59.9950
  268.5000     0.3003    97.7340    61.7210     8.0500     0.0740     0.1970     2.3550    61.2390    17.1100    37.9800   -59.4860
  269.0000     0.2999   100.5920    64.0600     8.0500     0.0800     0.2020     2.3440    58.8030    17.1890    33.2760   -58.9660
  269.5000     0.2952   103.4500    66.4170     8.0510     0.0640     0.2080     2.3340    55.5670    17.2680    29.0420   -58.4460
  270.0000     0.2905   105.7090    67.3780     8.0520     0.0490     0.2160     2.3240    53.9650    17.3390    30.2640   -57.9260
  270.5000     0.2867   106.8940    67.4450     8.0520     0.0360     0.2240     2.3080    51.8840    17.6650    31.2630   -57.4070
  271.0000     0.2826   108.1170    69.4800     8.0530     0.0420     0.2200     2.3000    55.1790    17.9900    30.0800   -56.8870
  271.5000     0.2662   108.1170    71.6260     8.0530     0.0490     0.2050     2.3220    59.8880    18.7250    29.0040   -56.3670
  272.0000     0.2611   107.1050    71.7610     8.0540     0.0530     0.1780     2.3620    64.1250    19.5430    28.2510   -55.8320
  272.5000     0.2676   102.6970    65.7440     8.0550     0.0260     0.1480     2.4140    62.0390    20.2780    32.4930   -55.5010
  273.0000     0.2714    98.1800    63.1000     8.0550    -0.0010     0.1490     2.4300    59.0240    18.6790    38.3150   -55.2990
  273.5000     0.2755    93.6640    64.8260     8.0560    -0.0010     0.1740     2.4180    62.5900    17.6620    43.1570   -55.1040
  274.0000     0.2860    90.1010    68.0950     8.0570     0.0450     0.1970     2.3660    67.6840    17.7180    38.2930   -54.9160
  274.5000     0.2943    93.5180    68.1540     8.0570     0.0580     0.2130     2.3280    74.3070    17.7610    33.3300   -54.7300
  275.0000     0.2989    96.9610    66.1790     8.0580     0.0550     0.2110     2.3220    72.4260    17.8250    29.8560   -54.8540
  275.5000     0.2979   100.4050    64.2610     8.0590     0.0440     0.2110     2.3240    70.3240    17.6250    31.6190   -54.9700
  276.0000     0.2898   102.4490    63.4790     8.0590     0.0530     0.2120     2.3250    67.6480    17.5050    32.9750   -55.0860
  276.5000     0.2932   102.0650    63.8040     8.0600     0.0650     0.2130     2.3230    64.8880    17.3850    33.6530   -55.2030
  277.0000     0.2947   102.0450    65.8080     8.0610     0.0760     0.2090     2.3260    62.3780    17.2650    33.6530   -55.3210
  277.5000     0.2955   102.2170    67.0010     8.0610     0.0700     0.2050     2.3330    62.0920    17.1800    33.6530   -55.4380
  278.0000     0.2915   102.3860    66.9830     8.0620     0.0690     0.2010     2.3400    61.8060    16.6670    33.6530   -55.5560
  278.5000     0.2847   102.4490    67.0400     8.0620     0.0760     0.1970     2.3470    56.9150    16.2010    33.6530   -55.6730
  279.0000     0.2728   102.2470    68.4930     8.0630     0.0690     0.1910     2.3550    50.9370    15.7350    32.7530   -55.7900
  279.5000     0.2649   101.7160    69.2020     8.0640     0.0590     0.1840     2.3650    49.5260    15.2690    31.4670   -55.9090
  280.0000     0.2825   100.3190    68.7330     8.0640     0.0680     0.1750     2.3810    47.9580    14.8030    30.1800   -56.0340
  280.5000     0.2977    98.9220    69.4430     8.0650     0.0790     0.1780     2.3860    46.3910    14.2900    28.8940   -55.8150
  281.0000     0.3002    97.5240    70.8040     8.0660     0.0610     0.1820     2.3780    44.9790    14.2490    28.2510   -55.5220
