~VERSION INFORMATION
 VERS.                2.0:   CWLS LOG ASCII STANDARD - VERSION 2.0
 WRAP.                 NO:   ONE LINE PER DEPTH STEP
~WELL INFORMATION
#MNEM.UNIT      DATA TYPE    INFORMATION
#----------   ------------   ------------------------------
 STRT.F           65.0000:   START DEPTH
 STOP.F          860.0000:   STOP DEPTH
 STEP.F            0.5000:   STEP LENGTH
 NULL.          -999.2500:   NO VALUE
 COMP.          U.S. NAVY:   COMPANY
 WELL. NPR 3 TEAPOT DOM #71-S-34:   WELL
 FLD .             TEAPOT:   FIELD
 LOC .      S34 T39N R78W:   LOCATION
 CNTY.            NATRONA:   COUNTY
 STAT.            WYOMING:   STATE
 CTRY. UNITED STATES OF AMERICA:   COUNTRY
 SRVC. Schlumberger Well Surveying Corp:   SERVICE COMPANY
 DATE.        22-FEB-1961:   LOGDATE
 API .       490250657300:   API NUMBER
~CURVE INFORMATION
#MNEM.UNIT       API CODE    CURVE DESCRIPTION
#----------   ------------   ------------------------------
 DEPT.F                  :   
 GR  .GAPI   30 310 01 00:   GAMMA RAY
 ASN .OHMM   05 041 16 00:   AMPLIFIED SHORT NORMAL 16"
 CILD.MMHO   05 110 46 00:   CONDUCTIVITY INDUCTION LOG DEEP
 ILD .OHMM   05 120 46 00:   INDUCTION LOG DEEP
 SPR .MV     05 010 01 00:   SPONTANEOUS POTENTIAL FROM RES.
~PARAMETER INFORMATION
#MNEM.UNIT          VALUE    DESCRIPTION
#----------   ------------   ------------------------------
 LMF .                 KB:   LOG MEASURED FROM
 DMF .                 KB:   DRILLING MEASURED FROM
 EKB .F              5067:   KELLING BUSHING
 EGL .F              5063:   GROUND LEVEL
 DATE.        22-FEB-1961:   RUN DATE
 RUN .                  1:   RUN NUMBER
 DD  .F               861:   DEPTH DRILLER
 DL  .F               861:   DEPTH LOGGER
 BLI .F               860:   BOTTOM LOG INTERVAL
 TLI .F                80:   TOP LOG INTERVAL
 CBD .F                12:   CASING BOTTOM DRILLER
 BS  .IN            7.875:   BIT SIZE
 BSD .F               861:   BIT SIZE AT DEPTH
 DFT .       GEL-OIL EMUL:   DRILLING FLUID TYPE
 DFD .                9.6:   DRILLING FLUID DENSITY
 DFV .                 38:   DRILLING FLUID VISCOSITY
 DFPH.                  9:   DRILLING FLUID PH
 DFL .               15.4:   DRILLING FLUID LOSS
 MSS .           FLOWLINE:   MUD SAMPLE SOURCE
 RMS .OHMM           0.86:   RESISTIVITY MUD SAMPLE
 MST .F                68:   MUD SAMPLE TEMPERATURE
 RMF .OHMM           0.52:   RESISTIVITY MUD FILTRATE SAMPLE
 MFST.F                68:   MUD FILTRATE SAMPLE TEMPERATURE
 RMC .OHMM           1.98:   RESISTIVITY MUD CAKE
 MCST.F                68:   MUD CAKE SAMPLE TEMPERATURE
 MFSS.               MEAS:   MUD FILTRATE SAMPLE SOURCE
 MCSS.               MEAS:   MUD CAKE SAMPLE SOURCE
 RMB .OHMM           0.77:   RESISTIVITY MUD AT BHT
 BHT .F                78:   BOTTOM HOLE TEMPERATURE
 TCS .HRS               1:   TIME CURCULATED STOPPED
 MRT .F                78:   MAXIMUM RECORDED TEMPERATURE
 LUN .               2523:   LOGGING UNIT NUMBER
 LUL .               CSPR:   LOGGING UNIT LOCATION
 ENGI.             KNOBEL:   RECORDING ENGINEER
 WITN.          JORGENSEN:   WITNESSED BY
 CLNT.            A2DTECH:   CLIENT CODE
 ORIG.      2" , 5" PRINT:   ORIGIN OF DATA
 UWI .       490250657300:   UNIQUE WELL ID
 DICO. A2D Technologies, Inc.:   DIGITIZING COMPANY
~OTHER INFORMATION
~A   DEPT       GR          ASN       CILD        ILD      SPR   
# ...
  126.0000  -999.2500     7.0495   187.1003     5.1724   -23.3950
  126.5000  -999.2500     7.0110   186.3127     5.2061   -23.3958
  127.0000  -999.2500     6.9953   186.3085     5.2508   -23.3966
  127.5000  -999.2500     6.9722   185.5212     5.2508   -23.5201
  128.0000  -999.2500     7.0009   184.4619     5.2508   -23.5549
  128.5000  -999.2500     7.0736   181.5944     5.2505   -23.5556
  129.0000  -999.2500     7.1020   180.4520     5.1217   -23.5564
  129.5000  -999.2500     7.1544   179.1627     5.0713   -23.5572
  130.0000  -999.2500     7.2300   178.4476     4.9373   -23.5581
  130.5000  -999.2500     7.2878   179.7088     4.7806   -23.5588
  131.0000  -999.2500     7.2613   186.3087     4.6850   -23.5596
  131.5000  -999.2500     7.1193   190.1606     4.5455   -23.5603
  132.0000  -999.2500     6.8845   193.4587     4.4671   -23.5611
  132.5000  -999.2500     6.5728   200.3721     4.3770   -23.5619
  133.0000  -999.2500     6.4119   206.4185     4.2320   -23.5627
  133.5000  -999.2500     6.3089   210.2704     4.1536   -23.5635
  134.0000  -999.2500     6.2285   213.6830     4.0752   -23.5643
  134.5000  -999.2500     6.1578   215.6335     3.9969   -23.5650
  135.0000  -999.2500     6.0696   216.0270     3.8898   -23.5658
  135.5000  -999.2500     6.0563   216.0222     3.8401   -23.5666
  136.0000  -999.2500     6.0945   216.0188     3.8913   -23.5674
  136.5000  -999.2500     6.1372   215.1894     3.9185   -23.5682
  137.0000  -999.2500     6.1972   213.6591     3.9969   -23.5690
  137.5000  -999.2500     6.2402   212.3498     3.9969   -23.5697
  138.0000  -999.2500     6.2764   210.5172     4.0146   -23.5705
  138.5000  -999.2500     6.3432   209.2489     4.1536   -23.5713
  139.0000  -999.2500     6.3850   207.1761     4.1938   -23.5721
  139.5000  -999.2500     6.3850   205.0193     4.3103   -23.5729
  140.0000  -999.2500     6.3756   202.1944     4.3887   -23.5738
  140.5000  -999.2500     6.3693   198.4705     4.4671   -23.5744
  141.0000  -999.2500     6.5102   194.8193     4.5522   -23.5752
  141.5000  -999.2500     6.6219   191.0435     4.6810   -23.5760
  142.0000  -999.2500     6.7462   187.4660     4.7806   -23.5768
  142.5000  -999.2500     6.9171   183.0519     4.8602   -23.5776
  143.0000  -999.2500     7.0321   179.8198     4.9890   -23.5784
  143.5000  -999.2500     7.1433   175.9705     5.0940   -23.5792
  144.0000  -999.2500     7.2300   173.3961     5.1724   -23.5799
  144.5000  -999.2500     7.3117   171.0515     5.1724   -23.6241
  145.0000  -999.2500     7.3717   169.7099     5.1241   -23.7382
  145.5000  -999.2500     7.3757   168.4731     5.0940   -23.7390
  146.0000  -999.2500     7.3552   168.1348     4.9749   -23.7398
  146.5000  -999.2500     7.3239   168.9142     4.7678   -23.7406
  147.0000  -999.2500     7.2984   169.2973     4.6238   -23.7415
  147.5000  -999.2500     7.2484   170.8921     4.3966   -23.7422
  148.0000  -999.2500     7.1674   175.9556     4.2173   -23.7429
  148.5000  -999.2500     7.0253   180.0588     3.9969   -23.7439
  149.0000  -999.2500     6.8693   186.3872     3.8103   -23.7445
  149.5000  -999.2500     6.7293   195.5361     3.6816   -23.7463
  150.0000  -999.2500     6.5023   202.3250     3.5528   -23.8332
  150.5000  -999.2500     6.3199   211.2029     3.4240   -23.9036
  151.0000  -999.2500     6.0250   219.7466     3.2915   -23.9044
  151.5000  -999.2500     5.8590   230.0249     3.2915   -23.9052
  152.0000  -999.2500     5.6851   247.2411     3.2915   -23.9060
  152.5000  -999.2500     5.4304   256.8506     3.3699   -23.9068
  153.0000  -999.2500     5.2919   264.2346     3.3699   -23.9075
  153.5000  -999.2500     5.1167   269.1727     3.4616   -23.9083
  154.0000  -999.2500     5.0085   267.0376     3.5266   -23.9092
  154.5000  -999.2500     4.9139   260.8163     3.6408   -23.9099
  155.0000  -999.2500     5.0235   248.7846     3.8480   -23.9107
  155.5000  -999.2500     5.2168   241.2474     3.9969   -23.9115
  156.0000  -999.2500     5.5149   231.4317     4.1839   -23.9122
  156.5000  -999.2500     5.7590   218.5748     4.3911   -23.9130
  157.0000  -999.2500     5.9349   206.9618     4.6238   -23.9139
  157.5000  -999.2500     6.1565   197.0414     4.7270   -23.9146
  158.0000  -999.2500     6.3850   182.0116     4.9373   -23.9154
  158.5000  -999.2500     6.5829   167.8175     5.1886   -23.9161
  159.0000  -999.2500     6.8056   159.4119     5.4269   -24.0737
  159.5000  -999.2500     7.0579   152.3863     5.6426   -24.0745
  160.0000  -999.2500     7.2269   148.1191     5.8046   -24.0752
  160.5000  -999.2500     7.3915   145.2933     6.0345   -24.0760
  161.0000  -999.2500     7.6056   143.3987     6.1129   -24.0768
  161.5000  -999.2500     7.7414   142.1095     6.2275   -24.0776
  162.0000  -999.2500     7.8560   140.5792     6.2696   -24.0784
  162.5000  -999.2500     7.9773   139.5311     6.2696   -24.0792
  163.0000  -999.2500     8.0962   139.0046     6.2696   -24.0799
  163.5000  -999.2500     8.1847   139.0008     6.2667   -24.0807
  164.0000  -999.2500     8.1915   139.7812     6.1912   -24.0816
  164.5000  -999.2500     8.1249   140.5601     6.1659   -24.0823
  165.0000  -999.2500     7.9969   144.1614     6.0345   -24.0831
  165.5000  -999.2500     7.8567   148.9330     5.9083   -24.0840
  166.0000  -999.2500     7.7042   156.2221     5.7012   -24.0846
  166.5000  -999.2500     7.5743   164.2646     5.5372   -24.0854
  167.0000  -999.2500     7.4333   172.4739     5.3229   -24.0862
  167.5000  -999.2500     7.2520   186.7744     5.0653   -24.0870
  168.0000  -999.2500     7.0266   195.5799     4.7806   -24.0878
  168.5000  -999.2500     6.8714   203.2773     4.5502   -24.0421
  169.0000  -999.2500     6.6487   210.7237     4.2926   -23.9325
  169.5000  -999.2500     6.1805   218.7029     3.9969   -23.9334
  170.0000  -999.2500     5.8513   229.8588     3.8558   -23.9342
  170.5000  -999.2500     5.6808   243.7525     3.6766   -23.9350
  171.0000  -999.2500     5.5066   249.9451     3.5266   -23.9357
  171.5000  -999.2500     5.2951   253.3578     3.5266   -23.9365
  172.0000  -999.2500     5.1487   253.3647     3.5266   -23.9373
  172.5000  -999.2500     5.0853   248.1257     3.5266   -23.9381
  173.0000  -999.2500     5.1230   239.2393     3.6254   -23.9389
  173.5000  -999.2500     5.2895   229.7272     3.8401   -23.9397
  174.0000  -999.2500     5.3725   220.1723     4.0042   -23.9404
  174.5000  -999.2500     5.5671   211.0141     4.2618   -23.9412
  175.0000  -999.2500     5.7746   203.6964     4.4671   -23.9420
  175.5000  -999.2500     5.8995   190.6308     4.6985   -23.9428
  176.0000  -999.2500     6.0444   181.1703     4.9561   -23.9436
  176.5000  -999.2500     6.1972   178.0838     5.1724   -23.9444
  177.0000  -999.2500     6.2493   178.0797     5.2827   -23.9451
  177.5000  -999.2500     6.2598   180.0614     5.3331   -23.9459
  178.0000  -999.2500     6.2441   181.4786     5.4075   -23.9468
  178.5000  -999.2500     6.2285   183.5536     5.4075   -23.9475
  179.0000  -999.2500     6.2128   184.6891     5.2508   -23.9483
  179.5000  -999.2500     6.1555   186.7542     4.9475   -24.0133
  180.0000  -999.2500     6.0595   189.0276     4.5402   -24.1066
  180.5000  -999.2500     5.9468   192.0547     3.9969   -24.1074
  181.0000  -999.2500     5.8149   199.2504     3.5533   -24.1082
  181.5000  -999.2500     5.6681   211.5555     3.1669   -24.1089
  182.0000  -999.2500     5.4773   243.1608     2.7429   -24.1097
  182.5000  -999.2500     5.2813   273.6480     2.3942   -24.1105
  183.0000  -999.2500     4.8582   318.1372     2.1844   -24.1113
  183.5000  -999.2500     4.6009   353.4525     2.0376   -24.1121
  184.0000  -999.2500     4.3086   406.0811     2.0376   -24.0376
  184.5000  -999.2500     4.0829   412.3472     2.1160   -23.9569
  185.0000  -999.2500     3.7003   410.4624     2.1944   -23.9577
  185.5000  -999.2500     3.5994   406.0692     2.2727   -23.9585
  186.0000  -999.2500     3.6933   402.4190     2.4295   -23.9592
  186.5000  -999.2500     3.8825   393.8047     2.5572   -23.9601
