~VERSION INFORMATION
 VERS.                2.0:   CWLS LOG ASCII STANDARD - VERSION 2.0
 WRAP.                 NO:   ONE LINE PER DEPTH STEP
~WELL INFORMATION
#MNEM.UNIT      DATA TYPE    INFORMATION
#----------   ------------   ------------------------------
 STRT.F           25.0000:   START DEPTH
 STOP.F          528.0000:   STOP DEPTH
 STEP.F            0.5000:   STEP LENGTH
 NULL.          -999.2500:   NO VALUE
 COMP. FENIX & SCISSON INC:   COMPANY
 WELL.       NPR #3 #11-3:   WELL
 FLD .             NPR #3:   FIELD
 LOC .       S3 T38N R78W:   LOCATION
 CNTY.            NATRONA:   COUNTY
 STAT.            WYOMING:   STATE
 CTRY. UNITED STATES OF AMERICA:   COUNTRY
 SRVC.       Schlumberger:   SERVICE COMPANY
 DATE.        01-MAR-1977:   LOGDATE
 API .       490251028300:   API NUMBER
~CURVE INFORMATION
#MNEM.UNIT       API CODE    CURVE DESCRIPTION
#----------   ------------   ------------------------------
 DEPT.F                  :   
 SPR .MV     07 010 01 00:   SPONTANEOUS POTENTIAL
 LL8 .OHMM   07 220 08 00:   LATEROLOG-8 RES.
 ILM .OHMM   07 120 44 00:   INDUCTION LOG MEDIUM
 ILD .OHMM   07 120 46 00:   INDUCTION LOG DEEP
 GRD .GAPI   45 310 01 00:   GAMMA RAY FROM DENSITY LOG
 CALD.IN     45 280 60 00:   CALIPER
 RHOB.G/C3   45 350 01 00:   BULK DENSITY
 CORR.G/C3   45 356 01 00:   DENSITY CORRECTION
 DPHI.DEC    45 890 12 00:   DENSITY POROSITY SANDSTONE
~PARAMETER INFORMATION
#MNEM.UNIT          VALUE    DESCRIPTION
#----------   ------------   ------------------------------
 PD  .                 GL:   PERMANENT DATUM
 EPD .F              5178:   ELEVATION PERMANENT DATUM
 LMF .                 GL:   LOG MEASURED FROM
 DMF .                 GL:   DRILLING MEASURED FROM
 EKB .F              5183:   KELLING BUSHING
 EGL .F              5178:   GROUND LEVEL
 DATE.           3-1-1977:   RUN DATE
 RUN .                  1:   RUN NUMBER
 DD  .F               535:   DEPTH DRILLER
 DL  .F               526:   DEPTH LOGGER
 BLI .F               520:   BOTTOM LOG INTERVAL
 TLI .F                30:   TOP LOG INTERVAL
 CS  .IN            8.625:   CASING SIZE
 CBD .F                40:   CASING BOTTOM DRILLER
 CBL .F                30:   CASING BOTTOM LOGGER
 BS  .IN            7.875:   BIT SIZE
 BSD .F               535:   BIT SIZE AT DEPTH
 DFT .                KCL:   DRILLING FLUID TYPE
 DFD .                8.7:   DRILLING FLUID DENSITY
 DFV .                 37:   DRILLING FLUID VISCOSITY
 DFPH.                  8:   DRILLING FLUID PH
 DFL .                7.2:   DRILLING FLUID LOSS
 MSS .                PIT:   MUD SAMPLE SOURCE
 RMS .OHMM           .495:   RESISTIVITY MUD SAMPLE
 MST .F                62:   MUD SAMPLE TEMPERATURE
 RMF .OHMM           .406:   RESISTIVITY MUD FILTRATE SAMPLE
 MFST.F                65:   MUD FILTRATE SAMPLE TEMPERATURE
 MFSS.                  M:   MUD FILTRATE SAMPLE SOURCE
 RMB .OHMM           .438:   RESISTIVITY MUD AT BHT
 BHT .F                70:   BOTTOM HOLE TEMPERATURE
 TCS .HRS            0800:   TIME CURCULATED STOPPED
 TLAB.HRS            1130:   TIME LOGGER AT BOTTOM
 MRT .F                70:   MAXIMUM RECORDED TEMPERATURE
 LUN .               5642:   LOGGING UNIT NUMBER
 LUL .               CSPR:   LOGGING UNIT LOCATION
 ENGI.             MARTIN:   RECORDING ENGINEER
 CLNT.            A2DTECH:   CLIENT CODE
 ORIG.       2", 5" PRINT:   ORIGIN OF DATA
 UWI .       490251028300:   UNIQUE WELL ID
 DICO. A2D Technologies, Inc.:   DIGITIZING COMPANY
~OTHER INFORMATION
~A   DEPT      SPR        LL8        ILM        ILD         GRD      CALD       RHOB       CORR       DPHI   
   25.0000  -999.2500  -999.2500  -999.2500  -999.2500    77.1369  -999.2500  -999.2500  -999.2500  -999.2500
   25.5000  -999.2500  -999.2500  -999.2500  -999.2500  -999.2500  -999.2500  -999.2500  -999.2500  -999.2500
   26.0000  -999.2500  -999.2500  -999.2500  -999.2500  -999.2500  -999.2500  -999.2500  -999.2500  -999.2500
   26.5000  -999.2500  -999.2500  -999.2500  -999.2500  -999.2500  -999.2500  -999.2500  -999.2500  -999.2500
   27.0000  -999.2500  -999.2500  -999.2500  -999.2500    79.6045  -999.2500  -999.2500  -999.2500  -999.2500
   27.5000  -999.2500  -999.2500  -999.2500  -999.2500    80.6328  -999.2500  -999.2500  -999.2500  -999.2500
   28.0000  -999.2500  -999.2500  -999.2500  -999.2500    80.4018  -999.2500  -999.2500  -999.2500  -999.2500
   28.5000  -999.2500  -999.2500  -999.2500  -999.2500    78.8194  -999.2500  -999.2500  -999.2500  -999.2500
   29.0000  -999.2500  -999.2500  -999.2500  -999.2500    77.2627  -999.2500  -999.2500  -999.2500  -999.2500
   29.5000  -999.2500  -999.2500  -999.2500  -999.2500    76.6580  -999.2500  -999.2500  -999.2500  -999.2500
   30.0000  -112.0040     3.7787  -999.2500     1.3274    79.0126  -999.2500  -999.2500  -999.2500  -999.2500
   30.5000  -111.1821     5.2566     2.4855     2.0471    79.8451  -999.2500  -999.2500  -999.2500  -999.2500
   31.0000  -110.5574     5.6294     3.8452     3.0170    78.2168  -999.2500  -999.2500  -999.2500  -999.2500
   31.5000  -109.7075     6.0054     8.1890     3.7289    76.5251  -999.2500  -999.2500  -999.2500  -999.2500
   32.0000  -107.4400     6.4079    14.4562     4.6861    74.6290  -999.2500  -999.2500  -999.2500  -999.2500
   32.5000  -106.4669     6.7512    31.1799     4.9479    76.1006  -999.2500  -999.2500  -999.2500  -999.2500
   33.0000  -105.5588     6.7436    66.8613     5.2250    80.5781  -999.2500  -999.2500  -999.2500  -999.2500
   33.5000  -104.5308     6.7431     6.2472     5.4533    88.3228  -999.2500  -999.2500  -999.2500  -999.2500
   34.0000  -103.0563     6.9029     6.4605     5.2481    95.3580     8.3408     2.3843     0.0131     0.1637
   34.5000  -102.2130     7.0340     5.9710     5.0794    99.2827     8.3499     2.3992     0.0060     0.1558
   35.0000  -101.7586     7.1987     6.8076     4.8802    99.4455     8.4657     2.4005     0.0075     0.1527
   35.5000  -101.2882     7.1451     8.0725     4.9272    98.8008     8.6012     2.4155     0.0133     0.1501
   36.0000  -100.4881     6.9373     9.9499     5.9364    98.1186     8.7385     2.4334     0.0220     0.1392
   36.5000   -99.8397     7.0017     9.1179     7.0017    97.4408     8.8410     2.4513     0.0308     0.1311
   37.0000   -99.3458     7.0966     8.1187     6.8836    96.7735     8.8626     2.4702     0.0399     0.1229
   37.5000   -98.9670     7.3167     7.2290     6.7277    96.2138     8.8466     2.4896     0.0469     0.1147
   38.0000   -98.6742     7.5436     7.0017     6.5753    96.3050     8.8354     2.5022     0.0709     0.1090
   38.5000   -97.8306     7.7515     6.8596     6.4264    96.3874     8.8525     2.4693     0.0544     0.1223
   39.0000   -96.9977     7.7515     6.7524     6.2786    97.3302     8.8716     2.4520     0.0326     0.1325
   39.5000   -96.1762     7.6146     6.6469     6.3403    99.8455     8.7958     2.4471     0.0185     0.1316
   40.0000   -95.3517     7.4652     6.5430     6.4239   101.2922     8.6974     2.4509     0.0245     0.1288
   40.5000   -94.5608     7.3188     6.4408     6.5086   102.4721     8.5958     2.4542     0.0227     0.1260
   41.0000   -93.7497     7.1752     6.3401     6.5945   102.7697     8.5952     2.4504     0.0313     0.1259
   41.5000   -92.7546     7.0344     6.2663     6.6814   102.4091     8.6214     2.4462     0.0221     0.1268
   42.0000   -91.7444     6.8964     6.2087     6.7694   102.0473     8.5709     2.4490     0.0269     0.1270
   42.5000   -90.7338     6.7607     6.2087     6.8586   101.7151     8.4605     2.4555     0.0356     0.1241
   43.0000   -89.7230     6.5620     6.2087     7.0017   100.0437     8.3500     2.4755     0.0444     0.1212
   43.5000   -88.7144     6.5617     6.2663     6.9373    97.1656     8.2745     2.4676     0.0505     0.1190
   44.0000   -87.7909     6.7541     6.3742     6.8789    98.7923     8.2740     2.4545     0.0375     0.1224
   44.5000   -87.4184     7.0859     6.6151     6.7475   101.9902     8.2722     2.4411     0.0242     0.1257
   45.0000   -87.0724     7.4323     6.8651     6.7982   105.2464     8.2704     2.4313     0.0123     0.1291
   45.5000   -86.7260     7.7956     7.1245     6.8842   105.9465     8.2687     2.4348     0.0155     0.1323
   46.0000   -86.3802     8.1766     7.4012     6.9712   106.5636     8.2669     2.4339     0.0134     0.1372
   46.5000   -86.0334     8.4242     7.4961     7.0594   107.4294     8.2651     2.4174     0.0070     0.1411
   47.0000   -85.6809     8.3510     7.5949     7.1486   108.3304     8.2633     2.4111     0.0019     0.1455
   47.5000   -85.6138     8.2559     7.6950     7.2390   108.0901     8.2616     2.4158     0.0040     0.1426
   48.0000   -85.3525     8.1937     7.7964     7.3306   104.3907     8.2598     2.4294     0.0061     0.1350
   48.5000   -84.9096     8.2740     7.8992     7.4233   101.3978     8.2580     2.4420     0.0082     0.1291
   49.0000   -84.4646     8.2650     8.0033     7.5171   100.2171     8.2562     2.4348     0.0104     0.1299
   49.5000   -84.0140     8.6088     8.1088     7.6122    99.0202     8.2545     2.4359     0.0120     0.1395
   50.0000   -83.5492     8.8782     8.2156     7.7084    99.2011     8.2527     2.4423     0.0103     0.1330
   50.5000   -83.1115     9.0710     8.3239     7.8059   100.7497     8.2509     2.4489     0.0069     0.1258
   51.0000   -83.2466     9.0710     8.4337     7.8961   102.2999     8.2492     2.4558     0.0080     0.1240
   51.5000   -83.7010     9.0325     8.5814     7.8967   103.8736     8.2474     2.4540     0.0123     0.1223
   52.0000   -83.4635     8.8955     8.5172     7.8961   105.4801     8.2456     2.4594     0.0170     0.1206
   52.5000   -82.7134     8.8228     8.4227     7.8535   106.1558     8.2438     2.4750     0.0217     0.1192
   53.0000   -81.9629     8.9482     8.3293     7.7984   106.4744     8.2421     2.4637     0.0197     0.1209
   53.5000   -81.2620     8.9875     8.2368     7.7007   103.9837     8.2403     2.4535     0.0071     0.1226
   54.0000   -79.9418     8.6704     8.1455     7.6042   101.7750     8.2385     2.4574     0.0049     0.1222
   54.5000   -78.4360     8.3759     8.0551     7.5089   102.5266     8.2367     2.4607     0.0063     0.1210
   55.0000   -77.2645     8.0442     7.9657     7.4148    99.7580     8.2383     2.4560     0.0080     0.1226
   55.5000   -77.7406     8.1027     7.8962     7.3218   100.3915     8.2403     2.4494     0.0108     0.1307
   56.0000   -77.6544     8.1782     7.8085     7.2300   101.3129     8.2422     2.4759     0.0172     0.1236
   56.5000   -78.3450     8.2542     7.7719     7.1394   100.6779     8.2442     2.4805     0.0236     0.1122
   57.0000   -79.1502     8.3303     7.7354     7.0663    98.4834     8.2461     2.4831     0.0202     0.1141
   57.5000   -79.1404     8.4242     7.6990     7.1795    96.2029     8.2481     2.4721     0.0137     0.1178
   58.0000   -75.2158     8.1950     7.6629     7.2958    96.3973     8.2500     2.4611     0.0071     0.1214
   58.5000   -71.6482     7.9096     7.6269     7.4140    97.4506     8.2520     2.4500     0.0071     0.1250
   59.0000   -70.8162     7.6342     7.5911     7.5340    98.5288     8.2539     2.4389     0.0102     0.1286
   59.5000   -69.9068     7.3684     7.5556     7.6559    99.6942     8.2554     2.4281     0.0069     0.1323
   60.0000   -69.0232     7.1973     7.5394     7.7798   100.8376     8.2810     2.4375     0.0066     0.1347
   60.5000   -68.4820     7.2895     7.5919     7.9057   103.0321     8.3158     2.4464     0.0250     0.1267
   61.0000   -67.9156     7.4157     7.6637     8.0435   106.2949     8.3507     2.4319     0.0170     0.1320
