~VERSION INFORMATION
 VERS.                2.0:   CWLS LOG ASCII STANDARD - VERSION 2.0
 WRAP.                 NO:   ONE LINE PER DEPTH STEP
~WELL INFORMATION
#MNEM.UNIT      DATA TYPE    INFORMATION
#----------   ------------   ------------------------------
 STRT.F           20.0000:   START DEPTH
 STOP.F          805.5000:   STOP DEPTH
 STEP.F            0.5000:   STEP LENGTH
 NULL.          -999.2500:   NO VALUE
 COMP. FENIX & SCISSON INC:   COMPANY
 WELL.    16-SX-14 #16-14:   WELL
 FLD .             TEAPOT:   FIELD
 LOC .      S14 T38N R78W:   LOCATION
 CNTY.            NATRONA:   COUNTY
 STAT.            WYOMING:   STATE
 CTRY. UNITED STATES OF AMERICA:   COUNTRY
 SRVC.            Unknown:   SERVICE COMPANY
 DATE.        23-MAY-1978:   LOGDATE
 API .       490251063200:   API NUMBER
~CURVE INFORMATION
#MNEM.UNIT       API CODE    CURVE DESCRIPTION
#----------   ------------   ------------------------------
 DEPT.F                  :   
 SN  .OHMM   05 040 16 00:   SHORT NORMAL 16"
 ILD .OHMM   05 120 46 00:   INDUCTION LOG DEEP
 SPR .MV     05 010 01 00:   SPONTANEOUS POTENTIAL FROM RES.
 RHOB.G/C3   45 350 01 00:   BULK DENSITY
 DPOR.DEC    45 890 12 00:   DENSITY POROSITY SANDSTONE
 CORR.G/C3   45 356 01 00:   DENSITY CORRECTION
 GRD .GAPI   45 310 01 00:   GAMMA RAY FROM DENSITY LOG
 CALD.IN     45 280 60 00:   CALIPER FROM DENSITY LOG
~PARAMETER INFORMATION
#MNEM.UNIT          VALUE    DESCRIPTION
#----------   ------------   ------------------------------
 PD  .                 GL:   PERMANENT DATUM
 EPD .F              5246:   ELEVATION PERMANENT DATUM
 LMF .                 KB:   LOG MEASURED FROM
 DAPD.F                 4:   FEET ABOVE PERMANENT DATUM
 DMF .                 KB:   DRILLING MEASURED FROM
 EKB .F              5250:   KELLING BUSHING
 EGL .F              5246:   GROUND LEVEL
 DATE.          5-23-1978:   RUN DATE
 RUN .                  1:   RUN NUMBER
 DD  .F               825:   DEPTH DRILLER
 DL  .F               812:   DEPTH LOGGER
 BLI .F               805:   BOTTOM LOG INTERVAL
 TLI .F                40:   TOP LOG INTERVAL
 CS  .IN            8.625:   CASING SIZE
 CBD .F                40:   CASING BOTTOM DRILLER
 BS  .IN            7.875:   BIT SIZE
 BSD .F               825:   BIT SIZE AT DEPTH
 DFT .                KCL:   DRILLING FLUID TYPE
 DFD .                8.6:   DRILLING FLUID DENSITY
 DFV .                 30:   DRILLING FLUID VISCOSITY
 DFPH.                 11:   DRILLING FLUID PH
 DFL .                 14:   DRILLING FLUID LOSS
 MSS .            MUD PIT:   MUD SAMPLE SOURCE
 RMS .OHMM            .32:   RESISTIVITY MUD SAMPLE
 MST .F                72:   MUD SAMPLE TEMPERATURE
 RMF .OHMM            .28:   RESISTIVITY MUD FILTRATE SAMPLE
 MFST.F                72:   MUD FILTRATE SAMPLE TEMPERATURE
 RMC .OHMM            .50:   RESISTIVITY MUD CAKE
 MCST.F                82:   MUD CAKE SAMPLE TEMPERATURE
 MFSS.               MEAS:   MUD FILTRATE SAMPLE SOURCE
 RMB .OHMM            .31:   RESISTIVITY MUD AT BHT
 BHT .F                75:   BOTTOM HOLE TEMPERATURE
 TCS .HRS               2:   TIME CURCULATED STOPPED
 MRT .F                75:   MAXIMUM RECORDED TEMPERATURE
 LUN .               2958:   LOGGING UNIT NUMBER
 LUL .              CSPR.:   LOGGING UNIT LOCATION
 ENGI.             MILLER:   RECORDING ENGINEER
 WITN.            RHOADES:   WITNESSED BY
 CLNT.            A2DTECH:   CLIENT CODE
 ORIG.    1" , 2.5" PRINT:   ORIGIN OF DATA
 UWI .       490251063200:   UNIQUE WELL ID
 DICO. A2D Technologies, Inc.:   DIGITIZING COMPANY
~OTHER INFORMATION
~A   DEPT       SN        ILD        SPR       RHOB       DPOR       CORR         GRD      CALD   
# ...
  141.5000     4.3099     3.7348   -29.9342     2.3981     0.1742     0.0397    70.6739     7.4215
  142.0000     4.3268     3.7447   -30.1964     2.3834     0.1845     0.0444    71.7514     7.5259
  142.5000     4.3437     3.7547   -30.4405     2.3669     0.1948     0.0494    71.9888     7.4207
  143.0000     4.3608     3.7646   -30.7383     2.3510     0.2036     0.0557    70.2303     7.3098
  143.5000     4.3755     3.7756   -31.7381     2.3430     0.2022     0.0582    68.6581     7.2048
  144.0000     4.2061     3.7101   -32.3540     2.3390     0.2022     0.0752    66.8454     7.0827
  144.5000     4.0626     3.5269   -32.2110     2.3363     0.2072     0.0659    66.6875     6.8669
  145.0000     3.9240     3.3527   -32.1429     2.3319     0.2108     0.0541    67.1680     6.5190
  145.5000     3.7901     3.1869   -32.0694     2.3264     0.2108     0.0418    68.7881     6.6209
  146.0000     3.6607     3.0297   -31.9769     2.3238     0.2108     0.0372    70.1769     6.7455
  146.5000     3.5357     2.9176   -32.0733     2.3222     0.2197     0.0323    70.9917     6.8198
  147.0000     3.4151     2.9176   -32.6339     2.3168     0.2291     0.0307    67.1560     6.6564
  147.5000     3.2987     2.8909   -33.1972     2.3007     0.2385     0.0339    63.9733     6.4671
  148.0000     3.1995     2.8017   -33.7321     2.2848     0.2438     0.0365    61.2045     6.4213
  148.5000     3.1444     2.7154   -34.2928     2.2685     0.2494     0.0393    62.1536     6.3537
  149.0000     3.0959     2.6317   -33.9772     2.2567     0.2547     0.0421    62.9717     6.5574
  149.5000     3.0480     2.5520   -33.6261     2.2526     0.2600     0.0445    64.0419     6.8666
  150.0000     2.9504     2.4752   -33.2418     2.2445     0.2652     0.0504    64.9543     7.1425
  150.5000     2.8219     2.4006   -32.8622     2.2361     0.2705     0.0591    70.0838     7.4072
  151.0000     2.6989     2.3284   -32.7253     2.2266     0.2763     0.0672    73.2417     7.4137
  151.5000     2.5811     2.2583   -32.7347     2.2225     0.2646     0.0754    74.4853     7.4106
  152.0000     2.4685     2.1903   -32.7287     2.2284     0.2390     0.0794    75.9968     7.1888
  152.5000     2.3612     2.1332   -32.7278     2.2758     0.2136     0.0811    74.3572     6.9060
  153.0000     2.2949     2.1728   -32.3532     2.3289     0.1882     0.0669    70.9548     6.9021
  153.5000     2.2966     2.1693   -31.8321     2.3876     0.1676     0.0514    67.6164     6.9035
  154.0000     2.2951     2.2538   -31.3081     2.4079     0.1786     0.0624    64.3153     6.9564
  154.5000     2.3937     2.3213   -30.7987     2.3766     0.1892     0.0731    62.2689     7.0018
  155.0000     2.4928     2.3850   -30.3320     2.3713     0.1728     0.0739    63.9977     7.0476
  155.5000     2.6888     2.6140   -30.2116     2.3927     0.1668     0.0740    65.9598     7.0967
  156.0000     3.1484     2.8459   -30.1008     2.3944     0.1705     0.0766    67.9693     7.0988
  156.5000     3.7071     3.0986   -30.0011     2.3899     0.1747     0.0813    69.9261     7.1011
  157.0000     3.7071     3.3208   -29.8946     2.3837     0.1788     0.0762    72.0181     7.1003
  157.5000     3.7071     3.3210   -29.7956     2.3782     0.1895     0.0556    73.6178     7.1296
  158.0000     3.5938     3.3213   -29.6897     2.3611     0.2020     0.0356    71.8367     7.1671
  158.5000     3.4861     3.3186   -29.5752     2.3365     0.2144     0.0314    70.1291     7.2046
  159.0000     3.3816     3.2030   -29.7077     2.3122     0.2269     0.0286    71.1720     7.2427
  159.5000     3.2802     3.0376   -30.3723     2.2927     0.2396     0.0275    73.8765     7.2667
  160.0000     3.1819     2.8805   -31.0332     2.2765     0.2521     0.0267    76.6277     7.2772
  160.5000     3.0707     2.7582   -31.6742     2.2608     0.2647     0.0357    76.3184     7.2880
  161.0000     2.9519     2.5101   -32.2943     2.2452     0.2719     0.0591    75.3746     7.2998
  161.5000     2.8295     2.3160   -32.1714     2.2327     0.2542     0.0704    76.1092     7.3001
  162.0000     2.6882     2.1369   -32.0449     2.2527     0.2240     0.0575    77.9593     7.3349
  162.5000     2.5532     2.0485   -31.8848     2.3067     0.1939     0.0440    79.0662     7.3800
  163.0000     2.4248     2.1546   -31.7391     2.3567     0.1637     0.0387    76.2491     7.4658
  163.5000     2.2976     2.2662   -31.5978     2.4082     0.1537     0.0420    73.0991     7.5629
  164.0000     2.4280     2.3835   -31.4272     2.4174     0.1512     0.0446    69.6098     7.6569
  164.5000     2.5718     2.5070   -31.2375     2.4254     0.1487     0.0469    68.1687     7.7526
  165.0000     2.7238     2.6368   -31.0525     2.4325     0.1461     0.0499    69.5282     7.8583
  165.5000     2.9831     2.8728   -30.8691     2.4374     0.1436     0.0518    70.6396     7.8538
  166.0000     3.4052     3.2645   -30.6841     2.4428     0.1410     0.0542    71.7007     7.7183
  166.5000     3.8838     3.7096   -30.4999     2.4469     0.1388     0.0569    72.7079     7.5936
  167.0000     4.4569     4.2154   -30.3156     2.4462     0.1385     0.0552    71.6859     7.4744
  167.5000     4.6103     4.4569   -30.1312     2.4448     0.1404     0.0458    70.2133     7.3400
  168.0000     4.7769     4.5996   -29.9469     2.4433     0.1422     0.0368    68.8136     7.2076
  168.5000     4.9496     4.7247   -29.7626     2.4436     0.1618     0.0299    67.2171     6.8154
  169.0000     5.1285     4.8531   -29.5783     2.4267     0.1601     0.0330    66.4412     6.4211
  169.5000     5.3139     4.9851   -29.3940     2.4124     0.1547     0.0404    65.7533     6.1118
  170.0000     5.5059     5.1206   -29.2097     2.4139     0.1569     0.0481    65.4167     6.0226
  170.5000     5.7049     5.2599   -29.0254     2.4153     0.1612     0.0540    67.0746     5.9285
  171.0000     5.9111     5.4029   -28.8408     2.4159     0.1511     0.0641    69.0193     5.8449
  171.5000     6.1248     5.5498   -28.6560     2.4258     0.1405     0.0534    69.5291     5.9440
  172.0000     6.3461     5.7007   -28.4702     2.4553     0.1331     0.0442    69.5427     6.1003
  172.5000     6.5755     5.8557   -28.2867     2.4551     0.1365     0.0343    69.5393     6.2688
  173.0000     6.9347     6.0958   -28.1014     2.4524     0.1403     0.0348    70.0618     5.9154
  173.5000     6.8325     6.0403   -27.9130     2.4486     0.1403     0.0353    70.5685     6.1235
  174.0000     6.6333     5.9313   -27.7408     2.4450     0.1377     0.0360    69.9961     6.5161
  174.5000     6.4399     5.8243   -27.5546     2.4477     0.1324     0.0366    68.9476     6.9168
  175.0000     6.3246     5.7192   -27.9011     2.4532     0.1252     0.0372    67.9195     7.2836
  175.5000     6.3246     5.5594   -28.4334     2.4581     0.1287     0.0379    68.5835     7.3854
  176.0000     6.3246     5.5645   -28.9342     2.4623     0.1345     0.0360    71.3286     7.4844
  176.5000     6.3246     5.5760   -29.4853     2.4552     0.1367     0.0335    74.0662     7.5321
  177.0000     6.3246     5.5875   -29.5119     2.4493     0.1380     0.0310    77.0529     7.5078
  177.5000     6.3246     5.5990   -29.5283     2.4484     0.1392     0.0286    79.2554     7.3934
  178.0000     6.3246     5.6105   -29.5331     2.4474     0.1404     0.0261    77.5548     7.2361
  178.5000     6.3246     5.6221   -29.3144     2.4469     0.1428     0.0236    74.3592     7.0788
  179.0000     6.3246     5.6336   -28.7357     2.4393     0.1476     0.0211    72.0803     6.9275
  179.5000     6.3246     5.6453   -28.1695     2.4358     0.1463     0.0186    73.3054     6.7844
  180.0000     6.2589     5.6618   -27.6162     2.4311     0.1452     0.0162    75.2534     6.7932
  180.5000     6.1609     5.6470   -27.1118     2.4306     0.1466     0.0141    77.0558     6.8340
  181.0000     6.0644     5.6135   -27.1213     2.4301     0.1481     0.0183    76.4316     6.8784
  181.5000     5.9822     5.5800   -27.1487     2.4297     0.1496     0.0245    76.0239     6.9354
