~VERSION INFORMATION
 VERS.                2.0:   CWLS LOG ASCII STANDARD - VERSION 2.0
 WRAP.                 NO:   ONE LINE PER DEPTH STEP
~WELL INFORMATION
#MNEM.UNIT      DATA TYPE    INFORMATION
#----------   ------------   ------------------------------
 STRT.F           14.0000:   START DEPTH
 STOP.F          630.0000:   STOP DEPTH
 STEP.F            0.5000:   STEP LENGTH
 NULL.          -999.2500:   NO VALUE
 COMP. LAWRENCE/ALLISON INC:   COMPANY
 WELL.    78-53 SX #10-10:   WELL
 FLD .             TEAPOT:   FIELD
 LOC .      S10 T38N R78W:   LOCATION
 CNTY.            NATRONA:   COUNTY
 STAT.            WYOMING:   STATE
 CTRY. UNITED STATES OF AMERICA:   COUNTRY
 SRVC.           Gearhart:   SERVICE COMPANY
 DATE.        08-JUL-1986:   LOGDATE
 API .       490251108200:   API NUMBER
~CURVE INFORMATION
#MNEM.UNIT       API CODE    CURVE DESCRIPTION
#----------   ------------   ------------------------------
 DEPT.F                  :   
 GRR .GAPI   07 310 01 00:   GAMMA RAY FROM RES. LOG.
 RILD.OHMM   07 120 46 00:   INDUCTION LOG DEEP RESISTIVITY
 RILM.OHMM   07 120 44 00:   INDUCTION LOG MEDIUM
~PARAMETER INFORMATION
#MNEM.UNIT          VALUE    DESCRIPTION
#----------   ------------   ------------------------------
 PD  .                 GL:   PERMANENT DATUM
 EPD .F              5152:   ELEVATION PERMANENT DATUM
 LMF .                 KB:   LOG MEASURED FROM
 DAPD.F                 5:   FEET ABOVE PERMANENT DATUM
 DMF .                 KB:   DRILLING MEASURED FROM
 EKB .F              5157:   KELLING BUSHING
 EGL .F              5152:   GROUND LEVEL
 DATE.             7-8-86:   RUN DATE
 RUN .                  1:   RUN NUMBER
 DD  .F               630:   DEPTH DRILLER
 DL  .F               634:   DEPTH LOGGER
 BLI .F               625:   BOTTOM LOG INTERVAL
 TLI .F                47:   TOP LOG INTERVAL
 CS  .IN            8.625:   CASING SIZE
 CBD .F                47:   CASING BOTTOM DRILLER
 CBL .F                47:   CASING BOTTOM LOGGER
 BS  .IN            7.875:   BIT SIZE
 BSD .F               630:   BIT SIZE AT DEPTH
 DFT .               FOAM:   DRILLING FLUID TYPE
 TCS .HRS            1530:   TIME CURCULATED STOPPED
 TLAB.HRS            1644:   TIME LOGGER AT BOTTOM
 MRT .F                65:   MAXIMUM RECORDED TEMPERATURE
 LUN .               7609:   LOGGING UNIT NUMBER
 LUL .           GILLETTE:   LOGGING UNIT LOCATION
 ENGI.         WEATHERMON:   RECORDING ENGINEER
 WITN.             STRONG:   WITNESSED BY
 CLNT.            A2DTECH:   CLIENT CODE
 ORIG.       2", 5" PRINT:   ORIGIN OF DATA
 UWI .       490251108200:   UNIQUE WELL ID
 DICO. A2D Technologies, Inc.:   DIGITIZING COMPANY
~OTHER INFORMATION
~A   DEPT       GRR      RILD       RILM   
   14.0000    70.5521  -999.2500  -999.2500
   14.5000    70.5521  -999.2500  -999.2500
   15.0000    71.9230  -999.2500  -999.2500
   15.5000    73.4774  -999.2500  -999.2500
   16.0000    75.4131  -999.2500  -999.2500
   16.5000    77.1654  -999.2500  -999.2500
   17.0000    76.2019  -999.2500  -999.2500
   17.5000    74.9649  -999.2500  -999.2500
   18.0000    73.7010  -999.2500  -999.2500
   18.5000    72.8127  -999.2500  -999.2500
   19.0000    72.0029  -999.2500  -999.2500
   19.5000    71.1971  -999.2500  -999.2500
   20.0000    70.3918  -999.2500  -999.2500
   20.5000    69.5829  -999.2500  -999.2500
   21.0000    68.5654  -999.2500  -999.2500
   21.5000    66.4992  -999.2500  -999.2500
   22.0000    64.4342  -999.2500  -999.2500
   22.5000    62.3815  -999.2500  -999.2500
   23.0000    60.7623  -999.2500  -999.2500
   23.5000    61.1961  -999.2500  -999.2500
   24.0000    61.6024  -999.2500  -999.2500
   24.5000    61.8730  -999.2500  -999.2500
   25.0000    59.5054  -999.2500  -999.2500
   25.5000    57.0387  -999.2500  -999.2500
   26.0000    56.4228  -999.2500  -999.2500
   26.5000    56.1559  -999.2500  -999.2500
   27.0000    55.8950  -999.2500  -999.2500
   27.5000    55.6291  -999.2500  -999.2500
   28.0000    55.3680  -999.2500  -999.2500
   28.5000    55.0758  -999.2500  -999.2500
   29.0000    56.4035  -999.2500  -999.2500
   29.5000    58.4203  -999.2500  -999.2500
   30.0000    59.5966  -999.2500  -999.2500
   30.5000    58.0238  -999.2500  -999.2500
   31.0000    56.5291  -999.2500  -999.2500
   31.5000    55.0765  -999.2500  -999.2500
   32.0000    55.1641  -999.2500  -999.2500
   32.5000    57.4623  -999.2500  -999.2500
   33.0000    59.6527  -999.2500  -999.2500
   33.5000    61.8531  -999.2500  -999.2500
   34.0000    64.0453  -999.2500  -999.2500
   34.5000    66.2551  -999.2500  -999.2500
   35.0000    67.2756  -999.2500  -999.2500
   35.5000    67.2442  -999.2500  -999.2500
   36.0000    64.9321  -999.2500  -999.2500
   36.5000    62.4320  -999.2500  -999.2500
   37.0000    60.3597  -999.2500  -999.2500
   37.5000    59.6056  -999.2500  -999.2500
   38.0000    59.1633  -999.2500  -999.2500
   38.5000    59.8104  -999.2500  -999.2500
   39.0000    60.7166  -999.2500  -999.2500
   39.5000    60.1243  -999.2500  -999.2500
   40.0000    59.1496  -999.2500  -999.2500
   40.5000    60.6011  -999.2500  -999.2500
   41.0000    62.5222  -999.2500  -999.2500
   41.5000    64.3731  -999.2500  -999.2500
   42.0000    63.6763  -999.2500  -999.2500
   42.5000    62.3982  -999.2500  -999.2500
   43.0000    62.3835  -999.2500  -999.2500
   43.5000    63.1842  -999.2500  -999.2500
   44.0000    64.1824  -999.2500  -999.2500
   44.5000    65.1810  -999.2500  -999.2500
   45.0000    66.1745  -999.2500  -999.2500
   45.5000    67.1742  -999.2500     8.3061
   46.0000    68.1312  2043.9430     8.4703
   46.5000    71.2930  2031.9722     9.3782
   47.0000    76.5172   253.2684    10.1769
   47.5000    83.2337    23.4924    10.7112
   48.0000    89.3174    11.0460     9.3989
   48.5000    89.8867     7.8261     8.0064
   49.0000    90.5930     5.5448     6.8238
   49.5000    92.4047     4.8186     5.8158
   50.0000    96.0816     4.6190     4.9568
   50.5000    99.6066     5.1276     4.6706
   51.0000   102.4573     5.6135     4.6381
   51.5000   103.2828     6.8222     4.8882
   52.0000   102.5516     7.4903     5.7078
   52.5000   101.2429     7.1675     6.3510
   53.0000   100.4373     6.8209     6.6914
   53.5000   102.1473     6.8725     6.6188
   54.0000   103.9591     6.9478     6.5054
   54.5000   105.7242     6.8184     6.6079
   55.0000   103.8864     6.9922     6.7472
   55.5000   101.5390     7.1237     6.8894
   56.0000    99.1812     7.2576     7.0346
   56.5000    99.3180     7.3940     7.1828
   57.0000   101.6746     7.5330     7.3342
   57.5000   103.9925     7.6752     7.4903
   58.0000   106.2505     7.7622     7.5610
   58.5000   106.7892     7.8361     7.6284
   59.0000   104.7992     7.9105     7.7137
   59.5000   102.9144     7.9857     7.8000
   60.0000   102.3972     8.0754     7.8586
   60.5000   103.4631     8.0370     7.8777
   61.0000   103.4996     7.9751     7.8968
   61.5000   103.2694     7.9139     7.9160
   62.0000   103.0299     7.8532     7.9352
   62.5000   102.7929     7.7930     7.9548
   63.0000   102.5556     7.7332     7.9748
   63.5000   102.3205     7.6740     8.0002
   64.0000   102.0704     7.6151     7.7829
   64.5000   102.7961     7.5610     7.4903
   65.0000   103.9418     7.5756     7.4587
   65.5000   103.7954     7.5923     7.4291
   66.0000   103.2828     7.6090     7.4202
   66.5000   103.0091     7.6257     7.4202
   67.0000   103.6485     7.6425     7.4202
   67.5000   103.4649     7.6593     7.4202
   68.0000   103.2173     7.6762     7.4202
   68.5000   102.9741     7.6932     7.4202
   69.0000   103.0404     7.7108     7.4202
   69.5000   103.5599     7.7307     7.4202
   70.0000   104.1913     7.7504     7.4202
   70.5000   103.6785     7.7703     7.4200
   71.0000   102.6755     7.7901     7.4203
   71.5000   102.6850     7.8101     7.4773
   72.0000   104.3007     7.8301     7.5823
   72.5000   105.9147     7.8507     7.6883
   73.0000   105.8417     7.9388     7.7878
   73.5000   103.5680     8.0310     7.8447
   74.0000   101.2662     8.1242     7.9026
   74.5000   103.3343     8.2184     7.9610
   75.0000   106.8569     8.3137     8.0197
   75.5000   108.7203     8.4101     8.0789
   76.0000   108.5367     8.5077     8.1385
   76.5000   107.0097     8.6243     8.1986
   77.0000   105.6318     8.5436     8.2591
   77.5000   105.3327     8.6405     8.3382
   78.0000   106.1513     8.7206     8.4802
   78.5000   108.8347     8.8014     8.6246
   79.0000   111.4825     8.8830     8.7184
   79.5000   113.1169     8.9653     8.7701
   80.0000   112.1938     9.0484     8.8221
   80.5000   110.7613     9.1322     8.8744
   81.0000   109.4973     9.2108     8.9270
   81.5000   111.0670     9.2281     8.9784
   82.0000   112.6938     9.2442     9.0285
   82.5000   114.3154     9.2604     9.0788
   83.0000   115.2018     9.2767     9.1246
   83.5000   112.9472     9.2929     9.2915
   84.0000   110.4861     9.3687     9.4085
   84.5000   107.9257     9.5116     9.5270
   85.0000   107.5298     9.6568     9.6470
   85.5000   107.7757     9.8042     9.7685
   86.0000   108.7823     9.9526     9.8915
   86.5000   108.8263    10.1107    10.0160
   87.0000   107.8292    10.2752    10.1421
   87.5000   107.0436    10.4424    10.2699
   88.0000   106.0998    10.6123    10.3992
   88.5000   104.3819    10.7850    10.5301
   89.0000   103.3380    10.9605    10.6627
   89.5000   104.3574    11.1389    10.7970
   90.0000   105.1640    11.3202    10.9085
   90.5000   102.0567    11.4333    10.9474
   91.0000    98.8807    11.3177    10.9873
   91.5000    97.9338    11.2340    11.0115
   92.0000    99.7463    11.1511    10.9558
   92.5000   102.5567    11.0690    10.9160
   93.0000   105.3491    10.9876    10.8764
   93.5000   108.1592    10.9085    10.8370
   94.0000   109.7112    10.9497    10.8066
   94.5000   108.7647    10.9910    10.8513
   95.0000   107.3889    11.0322    10.8880
   95.5000   106.6044    11.0735    10.9085
   96.0000   109.1820    11.1149    10.9384
   96.5000   110.9022    11.1564    11.0054
   97.0000   112.0303    11.1981    11.0727
   97.5000   112.0637    11.2408    11.1404
   98.0000   110.5359    11.3170    11.2088
   98.5000   107.6263    11.3936    11.2760
   99.0000   104.7381    11.4333    11.4354
   99.5000   101.8626    11.3378    11.2465
  100.0000   100.5232    11.2008    11.0842
  100.5000   100.8236    11.0654    10.9249
  101.0000   103.2872    10.9317    10.7677
  101.5000   106.0185    10.7996    10.6128
  102.0000   108.7380    10.6691    10.4601
  102.5000   111.4808    10.5401    10.3096
  103.0000   112.0354    10.4077    10.2103
  103.5000   110.9427    10.3731    10.2000
  104.0000   109.8239    10.3371    10.1897
  104.5000   108.6986    10.3013    10.1794
