~VERSION INFORMATION
 VERS.                2.0:   CWLS LOG ASCII STANDARD - VERSION 2.0
 WRAP.                 NO:   ONE LINE PER DEPTH STEP
~WELL INFORMATION
#MNEM.UNIT      DATA TYPE    INFORMATION
#----------   ------------   ------------------------------
 STRT.F           35.0000:   START DEPTH
 STOP.F          474.0000:   STOP DEPTH
 STEP.F            0.5000:   STEP LENGTH
 NULL.          -999.2500:   NO VALUE
 COMP.    FENIX & SCISSON:   COMPANY
 WELL.        NPR #53-S-3:   WELL
 FLD .             TEAPOT:   FIELD
 LOC .       S3 T38N R78W:   LOCATION
 CNTY.            NATRONA:   COUNTY
 STAT.            WYOMING:   STATE
 CTRY. UNITED STATES OF AMERICA:   COUNTRY
 SRVC.       Schlumberger:   SERVICE COMPANY
 DATE.        21-FEB-1977:   LOGDATE
 API .       490251027800:   API NUMBER
~CURVE INFORMATION
#MNEM.UNIT       API CODE    CURVE DESCRIPTION
#----------   ------------   ------------------------------
 DEPT.F                  :   
 SPR .MV     07 010 01 00:   SPONTANEOUS POTENTIAL
 ILD .OHMM   07 120 46 00:   INDUCTION LOG DEEP
 ILM .OHMM   07 120 44 00:   INDUCTION LOG MEDIUM
 LL8 .OHMM   07 220 08 00:   LATEROLOG-8 RES.
 CALD.IN     45 280 60 00:   CALIPER FROM DENSITY LOG
 CORR.G/C3   45 356 01 00:   DENSITY CORRECTION
 RHOB.G/C3   45 350 01 00:   BULK DENSITY
 DPHI.DEC    45 890 12 00:   DENSITY POROSITY SANDSTONE
 GRD .GAPI   45 310 01 00:   GAMMA RAY FROM DENSITY LOG
~PARAMETER INFORMATION
#MNEM.UNIT          VALUE    DESCRIPTION
#----------   ------------   ------------------------------
 PD  .                 GL:   PERMANENT DATUM
 EPD .F              5163:   ELEVATION PERMANENT DATUM
 LMF .                 GL:   LOG MEASURED FROM
 DMF .                 KB:   DRILLING MEASURED FROM
 EKB .F              5167:   KELLING BUSHING
 EGL .F              5163:   GROUND LEVEL
 DATE.        21-FEB-1977:   RUN DATE
 RUN .                  1:   RUN NUMBER
 DD  .F               480:   DEPTH DRILLER
 DL  .F               475:   DEPTH LOGGER
 BLI .F               474:   BOTTOM LOG INTERVAL
 TLI .F                39:   TOP LOG INTERVAL
 CS  .IN            8.625:   CASING SIZE
 CBD .F                40:   CASING BOTTOM DRILLER
 CBL .F                39:   CASING BOTTOM LOGGER
 BS  .IN            7.875:   BIT SIZE
 BSD .F               480:   BIT SIZE AT DEPTH
 DFT .            KCL MUD:   DRILLING FLUID TYPE
 DFD .                8.6:   DRILLING FLUID DENSITY
 DFV .                 35:   DRILLING FLUID VISCOSITY
 DFPH.                8.0:   DRILLING FLUID PH
 DFL .                6.8:   DRILLING FLUID LOSS
 MSS .           FLOWLINE:   MUD SAMPLE SOURCE
 RMS .OHMM            .41:   RESISTIVITY MUD SAMPLE
 MST .F                70:   MUD SAMPLE TEMPERATURE
 RMF .OHMM            .46:   RESISTIVITY MUD FILTRATE SAMPLE
 MFST.F                70:   MUD FILTRATE SAMPLE TEMPERATURE
 MFSS.               MEAS:   MUD FILTRATE SAMPLE SOURCE
 TCS .HRS               1:   TIME CURCULATED STOPPED
 LUN .               7680:   LOGGING UNIT NUMBER
 LUL .               CSPR:   LOGGING UNIT LOCATION
 ENGI.             TAYLOR:   RECORDING ENGINEER
 WITN.               JAPP:   WITNESSED BY
 CLNT.            A2DTECH:   CLIENT CODE
 ORIG.           5" PRINT:   ORIGIN OF DATA
 UWI .       490251027800:   UNIQUE WELL ID
 DICO. A2D Technologies, Inc.:   DIGITIZING COMPANY
~OTHER INFORMATION
~A   DEPT      SPR        ILD        ILM        LL8       CALD       CORR       RHOB       DPHI         GRD  
# ...
  290.5000   -50.5156     7.8027     8.2014    10.1202     8.2976     0.0265     2.5178     0.0772    97.5585
  291.0000   -50.3473     7.8081     8.2053    10.0546     8.2989     0.0274     2.5103     0.0832    94.8531
  291.5000   -50.1789     7.8123     8.3236     9.9231     8.3150     0.0258     2.5095     0.0853    92.1656
  292.0000   -49.8613     7.8166     8.5023    10.0670     8.3162     0.0378     2.5073     0.0810    94.7317
  292.5000   -49.8422     7.8208     8.6249    10.2836     8.3174     0.0371     2.4945     0.0949    99.4452
  293.0000   -49.8231     7.8251     8.6889    10.2183     8.3186     0.0175     2.4810     0.0979   102.5862
  293.5000   -49.8039     7.8837     8.7534    10.2251     8.3198     0.0154     2.4960     0.0906   104.3613
  294.0000   -49.7848     7.9428     8.7576    10.6779     8.3212     0.0199     2.4945     0.0897   104.7710
  294.5000   -50.0642     8.0023     8.7618    10.9680     8.3224     0.0122     2.4991     0.0939   104.5484
  295.0000   -50.2040     8.0623     8.7660    10.8110     8.3236     0.0162     2.5017     0.0902   102.5266
  295.5000   -50.6230     8.1791     8.7097    10.1069     8.3247     0.0223     2.4946     0.0948    99.6053
  296.0000   -50.6030     8.2404     8.7140     9.7688     8.3259     0.0125     2.4893     0.1005    97.8079
  296.5000   -50.5800     8.2449     8.7190     9.5075     8.3271     0.0201     2.4856     0.1011    98.2604
  297.0000   -50.8594     8.2493     8.7232     9.7121     8.3283     0.0208     2.4925     0.0959    98.7124
  297.5000   -51.1435     8.2539     8.7880    10.3414     8.3142     0.0261     2.4873     0.0980   100.0640
  298.0000   -51.1196     8.2583     9.2285    11.2422     8.3157     0.0036     2.4727     0.1001   100.7409
  298.5000   -51.1005     8.0852     9.7585    11.4841     8.3169     0.0074     2.4815     0.1004   100.7431
  299.0000   -51.0814     7.8232     9.9679    11.4112     8.3181     0.0157     2.4834     0.0985    99.1711
  299.5000   -51.0623     7.4059    10.0407    11.3372     8.3193     0.0195     2.4857     0.1003    96.4747
  300.0000   -51.0299     6.9644     8.4541    11.7185     8.3208     0.0263     2.4932     0.0987    92.6533
  300.5000   -50.9203     6.4095     6.3207    12.6797     8.3244     0.0219     2.5001     0.0997    95.1514
  301.0000   -50.6985     6.1477     6.1073     8.7334     8.3281     0.0073     2.4668     0.1102    95.8481
  301.5000   -50.3627     5.9861     6.0721     4.1697     8.3318     0.0008     2.4166     0.1211    99.9182
  302.0000   -49.7731     5.9473     6.2104     3.4610     8.3354     0.0099     2.3760     0.1467   108.9358
  302.5000   -49.4552     6.1174     6.5151     7.0600     8.3391     0.0264     2.3640     0.1729   113.0060
  303.0000   -49.2866     6.2916     6.8898    11.7020     8.3428     0.0302     2.3588     0.1768   112.7317
  303.5000   -49.2634     6.7452     7.2859    12.4601     8.3464    -0.0005     2.3957     0.1603   106.9655
  304.0000   -49.2441     7.4860     7.9211    11.7148     8.3488     0.0062     2.4778     0.1219    98.6848
  304.5000   -49.0756     8.3659     8.6116    11.8025     8.3504     0.0033     2.4854     0.1019    98.0267
  305.0000   -49.0563     9.2848     9.1700    12.0565     8.3371    -0.0012     2.4847     0.0998    98.0543
  305.5000   -49.0371    10.0232     9.7646    12.4014     8.3537     0.0048     2.4848     0.1013    95.6026
  306.0000   -49.0178    10.0969    10.2549    12.4081     8.3399     0.0049     2.4848     0.0994    92.4763
  306.5000   -48.9986    10.1011    10.4021    12.2444     8.3419     0.0094     2.4886     0.0970    90.2495
  307.0000   -48.9793    10.0345    10.1250    12.0828     8.3436     0.0199     2.4932     0.0934    90.7213
  307.5000   -48.6615    10.0397    10.0593    11.9234     8.3452     0.0350     2.5008     0.0876    92.3176
  308.0000   -48.4930    10.1838    10.2774    12.1075     8.3468     0.0275     2.4936     0.0991    94.3637
  308.5000   -48.3245    10.5466    10.7189    12.3567     8.3484     0.0200     2.4866     0.1069    95.7351
  309.0000   -47.8575    11.0746    11.1024    12.1109     8.3350     0.0283     2.4942     0.0933    97.1574
  309.5000   -47.0920    11.6290    11.8223    12.0324     8.3217     0.0344     2.4874     0.0996    97.3535
  310.0000   -46.4757    12.7289    12.8529    13.2645     8.3234     0.0314     2.4920     0.1041    93.6283
  310.5000   -45.7102    14.0295    14.3656    20.9472     8.3250     0.0239     2.4680     0.1047    86.8335
  311.0000   -45.2431    15.1538    16.3931    20.6708     8.3270     0.0157     2.4530     0.1142    79.4343
  311.5000   -44.6269    16.7186    18.1961    20.9701     8.3132     0.0240     2.4387     0.1217    69.5613
  312.0000   -44.4584    18.2069    19.9424    24.4289     8.3152     0.0202     2.4102     0.1280    63.9612
  312.5000   -44.4391    19.9082    22.3166    28.0674     8.3169     0.0240     2.3846     0.1532    57.0118
  313.0000   -44.4198    21.4436    24.4385    31.1519     8.3185     0.0353     2.3794     0.1691    52.7610
  313.5000   -44.2513    22.5171    26.0156    33.6321     8.3047     0.0263     2.3584     0.1776    50.5342
  314.0000   -44.0828    22.8403    27.0724    30.5457     8.3217     0.0121     2.3185     0.1956    50.7812
  314.5000   -44.0636    22.6921    27.8475    31.4195     8.3233     0.0166     2.3050     0.2119    54.8512
  315.0000   -43.8950    22.5449    27.8627    32.9957     8.3249     0.0099     2.2975     0.2152    57.7968
  315.5000   -43.8758    22.3963    27.1169    32.1131     8.3266     0.0370     2.3044     0.2088    60.5176
  316.0000   -43.8565    22.0975    26.5743    31.0388     8.3282     0.0325     2.2777     0.2149    56.9297
  316.5000   -43.6880    22.1089    26.2234    29.7937     8.3298     0.0235     2.2758     0.2245    54.4707
  317.0000   -43.6687    21.9632    25.6952    28.7904     8.3464     0.0183     2.2706     0.2293    54.5487
  317.5000   -43.6493    21.9744    25.8914    28.2211     8.3481     0.0236     2.2684     0.2338    56.3386
  318.0000   -43.6302    21.9835    26.4490    28.4593     8.3347     0.0190     2.2941     0.2229    59.0593
  318.5000   -43.7602    21.9925    27.0186    28.8449     8.3367     0.0154     2.3107     0.2057    61.3303
  319.0000   -44.2090    22.1543    27.7921    29.4689     8.3383     0.0379     2.3281     0.1926    63.1514
  319.5000   -44.7911    22.4722    28.3906    30.3119     8.3249     0.0515     2.3620     0.1821    64.5229
  320.0000   -45.0457    23.1124    28.8020    32.2758     8.3266     0.0162     2.3470     0.1945    64.9892
  320.5000   -45.4694    23.7709    28.6152    34.3670     8.2982     0.0117     2.3335     0.1851    61.8684
  321.0000   -45.4502    24.7888    28.8336    35.1065     8.2999     0.0260     2.3494     0.1863    61.2103
  321.5000   -45.4309    26.2117    30.0724    35.8620     8.2861     0.0216     2.3434     0.1802    61.2774
  322.0000   -45.5657    27.3431    32.0224    37.4015     8.2582     0.0171     2.3705     0.1675    61.0351
  322.5000   -45.5416    28.1313    34.5739    46.3682     8.2448     0.0224     2.3909     0.1561    60.8323
  323.0000   -45.5224    28.5154    37.8491    52.9071     8.2465     0.0194     2.4169     0.1367    60.1529
  323.5000   -45.3539    28.5296    42.3253    54.4206     8.2331     0.0089     2.4878     0.1292    55.8021
  324.0000   -45.3346    28.3445    44.1211    53.7025     8.2347     0.0270     2.5040     0.1044    59.1049
  324.5000   -44.8676    27.7735    40.7726    48.1043     8.2364     0.0375     2.4634     0.1059    62.0506
  325.0000   -44.6991    27.0264    35.7616    39.1139     8.2380     0.0495     2.4191     0.1348    63.8717
  325.5000   -44.3813    26.2967    33.4663    29.8849     8.2246     0.0278     2.3544     0.1704    66.1427
  326.0000   -44.2128    25.2402    32.3439    28.8453     8.2416     0.0151     2.3348     0.1913    69.3132
  326.5000   -44.1936    24.2236    31.9154    29.9175     8.2432     0.0226     2.3514     0.1745    69.5547
