~VERSION INFORMATION
 VERS.                2.0:   CWLS LOG ASCII STANDARD - VERSION 2.0
 WRAP.                 NO:   ONE LINE PER DEPTH STEP
~WELL INFORMATION
#MNEM.UNIT      DATA TYPE    INFORMATION
#----------   ------------   ------------------------------
 STRT.F            8.5000:   START DEPTH
 STOP.F          509.0000:   STOP DEPTH
 STEP.F            0.5000:   STEP LENGTH
 NULL.          -999.2500:   NO VALUE
 COMP. LAWRENCE-ALLISON &AS:   COMPANY
 WELL. NPR 3 #68-26SX3LP2:   WELL
 FLD .             TEAPOT:   FIELD
 LOC .       S3 T38N R78W:   LOCATION
 CNTY.            NATRONA:   COUNTY
 STAT.            WYOMING:   STATE
 CTRY. UNITED STATES OF AMERICA:   COUNTRY
 SRVC.      Dresser Atlas:   SERVICE COMPANY
 DATE.        12-DEC-1984:   LOGDATE
 API .       490251099600:   API NUMBER
~CURVE INFORMATION
#MNEM.UNIT       API CODE    CURVE DESCRIPTION
#----------   ------------   ------------------------------
 DEPT.F                  :   
 CNC .DEC    42 890 03 00:   NEUTRON POROSITY SANDSTONE
 CALD.IN     45 280 60 00:   CALIPER FROM DENSITY LOG
 CORR.G/C3   45 356 01 00:   DENSITY CORRECTION
 GRD .GAPI   45 310 01 00:   GAMMA RAY FROM DENSITY LOG
 PORD.DEC    45 890 12 00:   POROSITY DENSITY SANDSTONE
 RHOB.G/C3   45 350 01 00:   BULK DENSITY
 DT  .US/F   60 520 00 00:   INTERVAL TRANSIT TIME
 SPR .MV     11 010 01 00:   SPONTANEOUS POTENTIAL FROM RES.
 RS  .OHMM   11 220 09 00:   RESISTIVITY SHALLOW
 RD  .OHMM   11 220 10 00:   RESISTIVITY DEEP
~PARAMETER INFORMATION
#MNEM.UNIT          VALUE    DESCRIPTION
#----------   ------------   ------------------------------
 PD  .                 GL:   PERMANENT DATUM
 EPD .F              5158:   ELEVATION PERMANENT DATUM
 LMF .                 GL:   LOG MEASURED FROM
 DMF .                 GL:   DRILLING MEASURED FROM
 EGL .F              5158:   GROUND LEVEL
 DATE.        12-DEC-1984:   RUN DATE
 RUN .                  1:   RUN NUMBER
 DD  .F               510:   DEPTH DRILLER
 DL  .F               510:   DEPTH LOGGER
 BLI .F               501:   BOTTOM LOG INTERVAL
 TLI .F                20:   TOP LOG INTERVAL
 CS  .IN            8.625:   CASING SIZE
 CBD .F                20:   CASING BOTTOM DRILLER
 CBL .F                20:   CASING BOTTOM LOGGER
 BS  .IN            7.875:   BIT SIZE
 BSD .F               510:   BIT SIZE AT DEPTH
 DFT .          KCL/WATER:   DRILLING FLUID TYPE
 MSS .            MUDTANK:   MUD SAMPLE SOURCE
 RMS .OHMM           0.21:   RESISTIVITY MUD SAMPLE
 MST .F                70:   MUD SAMPLE TEMPERATURE
 RMF .OHMM           0.16:   RESISTIVITY MUD FILTRATE SAMPLE
 MFST.F                70:   MUD FILTRATE SAMPLE TEMPERATURE
 RMC .OHMM           0.26:   RESISTIVITY MUD CAKE
 MCST.F                70:   MUD CAKE SAMPLE TEMPERATURE
 MFSS.               CALC:   MUD FILTRATE SAMPLE SOURCE
 MCSS.               CALC:   MUD CAKE SAMPLE SOURCE
 RMB .OHMM           0.17:   RESISTIVITY MUD AT BHT
 BHT .F                85:   BOTTOM HOLE TEMPERATURE
 TCS .HRS               6:   TIME CURCULATED STOPPED
 MRT .F               100:   MAXIMUM RECORDED TEMPERATURE
 LUN .               6270:   LOGGING UNIT NUMBER
 LUL .                 FM:   LOGGING UNIT LOCATION
 ENGI.           E.GOVETT:   RECORDING ENGINEER
 WITN.              LUERS:   WITNESSED BY
 CLNT.            A2DTECH:   CLIENT CODE
 ORIG.           5" PRINT:   ORIGIN OF DATA
 UWI .       490251099600:   UNIQUE WELL ID
 DICO. A2D Technologies, Inc.:   DIGITIZING COMPANY
~OTHER INFORMATION
~A    DEPT     CNC       CALD       CORR        GRD       PORD       RHOB          DT       SPR         RS         RD   
# ...
  176.0000     0.3181     7.8132     0.0184   112.0596     0.1299     2.4608   110.9370   -53.9186     8.8990    14.6092
  176.5000     0.3177     7.8147     0.0035   108.9570     0.1308     2.4593   110.9964   -53.3155     8.9652    14.6162
  177.0000     0.3171     7.8161     0.0021   106.8784     0.1320     2.4579   110.9838   -52.7124     8.9695    14.6231
  177.5000     0.3098     7.8027     0.0038   104.9282     0.1326     2.4565   110.8210   -52.2579     9.0362    14.7317
  178.0000     0.2978     7.8042    -0.0035   102.5579     0.1323     2.4596   110.5078   -51.9520     9.1667    14.8412
  178.5000     0.2898     7.8057    -0.0199   100.7686     0.1304     2.4627   109.7439   -51.6460     9.2348    14.8483
  179.0000     0.2985     7.8072    -0.0145   101.1628     0.1292     2.4650   109.6593   -51.7859     9.0491    14.8555
  179.5000     0.3058     7.8086     0.0181   110.0780     0.1295     2.4673   110.3198   -51.9257     8.1596    13.8696
  180.0000     0.3042     7.8249     0.0393   112.3134     0.1370     2.4569   112.9368   -52.0655     6.8648    10.1609
  180.5000     0.3030     7.8264     0.0575   111.4397     0.1505     2.4187   115.9295   -52.2054     6.6804    10.0944
  181.0000     0.3256     7.8279     0.0622   108.9307     0.1598     2.4135   118.1708   -52.1944     6.6374    10.2413
  181.5000     0.3289     7.8294     0.0563   106.7183     0.1589     2.4144   118.6090   -52.1857     6.5947    10.3890
  182.0000     0.3159     7.8312     0.0444   103.9984     0.1520     2.4244   117.9202   -52.3277     6.7415    10.7602
  182.5000     0.3026     7.8174     0.0326    99.7725     0.1471     2.4325   115.7939   -52.4675     7.1793    11.3000
  183.0000     0.2980     7.8192     0.0192    96.5216     0.1495     2.4289   113.3594   -52.3080     7.3880    11.9494
  183.5000     0.3034     7.8059     0.0073    96.3831     0.1474     2.4312   111.5973   -52.1506     7.6965    12.9910
  184.0000     0.3276     7.7925     0.0060   102.1860     0.1380     2.4463   110.8075   -51.9933     8.2527    13.7375
  184.5000     0.3372     7.7791     0.0137   109.0241     0.1286     2.4659   111.1674   -51.9845     8.6671    14.5270
  185.0000     0.3376     7.7806     0.0335   109.6274     0.1264     2.4675   111.1548   -51.6786     9.1022    15.3690
  185.5000     0.3350     7.7669     0.0504   108.0119     0.1210     2.4751   111.2205   -51.5213     9.6257    16.1450
  186.0000     0.3298     7.7687     0.0698   107.2799     0.1117     2.4902   108.9508   -51.3639    10.0392    16.9438
  186.5000     0.3217     7.7702     0.0655   106.9964     0.1080     2.4985   107.2853   -51.0580    10.4705    17.4280
  187.0000     0.3092     7.7568     0.0596   106.8612     0.1116     2.4934   106.3712   -50.9004    10.7699    17.6795
  187.5000     0.2953     7.7583     0.0583   107.0261     0.1143     2.4889   106.2114   -50.8668    11.0014    17.8108
  188.0000     0.2838     7.7597     0.0434   108.2262     0.1173     2.4808   106.4243   -50.7324    11.1603    17.9410
  188.5000     0.2783     7.7463     0.0150   109.5747     0.1230     2.4741   106.7842   -50.5750    11.1656    17.7048
  189.0000     0.2801     7.7329     0.0091   110.9232     0.1248     2.4712   107.1472   -50.2691    11.0172    17.4695
  189.5000     0.3003     7.7048     0.0138   111.2404     0.1245     2.4690   107.5854   -50.1117    10.7954    17.2381
  190.0000     0.3097     7.6914     0.0200   105.7567     0.1244     2.4698   108.1739   -50.1030    10.6522    16.8917
  190.5000     0.3017     7.6780     0.0247   103.8411     0.1268     2.4677   108.8375   -50.0942    10.5013    16.4381
  191.0000     0.2975     7.7092     0.0248   106.3620     0.1289     2.4639   109.3508   -49.7883    10.2281    15.6677
  191.5000     0.3050     7.7255     0.0311   110.6558     0.1292     2.4626   109.9447   -49.4824     9.9544    15.2469
  192.0000     0.3062     7.7421     0.0405   113.3795     0.1292     2.4634   110.4663   -49.3250     9.8220    14.8374
  192.5000     0.2968     7.7436     0.0527   110.1286     0.1291     2.4642   110.9767   -49.0191     9.6245    14.1420
  193.0000     0.2956     7.7599     0.0631   108.2130     0.1275     2.4658   111.4761   -49.0103     9.3506    13.6672
  193.5000     0.3016     7.7762     0.0693   107.3360     0.1246     2.4712   111.8392   -49.3056     9.0396    13.2999
  194.0000     0.3197     7.7925     0.0394   107.4975     0.1354     2.4637   113.3292   -49.5872     8.8083    12.8396
  194.5000     0.3172     7.7940     0.0185   109.2911     0.1387     2.4533   115.0446   -49.7270     8.5716    12.3100
  195.0000     0.3227     7.7954     0.0066   110.4913     0.1387     2.4526   116.0839   -49.7161     8.2201    11.2810
  195.5000     0.3453     7.7969     0.0008   108.5757     0.1377     2.4535   118.6257   -49.7073     7.5271    10.0329
  196.0000     0.3749     7.8132     0.0115   104.7313     0.1428     2.4400   120.5666   -49.6986     6.5506     8.6791
  196.5000     0.3936     7.8295     0.0252   105.0412     0.1675     2.4011   121.8312   -49.5412     5.9477     8.3877
  197.0000     0.3926     7.8310     0.0344   106.0930     0.1732     2.3914   121.4430   -49.2353     6.1604     8.8085
  197.5000     0.3835     7.8473     0.0631   106.2512     0.1651     2.3984   119.8526   -49.0779     7.1323     9.7774
  198.0000     0.3539     7.8339     0.0753   105.5259     0.1440     2.4154   116.5342   -49.0692     8.2159    12.2936
  198.5000     0.3271     7.8416     0.0786   104.7972     0.1177     2.4587   113.5915   -48.9119     9.4342    13.3652
  199.0000     0.3185     7.8665     0.0864   103.9202     0.1107     2.4961   112.2265   -48.7545    10.0271    13.8426
  199.5000     0.3175     7.8680     0.0638   102.7465     0.1062     2.5037   111.9051   -48.4486    10.0319    14.0424
  200.0000     0.3012     7.8694     0.0203   103.3531     0.1152     2.4940   112.8775   -48.1426    10.0367    14.0490
  200.5000     0.2900     7.8553     0.0205   104.7018     0.1243     2.4776   113.9919   -47.5394    10.0415    14.1535
  201.0000     0.2764     7.8272     0.0312   104.8632     0.1292     2.4619   113.8117   -47.3819    10.2574    14.3732
  201.5000     0.2700     7.7996     0.0374   104.7280     0.1302     2.4612   112.4748   -47.0741    10.4778    14.8723
  202.0000     0.2798     7.7863     0.0285   106.2282     0.1251     2.4718   110.4949   -46.7681    10.4829    15.0869
  202.5000     0.2999     7.8326     0.0196   109.2081     0.1169     2.4824   109.2051   -46.4622    10.5608    15.0941
  203.0000     0.3080     7.8489     0.0152   107.8859     0.1145     2.4862   108.5915   -46.1563    10.5658    15.2062
  203.5000     0.3052     7.8504     0.0154   107.0088     0.1132     2.4886   108.5789   -45.1074    10.5709    15.1066
  204.0000     0.2974     7.8366     0.0186   106.4251     0.1120     2.4924   108.9419   -44.6529    10.5027    15.0095
  204.5000     0.2853     7.8233     0.0309   108.6670     0.1111     2.4962   109.4553   -44.4955    10.4490    14.7097
  205.0000     0.2825     7.8099     0.0385   110.3121     0.1108     2.4978   109.9686   -44.4868    10.3099    14.5125
  205.5000     0.2747     7.8179     0.0387   111.1039     0.1122     2.4964   110.3316   -44.4780    10.3178    14.4207
  206.0000     0.2649     7.8280     0.0419   107.8160     0.1164     2.4890   110.6227   -44.4693    10.3955    14.5280
  206.5000     0.2697     7.8147     0.0480   107.8664     0.1179     2.4845   110.5319   -44.4605    10.4747    14.5350
  207.0000     0.2863     7.8013     0.0517   110.0436     0.1200     2.4808   110.2939   -44.4517    10.5540    14.5420
  207.5000     0.3008     7.8027     0.0548   113.4965     0.1223     2.4764   109.8305   -44.4428    10.5605    14.5490
  208.0000     0.3050     7.7893     0.0370   112.1743     0.1244     2.4734   109.5174   -44.4339    10.6405    14.4553
  208.5000     0.3023     7.7908     0.0056   110.7037     0.1262     2.4699   109.5021   -44.4233    10.7211    14.3973
  209.0000     0.3219     7.8000    -0.0003   109.9717     0.1289     2.4655   109.4155   -44.7563    10.7278    14.4061
