~VERSION INFORMATION
 VERS.                2.0:   CWLS LOG ASCII STANDARD - VERSION 2.0
 WRAP.                 NO:   ONE LINE PER DEPTH STEP
~WELL INFORMATION
#MNEM.UNIT      DATA TYPE    INFORMATION
#----------   ------------   ------------------------------
 STRT.F           36.0000:   START DEPTH
 STOP.F          686.0000:   STOP DEPTH
 STEP.F            0.5000:   STEP LENGTH
 NULL.          -999.2500:   NO VALUE
 COMP.    FENIX & SCISSON:   COMPANY
 WELL.        NPR #15-S-2:   WELL
 FLD .             TEAPOT:   FIELD
 LOC .       S2 T38N R78W:   LOCATION
 CNTY.            NATRONA:   COUNTY
 STAT.            WYOMING:   STATE
 CTRY. UNITED STATES OF AMERICA:   COUNTRY
 SRVC.       Schlumberger:   SERVICE COMPANY
 DATE.        16-MAR-1977:   LOGDATE
 API .       490251029900:   API NUMBER
~CURVE INFORMATION
#MNEM.UNIT       API CODE    CURVE DESCRIPTION
#----------   ------------   ------------------------------
 DEPT.F                  :   
 SPR .MV     07 010 01 00:   SPONTANEOUS POTENTIAL FROM RES.
 ILD .OHMM   07 120 46 00:   INDUCTION LOG DEEP
 ILM .OHMM   07 120 44 00:   INDUCTION LOG MEDIUM
 LL8 .OHMM   07 220 08 00:   LATEROLOG-8 RES.
 GRD .GAPI   45 310 01 00:   GAMMA RAY FROM DENSITY LOG
 CALD.IN     45 280 60 00:   CALIPER FROM DENSITY LOG
 CORR.G/C3   45 356 01 00:   DENSITY CORRECTION
 RHOB.G/C3   45 350 01 00:   BULK DENSITY
 DPHI.DEC    45 890 12 00:   DENSITY POROSITY SANDSTONE
~PARAMETER INFORMATION
#MNEM.UNIT          VALUE    DESCRIPTION
#----------   ------------   ------------------------------
 PD  .                 GL:   PERMANENT DATUM
 EPD .F              5129:   ELEVATION PERMANENT DATUM
 LMF .                 KB:   LOG MEASURED FROM
 DAPD.F                 4:   FEET ABOVE PERMANENT DATUM
 DMF .                 KB:   DRILLING MEASURED FROM
 EKB .F              5133:   KELLING BUSHING
 EGL .F              5129:   GROUND LEVEL
 DATE.        15-MAR-1977:   RUN DATE
 RUN .                  1:   RUN NUMBER
 DD  .F               680:   DEPTH DRILLER
 DL  .F               680:   DEPTH LOGGER
 BLI .F               683:   BOTTOM LOG INTERVAL
 TLI .F                48:   TOP LOG INTERVAL
 CS  .IN            8.625:   CASING SIZE
 CBD .F                40:   CASING BOTTOM DRILLER
 CBL .F                49:   CASING BOTTOM LOGGER
 BS  .IN            7.875:   BIT SIZE
 BSD .F               680:   BIT SIZE AT DEPTH
 DFT .            KCL MUD:   DRILLING FLUID TYPE
 DFD .                8.8:   DRILLING FLUID DENSITY
 DFV .                 33:   DRILLING FLUID VISCOSITY
 DFPH.                9.6:   DRILLING FLUID PH
 DFL .                9.0:   DRILLING FLUID LOSS
 MSS .                PIT:   MUD SAMPLE SOURCE
 RMS .OHMM           0.22:   RESISTIVITY MUD SAMPLE
 MST .F                50:   MUD SAMPLE TEMPERATURE
 RMF .OHMM           0.21:   RESISTIVITY MUD FILTRATE SAMPLE
 MFST.F                50:   MUD FILTRATE SAMPLE TEMPERATURE
 MFSS.               MEAS:   MUD FILTRATE SAMPLE SOURCE
 TCS .HRS            1800:   TIME CURCULATED STOPPED
 TLAB.HRS            2130:   TIME LOGGER AT BOTTOM
 LUN .               7711:   LOGGING UNIT NUMBER
 LUL .               CSPR:   LOGGING UNIT LOCATION
 ENGI.             TAYLER:   RECORDING ENGINEER
 CLNT.            A2DTECH:   CLIENT CODE
 ORIG.           5" PRINT:   ORIGIN OF DATA
 UWI .       490251029900:   UNIQUE WELL ID
 DICO. A2D Technologies, Inc.:   DIGITIZING COMPANY
~OTHER INFORMATION
~A   DEPT      SPR        ILD        ILM        LL8         GRD      CALD       CORR       RHOB       DPHI   
# ...
  255.0000   -63.5815    11.7842    11.5539    12.7265   110.2530     8.3177     0.0069     2.4984     0.0930
  255.5000   -63.7164    12.0473    11.8889    12.8242   107.8979     8.3194     0.0054     2.5015     0.0903
  256.0000   -63.9998    12.3078    12.5789    13.1393   107.0045     8.3059     0.0041     2.4963     0.0929
  256.5000   -64.2835    12.6418    12.8540    13.6717   108.5369     8.3082     0.0073     2.4941     0.0899
  257.0000   -64.4180    12.8222    12.8637    14.0672   110.6395     8.2947     0.0112     2.5017     0.0881
  257.5000   -64.4030    12.9156    12.8735    14.2741   111.8505     8.2969     0.0164     2.5033     0.0899
  258.0000   -64.3881    12.9200    12.8833    14.1850   110.5355     8.2987     0.0066     2.4928     0.0947
  258.5000   -64.3731    13.1044    12.9832    14.2939   107.1403     8.3004     0.0045     2.4921     0.0940
  259.0000   -64.3554    13.1999    13.0838    14.7073   104.4880     8.3171     0.0093     2.4907     0.0952
  259.5000   -64.3406    13.2044    13.2772    15.4519   104.5104     8.3188     0.0116     2.4870     0.0997
  260.0000   -64.3259    13.2089    13.5861    15.3554   106.4643     8.3206     0.0132     2.4968     0.0910
  260.5000   -64.1619    13.1213    13.7997    14.9443   109.6070     8.3224     0.0148     2.5037     0.0882
  261.0000   -63.8487    13.0353    14.0682    14.4435   110.6695     8.3242     0.0163     2.5030     0.0879
  261.5000   -63.5354    12.8607    14.1772    14.2537   109.5031     8.3408     0.0111     2.5001     0.0894
  262.0000   -63.2222    12.6020    14.1880    14.0665   105.3649     8.3421     0.0097     2.4964     0.0927
  262.5000   -63.0582    12.4321    14.1000    14.0763   103.4556     8.3276     0.0074     2.4949     0.0890
  263.0000   -62.8942    12.2656    14.1111    13.9883   102.8826     8.3162     0.0054     2.4912     0.0950
  263.5000   -62.8794    12.1861    14.1219    13.8986   103.5003     8.3184     0.0054     2.4905     0.0953
  264.0000   -62.8647    12.1904    14.2313    13.7160   104.7113     8.3049     0.0063     2.4944     0.0944
  264.5000   -62.8499    12.2792    14.2421    13.5359   104.4364     8.3071     0.0064     2.5027     0.0889
  265.0000   -62.8352    12.4545    14.2530    13.2655   102.8243     8.2936     0.0057     2.5058     0.0874
  265.5000   -62.8205    12.7199    14.1650    13.1845   102.3953     8.2806     0.0058     2.5059     0.0895
  266.0000   -62.6565    12.9015    14.0775    13.1940   101.9774     8.2828     0.0074     2.4969     0.0967
  266.5000   -62.6417    12.9955    13.7016    13.2031   101.8456     8.2693     0.0120     2.4804     0.1015
  267.0000   -62.4776    13.0000    13.5214    13.3045   101.5707     8.2715     0.0106     2.4805     0.1005
  267.5000   -62.4627    13.0045    13.4360    13.3137   102.6387     8.2733     0.0054     2.4791     0.1047
  268.0000   -62.4477    13.0098    13.2587    13.4159   105.4843     8.2751     0.0070     2.4738     0.1068
  268.5000   -62.5828    12.9235    13.0902    13.5189   105.8038     8.2769     0.0131     2.4792     0.1008
  269.0000   -62.7173    12.7515    13.0093    13.5282   104.4888     8.2786     0.0147     2.4838     0.0992
  269.5000   -62.6988    12.6668    12.8394    13.4437   104.3569     8.2804     0.0081     2.4801     0.1037
  270.0000   -62.6841    12.5839    12.6602    13.3598   107.0594     8.2822     0.0066     2.4824     0.1028
  270.5000   -62.6694    12.4153    12.4065    13.2763   110.7965     8.2840     0.0082     2.4847     0.1007
  271.0000   -62.6546    12.2490    12.1721    13.1019   111.2646     8.2858     0.0098     2.4825     0.1003
  271.5000   -62.6399    12.1687    11.9975    13.0201   111.5841     8.2723     0.0114     2.4751     0.1057
  272.0000   -62.7781    12.0057    11.6945    12.8340   111.1606     8.2745     0.0160     2.4737     0.1021
  272.5000   -63.2074    11.8449    11.4596    12.5073   109.9942     8.2763     0.0154     2.4820     0.1006
  273.0000   -63.3419    11.6066    11.2336    12.3409   107.7877     8.2780     0.0109     2.4768     0.1087
  273.5000   -63.4764    11.4511    11.0847    12.2638   106.9130     8.2947     0.0118     2.4686     0.1077
  274.0000   -63.6146    11.2968    11.0162    12.1893   107.6838     8.2964     0.0134     2.4677     0.1056
  274.5000   -63.7492    11.0696    10.9482    12.1132   109.7864     8.2982     0.0127     2.4717     0.1032
  275.0000   -63.7307    10.9969    10.8806    12.0354   110.4030     8.3000     0.0098     2.4756     0.1056
  275.5000   -63.7160    10.8497    10.8909    12.0458   110.2768     8.3018     0.0069     2.4765     0.1082
  276.0000   -63.7013    10.8534    10.8992    11.8052   108.8132     8.3036     0.0047     2.4712     0.1088
  276.5000   -63.6865    10.7823    10.9075    11.6501   106.9039     8.3053     0.0056     2.4698     0.1076
  277.0000   -63.6717    10.7860    10.8381    11.4154   106.3263     8.3071     0.0139     2.4758     0.1004
  277.5000   -63.6567    10.7154    10.8484    11.2674   106.5028     8.3089     0.0193     2.5015     0.0922
  278.0000   -63.6418    10.6385    10.7067    11.3539   107.1195     8.3107     0.0156     2.5083     0.0847
  278.5000   -63.6268    10.4928    10.6385    11.5210   107.7361     8.3125     0.0127     2.4993     0.0979
  279.0000   -63.4599    10.4338    10.6487    11.6905   108.3528     8.3142     0.0113     2.4791     0.1060
  279.5000   -62.9974    10.4382    10.7312    11.7802   108.0780     8.3160     0.0121     2.4747     0.1083
  280.0000   -62.8334    10.5142    10.9658    11.7883   106.7630     8.3178     0.0137     2.4717     0.1083
  280.5000   -62.6694    10.5908    11.2838    11.7127   102.1791     8.3196     0.0153     2.4726     0.1074
  281.0000   -62.8076    10.6680    11.6921    11.4787   100.7100     8.3065     0.0169     2.4771     0.1059
  281.5000   -62.9421    10.6716    12.1152    11.3299   103.8582     8.3083     0.0147     2.4817     0.1085
  282.0000   -63.0729    10.6753    12.2943    11.2572   106.7037     8.2948     0.0118     2.4675     0.1121
  282.5000   -63.0582    10.6044    12.3036    11.1093   108.5091     8.2970     0.0089     2.4653     0.1103
  283.0000   -63.1964    10.5358    12.3130    11.0399   109.1202     8.2988     0.0022     2.4669     0.1109
  283.5000   -63.3272    10.4668    12.3224    11.1266   105.1362     8.3006    -0.0022     2.4684     0.1112
  284.0000   -63.3125    10.4421    12.3318    11.6089   103.6727     8.3024    -0.0014     2.4738     0.1078
  284.5000   -63.2977    10.2613    12.1683    11.8619   103.8436     8.2889     0.0032     2.4791     0.1033
  285.0000   -63.2830    10.0521    11.9284    11.7875   106.2433     8.2911     0.0078     2.4807     0.1039
  285.5000   -63.4175     9.7812    11.6099    11.4722   110.7233     8.2929     0.0072     2.4680     0.1081
  286.0000   -63.5520     9.5176    11.2215    11.1120   112.3801     8.3095     0.0058     2.4635     0.1095
  286.5000   -63.6865     9.3254    10.6963    10.8669   112.2538     8.3113     0.0074     2.4741     0.1065
  287.0000   -63.6718     9.0741    10.2669    10.4298   111.8304     8.2982     0.0112     2.4907     0.0999
  287.5000   -63.9555     8.8909     9.9235     9.8721   110.2182     8.3000     0.0226     2.4968     0.0938
  288.0000   -64.2586     8.7717     9.4590     9.4751   106.9716     8.3018     0.0197     2.4999     0.0887
  288.5000   -64.5498     8.7135     9.2707     9.2842   104.7651     8.3036     0.0130     2.4954     0.0989
  289.0000   -64.9524     8.6565     9.2133     9.3571   105.2332     8.3053     0.0071     2.4850     0.1055
  289.5000   -65.2362     8.6602     9.2848     9.4947   107.1872     8.3071     0.0041     2.4730     0.1088
  290.0000   -65.3744     8.6631     9.4879     9.7017   108.8440     8.3089     0.0050     2.4701     0.1084
  290.5000   -65.6544     8.6661     9.6281     9.7761   111.5409     8.3107     0.0058     2.4701     0.1069
  291.0000   -65.6397     8.7292     9.5686     9.7149   113.9406     8.3125     0.0051     2.4710     0.1063
