~VERSION INFORMATION
 VERS.                2.0:   CWLS LOG ASCII STANDARD - VERSION 2.0
 WRAP.                 NO:   ONE LINE PER DEPTH STEP
~WELL INFORMATION
#MNEM.UNIT      DATA TYPE    INFORMATION
#----------   ------------   ------------------------------
 STRT.F           86.0000:   START DEPTH
 STOP.F         1134.0000:   STOP DEPTH
 STEP.F            0.5000:   STEP LENGTH
 NULL.          -999.2500:   NO VALUE
 COMP.          U.S. NAVY:   COMPANY
 WELL. RES 3 TEAPOT DOM #64-S-2:   WELL
 FLD .             TEAPOT:   FIELD
 LOC .       S2 T38N R78W:   LOCATION
 CNTY.            NATRONA:   COUNTY
 STAT.            WYOMING:   STATE
 CTRY. UNITED STATES OF AMERICA:   COUNTRY
 SRVC. Schlumberger Well Surveying Corp:   SERVICE COMPANY
 DATE.        28-JUL-1964:   LOGDATE
 API .       490250644400:   API NUMBER
~CURVE INFORMATION
#MNEM.UNIT       API CODE    CURVE DESCRIPTION
#----------   ------------   ------------------------------
 DEPT.F                  :   
 ASN .OHMM   05 041 16 00:   AMPLIFIED SHORT NORMAL 16"
 CILD.MMHO   05 110 46 00:   CONDUCTIVITY INDUCTION LOG DEEP
 ILD .OHMM   05 120 46 00:   INDUCTION LOG DEEP
 SPR .MV     05 010 01 00:   SPONTANEOUS POTENTIAL FROM RES.
 DT  .US/F   60 520 33 00:   INTERVAL TRANSIT TIME
 GR  .GAPI   30 310 01 00:   GAMMA RAY
~PARAMETER INFORMATION
#MNEM.UNIT          VALUE    DESCRIPTION
#----------   ------------   ------------------------------
 PD  .                 GL:   PERMANENT DATUM
 EPD .F              5204:   ELEVATION PERMANENT DATUM
 LMF .                 KB:   LOG MEASURED FROM
 DAPD.F                 5:   FEET ABOVE PERMANENT DATUM
 DMF .                 KB:   DRILLING MEASURED FROM
 EKB .F              5209:   KELLING BUSHING
 EGL .F              5204:   GROUND LEVEL
 DATE.        28-JUL-1964:   RUN DATE
 RUN .                  1:   RUN NUMBER
 DD  .F              1135:   DEPTH DRILLER
 DL  .F              1135:   DEPTH LOGGER
 BLI .F              1134:   BOTTOM LOG INTERVAL
 TLI .F                86:   TOP LOG INTERVAL
 CS  .IN            10.75:   CASING SIZE
 CBD .F                11:   CASING BOTTOM DRILLER
 BS  .IN            7.875:   BIT SIZE
 BSD .F              1135:   BIT SIZE AT DEPTH
 DFT .            GEL-OIL:   DRILLING FLUID TYPE
 DFD .                9.5:   DRILLING FLUID DENSITY
 DFV .                 49:   DRILLING FLUID VISCOSITY
 DFL .                 10:   DRILLING FLUID LOSS
 MSS .           FLOWLINE:   MUD SAMPLE SOURCE
 RMS .OHMM           2.35:   RESISTIVITY MUD SAMPLE
 MST .F                89:   MUD SAMPLE TEMPERATURE
 RMF .OHMM           1.71:   RESISTIVITY MUD FILTRATE SAMPLE
 MFST.F                89:   MUD FILTRATE SAMPLE TEMPERATURE
 RMC .OHMM           3.01:   RESISTIVITY MUD CAKE
 MCST.F                89:   MUD CAKE SAMPLE TEMPERATURE
 MFSS.                 FP:   MUD FILTRATE SAMPLE SOURCE
 MCSS.                 FP:   MUD CAKE SAMPLE SOURCE
 TCS .HRS               1:   TIME CURCULATED STOPPED
 LUN .               3527:   LOGGING UNIT NUMBER
 LUL .               CSPR:   LOGGING UNIT LOCATION
 ENGI.             KNOBEL:   RECORDING ENGINEER
 WITN.          JORGENSEN:   WITNESSED BY
 CLNT.            A2DTECH:   CLIENT CODE
 ORIG.        2" 5" PRINT:   ORIGIN OF DATA
 UWI .       490250644400:   UNIQUE WELL ID
 DICO. A2D Technologies, Inc.:   DIGITIZING COMPANY
~OTHER INFORMATION
~A   DEPT        ASN      CILD        ILD       SPR         DT         GR   
# ...
  138.0000     7.3570   150.2424     7.0000   -33.4902  -999.2500  -999.2500
  138.5000     7.2112   153.9759     6.8321   -33.3412  -999.2500  -999.2500
  139.0000     7.1080   158.0798     6.6602   -33.1919  -999.2500  -999.2500
  139.5000     7.0107   162.3365     6.4722   -33.1889  -999.2500  -999.2500
  140.0000     6.9303   164.4578     6.2813   -33.0435  -999.2500  -999.2500
  140.5000     6.7866   167.7222     6.0693   -32.9980  -999.2500  -999.2500
  141.0000     6.5290   171.4186     5.8693   -32.8951  -999.2500  -999.2500
  141.5000     6.4179   177.6092     5.7255   -32.9845  -999.2500  -999.2500
  142.0000     6.1642   185.0004     5.6286   -33.0465  -999.2500  -999.2500
  142.5000     5.9872   191.3152     5.4916   -33.1972  -999.2500  -999.2500
  143.0000     5.9024   196.0919     5.3879   -33.1979  -999.2500  -999.2500
  143.5000     5.7614   200.1066     5.3391   -33.2224  -999.2500  -999.2500
  144.0000     5.6734   202.7711     5.2643   -33.3494  -999.2500  -999.2500
  144.5000     5.6180   205.6250     5.1884   -33.3501  -999.2500  -999.2500
  145.0000     5.5654   207.6827     5.1877   -33.3508  -999.2500  -999.2500
  145.5000     5.5188   205.9902     5.1869   -33.3517  -999.2500  -999.2500
  146.0000     5.4843   202.2590     5.1862   -33.2024  -999.2500  -999.2500
  146.5000     5.4446   197.1865     5.1854   -33.2031  -999.2500  -999.2500
  147.0000     5.4587   194.9322     5.2598   -33.0540  -999.2500  -999.2500
  147.5000     5.5115   191.9430     5.3441   -33.0110  -999.2500  -999.2500
  148.0000     5.6246   189.5281     5.4834   -32.9055  -999.2500  -999.2500
  148.5000     5.7300   186.1332     5.5888   -32.9063  -999.2500  -999.2500
  149.0000     5.8541   182.9528     5.6361   -32.7570  -999.2500  -999.2500
  149.5000     6.0302   179.5143     5.7065   -32.7579  -999.2500  -999.2500
  150.0000     6.1203   176.5813     5.7808   -32.7586  -999.2500  -999.2500
  150.5000     6.2104   172.4566     5.7800   -32.6094  -999.2500  -999.2500
  151.0000     6.2553   169.2094     5.7793   -32.6103  -999.2500  -999.2500
  151.5000     6.2512   171.1635     5.7785   -32.6109  -999.2500  -999.2500
  152.0000     6.2400   174.7616     5.7777   -32.6217  -999.2500  -999.2500
  152.5000     6.2165   176.5499     5.7770   -32.7625  -999.2500  -999.2500
  153.0000     6.2067   177.0482     5.7763   -32.8156  -999.2500  -999.2500
  153.5000     6.1944   177.0633     5.7754   -32.9138  -999.2500  -999.2500
  154.0000     6.1720   176.8725     5.7748   -33.0645  -999.2500  -999.2500
  154.5000     6.1641   175.5882     5.8491   -33.2564  -999.2500  -999.2500
  155.0000     6.1489   174.4352     5.8482   -33.3659  -999.2500  -999.2500
  155.5000     6.1487   172.3218     5.8476   -33.5165  -999.2500  -999.2500
  156.0000     6.1494   169.6100     5.8468   -33.6672  -999.2500  -999.2500
  156.5000     6.2085   167.4172     5.8461   -33.6680  -999.2500  -999.2500
  157.0000     6.3245   164.0562     5.9206   -33.6687  -999.2500  -999.2500
  157.5000     6.5992   158.3608     5.9947   -33.5194  -999.2500  -999.2500
  158.0000     6.8305   154.2169     6.0801   -33.5203  -999.2500  -999.2500
  158.5000     7.0374   149.2697     6.2345   -33.3711  -999.2500  -999.2500
  159.0000     7.2755   142.8715     6.4429   -33.3718  -999.2500  -999.2500
  159.5000     7.5161   137.1988     6.5913   -33.2228  -999.2500  -999.2500
  160.0000     7.6632   133.5850     6.9119   -33.2234  -999.2500  -999.2500
  160.5000     7.7262   134.3524     7.1913   -33.0742  -999.2500  -999.2500
  161.0000     7.7114   136.0316     7.3719   -33.0750  -999.2500  -999.2500
  161.5000     7.6599   137.3960     7.3321   -33.0370  -999.2500  -999.2500
  162.0000     7.6054   138.5291     7.1140   -32.9265  -999.2500  -999.2500
  162.5000     7.6754   140.6250     6.9382   -32.8461  -999.2500  -999.2500
  163.0000     7.7856   143.4660     6.8123   -32.7506  -999.2500  -999.2500
  163.5000     7.2891   147.7008     6.6904   -32.6289  -999.2500  -999.2500
  164.0000     7.1577   152.6807     6.5856   -32.4798  -999.2500  -999.2500
  164.5000     7.0633   160.0782     6.5097   -32.4805  -999.2500  -999.2500
  165.0000     6.9594   164.0563     6.5090   -32.4814  -999.2500  -999.2500
  165.5000     6.8742   169.1420     6.4332   -32.4820  -999.2500  -999.2500
  166.0000     6.8373   167.3695     6.4323   -32.3328  -999.2500  -999.2500
  166.5000     6.8136   162.4498     6.5068   -32.3337  -999.2500  -999.2500
  167.0000     6.8069   157.1398     6.5130   -32.4843  -999.2500  -999.2500
  167.5000     6.8368   151.8574     6.6553   -32.4850  -999.2500  -999.2500
  168.0000     7.0165   145.8533     6.7858   -32.4858  -999.2500  -999.2500
  168.5000     7.2501   136.8544     7.0323   -32.5227  -999.2500  -999.2500
  169.0000     7.5732   131.8273     7.4500   -32.6372  -999.2500  -999.2500
  169.5000     8.0902   127.7535     7.8976   -32.7166  -999.2500  -999.2500
  170.0000     8.4401   124.0991     8.1531   -32.7886  -999.2500  -999.2500
  170.5000     8.5953   127.8878     8.3456   -32.9394  -999.2500  -999.2500
  171.0000     8.5996   130.1508     8.4520   -32.9400  -999.2500  -999.2500
  171.5000     8.5349   131.6717     8.4511   -33.0907  -999.2500  -999.2500
  172.0000     8.3964   132.6305     8.3754   -33.0916  -999.2500  -999.2500
  172.5000     8.3155   133.2088     8.2795   -33.0922  -999.2500  -999.2500
  173.0000     8.2788   133.2229     8.1485   -33.0930  -999.2500  -999.2500
  173.5000     8.2786   133.2379     8.0728   -33.0937  -999.2500  -999.2500
  174.0000     8.2999   132.5018     7.9970   -33.0945  -999.2500  -999.2500
  174.5000     8.3535   132.1799     7.9961   -33.0952  -999.2500  -999.2500
  175.0000     8.4060   130.2084     7.9955   -33.0960  -999.2500  -999.2500
  175.5000     8.4671   128.7827     7.9947   -33.0967  -999.2500  -999.2500
  176.0000     8.6087   126.7469     8.0691   -32.9476  -999.2500  -999.2500
  176.5000     8.7785   122.7862     8.1814   -32.9483  -999.2500  -999.2500
  177.0000     8.9319   120.8158     8.3678   -32.9265  -999.2500  -999.2500
  177.5000     8.7737   120.5547     8.4822   -32.7999  -999.2500  -999.2500
  178.0000     8.2532   120.5731     8.5917   -32.8006  -999.2500  -999.2500
  178.5000     8.0665   122.5866     8.4406   -32.6514  -999.2500  -999.2500
  179.0000     8.5465   125.5497     8.1877   -32.6523  -999.2500  -999.2500
  179.5000     9.0438   128.9022     7.9677   -32.5030  -999.2500  -999.2500
  180.0000     8.6226   131.8775     7.6876   -32.5037  -999.2500  -999.2500
  180.5000     8.3789   134.4390     7.4807   -32.5045  -999.2500  -999.2500
  181.0000     8.1814   138.7373     7.3849   -32.3552  -999.2500  -999.2500
  181.5000     8.0356   141.5838     7.2610   -32.3561  -999.2500  -999.2500
  182.0000     7.9751   144.0512     7.2122   -32.3568  -999.2500  -999.2500
  182.5000     7.9278   144.8042     7.1584   -32.5387  -999.2500  -999.2500
  183.0000     7.9149   144.5959     7.2327   -32.8082  -999.2500  -999.2500
  183.5000     7.9429   143.3289     7.2480   -32.9588  -999.2500  -999.2500
  184.0000     8.0247   141.4056     7.3813   -32.9595  -999.2500  -999.2500
  184.5000     8.2001   139.1153     7.4547   -32.8104  -999.2500  -999.2500
  185.0000     8.3163   135.8447     7.6151   -32.7486  -999.2500  -999.2500
  185.5000     8.2884   134.7377     7.7544   -32.5120  -999.2500  -999.2500
  186.0000     7.9378   134.3663     7.8599   -32.3630  -999.2500  -999.2500
  186.5000     8.0482   134.3847     7.9032   -32.3123  -999.2500  -999.2500
  187.0000     8.2746   134.7013     7.6770   -32.2144  -999.2500  -999.2500
  187.5000     7.9499   137.5188     7.4512   -32.2151  -999.2500  -999.2500
  188.0000     7.2367   142.7138     7.1501   -32.2159  -999.2500  -999.2500
  188.5000     7.3418   148.1689     6.9532   -32.0668  -999.2500  -999.2500
  189.0000     7.4782   152.5305     6.7352   -32.0675  -999.2500  -999.2500
  189.5000     7.5069   154.4993     6.4722   -32.0682  -999.2500  -999.2500
