~VERSION INFORMATION
 VERS.                2.0:   CWLS LOG ASCII STANDARD - VERSION 2.0
 WRAP.                 NO:   ONE LINE PER DEPTH STEP
~WELL INFORMATION
#MNEM.UNIT      DATA TYPE    INFORMATION
#----------   ------------   ------------------------------
 STRT.F         1000.5000:   START DEPTH
 STOP.F         2590.0000:   STOP DEPTH
 STEP.F            0.5000:   STEP LENGTH
 NULL.          -999.2500:   NO VALUE
 COMP. LAWRENCE/ALLISON INC:   COMPANY
 WELL.    LAWENCE #14x-10:   WELL
 FLD .               NONE:   FIELD
 LOC .      S10 T38N R78W:   LOCATION
 CNTY.            NATRONA:   COUNTY
 STAT.            WYOMING:   STATE
 CTRY. UNITED STATES OF AMERICA:   COUNTRY
 SRVC.            Unknown:   SERVICE COMPANY
 DATE.        13-SEP-1988:   LOGDATE
 API .       490251137000:   API NUMBER
~CURVE INFORMATION
#MNEM.UNIT       API CODE    CURVE DESCRIPTION
#----------   ------------   ------------------------------
 DEPT.F                  :   
 ROP .MIN/FT 91 810 01 00:   RATE OF DRILLING PENETRATION
 TGAS.UNITS  91 830 01 00:   TOTAL GAS FROM HOTWIRE
~PARAMETER INFORMATION
#MNEM.UNIT          VALUE    DESCRIPTION
#----------   ------------   ------------------------------
 EKB .F              5278:   KELLING BUSHING
 EGL .F              5268:   GROUND LEVEL
 DATE.         09-13-1988:   RUN DATE
 RUN .                  1:   RUN NUMBER
 DD  .F              2590:   DEPTH DRILLER
 BLI .F              2590:   BOTTOM LOG INTERVAL
 TLI .F              1000:   TOP LOG INTERVAL
 CS  .IN                7:   CASING SIZE
 CBD .F               991:   CASING BOTTOM DRILLER
 BSD .F              2590:   BIT SIZE AT DEPTH
 ENGI. R. HUSK D. PETERSON:   RECORDING ENGINEER
 CLNT.            A2DTECH:   CLIENT CODE
 ORIG.           5" PRINT:   ORIGIN OF DATA
 UWI .       490251137000:   UNIQUE WELL ID
 DICO. A2D Technologies, Inc.:   DIGITIZING COMPANY
~OTHER INFORMATION
~A  DEPT       ROP         TGAS 
# ...
 2094.0000     0.2188     5.8018
 2094.5000     0.2446     5.8125
 2095.0000     0.2881     5.8231
 2095.5000     0.3315     5.8337
 2096.0000     0.3467     5.8444
 2096.5000     0.3470     5.8550
 2097.0000     0.3472     5.8656
 2097.5000     0.3475     5.8763
 2098.0000     0.3478     5.8869
 2098.5000     0.3480     5.8975
 2099.0000     0.3483     5.9082
 2099.5000     0.3486     5.9188
 2100.0000     0.3489     5.9294
 2100.5000     0.3455     5.8040
 2101.0000     0.3414     5.6787
 2101.5000     0.3374     5.5533
 2102.0000     0.3333     5.4279
 2102.5000     0.3292     5.3026
 2103.0000     0.3252     5.1772
 2103.5000     0.3211     5.0518
 2104.0000     0.3171     4.9265
 2104.5000     0.3400     4.8011
 2105.0000     0.3831     4.6757
 2105.5000     0.4264     4.5503
 2106.0000     0.4651     4.4728
 2106.5000     0.3786     4.5089
 2107.0000     0.2846     4.5449
 2107.5000     0.2201     4.5810
 2108.0000     0.2114     4.6171
 2108.5000     0.2314     4.6531
 2109.0000     0.2747     4.6892
 2109.5000     0.3179     4.7252
 2110.0000     0.3580     4.7613
 2110.5000     0.3805     4.7974
 2111.0000     0.3805     4.8334
 2111.5000     0.3805     4.8695
 2112.0000     0.3805     4.9055
 2112.5000     0.3848     4.9416
 2113.0000     0.3911     4.9777
 2113.5000     0.3911     5.0137
 2114.0000     0.3911     5.0498
 2114.5000     0.3753     5.0858
 2115.0000     0.3264     5.1219
 2115.5000     0.2788     5.1580
 2116.0000     0.2583     5.1940
 2116.5000     0.2537     5.2301
 2117.0000     0.2537     5.2661
 2117.5000     0.2604     5.3022
 2118.0000     0.2852     5.3383
 2118.5000     0.3248     5.3743
 2119.0000     0.3680     5.4104
 2119.5000     0.3959     5.4464
 2120.0000     0.3906     5.4801
 2120.5000     0.3755     5.5012
 2121.0000     0.3604     5.5223
 2121.5000     0.3453     5.5433
 2122.0000     0.3301     5.5644
 2122.5000     0.3150     5.5855
 2123.0000     0.2999     5.6066
 2123.5000     0.2848     5.6276
 2124.0000     0.2697     5.6487
 2124.5000     0.2545     5.6698
 2125.0000     0.2379     5.6909
 2125.5000     0.2173     5.7119
 2126.0000     0.1755     5.7330
 2126.5000     0.1760     5.7541
 2127.0000     0.2198     5.7752
 2127.5000     0.2692     5.7963
 2128.0000     0.3185     5.8173
 2128.5000     0.3679     5.8384
 2129.0000     0.4173     5.8595
 2129.5000     0.4667     5.8806
 2130.0000     0.5180     5.2340
 2130.5000     0.4974     5.0818
 2131.0000     0.4761     5.1055
 2131.5000     0.4450     5.1293
 2132.0000     0.4355     5.1530
 2132.5000     0.4324     5.1768
 2133.0000     0.4033     5.2005
 2133.5000     0.3929     5.2243
 2134.0000     0.3848     5.2480
 2134.5000     0.3879     5.2717
 2135.0000     0.3964     5.2955
 2135.5000     0.4001     5.3192
 2136.0000     0.4081     5.3430
 2136.5000     0.4163     5.3667
 2137.0000     0.4344     5.3905
 2137.5000     0.4458     5.4142
 2138.0000     0.4524     5.4380
 2138.5000     0.4529     5.4617
 2139.0000     0.4645     5.4855
 2139.5000     0.4635     5.5092
 2140.0000     0.4419     5.5311
 2140.5000     0.4201     5.5311
 2141.0000     0.3984     5.5311
 2141.5000     0.3903     5.5311
 2142.0000     0.3829     5.5311
 2142.5000     0.3719     5.5312
 2143.0000     0.3532     5.5312
 2143.5000     0.3470     5.5312
 2144.0000     0.3791     5.5312
 2144.5000     0.4472     5.5312
 2145.0000     0.5153     5.5313
 2145.5000     0.5784     5.5313
 2146.0000     0.5676     5.5313
 2146.5000     0.5356     5.5313
 2147.0000     0.5037     5.5314
 2147.5000     0.4611     5.5314
 2148.0000     0.4292     5.5314
 2148.5000     0.4183     5.5314
 2149.0000     0.3864     5.5314
 2149.5000     0.3749     5.5315
 2150.0000     0.3427     5.5315
 2150.5000     0.3201     5.5315
 2151.0000     0.2902     5.5315
 2151.5000     0.2910     5.5315
 2152.0000     0.3030     5.5316
 2152.5000     0.3244     5.5316
 2153.0000     0.3495     5.5316
 2153.5000     0.3882     5.5316
 2154.0000     0.3977     5.5317
 2154.5000     0.3571     5.5317
 2155.0000     0.2920     5.5317
 2155.5000     0.2331     5.5317
 2156.0000     0.1996     5.5317
 2156.5000     0.1921     5.5318
 2157.0000     0.1957     5.5318
 2157.5000     0.2022     5.5318
 2158.0000     0.2149     5.5318
 2158.5000     0.2379     5.5319
 2159.0000     0.2629     5.5319
 2159.5000     0.2958     5.5319
 2160.0000     0.3382     5.5319
 2160.5000     0.3709     5.4999
 2161.0000     0.3732     5.4680
 2161.5000     0.3754     5.4360
 2162.0000     0.3776     5.4040
 2162.5000     0.3798     5.3720
 2163.0000     0.3820     5.3400
 2163.5000     0.3843     5.3080
 2164.0000     0.3865     5.2761
 2164.5000     0.3887     5.2441
 2165.0000     0.3909     5.2121
 2165.5000     0.3931     5.1801
 2166.0000     0.3821     5.1481
 2166.5000     0.3550     5.1161
 2167.0000     0.3109     5.0842
 2167.5000     0.2957     5.0522
 2168.0000     0.3192     5.0202
 2168.5000     0.3578     4.9882
 2169.0000     0.3877     4.9562
 2169.5000     0.4092     4.9243
 2170.0000     0.4175     4.8923
 2170.5000     0.4111     4.8603
 2171.0000     0.3873     4.8283
 2171.5000     0.3624     4.7963
 2172.0000     0.3483     4.7643
 2172.5000     0.3449     4.7324
 2173.0000     0.3451     4.7004
 2173.5000     0.3525     4.6684
 2174.0000     0.3705     4.6364
 2174.5000     0.3992     4.6044
 2175.0000     0.4241     4.5725
 2175.5000     0.4530     4.5405
 2176.0000     0.4704     4.5085
 2176.5000     0.4664     4.4765
 2177.0000     0.4334     4.4445
 2177.5000     0.3987     4.4125
 2178.0000     0.3824     4.3806
 2178.5000     0.3875     4.3486
 2179.0000     0.3906     4.3166
 2179.5000     0.3908     4.2846
 2180.0000     0.3835     4.6826
 2180.5000     0.3736     4.6737
 2181.0000     0.3636     4.6630
 2181.5000     0.3537     4.6523
 2182.0000     0.3438     4.6416
 2182.5000     0.3339     4.6309
 2183.0000     0.3239     4.6202
 2183.5000     0.3140     4.6095
 2184.0000     0.3041     4.5988
 2184.5000     0.3120     4.5881
 2185.0000     0.3263     4.5774
 2185.5000     0.3433     4.5667
 2186.0000     0.3643     4.5559
 2186.5000     0.3778     4.5452
 2187.0000     0.4035     4.5345
 2187.5000     0.4110     4.5238
 2188.0000     0.4100     4.5131
 2188.5000     0.3775     4.5024
 2189.0000     0.3345     4.4917
 2189.5000     0.3231     4.4810
 2190.0000     0.3012     4.4703
 2190.5000     0.2899     4.4596
 2191.0000     0.2997     4.4489
 2191.5000     0.3201     4.4382
 2192.0000     0.3520     4.4275
 2192.5000     0.3838     4.4168
 2193.0000     0.4167     4.4061
 2193.5000     0.4581     4.3954
 2194.0000     0.4868     4.3847
 2194.5000     0.4951     4.3740
 2195.0000     0.4558     4.3633
 2195.5000     0.4225     4.3525
 2196.0000     0.3975     4.3418
 2196.5000     0.3967     4.3311
 2197.0000     0.3959     4.3204
 2197.5000     0.3951     4.3097
 2198.0000     0.3943     4.2990
 2198.5000     0.3891     4.2883
 2199.0000     0.3775     4.2776
 2199.5000     0.3658     4.2669
 2200.0000     0.3680     4.2553
 2200.5000     0.3849     4.2242
 2201.0000     0.4017     4.1904
 2201.5000     0.4186     4.1565
 2202.0000     0.4344     4.1227
 2202.5000     0.4219     4.0888
 2203.0000     0.4017     4.0549
 2203.5000     0.3854     4.0211
 2204.0000     0.3510     3.9872
 2204.5000     0.3513     3.9533
 2205.0000     0.3515     3.9195
 2205.5000     0.3587     3.8856
 2206.0000     0.3809     3.8518
 2206.5000     0.3989     3.8179
 2207.0000     0.4194     3.7840
 2207.5000     0.4424     3.7502
 2208.0000     0.4646     3.7163
 2208.5000     0.4626     3.6825
 2209.0000     0.4175     3.6486
 2209.5000     0.3629  -999.2500
 2210.0000     0.3154  -999.2500
 2210.5000     0.2569  -999.2500
 2211.0000     0.2071  -999.2500
 2211.5000     0.2211  -999.2500
 2212.0000     0.2812  -999.2500
 2212.5000     0.3555  -999.2500
 2213.0000     0.3980  -999.2500
 2213.5000     0.3983  -999.2500
 2214.0000     0.3985  -999.2500
 2214.5000     0.3988   301.7655
 2215.0000     0.3977   305.7354
