~VERSION INFORMATION
 VERS.                2.0:   CWLS LOG ASCII STANDARD - VERSION 2.0
 WRAP.                 NO:   ONE LINE PER DEPTH STEP
~WELL INFORMATION
#MNEM.UNIT      DATA TYPE    INFORMATION
#----------   ------------   ------------------------------
 STRT.F           70.0000:   START DEPTH
 STOP.F          806.0000:   STOP DEPTH
 STEP.F            0.5000:   STEP LENGTH
 NULL.          -999.2500:   NO VALUE
 COMP. U S NAVY/INTEX OIL CO:   COMPANY
 WELL. RES 3 TEAPOT DOME #33-S-2:   WELL
 FLD .             TEAPOT:   FIELD
 LOC .       S2 T38N R78W:   LOCATION
 CNTY.            NATRONA:   COUNTY
 STAT.            WYOMING:   STATE
 CTRY. UNITED STATES OF AMERICA:   COUNTRY
 SRVC.         Lane Wells:   SERVICE COMPANY
 DATE.        15-MAR-1980:   LOGDATE
 API .       490250644600:   API NUMBER
~CURVE INFORMATION
#MNEM.UNIT       API CODE    CURVE DESCRIPTION
#----------   ------------   ------------------------------
 DEPT.F                  :   
 GR  .GAPI   30 310 01 00:   GAMMA RAY
 SPR .MV     05 010 01 00:   SPONTANEOUS POTENTIAL FROM RES.
 CILD.MMHO   05 110 46 00:   CONDUCTIVITY INDUCTION LOG DEEP
 ASN .OHMM   05 041 16 00:   AMPLIFIED SHORT NORMAL 16"
 ILD .OHMM   05 120 46 00:   INDUCTION LOG DEEP
~PARAMETER INFORMATION
#MNEM.UNIT          VALUE    DESCRIPTION
#----------   ------------   ------------------------------
 PD  .                 GL:   PERMANENT DATUM
 EPD .F              5119:   ELEVATION PERMANENT DATUM
 LMF .                 KB:   LOG MEASURED FROM
 DAPD.F                 5:   FEET ABOVE PERMANENT DATUM
 DMF .                 KB:   DRILLING MEASURED FROM
 EKB .F              5124:   KELLING BUSHING
 EGL .F              5119:   GROUND LEVEL
 DATE.            3-15-60:   RUN DATE
 RUN .                  1:   RUN NUMBER
 DD  .F               810:   DEPTH DRILLER
 DL  .F               808:   DEPTH LOGGER
 BLI .F               806:   BOTTOM LOG INTERVAL
 TLI .F                70:   TOP LOG INTERVAL
 CS  .IN            8.625:   CASING SIZE
 CBD .F                12:   CASING BOTTOM DRILLER
 BS  .IN            7.875:   BIT SIZE
 BSD .F               810:   BIT SIZE AT DEPTH
 DFT .   GEL/OIL EMULSION:   DRILLING FLUID TYPE
 DFD .                6.8:   DRILLING FLUID DENSITY
 DFV .                 34:   DRILLING FLUID VISCOSITY
 DFPH.                7.6:   DRILLING FLUID PH
 DFL .                9.4:   DRILLING FLUID LOSS
 MSS .           FLOWLINE:   MUD SAMPLE SOURCE
 RMS .OHMM            4.2:   RESISTIVITY MUD SAMPLE
 MST .F                65:   MUD SAMPLE TEMPERATURE
 RMF .OHMM            3.3:   RESISTIVITY MUD FILTRATE SAMPLE
 MFST.F                68:   MUD FILTRATE SAMPLE TEMPERATURE
 RMC .OHMM              4:   RESISTIVITY MUD CAKE
 MCST.F                68:   MUD CAKE SAMPLE TEMPERATURE
 MFSS.                MUD:   MUD FILTRATE SAMPLE SOURCE
 MCSS.              PRESS:   MUD CAKE SAMPLE SOURCE
 RMB .OHMM            3.9:   RESISTIVITY MUD AT BHT
 BHT .F                71:   BOTTOM HOLE TEMPERATURE
 MRT .F                71:   MAXIMUM RECORDED TEMPERATURE
 LUN .             L-4474:   LOGGING UNIT NUMBER
 LUL .             CASPER:   LOGGING UNIT LOCATION
 ENGI.      GRIGGS/NELSON:   RECORDING ENGINEER
 WITN.   JORGENSEN/HUDSON:   WITNESSED BY
 CLNT.            A2DTECH:   CLIENT CODE
 ORIG. 1", 2.5", 5" PRINT:   ORIGIN OF DATA
 UWI .       490250644600:   UNIQUE WELL ID
 DICO. A2D Technologies, Inc.:   DIGITIZING COMPANY
~OTHER INFORMATION
~A   DEPT       GR        SPR        CILD         ASN        ILD 
# ...
  192.0000  -999.2500   -31.3202   225.3086     3.5452     3.8730
  192.5000  -999.2500   -31.2434   223.7475     3.5114     3.8438
  193.0000  -999.2500   -31.1523   226.8444     3.4430     3.7512
  193.5000  -999.2500   -31.0736   229.4335     3.3654     3.6668
  194.0000  -999.2500   -31.0551   232.0227     3.2894     3.6068
  194.5000  -999.2500   -31.1194   234.6119     3.2243     3.5465
  195.0000  -999.2500   -31.2295   237.2011     3.1638     3.4671
  195.5000  -999.2500   -31.3324   238.9780     3.0817     3.3826
  196.0000  -999.2500   -31.4176   230.8570     2.9697     3.3214
  196.5000  -999.2500   -31.5066   224.6753     2.8519     3.2727
  197.0000  -999.2500   -31.6055   218.4937     2.7410     3.1889
  197.5000  -999.2500   -31.7000   212.3121     2.6313     3.0764
  198.0000  -999.2500   -31.7874   206.1304     2.5497     3.0207
  198.5000  -999.2500   -31.8805   199.9488     2.5348     3.0674
  199.0000  -999.2500   -31.9801   193.7671     2.5790     3.1591
  199.5000  -999.2500   -32.0712   187.5855     2.6958     3.2557
  200.0000  -999.2500   -32.1543   181.4039     2.9979     3.4279
  200.5000  -999.2500   -32.2540   175.2222     3.5380     3.7568
  201.0000  -999.2500   -32.3728   169.0406     4.1174     4.2049
  201.5000  -999.2500   -32.4412   162.8589     4.4558     4.6429
  202.0000  -999.2500   -32.3498   156.6773     4.5316     4.9590
  202.5000  -999.2500   -32.0645   150.4957     4.5710     5.1230
  203.0000  -999.2500   -31.7031   144.3140     4.7196     5.1903
  203.5000  -999.2500   -31.4568   136.1723     4.9085     5.2479
  204.0000  -999.2500   -31.4177   133.0224     5.0434     5.3344
  204.5000  -999.2500   -31.5135   128.4100     5.1680     5.4269
  205.0000  -999.2500   -31.6213   123.7976     5.3873     5.5055
  205.5000  -999.2500   -31.6966   119.1852     5.7070     5.5820
  206.0000  -999.2500   -31.7656   114.5728     6.0120     5.6648
  206.5000  -999.2500   -31.8497   109.9604     6.2000     5.7473
  207.0000  -999.2500   -31.9432   105.3480     6.2968     5.8299
  207.5000  -999.2500   -32.0322   100.7356     6.3970     5.9152
  208.0000  -999.2500   -32.0982    96.1232     6.5194     5.9889
  208.5000  -999.2500   -32.1256    91.5107     6.5912     6.0351
  209.0000  -999.2500   -32.1220    86.6733     6.5662     6.0611
  209.5000  -999.2500   -32.1131    86.3359     6.4863     6.0884
  210.0000  -999.2500   -32.1136    85.9810     6.4259     6.1253
  210.5000  -999.2500   -32.1201    85.6263     6.4161     6.1607
  211.0000  -999.2500   -32.1219    85.2714     6.4382     6.1825
  211.5000  -999.2500   -32.1143    84.9166     6.4642     6.1899
  212.0000  -999.2500   -32.1096    84.5619     6.4878     6.1895
  212.5000  -999.2500   -32.1229    84.2070     6.5127     6.1863
  213.0000  -999.2500   -32.1337    83.8522     6.5258     6.1849
  213.5000  -999.2500   -32.0900    83.4975     6.5111     6.1888
  214.0000  -999.2500   -31.9733    83.1426     6.4834     6.1918
  214.5000  -999.2500   -31.8210    82.8657     6.4687     6.1843
  215.0000  -999.2500   -31.6651    86.6733     6.4564     6.1780
  215.5000  -999.2500   -31.5082    84.2460     6.4222     6.2058
  216.0000  -999.2500   -31.3897    82.2946     6.3975     6.2816
  216.5000  -999.2500   -31.4044    80.3432     6.4546     6.3786
  217.0000  -999.2500   -31.5834    78.3918     6.6109     6.4657
  217.5000  -999.2500   -31.8132    76.4404     6.8069     6.5449
  218.0000  -999.2500   -31.9763    74.4890     6.9894     6.6308
  218.5000  -999.2500   -32.1270    72.5376     7.1552     6.7125
  219.0000  -999.2500   -32.3625    70.5862     7.3043     6.7609
  219.5000  -999.2500   -32.5424    68.6348     7.4108     6.7675
  220.0000  -999.2500   -32.3970    67.6353     7.4618     6.7570
  220.5000  -999.2500   -32.0007    67.6353     7.4805     6.7595
  221.0000  -999.2500   -31.8367    67.6353     7.4970     6.7724
  221.5000  -999.2500   -32.1771    67.6353     7.5202     6.7563
  222.0000  -999.2500   -32.6641    67.6353     7.5296     6.6752
  222.5000  -999.2500   -32.7786    67.6353     7.4805     6.5363
  223.0000  -999.2500   -32.4839    67.6353     7.3427     6.3745
  223.5000  -999.2500   -32.1007    74.4890     7.1416     6.1993
  224.0000  -999.2500   -31.7762    84.8965     6.9190     5.9839
  224.5000  -999.2500   -31.4387    97.8621     6.6469     5.7146
  225.0000  -999.2500   -31.1294   114.0622     6.2773     5.4218
  225.5000  -999.2500   -31.0198   135.0377     5.7811     5.1396
  226.0000  -999.2500   -31.1344   157.2810     5.2596     4.8597
  226.5000  -999.2500   -31.3025   177.8513     4.7862     4.5641
  227.0000  -999.2500   -31.3815   200.5865     4.2826     4.2758
  227.5000  -999.2500   -31.3758   220.5535     3.7234     4.0132
  228.0000  -999.2500   -31.3424   243.8980     3.2836     3.7285
  228.5000  -999.2500   -31.2890   263.2709     3.0634     3.3951
  229.0000  -999.2500   -31.1944   287.0868     2.9529     3.1418
  229.5000  -999.2500   -31.0897   306.6865     2.9128     3.1721
  230.0000  -999.2500   -31.0702   281.9611     3.0906     3.5207
  230.5000  -999.2500   -31.2094   251.8926     3.5891     4.0076
  231.0000  -999.2500   -31.4797   226.1065     4.3377     4.4623
  231.5000  -999.2500   -31.7908   196.6168     5.1795     4.8794
  232.0000  -999.2500   -32.0765   170.1230     6.0100     5.3173
  232.5000  -999.2500   -32.3288   141.6722     6.7838     5.7691
  233.0000  -999.2500   -32.5910   113.9190     7.5632     6.1949
  233.5000  -999.2500   -32.9133    86.1657     8.2296     6.5807
  234.0000  -999.2500   -33.2099    63.8277     8.8884     6.9147
  234.5000  -999.2500   -33.1995    52.4048     9.6029     7.1965
  235.0000  -999.2500   -32.6923    48.5972     9.9318     7.4743
  235.5000  -999.2500   -31.9509    48.5972     9.7663     7.7582
  236.0000  -999.2500   -31.5056    57.6720     9.3820     7.9178
  236.5000  -999.2500   -31.5317    64.8271     8.6915     7.8022
  237.0000  -999.2500   -31.6923    71.9823     7.9723     7.4267
  237.5000  -999.2500   -31.6725    79.1374     7.4451     6.9249
  238.0000  -999.2500   -31.5271    86.2926     6.6928     6.4105
  238.5000  -999.2500   -31.3888    90.4810     6.1313     6.0169
  239.0000  -999.2500   -31.2273    90.4810     5.9024     5.9350
  239.5000  -999.2500   -31.0854    77.8444     5.5238     6.2270
  240.0000  -999.2500   -31.2014    69.0631     6.1698     6.7012
  240.5000  -999.2500   -31.7065    60.2818     8.4819     7.1187
  241.0000  -999.2500   -32.4254    51.5005     9.3385     7.4389
  241.5000  -999.2500   -33.0233    42.7192     9.4249     7.7714
  242.0000  -999.2500   -33.1941    33.9379    10.3225     8.1788
  242.5000  -999.2500   -32.8845    21.9439    10.8773     8.6087
  243.0000  -999.2500   -32.5304    20.3689    11.1678     8.9735
  243.5000  -999.2500   -32.7439    17.8853    11.4724     9.2570
  244.0000  -999.2500   -33.5204    15.4017    11.7678     9.5313
  244.5000  -999.2500   -34.1434    12.9181    12.1075     9.8455
  245.0000  -999.2500   -34.0967    10.4345    12.4209    10.1344
  245.5000  -999.2500   -33.6315     7.9509    12.7182    10.3128
  246.0000  -999.2500   -33.2324     5.4673    13.0745    10.4079
  246.5000  -999.2500   -33.0233     2.9837    13.3965    10.5106
  247.0000  -999.2500   -32.9271     0.5001    13.4468    10.6451
  247.5000  -999.2500   -32.9505     0.0004    13.4864    10.7750
  248.0000  -999.2500   -33.0777     0.0004    13.5869    10.8910
  248.5000  -999.2500   -33.2046     0.0004    13.7039    11.0116
  249.0000  -999.2500   -33.3073     0.0004    13.8108    11.1331
  249.5000  -999.2500   -33.4378     0.0004    13.8975    11.2383
  250.0000  -999.2500   -33.5466     0.0004    13.9896    11.3301
  250.5000  -999.2500   -33.5557     0.0004    14.0918    11.4239
  251.0000  -999.2500   -33.5244     0.0004    14.1916    11.5236
  251.5000  -999.2500   -33.5023     0.0004    14.2873    11.6232
  252.0000  -999.2500   -33.3854     0.0004    14.3828    11.7192
  252.5000  -999.2500   -33.1943     0.0004    14.4772    11.8120
