~VERSION INFORMATION
 VERS.                2.0:   CWLS LOG ASCII STANDARD - VERSION 2.0
 WRAP.                 NO:   ONE LINE PER DEPTH STEP
~WELL INFORMATION
#MNEM.UNIT      DATA TYPE    INFORMATION
#----------   ------------   ------------------------------
 STRT.F           30.0000:   START DEPTH
 STOP.F          618.0000:   STOP DEPTH
 STEP.F            0.5000:   STEP LENGTH
 NULL.          -999.2500:   NO VALUE
 COMP. FENNIX & SCISSON, INC.:   COMPANY
 WELL.       NPR #88-S-10:   WELL
 FLD .              NPR-3:   FIELD
 LOC .      S10 T38N R78W:   LOCATION
 CNTY.            NATRONA:   COUNTY
 STAT.            WYOMING:   STATE
 CTRY. UNITED STATES OF AMERICA:   COUNTRY
 SRVC.              Welex:   SERVICE COMPANY
 DATE.        22-APR-1977:   LOGDATE
 API .       490251034200:   API NUMBER
~CURVE INFORMATION
#MNEM.UNIT       API CODE    CURVE DESCRIPTION
#----------   ------------   ------------------------------
 DEPT.F                  :   
 CALD.IN     45 280 60 00:   CALIPER FROM DENSITY LOG
 GRD .GAPI   45 310 01 00:   GAMMA RAY FROM DENSITY LOG
 CORR.G/C3   45 356 01 00:   DENSITY CORRECTION
 RHOB.G/C3   45 350 01 00:   BULK DENSITY
 DPHI.DEC    45 890 12 00:   DENSITY POROSITY SANDSTONE
 ILD .OHMM   07 120 46 00:   INDUCTION LOG DEEP
 ILM .OHMM   07 120 44 00:   INDUCTION LOG MEDIUM
 SGRD.OHMM   07 220 05 00:   SHALLOW GUARD RESISTIVITY
 SPR .MV     07 010 01 00:   SPONTANEOUS POTENTIAL FROM RES.
~PARAMETER INFORMATION
#MNEM.UNIT          VALUE    DESCRIPTION
#----------   ------------   ------------------------------
 PD  .                 GL:   PERMANENT DATUM
 EPD .F              5255:   ELEVATION PERMANENT DATUM
 LMF .                 GL:   LOG MEASURED FROM
 DMF .                 GL:   DRILLING MEASURED FROM
 EGL .F              5255:   GROUND LEVEL
 DATE.        22-APR-1977:   RUN DATE
 RUN .                  1:   RUN NUMBER
 DD  .F               630:   DEPTH DRILLER
 DL  .F               620:   DEPTH LOGGER
 BLI .F               618:   BOTTOM LOG INTERVAL
 TLI .F                38:   TOP LOG INTERVAL
 CS  .IN            8.625:   CASING SIZE
 CBD .F                40:   CASING BOTTOM DRILLER
 BS  .IN            7.875:   BIT SIZE
 BSD .F               630:   BIT SIZE AT DEPTH
 DFT .            KCL GEL:   DRILLING FLUID TYPE
 DFD .                9.0:   DRILLING FLUID DENSITY
 DFV .                 40:   DRILLING FLUID VISCOSITY
 DFPH.                8.0:   DRILLING FLUID PH
 DFL .                6.4:   DRILLING FLUID LOSS
 MSS .            MUD PIT:   MUD SAMPLE SOURCE
 RMS .OHMM            .20:   RESISTIVITY MUD SAMPLE
 MST .F                65:   MUD SAMPLE TEMPERATURE
 RMF .OHMM            .18:   RESISTIVITY MUD FILTRATE SAMPLE
 MFST.F                65:   MUD FILTRATE SAMPLE TEMPERATURE
 RMC .OHMM            .28:   RESISTIVITY MUD CAKE
 MCST.F                65:   MUD CAKE SAMPLE TEMPERATURE
 MFSS.               MEAS:   MUD FILTRATE SAMPLE SOURCE
 MCSS.               MEAS:   MUD CAKE SAMPLE SOURCE
 RMB .OHMM            .18:   RESISTIVITY MUD AT BHT
 BHT .F                71:   BOTTOM HOLE TEMPERATURE
 TCS .HRS            0300:   TIME CURCULATED STOPPED
 MRT .F                71:   MAXIMUM RECORDED TEMPERATURE
 LUN .               8611:   LOGGING UNIT NUMBER
 LUL .             CASPER:   LOGGING UNIT LOCATION
 ENGI.          T. JOYNER:   RECORDING ENGINEER
 WITN.           ROB LYON:   WITNESSED BY
 CLNT.            A2DTECH:   CLIENT CODE
 ORIG.           5" PRINT:   ORIGIN OF DATA
 UWI .       490251034200:   UNIQUE WELL ID
 DICO. A2D Technologies, Inc.:   DIGITIZING COMPANY
~OTHER INFORMATION
~A   DEPT     CALD        GRD       CORR       RHOB       DPHI        ILD        ILM       SGRD        SPR   
# ...
  103.0000     7.8377   117.5057     0.0097     2.4573     0.1199     5.9192     6.5579    22.1604   -23.5268
  103.5000     7.8375   118.1030     0.0082     2.4578     0.1178     5.9997     6.4674    22.9344   -23.3839
  104.0000     7.8374   123.4907     0.0067     2.4539     0.1169     6.0812     6.9761    23.2504   -23.3869
  104.5000     7.8372   122.5910     0.0066     2.4480     0.1216     6.1639     7.5251    22.9281   -23.5387
  105.0000     7.8371   119.8949     0.0066     2.4376     0.1252     6.2477     8.0060    22.3014   -23.6905
  105.5000     7.8369   116.1509     0.0066     2.4414     0.1270     6.3326     8.4591    21.2478   -23.8477
  106.0000     7.8368   114.3534     0.0066     2.4511     0.1291     6.4187     8.8765    18.1298   -23.9940
  106.5000     7.8516   121.6868     0.0066     2.4317     0.1267     6.4169     9.2503    16.4595   -24.1458
  107.0000     7.8514   122.8829     0.0066     2.4444     0.1225     6.3711     9.5079    15.0465   -24.1488
  107.5000     7.8513   121.2347     0.0083     2.4476     0.1207     6.3256     9.3118    14.4348   -24.3006
  108.0000     7.8511   121.3829     0.0081     2.4220     0.1222     6.1946     8.8716    15.6776   -24.3036
  108.5000     7.8659   127.6692     0.0080     2.4227     0.1291     6.1081     8.5696    16.2252   -24.3065
  109.0000     7.8658   125.4219     0.0065     2.4295     0.1306     6.0229     8.3929    15.6733   -24.3095
  109.5000     7.8656   124.0731     0.0082     2.4354     0.1261     5.9799     8.2767    14.9328   -24.3125
  110.0000     7.8655   123.6228     0.0112     2.4489     0.1228     5.9372     8.3329    14.3258   -24.3155
  110.5000     7.8803   126.4656     0.0157     2.4599     0.1174     5.9766     8.3897    13.9342   -24.3185
  111.0000     7.8801   124.2283     0.0185     2.4721     0.1120     6.0162     8.3882    13.6471   -24.3214
  111.5000     7.8800   121.9867     0.0215     2.4699     0.1105     6.0562     8.4451    13.4584   -24.3244
  112.0000     7.8798   119.2235     0.0215     2.4602     0.1139     6.0963     8.4440    13.2723   -24.3274
  112.5000     7.8946   118.0264     0.0185     2.4549     0.1172     6.1792     8.5016    13.1793   -24.3304
  113.0000     7.8945   117.3263     0.0168     2.4452     0.1198     6.2202     8.6182    13.1775   -24.3333
  113.5000     7.9093   117.3248     0.0123     2.4428     0.1219     6.3048     8.6769    13.2668   -24.3363
  114.0000     7.9241   117.9441     0.0064     2.4391     0.1240     6.3905     8.6755    13.3568   -24.3393
  114.5000     7.9389   118.6692     0.0063     2.4362     0.1263     6.4773     8.6743    13.6390   -24.1934
  115.0000     7.9387   117.5998     0.0109     2.4333     0.1275     6.5654     8.7334    14.0197   -24.1964
  115.5000     7.9236   117.3189     0.0169     2.4371     0.1268     6.6089     9.1009    14.4031   -24.3482
  116.0000     7.9235   118.1017     0.0184     2.4408     0.1202     6.6528     9.6160    14.6104   -24.2023
  116.5000     7.9233   118.9795     0.0229     2.4445     0.1251     6.6510    10.1603    14.8017   -24.2217
  117.0000     7.9082   119.8753     0.0244     2.4475     0.1254     6.6491    10.8845    14.9021   -24.3571
  117.5000     7.9081   120.7709     0.0274     2.4483     0.1227     6.6473    11.7411    14.7976   -24.3601
  118.0000     7.9079   120.3851     0.0274     2.4445     0.1194     6.5999    11.9854    14.3786   -24.3631
  118.5000     7.9072   116.9588     0.0243     2.4341     0.1227     6.5527    11.6571    13.7778   -24.3661
  119.0000     7.8927   115.2126     0.0168     2.4304     0.1295     6.4613    10.8785    13.1555   -24.3690
  119.5000     7.8925   115.5325     0.0122     2.4221     0.1358     6.3711     9.9439    12.6207   -24.3914
  120.0000     7.8924   120.4681     0.0092     2.4124     0.1415     6.2822     9.3831    12.1076   -24.5238
  120.5000     7.8922   126.4626     0.0077     2.4236     0.1406     6.1946     8.8056    12.0228   -24.5268
  121.0000     7.8921   127.0330     0.0062     2.4222     0.1376     6.1503     8.0497    11.8565   -24.5298
  121.5000     7.8919   126.5754     0.0076     2.4229     0.1370     6.1486     7.4609    11.6926   -24.5327
  122.0000     7.8918   124.5988     0.0122     2.4252     0.1334     6.2322     6.8589    11.3730   -24.5357
  122.5000     7.8916   122.3827     0.0152     2.4334     0.1298     6.2736     6.4254    11.0621   -24.5387
  123.0000     7.8915   121.4801     0.0167     2.4416     0.1250     6.3152     6.2498    11.2142   -24.5417
  123.5000     7.8913   120.4326     0.0181     2.4499     0.1226     6.3571     6.2720    11.4469   -24.3957
  124.0000     7.8912   118.0358     0.0181     2.4559     0.1196     6.4435     6.6645    11.6845   -24.3988
  124.5000     7.8910   116.8428     0.0181     2.4633     0.1178     6.6217     6.8499    11.8455   -24.4018
  125.0000     7.8909   117.2904     0.0181     2.4693     0.1157     6.8048     6.8883    12.0083   -24.2558
  125.5000     7.8907   119.5344     0.0211     2.4753     0.1142     6.6638     6.8873    12.1734   -24.2589
  126.0000     7.8906   119.6867     0.0226     2.4798     0.1121     6.4364     6.8940    12.2559   -24.2426
  126.5000     7.8904   116.8338     0.0241     2.4836     0.1094     6.2598     7.0370    12.1696   -24.1159
  127.0000     7.8903   118.4820     0.0241     2.4873     0.1082     6.2151     7.3411    12.0844   -24.0923
  127.5000     7.8752   119.6781     0.0256     2.4948     0.1070     6.2134     7.7029    11.9172   -23.9459
  128.0000     7.8750   120.2754     0.0240     2.5060     0.1034     6.2546     8.1385    11.8337   -23.7996
  128.5000     7.8749   119.2260     0.0240     2.5038     0.0986     6.2529     8.5901    11.8321   -23.6814
  129.0000     7.8747   114.8832     0.0225     2.4941     0.1010     6.3379     8.8989    11.8305   -23.6845
  129.5000     7.8895   118.9236     0.0210     2.4851     0.1070     6.4240     9.2644    11.8289   -23.8363
  130.0000     7.8894   121.0179     0.0164     2.4802     0.1142     6.5113     9.5880    11.9095   -23.8399
  130.5000     7.8892   121.4655     0.0149     2.4653     0.1195     6.5999     9.8637    11.9074   -23.8429
  131.0000     7.8891   121.6137     0.0134     2.4634     0.1171     6.6896    10.1200    11.9881   -23.9946
  131.5000     7.8889   121.3128     0.0134     2.4695     0.1144     6.7805     9.8348    11.9865   -23.9976
  132.0000     7.8888   121.6107     0.0119     2.4747     0.1111     6.8255     9.5739    11.9848   -24.1494
  132.5000     7.8886   125.8756     0.0118     2.4816     0.1078     6.7768     9.4338    11.9832   -24.1524
  133.0000     7.8885   123.7036     0.0118     2.4904     0.1045     6.5908     9.3108    11.9816   -24.1553
  133.5000     7.8883   123.2530     0.0133     2.4889     0.1042     6.4988     9.2455    11.4945   -24.1583
  134.0000     7.8882   123.4011     0.0118     2.4807     0.1081     6.4081     9.2374    11.1035   -24.1613
  134.5000     7.8880   125.4955     0.0073     2.4732     0.1135     6.2753     9.1794    10.8747   -24.1643
  135.0000     7.8729   129.8353     0.0057     2.4635     0.1162     6.1877     9.1781    11.0242   -24.1672
  135.5000     7.8728   130.1542     0.0042     2.4575     0.1189     6.1436     9.3044    11.1757   -24.1702
  136.0000     7.8726   128.7844     0.0042     2.4545     0.1192     6.1419     9.5037    11.3293   -24.1732
  136.5000     7.8725   123.9925     0.0027     2.4516     0.1195     6.1402     9.6949    11.3277   -24.1762
  137.0000     7.8724   122.7934     0.0027     2.4486     0.1207     6.1385     9.8283    11.3262   -24.0296
  137.5000     7.8722   121.8937     0.0026     2.4448     0.1219     6.1368     9.9634    11.3246   -24.0333
  138.0000     7.8720   123.2396     0.0026     2.4419     0.1288     6.1775     9.6803    11.1670   -23.8875
  138.5000     7.8719   119.1153     0.0026     2.4404     0.1302     6.2185     9.1596    10.9359   -23.8904
  139.0000     7.8717   120.0927     0.0026     2.4411     0.1296     6.2168     8.7313    10.7096   -23.8934
