~VERSION INFORMATION
 VERS.                2.0:   CWLS LOG ASCII STANDARD - VERSION 2.0
 WRAP.                 NO:   ONE LINE PER DEPTH STEP
~WELL INFORMATION
#MNEM.UNIT      DATA TYPE    INFORMATION
#----------   ------------   ------------------------------
 STRT.F           75.0000:   START DEPTH
 STOP.F          859.0000:   STOP DEPTH
 STEP.F            0.5000:   STEP LENGTH
 NULL.          -999.2500:   NO VALUE
 COMP. U S NAVY/INTEX OIL CO:   COMPANY
 WELL.     NPR ##3 14S-35:   WELL
 FLD .             TEAPOT:   FIELD
 LOC .      S35 T39N R78W:   LOCATION
 CNTY.            NATRONA:   COUNTY
 STAT.            WYOMING:   STATE
 CTRY. UNITED STATES OF AMERICA:   COUNTRY
 SRVC. Schlumberger Well Surveying Corp:   SERVICE COMPANY
 DATE.        27-FEB-1961:   LOGDATE
 API .       490251023000:   API NUMBER
~CURVE INFORMATION
#MNEM.UNIT       API CODE    CURVE DESCRIPTION
#----------   ------------   ------------------------------
 DEPT.F                  :   
 GRN .CPS    35 310 30 00:   GAMMA RAY
 SPR .MV     05 010 01 00:   SPONTANEOUS POTENTIAL FROM RES.
 ILD .OHMM   05 120 46 00:   INDUCTION LOG DEEP
 ASN .OHMM   05 041 16 00:   AMPLIFIED SHORT NORMAL 16"
 CILD.MMHO   05 110 46 00:   CONDUCTIVITY INDUCTION LOG DEEP
~PARAMETER INFORMATION
#MNEM.UNIT          VALUE    DESCRIPTION
#----------   ------------   ------------------------------
 PD  .                 GL:   PERMANENT DATUM
 EPD .F              5110:   ELEVATION PERMANENT DATUM
 LMF .                 KB:   LOG MEASURED FROM
 DAPD.F                 4:   FEET ABOVE PERMANENT DATUM
 DMF .                 KB:   DRILLING MEASURED FROM
 EKB .F              5114:   KELLING BUSHING
 EGL .F              5110:   GROUND LEVEL
 DATE.            2-27-61:   RUN DATE
 RUN .                  1:   RUN NUMBER
 DD  .F               862:   DEPTH DRILLER
 DL  .F               860:   DEPTH LOGGER
 BLI .F               859:   BOTTOM LOG INTERVAL
 TLI .F                84:   TOP LOG INTERVAL
 CBD .F                12:   CASING BOTTOM DRILLER
 BS  .IN            7.875:   BIT SIZE
 BSD .F               862:   BIT SIZE AT DEPTH
 DFT .       GEL-OIL EMUL:   DRILLING FLUID TYPE
 DFD .                9.4:   DRILLING FLUID DENSITY
 DFV .                 33:   DRILLING FLUID VISCOSITY
 DFPH.                  8:   DRILLING FLUID PH
 DFL .               19.4:   DRILLING FLUID LOSS
 MSS .          FLOW LINE:   MUD SAMPLE SOURCE
 RMS .OHMM            .76:   RESISTIVITY MUD SAMPLE
 MST .F                73:   MUD SAMPLE TEMPERATURE
 RMF .OHMM            .52:   RESISTIVITY MUD FILTRATE SAMPLE
 MFST.F                73:   MUD FILTRATE SAMPLE TEMPERATURE
 RMC .OHMM            1.7:   RESISTIVITY MUD CAKE
 MCST.F                73:   MUD CAKE SAMPLE TEMPERATURE
 MFSS.                  M:   MUD FILTRATE SAMPLE SOURCE
 MCSS.                  M:   MUD CAKE SAMPLE SOURCE
 RMB .OHMM            .73:   RESISTIVITY MUD AT BHT
 BHT .F                77:   BOTTOM HOLE TEMPERATURE
 TCS .HRS               1:   TIME CURCULATED STOPPED
 MRT .F                77:   MAXIMUM RECORDED TEMPERATURE
 LUN .               2523:   LOGGING UNIT NUMBER
 LUL .               CSPR:   LOGGING UNIT LOCATION
 ENGI.             KNOBEL:   RECORDING ENGINEER
 WITN.          JORGENSEN:   WITNESSED BY
 CLNT.            A2DTECH:   CLIENT CODE
 ORIG.       2", 5" PRINT:   ORIGIN OF DATA
 UWI .       490251023000:   UNIQUE WELL ID
 DICO. A2D Technologies, Inc.:   DIGITIZING COMPANY
~OTHER INFORMATION
~A   DEPT      GRN        SPR        ILD        ASN       CILD   
# ...
  441.0000  -999.2500   -30.6982     6.1543     8.5313   157.0767
  441.5000  -999.2500   -30.6626     6.1071     8.5204   157.6941
  442.0000  -999.2500   -30.6270     6.0583     8.5046   158.3047
  442.5000  -999.2500   -30.5911     6.0101     8.4588   158.9110
  443.0000  -999.2500   -30.5559     5.9648     8.4055   159.5010
  443.5000  -999.2500   -30.5191     5.9587     8.3542   159.8196
  444.0000  -999.2500   -30.4853     5.9725     8.3006   159.8196
  444.5000  -999.2500   -30.4549     6.1143     8.2504   159.8196
  445.0000  -999.2500   -30.4229     6.2690     8.2190   157.0140
  445.5000  -999.2500   -30.3916     6.4227     8.3365   154.2886
  446.0000  -999.2500   -30.3599     6.5761     8.5246   151.5631
  446.5000  -999.2500   -30.3285     6.7303     8.6958   148.8377
  447.0000  -999.2500   -30.2969     6.8834     8.8245   146.1122
  447.5000  -999.2500   -30.2654     7.0384     8.9158   143.3868
  448.0000  -999.2500   -30.2339     7.1896     9.0089   140.6613
  448.5000  -999.2500   -30.2023     7.3490     9.1014   137.9359
  449.0000  -999.2500   -30.1708     7.4616     9.1926   135.2104
  449.5000  -999.2500   -30.1392     7.4690     9.2869   132.4850
  450.0000  -999.2500   -30.1077     7.4391     9.3753   131.7635
  450.5000  -999.2500   -30.0756     7.3314     9.4843   131.7635
  451.0000  -999.2500   -30.0431     7.2253     9.5018   133.7425
  451.5000  -999.2500   -30.0108     7.1159     9.4304   136.7735
  452.0000  -999.2500   -29.9784     7.0086     9.3193   138.7933
  452.5000  -999.2500   -29.9461     6.9000     9.2010   141.2754
  453.0000  -999.2500   -29.9137     6.7922     9.0851   143.7575
  453.5000  -999.2500   -29.8813     6.6841     8.9678   146.2396
  454.0000  -999.2500   -29.8489     6.5759     8.8507   148.7217
  454.5000  -999.2500   -29.8166     6.4702     8.7348   151.2038
  455.0000  -999.2500   -29.7842     6.4693     8.6859   153.8076
  455.5000  -999.2500   -29.7518     6.6030     8.6503   153.8076
  456.0000  -999.2500   -29.7194     6.7557     8.6425   153.8076
  456.5000  -999.2500   -29.6871     6.9063     8.6642   150.6591
  457.0000  -999.2500   -29.6546     7.0572     8.7130   147.4794
  457.5000  -999.2500   -29.6223     7.2090     8.8925   144.2997
  458.0000  -999.2500   -29.5898     7.3591     9.1097   141.1200
  458.5000  -999.2500   -29.5577     7.5123     9.3135   137.9375
  459.0000  -999.2500   -29.5245     7.6602     9.5289   134.7485
  459.5000  -999.2500   -29.4993     7.8144     9.7250   131.5531
  460.0000  -999.2500   -29.4883     7.8790     9.9607   128.3454
  460.5000  -999.2500   -29.4786     7.9474    10.2357   125.6605
  461.0000  -999.2500   -29.4692     7.9505    10.2528   125.6286
  461.5000  -999.2500   -29.4597     7.7614    10.2282   126.6124
  462.0000  -999.2500   -29.4502     7.5929    10.1135   128.8931
  462.5000  -999.2500   -29.4407     7.4172     9.8406   132.2089
  463.0000  -999.2500   -29.4312     7.2466     9.7143   135.3885
  463.5000  -999.2500   -29.4216     7.0721     9.5336   138.5683
  464.0000  -999.2500   -29.4121     6.9010     9.3740   141.7479
  464.5000  -999.2500   -29.4026     6.7265     9.2039   144.9276
  465.0000  -999.2500   -29.3930     6.5553     9.0362   148.1073
  465.5000  -999.2500   -29.3835     6.3787     8.8749   151.2870
  466.0000  -999.2500   -29.3739     6.3574     8.6929   154.8096
  466.5000  -999.2500   -29.3644     6.3693     8.5834   154.8096
  467.0000  -999.2500   -29.3548     6.4919     8.5840   153.6786
  467.5000  -999.2500   -29.3452     6.6412     8.6905   150.9957
  468.0000  -999.2500   -29.3358     6.7868     8.9096   148.3129
  468.5000  -999.2500   -29.3259     6.9336     9.1130   145.6300
  469.0000  -999.2500   -29.3169     7.0795     9.3239   142.9471
  469.5000  -999.2500   -29.3059     7.2282     9.5330   140.2643
  470.0000  -999.2500   -29.3078     7.3554     9.7293   137.5814
  470.5000  -999.2500   -29.3377     7.3711     9.8714   134.8985
  471.0000  -999.2500   -29.3677     7.4226     9.8628   133.4128
  471.5000  -999.2500   -29.3985     7.4762     9.7014   132.7996
  472.0000  -999.2500   -29.4287     7.5306     9.5735   132.1864
  472.5000  -999.2500   -29.4592     7.5838     9.6079   131.5732
  473.0000  -999.2500   -29.4896     7.6383     9.6856   130.9599
  473.5000  -999.2500   -29.5201     7.6913     9.7535   130.0701
  474.0000  -999.2500   -29.5505     7.7462     9.8178   129.0691
  474.5000  -999.2500   -29.5809     7.7988     9.9073   128.0491
  475.0000  -999.2500   -29.6113     7.8509     9.9698   127.0263
  475.5000  -999.2500   -29.6416     7.8122     9.9039   125.7706
  476.0000  -999.2500   -29.6725     7.7298     9.7668   136.3018
  476.5000  -999.2500   -29.6985     7.6557     9.6297   138.0495
  477.0000  -999.2500   -29.5402     7.5736     9.4925   139.7971
  477.5000  -999.2500   -29.5133     7.1059     9.4356   140.7584
  478.0000  -999.2500   -29.3500     7.0207     9.2802   142.3582
  478.5000  -999.2500   -29.2305     6.9602     9.2540   143.9248
  479.0000  -999.2500   -29.0903     6.8512     9.2457   145.4414
  479.5000  -999.2500   -29.0066     6.8250     9.2356   146.4040
  480.0000  -999.2500   -29.0052     6.7817     9.2212   146.3860
  480.5000  -999.2500   -28.9878     6.8699     9.1824   146.3672
  481.0000  -999.2500   -28.9788     6.9367     9.1349   144.7254
  481.5000  -999.2500   -28.9652     6.9614     9.1461   143.4062
  482.0000  -999.2500   -28.9540     7.0216     9.1906   142.3176
  482.5000  -999.2500   -28.9416     7.0920     9.2256   140.9588
  483.0000  -999.2500   -28.9298     7.1146     9.2651   140.0584
  483.5000  -999.2500   -28.9176     7.2003     9.3011   139.4843
  484.0000  -999.2500   -28.9055     7.2114     9.3138   138.9088
  484.5000  -999.2500   -28.8935     7.2721     9.3293   138.3312
  485.0000  -999.2500   -28.8813     7.3150     9.3387   137.7519
  485.5000  -999.2500   -28.8694     7.3676     9.3709   137.1713
  486.0000  -999.2500   -28.8569     7.4150     9.4313   136.5888
  486.5000  -999.2500   -28.8456     7.4648     9.4884   136.0062
  487.0000  -999.2500   -28.8321     7.5137     9.5473   135.4236
  487.5000  -999.2500   -28.8230     7.5628     9.6052   134.8411
  488.0000  -999.2500   -28.7897     7.6121     9.6637   134.2585
  488.5000  -999.2500   -28.7351     7.6608     9.7218   133.6760
  489.0000  -999.2500   -28.6859     7.7106     9.7802   133.0934
  489.5000  -999.2500   -28.6332     7.7581     9.8384   132.5109
  490.0000  -999.2500   -28.5842     7.8214     9.8964   131.5263
  490.5000  -999.2500   -28.5299     7.9194     9.9552   130.3030
  491.0000  -999.2500   -28.4842     8.0172    10.0475   129.0796
  491.5000  -999.2500   -28.4236     8.1164    10.1364   127.8562
  492.0000  -999.2500   -28.4710     8.2138    10.2265   126.6329
  492.5000  -999.2500   -28.5899     8.3147    10.3155   125.2515
  493.0000  -999.2500   -28.6886     8.3942    10.4058   124.4905
  493.5000  -999.2500   -28.7965     8.3836    10.4385   123.6167
  494.0000  -999.2500   -28.8991     8.3669    10.4654   122.7429
  494.5000  -999.2500   -29.0049     8.3512    10.4922   122.2334
  495.0000  -999.2500   -29.1100     8.3339    10.5211   122.4075
  495.5000  -999.2500   -29.2036     8.3193    10.5457   123.0629
  496.0000  -999.2500   -29.1359     8.3041    10.5782   122.8138
  496.5000  -999.2500   -29.0448     8.4187    10.5949   122.2334
  497.0000  -999.2500   -28.9567     8.5863    10.6935   119.9781
  497.5000  -999.2500   -28.8681     8.7454    10.8528   117.7311
  498.0000  -999.2500   -28.7794     8.9086    10.9935   115.4293
  498.5000  -999.2500   -28.6909     9.0688    11.1423   113.0094
  499.0000  -999.2500   -28.6018     9.2324    11.2869   110.1610
  499.5000  -999.2500   -28.5134     9.3906    11.4336   107.8570
  500.0000  -999.2500   -28.4236     9.5585    11.5794   105.0571
  500.5000  -999.2500   -28.3372     9.7093    11.7261   102.1127
  501.0000  -999.2500   -28.2442     9.9141    11.8717   100.6342
  501.5000  -999.2500   -28.1637    10.0350    12.0188    99.0752
