~VERSION INFORMATION
 VERS.                2.0:   CWLS LOG ASCII STANDARD - VERSION 2.0
 WRAP.                 NO:   ONE LINE PER DEPTH STEP
~WELL INFORMATION
#MNEM.UNIT      DATA TYPE    INFORMATION
#----------   ------------   ------------------------------
 STRT.F            8.0000:   START DEPTH
 STOP.F         2320.0000:   STOP DEPTH
 STEP.F            0.5000:   STEP LENGTH
 NULL.          -999.2500:   NO VALUE
 COMP.    FENIX & SCISSON:   COMPANY
 WELL. N.P.R #3 #77-SHX-10:   WELL
 FLD .             TEAPOT:   FIELD
 LOC .      S10 T38N R78W:   LOCATION
 CNTY.            NATRONA:   COUNTY
 STAT.            WYOMING:   STATE
 CTRY. UNITED STATES OF AMERICA:   COUNTRY
 SRVC.              Welex:   SERVICE COMPANY
 DATE.        05-JUN-1980:   LOGDATE
 API .       490251064900:   API NUMBER
~CURVE INFORMATION
#MNEM.UNIT       API CODE    CURVE DESCRIPTION
#----------   ------------   ------------------------------
 DEPT.F                  :   
 GRD .GAPI   45 310 01 00:   GAMMA RAY FROM DENSITY LOG
 CALD.IN     45 280 60 00:   CALIPER FROM DENSITY LOG
 RHOB.G/C3   45 350 01 00:   BULK DENSITY
 DPHI.DEC    45 890 12 00:   DENSITY POROSITY SANDSTONE
 ILD .OHMM   05 120 46 00:   INDUCTION LOG DEEP
 CORR.G/C3   45 356 01 00:   DENSITY CORRECTION
~PARAMETER INFORMATION
#MNEM.UNIT          VALUE    DESCRIPTION
#----------   ------------   ------------------------------
 PD  .                 GL:   PERMANENT DATUM
 EPD .F              5210:   ELEVATION PERMANENT DATUM
 LMF .                 KB:   LOG MEASURED FROM
 DAPD.F                10:   FEET ABOVE PERMANENT DATUM
 DMF .                 KB:   DRILLING MEASURED FROM
 EKB .F              5220:   KELLING BUSHING
 EGL .F              5210:   GROUND LEVEL
 DATE.        05-JUN-1980:   RUN DATE
 RUN .                  1:   RUN NUMBER
 DD  .F              2358:   DEPTH DRILLER
 DL  .F              2322:   DEPTH LOGGER
 BLI .F              2320:   BOTTOM LOG INTERVAL
 TLI .F               900:   TOP LOG INTERVAL
 CS  .IN                7:   CASING SIZE
 BS  .IN             6.25:   BIT SIZE
 BSD .F              2358:   BIT SIZE AT DEPTH
 DFT .        AIR DRILLED:   DRILLING FLUID TYPE
 MRT .F               107:   MAXIMUM RECORDED TEMPERATURE
 ENGI.               REIN:   RECORDING ENGINEER
 WITN.              AMEND:   WITNESSED BY
 CLNT.            A2DTECH:   CLIENT CODE
 ORIG.           5" PRINT:   ORIGIN OF DATA
 UWI .       490251064900:   UNIQUE WELL ID
 DICO. A2D Technologies, Inc.:   DIGITIZING COMPANY
~OTHER INFORMATION
~A    DEPT      GRD      CALD       RHOB       DPHI        ILD       CORR   
# ...
 1308.0000    95.3012     7.3282     2.4349     0.0720  -999.2500     0.0987
 1308.5000    94.9985     7.3273     2.4401     0.0669  -999.2500     0.1213
 1309.0000    94.5243     7.3265     2.4266     0.0789  -999.2500     0.1243
 1309.5000    94.3929     7.3257     2.4213     0.0811  -999.2500     0.1303
 1310.0000    95.7308     7.3249     2.4397     0.0631  -999.2500     0.1740
 1310.5000    96.0261     7.3388     2.4641     0.0559  -999.2500     0.1981
 1311.0000    95.8716     7.3231     2.4791     0.0442  -999.2500     0.2222
 1311.5000    95.8672     7.2925     2.4911     0.0412  -999.2500     0.2207
 1312.0000    96.1605     7.2322     2.5000     0.0283  -999.2500     0.2161
 1312.5000    96.7543     7.1569     2.4940     0.0293  -999.2500     0.2190
 1313.0000    97.0485     7.0367     2.4775     0.0448  -999.2500     0.1993
 1313.5000    97.0601     6.8572     2.4939     0.0325  -999.2500     0.1902
 1314.0000    96.7162     7.0947     2.5381     0.0199  -999.2500     0.2173
 1314.5000    95.8395     7.2131     2.5524     0.0037  -999.2500     0.2369
 1315.0000    95.3875     7.3018     2.5493    -0.0011  -999.2500     0.2338
 1315.5000    95.2340     7.3159     2.5223     0.0074  -999.2500     0.2202
 1316.0000    95.5282     7.2851     2.5410     0.0086  -999.2500     0.2035
 1316.5000    95.6800     7.2694     2.5447     0.0056  -999.2500     0.2185
 1317.0000    96.1156     7.2984     2.5410     0.0098  -999.2500     0.2139
 1317.5000    96.1113     7.3126     2.5342     0.0163  -999.2500     0.2003
 1318.0000    96.1071     7.3416     2.5281     0.0183  -999.2500     0.1942
 1318.5000    96.1028     7.3557     2.5049     0.0342  -999.2500     0.1911
 1319.0000    95.9492     7.3698     2.4591     0.0561  -999.2500     0.1639
 1319.5000    95.7947     7.3539     2.4464     0.0733  -999.2500     0.1411
 1320.0000    95.4919     7.3532     2.4238     0.0850  -999.2500     0.1256
 1320.5000    95.3384     7.3524     2.4148     0.0862  -999.2500     0.1199
 1321.0000    95.4844     7.3514     2.4223     0.0778  -999.2500     0.1334
 1321.5000    95.9268     7.3506     2.4290     0.0811  -999.2500     0.1364
 1322.0000    96.0718     7.3649     2.4402     0.0802  -999.2500     0.1378
 1322.5000    96.0665     7.3640     2.4559     0.0662  -999.2500     0.1578
 1323.0000    96.0622     7.3632     2.4739     0.0517  -999.2500     0.1679
 1323.5000    95.9087     7.3475     2.5033     0.0310  -999.2500     0.1875
 1324.0000    95.7552     7.3018     2.4948     0.0350  -999.2500     0.2025
 1324.5000    95.4313     7.2265     2.5068     0.0335  -999.2500     0.1662
 1325.0000    94.9993     7.1810     2.5083     0.0251  -999.2500     0.1662
 1325.5000    95.1453     7.1057     2.4940     0.0353  -999.2500     0.1480
 1326.0000    96.1848     7.1049     2.4825     0.0398  -999.2500     0.1328
 1326.5000    96.9268     7.2381     2.4474     0.0660  -999.2500     0.1176
 1327.0000    96.9224     7.2671     2.4414     0.0666  -999.2500     0.0964
 1327.5000    96.6187     7.2067     2.4624     0.0576  -999.2500     0.1205
 1328.0000    96.2796     7.2059     2.4691     0.0600  -999.2500     0.1235
 1328.5000    96.0131     7.2647     2.4376     0.0837  -999.2500     0.0721
 1329.0000    96.0088     7.3110     2.4096     0.0931  -999.2500     0.0660
 1329.5000    96.0155     7.3377     2.4038     0.0940  -999.2500     0.0689
 1330.0000    96.2988     7.3367     2.4232     0.0871  -999.2500     0.0855
 1330.5000    96.5930     7.3306     2.4389     0.0622  -999.2500     0.0994
 1331.0000    97.0354     7.3203     2.4539     0.0568  -999.2500     0.1201
 1331.5000    97.1806     7.3194     2.4724     0.0502  -999.2500     0.1306
 1332.0000    97.1702     7.3185     2.4853     0.0478  -999.2500     0.1396
 1332.5000    96.2753     7.3178     2.4838     0.0406  -999.2500     0.1471
 1333.0000    95.6740     7.3170     2.4853     0.0415  -999.2500     0.1531
 1333.5000    95.2220     7.3310     2.4987     0.0280  -999.2500     0.1651
 1334.0000    95.0685     7.3415     2.5137     0.0305  -999.2500     0.1741
 1334.5000    95.0642     7.3444     2.4792     0.0396  -999.2500     0.1514
 1335.0000    95.3574     7.3435     2.4739     0.0482  -999.2500     0.1378
 1335.5000    95.6527     7.3405     2.4776     0.0500  -999.2500     0.1437
 1336.0000    96.2443     7.3270     2.4596     0.0614  -999.2500     0.1266
 1336.5000    96.6889     7.3333     2.4476     0.0645  -999.2500     0.1013
 1337.0000    95.4895     7.3403     2.4331     0.0750  -999.2500     0.0862
 1337.5000    94.8872     7.3393     2.4250     0.0798  -999.2500     0.0680
 1338.0000    94.7347     7.3385     2.4265     0.0711  -999.2500     0.0800
 1338.5000    95.3264     7.3377     2.4535     0.0456  -999.2500     0.1103
 1339.0000    95.6217     7.3519     2.4864     0.0297  -999.2500     0.1448
 1339.5000    95.9149     7.3809     2.5014     0.0336  -999.2500     0.1750
 1340.0000    96.2091     7.3950     2.4744     0.0465  -999.2500     0.1840
 1340.5000    96.3541     7.3940     2.4893     0.0394  -999.2500     0.1915
 1341.0000    96.6483     7.3336     2.5088     0.0298  -999.2500     0.2382
 1341.5000    97.0907     7.2732     2.5267     0.0169  -999.2500     0.2535
 1342.0000    97.6835     7.2126     2.5372     0.0109  -999.2500     0.2472
 1342.5000    98.1418     7.1373     2.5079     0.0256  -999.2500     0.2184
 1343.0000    98.2720     7.0322     2.5154     0.0190  -999.2500     0.2229
 1343.5000    98.1174     6.8824     2.5229     0.0148  -999.2500     0.2230
 1344.0000    97.8146     6.7922     2.5266     0.0377  -999.2500     0.1911
 1344.5000    97.6611     6.7600     2.4658     0.0589  -999.2500     0.1532
 1345.0000    97.6567     6.8671     2.4435     0.0689  -999.2500     0.1335
 1345.5000    97.9500     6.9685     2.4455     0.0701  -999.2500     0.1138
 1346.0000    98.0960     7.1764     2.4358     0.0756  -999.2500     0.1062
 1346.5000    98.5384     7.3544     2.4185     0.0843  -999.2500     0.0939
 1347.0000    98.6836     7.3835     2.4093     0.0888  -999.2500     0.0819
 1347.5000    98.6791     7.3816     2.4155     0.0831  -999.2500     0.0970
 1348.0000    98.6738     7.3668     2.4229     0.0810  -999.2500     0.0863
 1348.5000    98.3710     7.3660     2.4371     0.0762  -999.2500     0.1029
 1349.0000    97.4712     7.3803     2.5038     0.0537  -999.2500     0.1285
 1349.5000    96.8699     7.3793     2.5098     0.0291  -999.2500     0.1533
 1350.0000    96.8657     7.3785     2.5052     0.0402  -999.2500     0.1631
 1350.5000    97.3081     7.3776     2.4745     0.0472  -999.2500     0.1389
 1351.0000    98.0501     7.3768     2.4797     0.0481  -999.2500     0.1404
 1351.5000    98.4936     7.3462     2.4857     0.0448  -999.2500     0.1539
 1352.0000    98.9371     7.3156     2.4781     0.0512  -999.2500     0.1536
 1352.5000    98.9328     7.2552     2.4496     0.0697  -999.2500     0.1326
 1353.0000    98.6060     7.2246     2.4258     0.0773  -999.2500     0.1129
 1353.5000    97.7076     7.1938     2.4263     0.0824  -999.2500     0.1023
 1354.0000    97.1053     7.1334     2.4378     0.0767  -999.2500     0.0947
 1354.5000    98.2904     7.1028     2.4413     0.0704  -999.2500     0.1022
 1355.0000    98.4343     7.0872     2.4465     0.0668  -999.2500     0.1112
 1355.5000    97.9807     7.0715     2.4569     0.0605  -999.2500     0.1187
 1356.0000    97.3253     7.0556     2.4524     0.0677  -999.2500     0.1246
 1356.5000    95.8720     7.0399     2.4448     0.0657  -999.2500     0.1261
 1357.0000    96.1633     7.0391     2.4434     0.0656  -999.2500     0.1200
 1357.5000    97.0517     7.1129     2.4396     0.0723  -999.2500     0.1203
 1358.0000    97.6416     7.1717     2.4381     0.0612  -999.2500     0.1259
 1358.5000    97.0283     7.1858     2.4740     0.0477  -999.2500     0.1440
 1359.0000    96.1330     7.1999     2.4928     0.0369  -999.2500     0.1681
 1359.5000    95.6781     7.2287     2.4799     0.0429  -999.2500     0.1650
