~VERSION INFORMATION
 VERS.                2.0:   CWLS LOG ASCII STANDARD - VERSION 2.0
 WRAP.                 NO:   ONE LINE PER DEPTH STEP
~WELL INFORMATION
#MNEM.UNIT      DATA TYPE    INFORMATION
#----------   ------------   ------------------------------
 STRT.F           31.0000:   START DEPTH
 STOP.F          590.0000:   STOP DEPTH
 STEP.F            0.1000:   STEP LENGTH
 NULL.          -999.2500:   NO VALUE
 COMP. LAWRENCE/ALLISON INC:   COMPANY
 WELL. NPR 3 73-61 SX #3-3:   WELL
 FLD .             TEAPOT:   FIELD
 LOC .       S3 T38N R78W:   LOCATION
 CNTY.            NATRONA:   COUNTY
 STAT.            WYOMING:   STATE
 CTRY. UNITED STATES OF AMERICA:   COUNTRY
 SRVC.           Gearhart:   SERVICE COMPANY
 DATE.        14-AUG-1988:   LOGDATE
 API .       490251124200:   API NUMBER
~CURVE INFORMATION
#MNEM.UNIT       API CODE    CURVE DESCRIPTION
#----------   ------------   ------------------------------
 DEPT.F                  :   
 GRR .GAPI   07 310 01 00:   GAMMA RAY
 RILD.OHMM   07 120 46 00:   INDUCTION LOG DEEP RESISTIVITY
 RILM.OHMM   07 120 44 00:   INDUCTION LOG MEDIUM RESISTIVITY
~PARAMETER INFORMATION
#MNEM.UNIT          VALUE    DESCRIPTION
#----------   ------------   ------------------------------
 PD  .                 GL:   PERMANENT DATUM
 EPD .F              5136:   ELEVATION PERMANENT DATUM
 LMF .                 KB:   LOG MEASURED FROM
 DAPD.F                10:   FEET ABOVE PERMANENT DATUM
 DMF .                 KB:   DRILLING MEASURED FROM
 EKB .F              5146:   KELLING BUSHING
 EDF .F              5144:   DRILLING FLOOR
 EGL .F              5136:   GROUND LEVEL
 DATE.        14-AUG-1988:   RUN DATE
 RUN .                  1:   RUN NUMBER
 DD  .F               597:   DEPTH DRILLER
 DL  .F               598:   DEPTH LOGGER
 BLI .F               590:   BOTTOM LOG INTERVAL
 TLI .F                50:   TOP LOG INTERVAL
 CS  .IN            9.625:   CASING SIZE
 CBD .F                50:   CASING BOTTOM DRILLER
 CBL .F                50:   CASING BOTTOM LOGGER
 BS  .IN             8.75:   BIT SIZE
 BSD .F               597:   BIT SIZE AT DEPTH
 DFT .                AIR:   DRILLING FLUID TYPE
 TCS .HRS            1930:   TIME CURCULATED STOPPED
 TLAB.HRS            2030:   TIME LOGGER AT BOTTOM
 MRT .F                70:   MAXIMUM RECORDED TEMPERATURE
 LUN .               7597:   LOGGING UNIT NUMBER
 LUL .           GILLETTE:   LOGGING UNIT LOCATION
 ENGI.         WEATHERMON:   RECORDING ENGINEER
 WITN.             STRONG:   WITNESSED BY
 CLNT.            A2DTECH:   CLIENT CODE
 ORIG.           5" PRINT:   ORIGIN OF DATA
 UWI .       490251124200:   UNIQUE WELL ID
 DICO. A2D Technologies, Inc.:   DIGITIZING COMPANY
~OTHER INFORMATION
~A   DEPT       GRR      RILD       RILM   
# ...
  431.4000    83.0863    22.9277    20.6489
  431.5000    82.7924    23.0109    20.6603
  431.6000    82.3823    23.0316    20.7884
  431.7000    81.8803    23.1671    20.7866
  431.8000    81.3783    23.1652    20.8722
  431.9000    80.9374    23.2690    20.9272
  432.0000    80.6645    23.4026    20.9658
  432.1000    79.8001    23.5370    21.1032
  432.2000    79.5875    23.6444    21.3608
  432.3000    79.6749    23.6425    21.4766
  432.4000    80.0524    23.8047    21.5996
  432.5000    80.4934    23.8031    21.7941
  432.6000    80.7952    23.8874    21.9998
  432.7000    81.6416    24.0247    22.1476
  432.8000    82.0986    24.1295    22.4105
  432.9000    82.6104    24.1334    22.5356
  433.0000    83.1219    24.2931    22.6647
  433.1000    83.6334    24.2914    22.8726
  433.2000    84.1451    24.2893    23.0846
  433.3000    84.6916    24.3527    23.2167
  433.4000    85.1682    24.4543    23.3496
  433.5000    85.4925    24.4522    23.5089
  433.6000    85.7506    24.4500    23.6179
  433.7000    86.0984    24.5740    23.7532
  433.8000    86.5273    24.6163    23.8891
  433.9000    86.2310    24.6143    23.9943
  434.0000    85.9900    24.6122    23.9965
  434.1000    85.5445    24.6258    24.1562
  434.2000    85.0425    24.7792    24.1542
  434.3000    84.4411    24.7773    24.2424
  434.4000    83.7367    24.7752    24.3176
  434.5000    83.2326    24.7732    24.3153
  434.6000    82.3381    24.7229    24.3130
  434.7000    81.9287    24.5979    24.3103
  434.8000    81.4268    24.5957    24.3082
  434.9000    81.0341    24.5938    24.3058
  435.0000    80.8459    24.4841    24.3035
  435.1000    80.8391    24.4197    24.3011
  435.2000    80.5542    24.3655    24.2863
  435.3000    80.5583    24.2469    24.1282
  435.4000    80.5632    24.2449    24.1261
  435.5000    80.5680    24.1049    24.1238
  435.6000    80.5728    24.0733    24.0507
  435.7000    80.5989    23.9882    23.9524
  435.8000    80.8851    23.8472    23.9338
  435.9000    80.8894    23.7358    23.7821
  436.0000    81.0715    23.7316    23.6529
  436.1000    81.2012    23.5675    23.6133
  436.2000    81.2858    23.5658    23.5379
  436.3000    81.5439    23.4780    23.4455
  436.4000    81.8203    23.3400    23.4036
  436.5000    82.0605    23.2028    23.1180
  436.6000    82.1317    23.0663    22.9884
  436.7000    82.1366    22.9113    22.9539
  436.8000    82.2309    22.9097    22.8769
  436.9000    82.4484    22.8198    22.7421
  437.0000    82.4533    22.6857    22.6081
  437.1000    82.4580    22.5523    22.4724
  437.2000    82.4629    22.4197    22.3427
  437.3000    82.4677    22.2733    22.3128
  437.4000    82.5716    22.1570    22.2342
  437.5000    82.7795    22.1159    22.0525
  437.6000    82.7843    22.0497    21.8212
  437.7000    82.4879    21.9201    21.6926
  437.8000    82.4919    21.8058    21.5415
  437.9000    82.4967    21.8039    21.4382
  438.0000    82.3927    21.6857    21.3888
  438.1000    82.2043    21.6497    21.3339
  438.2000    82.2091    21.6479    21.2082
  438.3000    82.2146    21.6461    21.0880
  438.4000    82.0028    21.6255    21.0857
  438.5000    81.9215    21.4928    21.0839
  438.6000    81.8079    21.4911    21.0026
  438.7000    81.5593    21.3943    20.9341
  438.8000    81.3107    21.2686    20.9321
  438.9000    81.0350    21.1897    20.9301
  439.0000    81.0393    21.1655    20.9278
  439.1000    81.0441    21.0398    20.9260
  439.2000    81.0490    21.0381    20.9240
  439.3000    80.9745    21.0363    20.9219
  439.4000    80.7258    20.9611    20.9199
  439.5000    80.4596    20.8875    20.9063
  439.6000    80.4640    20.8595    20.7711
  439.7000    80.2824    20.7369    20.7693
  439.8000    80.1716    20.5943    20.6823
  439.9000    80.1764    20.4938    20.6218
  440.0000    80.2216    20.4488    20.5818
  440.1000    80.4884    20.3946    20.4605
  440.2000    80.9829    20.3041    20.3316
  440.3000    81.1021    20.2957    20.3297
  440.4000    81.2543    20.1602    20.2412
  440.5000    81.5125    20.1588    20.1221
  440.6000    81.7708    20.0788    20.0037
  440.7000    82.0291    20.0161    19.9034
  440.8000    82.3357    19.9816    19.9014
  440.9000    82.5454    19.8744    19.7892
  441.0000    82.8035    19.8726    19.6727
  441.1000    83.0617    19.8711    19.6216
  441.2000    83.3200    19.7886    19.5770
  441.3000    83.5893    19.6722    19.4618
  441.4000    84.1772    19.5925    19.3457
  441.5000    84.6123    19.5909    19.2333
  441.6000    84.9571    19.5891    19.2082
  441.7000    85.3332    19.4821    19.1398
  441.8000    85.7755    19.4506    19.0718
  441.9000    86.0338    19.4490    19.0467
  442.0000    86.3208    19.4474    18.9363
  442.1000    86.7757    19.4281    18.9341
  442.2000    87.1106    19.3097    18.8425
  442.3000    87.2411    19.3082    18.7999
  442.4000    87.1669    19.2204    18.7510
  442.5000    86.8883    19.1715    18.6664
  442.6000    86.3496    19.1699    18.6598
  442.7000    85.8845    19.1472    18.5335
  442.8000    85.1966    19.0343    18.5320
  442.9000    84.5784    19.0324    18.4598
  443.0000    84.0765    19.0311    18.4003
  443.1000    83.4951    19.0295    18.3700
  443.2000    82.4509    18.9820    18.2696
  443.3000    81.9664    18.8948    18.2676
  443.4000    81.4646    18.8933    18.1731
  443.5000    81.1097    18.8914    18.1380
  443.6000    80.9595    18.8901    18.0848
  443.7000    81.0137    18.8886    18.0092
  443.8000    81.2728    18.8870    18.0074
  443.9000    81.8813    18.8854    18.0055
  444.0000    82.2959    18.8838    18.0039
  444.1000    82.8075    18.8821    18.0021
  444.2000    83.3193    18.8807    18.0004
  444.3000    83.8309    18.8791    17.9987
  444.4000    84.3423    18.8775    18.0107
  444.5000    84.9312    18.8760    18.1203
  444.6000    85.1505    18.8851    18.1187
  444.7000    85.4087    19.0040    18.1953
  444.8000    85.6668    19.0026    18.2412
  444.9000    85.9251    19.0010    18.2770
  445.0000    86.1832    18.9995    18.3816
  445.1000    86.4706    18.9979    18.4906
  445.2000    86.6997    18.9963    18.4888
  445.3000    86.7819    18.9946    18.5701
  445.4000    86.9140    18.9931    18.6764
  445.5000    86.9365    18.9915    18.7416
  445.6000    86.4345    18.9899    18.7398
  445.7000    85.8952    18.9884    18.7380
  445.8000    84.9618    19.0050    18.8446
  445.9000    84.1393    19.1173    18.8647
  446.0000    83.3840    19.1158    18.9294
  446.1000    82.6284    19.1142    18.9923
  446.2000    81.9124    19.1126    18.9905
  446.3000    81.3923    19.1110    18.9887
  446.4000    80.6646    19.1094    19.1186
  446.5000    80.3001    19.1078    19.1171
  446.6000    80.3448    19.2389    19.1152
  446.7000    80.7008    19.2376    19.1623
  446.8000    81.2125    19.2360    19.2445
  446.9000    81.7247    19.2344    19.2426
  447.0000    82.6354    19.2327    19.2405
  447.1000    83.0494    19.2311    19.1435
  447.2000    83.5611    19.2293    19.1041
  447.3000    84.0726    19.2280    19.1022
  447.4000    84.5840    19.2264    19.1004
  447.5000    85.0856    19.2248    19.0986
  447.6000    85.3832    19.1938    19.0965
  447.7000    85.6020    19.0887    19.0948
  447.8000    85.8602    19.0869    19.0166
  447.9000    86.1184    18.9885    18.9592
  448.0000    86.3082    18.8770    18.9241
  448.1000    86.3130    18.8195    18.8245
  448.2000    86.3184    18.7856    18.8225
  448.3000    85.8739    18.6863    18.8208
  448.4000    85.1962    18.6846    18.7406
  448.5000    84.4411    18.5846    18.6871
  448.6000    83.6861    18.5526    18.6495
  448.7000    82.9599    18.4947    18.5543
  448.8000    82.4197    18.4213    18.5524
  448.9000    81.7222    18.4050    18.4495
  449.0000    81.3374    18.2908    18.4207
  449.1000    80.9522    18.2894    18.3599
  449.2000    80.8017    18.2879    18.2899
  449.3000    81.3131    18.2273    18.2705
  449.4000    81.8443    18.1585    18.1599
  449.5000    82.5803    18.1390    18.0561
