~VERSION INFORMATION
 VERS.                2.0:   CWLS LOG ASCII STANDARD - VERSION 2.0
 WRAP.                 NO:   ONE LINE PER DEPTH STEP
~WELL INFORMATION
#MNEM.UNIT      DATA TYPE    INFORMATION
#----------   ------------   ------------------------------
 STRT.F           17.0000:   START DEPTH
 STOP.F         1345.0000:   STOP DEPTH
 STEP.F            0.5000:   STEP LENGTH
 NULL.          -999.2500:   NO VALUE
 COMP. DEPARTMENT OF ENERGY:   COMPANY
 WELL. RES 3 TEAPOT DOME ##86S-11:   WELL
 FLD .             TEAPOT:   FIELD
 LOC .      S11 T38N R78W:   LOCATION
 CNTY.            NATRONA:   COUNTY
 STAT.            WYOMING:   STATE
 CTRY. UNITED STATES OF AMERICA:   COUNTRY
 SRVC.       Schlumberger:   SERVICE COMPANY
 DATE.        13-AUG-1959:   LOGDATE
 API .       490250633200:   API NUMBER
~CURVE INFORMATION
#MNEM.UNIT       API CODE    CURVE DESCRIPTION
#----------   ------------   ------------------------------
 DEPT.F                  :   
 SPR .MV     05 010 01 00:   SPONTANEOUS POTENTIAL FROM RES.
 CILD.MMHO   05 110 46 00:   CONDUCTIVITY INDUCTION LOG DEEP
 ILD .OHMM   05 120 46 00:   INDUCTION LOG DEEP
 ASN .OHMM   05 041 16 00:   AMPLIFIED SHORT NORMAL 16"
~PARAMETER INFORMATION
#MNEM.UNIT          VALUE    DESCRIPTION
#----------   ------------   ------------------------------
 PD  .                 GL:   PERMANENT DATUM
 EPD .F              5295:   ELEVATION PERMANENT DATUM
 LMF .                 KB:   LOG MEASURED FROM
 DAPD.F                 4:   FEET ABOVE PERMANENT DATUM
 DMF .                 KB:   DRILLING MEASURED FROM
 EKB .F              5299:   KELLING BUSHING
 EGL .F              5295:   GROUND LEVEL
 DATE.            8-13-59:   RUN DATE
 RUN .                  1:   RUN NUMBER
 DD  .F              1350:   DEPTH DRILLER
 DL  .F              1350:   DEPTH LOGGER
 BLI .F              1345:   BOTTOM LOG INTERVAL
 TLI .F                17:   TOP LOG INTERVAL
 CBD .F                17:   CASING BOTTOM DRILLER
 CBL .F                17:   CASING BOTTOM LOGGER
 BS  .IN             6.75:   BIT SIZE
 BSD .F              1350:   BIT SIZE AT DEPTH
 DFT .                GEL:   DRILLING FLUID TYPE
 DFD .                9.8:   DRILLING FLUID DENSITY
 DFV .                 65:   DRILLING FLUID VISCOSITY
 DFPH.                9.5:   DRILLING FLUID PH
 DFL .                5.4:   DRILLING FLUID LOSS
 RMS .OHMM           2.84:   RESISTIVITY MUD SAMPLE
 MST .F                69:   MUD SAMPLE TEMPERATURE
 RMF .OHMM            2.5:   RESISTIVITY MUD FILTRATE SAMPLE
 MFST.F                69:   MUD FILTRATE SAMPLE TEMPERATURE
 RMC .OHMM           2.46:   RESISTIVITY MUD CAKE
 MCST.F                69:   MUD CAKE SAMPLE TEMPERATURE
 MFSS.                  M:   MUD FILTRATE SAMPLE SOURCE
 MCSS.                  M:   MUD CAKE SAMPLE SOURCE
 TCS .HRS               1:   TIME CURCULATED STOPPED
 LUN .               2523:   LOGGING UNIT NUMBER
 LUL .               CSPR:   LOGGING UNIT LOCATION
 ENGI.             KNOBEL:   RECORDING ENGINEER
 WITN.             MARTIN:   WITNESSED BY
 CLNT.            A2DTECH:   CLIENT CODE
 ORIG.         2"5" PRINT:   ORIGIN OF DATA
 UWI .       490250633200:   UNIQUE WELL ID
 DICO. A2D Technologies, Inc.:   DIGITIZING COMPANY
~OTHER INFORMATION
~A   DEPT      SPR        CILD         ILD      ASN   
# ...
   90.0000  -999.2500   224.0577     4.8114  -999.2500
   90.5000  -999.2500   225.7017     4.8161  -999.2500
   91.0000  -999.2500   227.3458     4.8204  -999.2500
   91.5000  -999.2500   228.9898     4.8256  -999.2500
   92.0000  -999.2500   230.8879     4.8307  -999.2500
   92.5000  -999.2500   231.7901     4.8615  -999.2500
   93.0000  -999.2500   227.3752     4.8944  -999.2500
   93.5000  -999.2500   221.9809     4.9776  -999.2500
   94.0000  -999.2500   214.1344     5.1458  -999.2500
   94.5000  -999.2500   206.2878     5.3125  -999.2500
   95.0000  -999.2500   198.4412     5.4832  -999.2500
   95.5000  -999.2500   190.8005     5.6488  -999.2500
   96.0000  -999.2500   183.6265     5.8222  -999.2500
   96.5000  -999.2500   177.6123     5.9819  -999.2500
   97.0000  -999.2500   174.3840     6.1730  -999.2500
   97.5000  -999.2500   170.4416     6.2867  -999.2500
   98.0000  -999.2500   170.4416     6.2591  -999.2500
   98.5000  -999.2500   170.4574     6.2473  -999.2500
   99.0000  -999.2500   170.4460     6.2258  -999.2500
   99.5000  -999.2500   170.3597     6.2093  -999.2500
  100.0000  -999.2500   170.0888     6.1915  -999.2500
  100.5000  -999.2500   169.8197     6.1821  -999.2500
  101.0000  -999.2500   169.5569     6.1539  -999.2500
  101.5000  -999.2500   170.5665     6.1280  -999.2500
  102.0000  -999.2500   172.0511     6.1023  -999.2500
  102.5000  -999.2500   173.4910     6.0765  -999.2500
  103.0000  -999.2500   174.9309     6.0508  -999.2500
  103.5000  -999.2500   176.3707     6.0250  -999.2500
  104.0000  -999.2500   177.8106     5.9992  -999.2500
  104.5000  -999.2500   179.2505     5.9735  -999.2500
  105.0000  -999.2500   180.6904     5.9476  -999.2500
  105.5000  -999.2500   182.1303     5.9221  -999.2500
  106.0000  -999.2500   183.5702     5.8959  -999.2500
  106.5000  -999.2500   183.7894     5.8710  -999.2500
  107.0000  -999.2500   183.5323     5.8435  -999.2500
  107.5000  -999.2500   183.2752     5.8279  -999.2500
  108.0000  -999.2500   183.0722     5.8488  -999.2500
  108.5000  -999.2500   181.3291     5.8691  -999.2500
  109.0000   -34.4389   179.8893     5.8886  -999.2500
  109.5000   -34.0812   179.8860     5.9098  -999.2500
  110.0000   -33.7236   180.4859     5.9114  -999.2500
  110.5000   -33.8153   181.0859     5.8743  -999.2500
  111.0000   -34.1014   182.5218     5.8410  -999.2500
  111.5000   -34.3875   184.3217     5.8069  -999.2500
  112.0000   -34.6737   186.1216     5.7732  -999.2500
  112.5000   -34.8419   187.9214     5.7393  -999.2500
  113.0000   -34.9517   189.3875     5.7056  -999.2500
  113.5000   -34.2569   189.7980     5.6716  -999.2500
  114.0000   -33.5633   190.3458     5.6414  -999.2500
  114.5000   -32.9169   190.9452     5.6086  -999.2500
  115.0000   -32.1844   192.6770     5.5785  -999.2500
  115.5000   -32.2803   194.9653     5.5485  -999.2500
  116.0000   -34.0394   195.7446     5.5185  -999.2500
  116.5000   -34.4691   196.3000     5.4884  -999.2500
  117.0000   -33.7337   196.6760     5.4583  -999.2500
  117.5000   -33.0865   200.2757     5.4283  -999.2500
  118.0000   -32.5625   203.4254     5.3979  -999.2500
  118.5000   -32.8055   206.5752     5.3684  -999.2500
  119.0000   -33.5325   209.2355     5.3371  -999.2500
  119.5000   -34.2042   203.8287     5.3090  -999.2500
  120.0000   -34.0542   199.1491     5.2794  -999.2500
  120.5000   -33.6690   197.1177     5.3248  -999.2500
  121.0000   -34.1912   196.5177     5.4084  -999.2500
  121.5000   -34.6587   195.9178     5.4802  -999.2500
  122.0000   -35.1887   193.8262     5.5570  -999.2500
  122.5000   -35.4743   190.9014     5.6317  -999.2500
  123.0000   -34.4819   187.9767     5.7052  -999.2500
  123.5000   -34.1993   185.0519     5.7648  -999.2500
  124.0000   -34.9774   183.4577     5.8165  -999.2500
  124.5000   -35.6761   182.6395     5.8663  -999.2500
  125.0000   -36.3007   181.8214     5.9164  -999.2500
  125.5000   -36.0751   181.0033     5.9667  -999.2500
  126.0000   -35.6214   180.1852     6.0162  -999.2500
  126.5000   -35.2102   179.4634     6.0675  -999.2500
  127.0000   -35.0299   177.7030     6.1153  -999.2500
  127.5000   -35.0665   176.1282     6.1695  -999.2500
  128.0000   -35.1103   174.5533     6.1695  -999.2500
  128.5000   -35.1803   173.1481     6.1286  -999.2500
  129.0000   -35.2171   175.8066     6.0967  -999.2500
  129.5000   -35.1637   176.7569     6.0605  -999.2500
  130.0000   -35.1014   176.7569     6.0266  -999.2500
  130.5000   -35.0449   176.7569     5.9914  -999.2500
  131.0000   -34.9801   176.7569     5.9569  -999.2500
  131.5000   -34.9286   176.7569     5.9221  -999.2500
  132.0000   -34.8589   176.7569     5.8873  -999.2500
  132.5000   -35.0126   178.1840     5.8529  -999.2500
  133.0000   -35.3159   179.4982     5.8178  -999.2500
  133.5000   -35.5772   180.7977     5.7839  -999.2500
  134.0000   -35.8641   182.0986     5.7480  -999.2500
  134.5000   -36.1267   183.4038     5.7328  -999.2500
  135.0000   -36.4257   184.8238     5.7350  -999.2500
  135.5000   -36.6012   186.3281     5.7337  -999.2500
  136.0000   -36.2193   187.8339     5.7352  -999.2500
  136.5000   -35.7558   189.3384     5.7308  -999.2500
  137.0000   -35.6558   190.8385     5.6963  -999.2500
  137.5000   -35.8938   192.3384     5.6598  -999.2500
  138.0000   -35.9100   193.4626     5.6239  -999.2500
  138.5000   -35.5774   194.2933     5.5876  -999.2500
  139.0000   -35.1936   195.1240     5.5515  -999.2500
  139.5000   -35.0755   195.9547     5.5154  -999.2500
  140.0000   -35.2029   196.7854     5.4797  -999.2500
  140.5000   -35.2099   197.6161     5.4405  -999.2500
  141.0000   -35.0457   198.4093     5.3904  -999.2500
  141.5000   -34.8550   197.4688     5.3776  -999.2500
  142.0000   -34.7191   196.5688     5.4541  -999.2500
  142.5000   -34.8723   195.6689     5.5290  -999.2500
  143.0000   -35.0588   194.8006     5.6108  -999.2500
  143.5000   -35.2223   194.8006     5.6473  -999.2500
  144.0000   -35.3039   194.8006     5.6423  -999.2500
  144.5000   -35.3741   194.8006     5.6450  -999.2500
  145.0000   -35.4452   194.8006     5.6429     1.6939
  145.5000   -35.5212   193.5435     5.6482     2.7378
  146.0000   -35.5572   191.1437     5.6913     3.7621
  146.5000   -35.2175   188.7439     5.7392     4.2022
  147.0000   -34.9300   186.3441     5.7858     4.6342
  147.5000   -35.2225   183.9443     5.8330     5.0613
  148.0000   -35.6068   181.5445     5.8798     5.8985
  148.5000   -35.9037   179.1527     5.9270     6.3648
  149.0000   -35.9830   176.7656     5.9738     6.7486
  149.5000   -35.6517   175.6044     6.0212     6.7189
  150.0000   -35.0073   174.4458     6.0674     6.7094
  150.5000   -34.3585   173.2843     6.1157     6.7661
  151.0000   -33.7908   172.1207     6.1600     6.8648
  151.5000   -33.2608   170.9557     6.2285     6.9596
  152.0000   -35.1630   169.7917     6.3211     7.0558
  152.5000   -35.5062   168.6372     6.4106     7.1526
  153.0000   -34.8592   165.2603     6.5003     7.2502
  153.5000   -34.5858   161.8406     6.5925     7.3462
  154.0000   -34.4867   158.4209     6.6786     7.4379
  154.5000   -34.5573   155.0012     6.7778     7.4148
  155.0000   -34.5707   151.4957     6.8054     7.3330
  155.5000   -34.6139   150.5935     6.7569     7.3456
  156.0000   -34.6375   150.5935     6.7209     7.4293
  156.5000   -34.6786   152.6012     6.6785     7.4564
  157.0000   -34.6498   154.6793     6.6395     7.3403
  157.5000   -34.5362   156.7594     6.5988     7.2227
  158.0000   -34.4453   158.8437     6.5589     7.0844
  158.5000   -34.3293   160.9305     6.5186     7.0561
  159.0000   -34.4361   163.0164     6.4785     7.1471
  159.5000   -34.6790   164.6057     6.4385     7.2200
  160.0000   -34.9331   165.5998     6.3983     7.1986
  160.5000   -35.0464   166.5797     6.3584     7.1193
  161.0000   -34.8143   167.5797     6.3177     7.0511
  161.5000   -34.5661   168.6372     6.2806     6.9771
  162.0000   -34.3237   168.8257     6.2885     6.9053
  162.5000   -34.0624   169.0257     6.3042     6.8431
