~VERSION INFORMATION
 VERS.                2.0:   CWLS LOG ASCII STANDARD - VERSION 2.0
 WRAP.                 NO:   ONE LINE PER DEPTH STEP
~WELL INFORMATION
#MNEM.UNIT      DATA TYPE    INFORMATION
#----------   ------------   ------------------------------
 STRT.F           10.0000:   START DEPTH
 STOP.F          519.0000:   STOP DEPTH
 STEP.F            0.5000:   STEP LENGTH
 NULL.          -999.2500:   NO VALUE
 COMP. LAWRENCE/ALLISON INC:   COMPANY
 WELL.     56-16 SX #56-3:   WELL
 FLD .             TEAPOT:   FIELD
 LOC .       S3 T38N R78W:   LOCATION
 CNTY.            NATRONA:   COUNTY
 STAT.            WYOMING:   STATE
 CTRY. UNITED STATES OF AMERICA:   COUNTRY
 SRVC.           Gearhart:   SERVICE COMPANY
 DATE.        02-AUG-1987:   LOGDATE
 API .       490251115700:   API NUMBER
~CURVE INFORMATION
#MNEM.UNIT       API CODE    CURVE DESCRIPTION
#----------   ------------   ------------------------------
 DEPT.F                  :   
 GRR .GAPI   07 310 01 00:   GAMMA RAY
 ILD .OHMM   07 120 46 00:   INDUCTION LOG DEEP
 ILM .OHMM   07 120 44 00:   INDUCTION LOG MEDIUM
~PARAMETER INFORMATION
#MNEM.UNIT          VALUE    DESCRIPTION
#----------   ------------   ------------------------------
 PD  .                 GL:   PERMANENT DATUM
 EPD .F              5192:   ELEVATION PERMANENT DATUM
 LMF .                 KB:   LOG MEASURED FROM
 DAPD.F                 8:   FEET ABOVE PERMANENT DATUM
 DMF .                 KB:   DRILLING MEASURED FROM
 EKB .F              5200:   KELLING BUSHING
 EGL .F              5192:   GROUND LEVEL
 DATE.        02-JUN-1997:   RUN DATE
 RUN .                  1:   RUN NUMBER
 DD  .F               530:   DEPTH DRILLER
 DL  .F               527:   DEPTH LOGGER
 BLI .F               518:   BOTTOM LOG INTERVAL
 TLI .F                30:   TOP LOG INTERVAL
 CS  .IN            8.625:   CASING SIZE
 CBD .F                46:   CASING BOTTOM DRILLER
 CBL .F                48:   CASING BOTTOM LOGGER
 BS  .IN            7.875:   BIT SIZE
 BSD .F               530:   BIT SIZE AT DEPTH
 DFT .           NONE/AIR:   DRILLING FLUID TYPE
 TCS .HRS            0530:   TIME CURCULATED STOPPED
 MRT .F                80:   MAXIMUM RECORDED TEMPERATURE
 LUN .               7597:   LOGGING UNIT NUMBER
 LUL .           GILLETTE:   LOGGING UNIT LOCATION
 ENGI.        K.HUCKFELDT:   RECORDING ENGINEER
 WITN.        LYNDA FIVAS:   WITNESSED BY
 CLNT.            A2DTECH:   CLIENT CODE
 ORIG.           5" PRINT:   ORIGIN OF DATA
 UWI .       490251115700:   UNIQUE WELL ID
 DICO. A2D Technologies, Inc.:   DIGITIZING COMPANY
~OTHER INFORMATION
~A   DEPT       GRR       ILD        ILM   
# ...
  101.0000   113.4442    12.0814    10.7114
  101.5000   115.5914    12.5106    11.2489
  102.0000   114.7040    12.9551    11.8133
  102.5000   112.3084    13.3292    12.5915
  103.0000   109.0078    13.6070    13.7202
  103.5000   106.2906    13.7071    15.0811
  104.0000   104.4786    13.7117    15.7283
  104.5000   104.2343    13.8021    15.5166
  105.0000   105.7646    13.7107    14.7852
  105.5000   105.7823    13.2493    13.8940
  106.0000   105.4939    12.7143    13.2391
  106.5000   104.9126    12.2856    12.6151
  107.0000   105.2319    11.8713    12.1886
  107.5000   107.0596    11.6299    11.9412
  108.0000   107.9822    11.3950    11.8627
  108.5000   108.3017    11.3981    11.8690
  109.0000   108.3198    11.4803    11.9535
  109.5000   108.0352    11.6433    11.9586
  110.0000   107.1523    11.8906    11.9627
  110.5000   105.3600    11.9764    11.9484
  111.0000   103.5677    11.9797    12.0358
  111.5000   102.3787    11.9837    12.0390
  112.0000   102.3964    11.9043    12.1254
  112.5000   102.4140    11.8247    11.8794
  113.0000   101.8284    11.6654    11.7179
  113.5000   100.3278    11.4298    11.6406
  114.0000    98.8074    11.2759    11.4038
  114.5000    97.6625    11.1233    11.2496
  115.0000    98.5851    11.0503    11.0974
  115.5000   101.0161    10.9016    11.1005
  116.0000   104.3520    10.8294    11.0266
  116.5000   104.9730    10.7577    10.9532
  117.0000   104.6890    10.7607    10.8804
  117.5000   105.3099    10.6164    10.8080
  118.0000   107.1376    10.5454    10.7361
  118.5000   107.7585    10.4756    10.7398
  119.0000   106.7512    10.3886    10.6684
  119.5000   103.5750    10.1960    10.5967
  120.0000   101.1794    10.1988    10.5268
  120.5000   100.2877    10.1305    10.3845
  121.0000   100.0037     9.9947    10.3154
  121.5000   102.7407     9.9975    10.3183
  122.0000   103.6633     9.9313    10.2503
  122.5000   103.3786    10.0030    10.2531
  123.0000   102.7934    10.0057    10.2559
  123.5000   102.8215    10.0778    10.2587
  124.0000   104.4183    10.0812    10.2611
  124.5000   106.7726    10.1539    10.2643
  125.0000   107.9969    10.1566    10.2671
  125.5000   108.9195    10.1594    10.2699
  126.0000   107.4289    10.1622    10.2727
  126.5000   104.1283    10.0942    10.2755
  127.0000   103.8399     9.9589    10.1365
  127.5000   104.7669     9.8930     9.9994
  128.0000   104.7846     9.7597     9.9329
  128.5000   103.5857     9.5565     9.7313
  129.0000   102.6687     9.3575     9.5997
  129.5000   102.1227     9.1783     9.4692
  130.0000   103.3514     8.9930     9.2122
  130.5000   105.7823     8.8107     8.9622
  131.0000   107.9116     8.6322     8.6593
  131.5000   109.1359     8.4572     8.4830
  132.0000   107.9469     8.4007     8.3683
  132.5000   107.3605     8.3450     8.3125
  133.0000   106.7753     8.2902     8.2573
  133.5000   106.1899     8.2926     8.2611
  134.0000   106.2483     8.3524     8.3195
  134.5000   107.4363     8.3595     8.3802
  135.0000   109.2639     8.4247     8.4998
  135.5000   110.4882     8.4762     8.5021
  136.0000   109.2992     8.5373     8.5637
  136.5000   108.4075     8.6585     8.6257
  137.0000   109.0329     8.7210     8.6882
  137.5000   110.8605     8.7233     8.7512
  138.0000   111.4814     8.8472     8.8146
  138.5000   109.6792     8.9728     8.9403
  139.0000   109.1035     9.1002     8.9427
  139.5000   111.8405     9.2295     9.0075
  140.0000   114.8747     9.1684     9.0728
  140.5000   116.7024     9.2345     9.1386
  141.0000   116.7200     9.2371     9.2053
  141.5000   116.7377     9.2401     9.2720
  142.0000   116.4493     9.1789     9.2745
  142.5000   115.8673     9.1175     9.2771
  143.0000   115.2823     9.0571     9.3436
  143.5000   114.3751     8.9972     9.2815
  144.0000   112.8647     8.9376     9.2198
  144.5000   113.8314     8.8178     9.0950
  145.0000   114.7541     8.8202     9.0351
  145.5000   115.6767     8.9455     9.1006
  146.0000   113.8844     9.0100     9.1031
  146.5000   111.7905     9.0803     9.1124
  147.0000   110.2998     9.2039     9.1715
  147.5000   109.4125     9.2708     9.1747
  148.0000   108.5249     9.2733     9.1136
  148.5000   107.9395     9.2758     9.1161
  149.0000   107.9980     9.2144     9.1186
  149.5000   109.1859     9.2169     9.1211
  150.0000   112.5218     9.0922     9.1870
  150.5000   112.8411     9.0264     9.1908
  151.0000   111.9538     8.9107     9.1308
  151.5000   111.6654     8.7907     9.0094
  152.0000   112.2908     8.7937     8.8272
  152.5000   112.3084     8.7355     8.7090
  153.0000   111.1194     8.7378     8.6513
  153.5000   110.2222     8.6794     8.5949
  154.0000   109.3052     8.6219     8.5398
  154.5000   108.7591     8.5063     8.4840
  155.0000   109.9879     8.3339     8.2550
  155.5000   112.7205     8.1053     8.0266
  156.0000   114.8497     7.8268     7.7081
  156.5000   114.8692     7.5195     7.4992
  157.0000   113.0770     7.3163     7.2469
  157.5000   110.0781     7.1186     6.9539
  158.0000   108.5875     7.0710     6.5807
  158.5000   108.6051     7.0242     6.4919
  159.0000   109.5278     7.0266     6.4496
  159.5000   110.4505     7.0772     6.6347
  160.0000   111.0715     7.1283     6.9198
  160.5000   108.6759     7.2295     7.1774
  161.0000   108.3919     7.2881     7.4761
  161.5000   110.3088     7.4883     7.6366
  162.0000   111.4483     7.7004     7.8550
  162.5000   109.3544     7.8640     7.9681
  163.0000   107.2605     7.9756     7.9713
  163.5000   106.6704     8.0889     8.0861
  164.0000   107.8991     8.1472     8.0894
  164.5000   111.2351     8.1494     8.0927
  165.0000   112.1577     8.1516     8.0399
  165.5000   112.1754     8.1538     7.9875
  166.0000   111.8914     8.0947     7.9355
  166.5000   113.1403     7.9362     7.8300
  167.0000   115.2981     7.8293     7.7782
  167.5000   118.5854     7.7233     7.6747
  168.0000   121.3181     7.5673     7.5195
  168.5000   121.6330     7.4140     7.3667
  169.0000   121.0518     7.1146     7.1678
  169.5000   119.5612     6.8273     6.9266
  170.0000   116.8639     6.3729     6.6929
  170.5000   111.1501     6.2007     6.2856
  171.0000   111.4694     6.1597     5.8708
  171.5000   112.7018     6.1189     5.5945
  172.0000   115.7929     6.1209     5.5967
  172.5000   116.6551     6.1651     5.7169
  173.0000   116.6728     6.2526     5.9626
  173.5000   116.9922     6.4743     6.2622
  174.0000   114.8982     6.7504     6.6228
  174.5000   114.3082     7.0382     6.9556
  175.0000   114.3303     7.3384     7.2043
  175.5000   115.2530     7.5986     7.4155
  176.0000   117.3822     7.8709     7.6760
  176.5000   119.2099     8.2036     7.8955
  177.0000   118.6003     8.2632     8.0650
  177.5000   115.8874     8.3805     8.2382
  178.0000   115.6430     8.4410     8.3569
  178.5000   119.5867     8.5608     8.5363
  179.0000   123.2243     8.6226     8.6592
  179.5000   124.1426     8.6847     8.7839
  180.0000   119.9414     8.7474     8.9104
  180.5000   116.9381     8.8716     9.0388
  181.0000   117.8652     8.9355     9.1699
  181.5000   119.3912     8.9380     9.2375
  182.0000   119.7105     8.9410     9.3057
  182.5000   118.5017     8.9434     9.3095
  183.0000   116.9351     8.9458     9.3133
  183.5000   115.5404     8.9482     9.3171
  184.0000   118.2774     8.9506     9.2554
  184.5000   119.5017     8.8913     9.2601
  185.0000   118.3128     8.8937     9.2639
  185.5000   114.7105     8.8348     9.2677
  186.0000   112.3150     8.8372     9.2723
  186.5000   112.6343     8.9010     9.2761
  187.0000   113.2553     8.9035     9.2147
  187.5000   114.1780     8.8444     9.2194
  188.0000   114.7994     8.8474     9.2231
  188.5000   114.8211     8.8498     9.2912
  189.0000   114.2310     8.7306     9.2297
  189.5000   113.3482     8.6722     9.1704
  190.0000   110.9526     8.5554     9.0476
  190.5000   111.2719     8.4406     8.9264
  191.0000   114.9095     8.2696     8.6261
  191.5000   116.1339     7.9895     8.2774
