~VERSION INFORMATION
 VERS.                2.0:   CWLS LOG ASCII STANDARD - VERSION 2.0
 WRAP.                 NO:   ONE LINE PER DEPTH STEP
~WELL INFORMATION
#MNEM.UNIT      DATA TYPE    INFORMATION
#----------   ------------   ------------------------------
 STRT.M           36.0000:   START DEPTH
 STOP.M          687.0000:   STOP DEPTH
 STEP.M            0.5000:   STEP LENGTH
 NULL.          -999.2500:   NO VALUE
 COMP. LAWRENCE/ALLISON INC:   COMPANY
 WELL.    53-1-STX #15-15:   WELL
 FLD .             TEAPOT:   FIELD
 LOC .      S15 T38N R78W:   LOCATION
 CNTY.            NATRONA:   COUNTY
 STAT.            WYOMING:   STATE
 CTRY. UNITED STATES OF AMERICA:   COUNTRY
 SRVC.           Gearhart:   SERVICE COMPANY
 DATE.        29-AUG-1987:   LOGDATE
 API .       490251118700:   API NUMBER
~CURVE INFORMATION
#MNEM.UNIT       API CODE    CURVE DESCRIPTION
#----------   ------------   ------------------------------
 DEPT.M                  :   
 GRR .GAPI   07 310 01 00:   GAMMA RAY
 ILD .OHMM   07 120 46 00:   INDUCTION LOG DEEP
 ILM .OHMM   07 120 44 00:   INDUCTION LOG MEDIUM
~PARAMETER INFORMATION
#MNEM.UNIT          VALUE    DESCRIPTION
#----------   ------------   ------------------------------
 PD  .                 GL:   PERMANENT DATUM
 EPD .F              5237:   ELEVATION PERMANENT DATUM
 LMF .                 KB:   LOG MEASURED FROM
 DAPD.F              10.5:   FEET ABOVE PERMANENT DATUM
 DMF .                 KB:   DRILLING MEASURED FROM
 EKB .F              5247:   KELLING BUSHING
 EDF .F            5246.5:   DRILLING FLOOR
 EGL .F              5237:   GROUND LEVEL
 DATE.        29-AUG-1987:   RUN DATE
 RUN .                  1:   RUN NUMBER
 DD  .F               695:   DEPTH DRILLER
 DL  .F               696:   DEPTH LOGGER
 BLI .F               688:   BOTTOM LOG INTERVAL
 TLI .F                37:   TOP LOG INTERVAL
 CS  .IN            9.625:   CASING SIZE
 CBD .F                48:   CASING BOTTOM DRILLER
 CBL .F                49:   CASING BOTTOM LOGGER
 BS  .IN             8.75:   BIT SIZE
 BSD .F               695:   BIT SIZE AT DEPTH
 DFT .                AIR:   DRILLING FLUID TYPE
 TCS .HRS            0400:   TIME CURCULATED STOPPED
 MRT .F                80:   MAXIMUM RECORDED TEMPERATURE
 LUN .               7597:   LOGGING UNIT NUMBER
 LUL .           GILLETTE:   LOGGING UNIT LOCATION
 ENGI.         WEATHERMON:   RECORDING ENGINEER
 WITN.             STRONG:   WITNESSED BY
 CLNT.            A2DTECH:   CLIENT CODE
 ORIG.       2", 5" PRINT:   ORIGIN OF DATA
 UWI .       490251118700:   UNIQUE WELL ID
 DICO. A2D Technologies, Inc.:   DIGITIZING COMPANY
~OTHER INFORMATION
~A   DEPT       GRR       ILD        ILM   
   36.0000    86.2048  -999.2500  -999.2500
   36.5000    86.2349  -999.2500  -999.2500
   37.0000    86.8735  -999.2500  -999.2500
   37.5000    87.2044  -999.2500  -999.2500
   38.0000    83.0172  -999.2500  -999.2500
   38.5000    81.5409  -999.2500  -999.2500
   39.0000    82.1730  -999.2500  -999.2500
   39.5000    82.8051  -999.2500  -999.2500
   40.0000    82.5262  -999.2500  -999.2500
   40.5000    82.8645  -999.2500  -999.2500
   41.0000    83.4966  -999.2500  -999.2500
   41.5000    84.1287  -999.2500  -999.2500
   42.0000    82.9536  -999.2500  -999.2500
   42.5000    82.0797  -999.2500  -999.2500
   43.0000    82.4106  -999.2500  -999.2500
   43.5000    83.6451  -999.2500  -999.2500
   44.0000    84.5784  -999.2500  -999.2500
   44.5000    86.4287  -999.2500  -999.2500
   45.0000    87.9819  -999.2500  -999.2500
   45.5000    88.5843  -999.2500  -999.2500
   46.0000    88.0179  -999.2500  -999.2500
   46.5000    87.4378  -999.2500  -999.2500
   47.0000    86.2701  -999.2500  -999.2500
   47.5000    84.7937  -999.2500  -999.2500
   48.0000    80.6066  -999.2500  -999.2500
   48.5000    80.0264  -999.2500  -999.2500
   49.0000    83.0756    37.0011   483.8358
   49.5000    89.1294    42.5896   424.8304
   50.0000    98.4964    41.7610   390.7491
   50.5000   104.8514    29.1835   306.5939
   51.0000   110.6040     4.6976   206.8651
   51.5000   113.0434     3.1900    67.2810
   52.0000   112.1695     2.6112     9.2879
   52.5000   109.7895     2.7996     3.0679
   53.0000   108.3112     4.7392     2.9446
   53.5000   106.1968     7.0831     3.5632
   54.0000   102.2410     8.8429     3.9696
   54.5000   100.2698     6.5249     4.8545
   55.0000    99.9983     4.4308     5.0977
   55.5000   101.8426     3.7121     4.7257
   56.0000   105.1856     3.1729     4.2318
   56.5000   107.9261     2.7913     3.8158
   57.0000   110.6667     2.6422     3.1664
   57.5000   114.0096     2.5011     2.6457
   58.0000   121.2682     2.4337     2.2728
   58.5000   131.2377     2.4521     2.0780
   59.0000   137.2915     2.4874     2.0080
   59.5000   139.4296     2.5059     2.0089
   60.0000   132.2304     2.6498     2.3343
   60.5000   125.3324     2.8019     2.6784
   61.0000   119.3380     3.1315     2.9851
   61.5000   111.8376     3.6990     3.8585
   62.0000   104.0201     4.9148     4.8848
   62.5000   101.3548     6.0099     5.8509
   63.0000   101.3855     7.5989     7.0080
   63.5000   101.4216     8.7574     8.8109
   64.0000   101.4513     9.1170     9.9846
   64.5000    99.9750     9.2485    10.1280
   65.0000    98.1975     8.9382    10.3449
   65.5000    97.6173     8.3446     9.7913
   66.0000    97.9557     7.4736     7.9578
   66.5000    98.8890     6.9772     6.6493
   67.0000   100.7259     6.2489     6.1582
   67.5000   105.5749     5.9152     5.4309
   68.0000   110.4239     5.6774     5.1176
   68.5000   111.6584     5.5634     4.8769
   69.0000   111.3855     5.7620     5.2656
   69.5000   108.4045     5.9677     6.2203
   70.0000   105.1210     6.3983     6.8563
   70.5000   102.7410     7.1642     7.1998
   71.0000   101.8671     8.2548     7.7729
   71.5000   103.1335     9.1835     8.8083
   72.0000   103.7349     9.7783     9.3139
   72.5000   102.2649    10.2685    10.2663
   73.0000   100.4873    11.0095    10.7806
   73.5000    99.3122    11.8039    11.3207
   74.0000    99.6431    12.2253    11.7266
   74.5000   100.5764    12.8382    12.3284
   75.0000   101.2085    13.3888    12.9437
   75.5000   101.2382    13.7711    13.6720
   76.0000   100.6655    13.9697    14.0617
   76.5000   100.3866    14.1711    14.1652
   77.0000    99.2189    14.4753    14.3686
   77.5000    96.2365    14.3823    14.3745
   78.0000    95.9639    14.3893    14.5809
   78.5000    97.1996    14.3963    14.6882
   79.0000    99.0365    14.4046    14.6942
   79.5000   100.5723    14.7138    14.7003
   80.0000   100.6024    15.0296    14.8084
   80.5000   101.2721    15.3522    15.0211
   81.0000   104.0843    15.4661    15.4500
   81.5000   105.8189    15.4735    15.8899
   82.0000   101.9330    15.6966    16.0069
   82.5000   100.4492    16.0335    16.2382
   83.0000    99.8765    16.2647    16.5859
   83.5000    99.9136    16.1583    16.5926
   84.0000    99.6421    16.2802    16.5994
   84.5000    99.3632    16.2880    16.6062
   85.0000    95.1834    16.4089    16.6130
   85.5000    93.3985    16.6456    16.7353
   86.0000    95.5441    16.7693    16.7421
   86.5000    98.2846    16.8956    16.9825
   87.0000   100.4227    16.7851    16.9895
   87.5000   100.7536    16.7951    16.9964
   88.0000   100.7833    17.0372    17.1215
   88.5000   100.5118    17.1637    17.3675
   89.0000   100.5422    17.2911    17.5108
   89.5000   100.5712    17.4195    17.8716
   90.0000    99.7047    17.5488    18.0031
   90.5000    95.8188    17.8019    18.0105
   91.0000    92.8364    17.8103    17.8935
   91.5000    91.9551    17.8188    17.7755
   92.0000    93.1970    17.8273    17.6600
   92.5000    92.3231    17.7128    17.5453
   93.0000    91.7430    17.5991    17.3128
   93.5000    93.8885    17.3497    17.1986
   94.0000    98.7375    17.1349    17.2074
   94.5000   100.5744    17.5048    17.2144
   95.0000   101.5078    17.5131    17.2214
   95.5000   102.1399    17.5215    17.2285
   96.0000   102.4708    17.4089    17.2357
   96.5000   101.5969    17.4172    17.2428
   97.0000   100.7229    17.3033    17.2513
   97.5000   101.3856    16.9579    17.0210
   98.0000   103.5582    16.5028    16.7920
   98.5000   105.6817    16.1714    16.2288
   99.0000   106.8733    15.5212    15.5747
   99.5000   107.2042    15.0005    14.8438
  100.0000   106.9252    14.2980    12.9292
  100.5000   106.9624    13.2383    12.0691
  101.0000   107.1813    11.4273    10.4398
  101.5000   108.4242     9.9236     9.7453
  102.0000   111.1801     9.0742     9.0342
  102.5000   115.4487     8.6492     8.5488
  103.0000   118.8097     8.1873     8.0279
  103.5000   120.3553     7.6967     7.4350
  104.0000   121.2957     7.3362     7.0530
  104.5000   123.7489     6.9927     6.7220
  105.0000   124.9924     6.8050     6.6316
  105.5000   125.9758     6.7605     6.7275
  106.0000   124.4603     6.8588     6.8241
  106.5000   123.5853     6.8146     6.9221
  107.0000   122.1051     6.9610     6.9730
  107.5000   120.9275     7.0614     7.0732
  108.0000   120.6494     7.0160     7.0761
  108.5000   119.4800     6.9710     7.0301
  109.0000   119.2019     6.8784     6.9844
  109.5000   119.8479     6.6946     6.9391
  110.0000   123.2089     6.6508     6.8433
  110.5000   126.8724     6.7010     6.7550
  111.0000   128.4180     6.7042     6.7111
  111.5000   126.6293     6.7074     6.6675
  112.0000   125.4302     6.7572     6.6709
  112.5000   125.8447     6.8074     6.7200
  113.0000   128.8595     6.8106     6.7695
  113.5000   131.6153     6.7660     6.8667
  114.0000   133.7660     6.7701     6.9173
  114.5000   134.7064     6.7265     6.9201
  115.0000   134.4283     6.8236     6.9229
  115.5000   130.2332     7.0705     6.9739
  116.0000   120.2810     7.2190     7.0252
  116.5000   116.0777     7.3747     6.9796
  117.0000   113.0846     7.5853     6.9824
  117.5000   113.7225     7.6416     6.9853
  118.0000   117.3860     7.8056     7.1355
  118.5000   119.8679     7.9181     7.3390
  119.0000   122.0272     7.9219     7.6534
  119.5000   122.9303     8.0361     7.8716
  120.0000   120.2481     8.2086     7.9847
  120.5000   119.0704     8.3270     8.0993
  121.0000   116.6825     8.3888     8.2156
  121.5000   114.2947     8.2773     8.2190
  122.0000   113.4115     8.3389     8.3370
  122.5000   114.9652     8.4008     8.3984
  123.0000   115.5948     8.3468     8.4602
  123.5000   113.5177     8.2857     8.4053
  124.0000   110.8272     8.0716     8.3491
  124.5000   112.9779     7.9635     8.2337
  125.0000   116.9440     7.8578     8.1292
  125.5000   122.4901     7.8625     7.6419
  126.0000   124.8775     7.8111     7.4878
  126.5000   125.8248     7.8700     7.3368
