~VERSION INFORMATION
 VERS.                2.0:   CWLS LOG ASCII STANDARD - VERSION 2.0
 WRAP.                 NO:   ONE LINE PER DEPTH STEP
~WELL INFORMATION
#MNEM.UNIT      DATA TYPE    INFORMATION
#----------   ------------   ------------------------------
 STRT.F           20.0000:   START DEPTH
 STOP.F          600.0000:   STOP DEPTH
 STEP.F            0.5000:   STEP LENGTH
 NULL.          -999.2500:   NO VALUE
 COMP. FENIX & SCISSON INC:   COMPANY
 WELL. TEAPOT DOME #23 SX 3-4:   WELL
 FLD .             TEAPOT:   FIELD
 LOC .       S4 T38N R78W:   LOCATION
 CNTY.            NATRONA:   COUNTY
 STAT.            WYOMING:   STATE
 CTRY. UNITED STATES OF AMERICA:   COUNTRY
 SRVC.            Unknown:   SERVICE COMPANY
 DATE.        31-JUL-1978:   LOGDATE
 API .       490251067600:   API NUMBER
~CURVE INFORMATION
#MNEM.UNIT       API CODE    CURVE DESCRIPTION
#----------   ------------   ------------------------------
 DEPT.F                  :   
 CALD.IN     45 280 60 00:   CALIPER FROM DENSITY LOG
 GRD .GAPI   45 310 01 00:   GAMMA RAY FROM DENSITY LOG
 CORR.G/C3   45 356 01 00:   DENSITY CORRECTION
 DPHI.DEC    45 890 12 00:   DENSITY POROSITY SANDSTONE
 RHOB.G/C3   45 350 01 00:   BULK DENSITY
 SPR .MV     07 010 01 00:   SPONTANEOUS POTENTIAL
 ILD .OHMM   07 120 46 00:   INDUCTION LOG DEEP
 SN  .OHMM   07 040 16 00:   SHORT NORMAL 16"
 CILD.MMHO   07 110 46 00:   CONDUCTIVITY INDUCTION LOG DEEP
~PARAMETER INFORMATION
#MNEM.UNIT          VALUE    DESCRIPTION
#----------   ------------   ------------------------------
 PD  .                 GL:   PERMANENT DATUM
 EPD .F              5181:   ELEVATION PERMANENT DATUM
 LMF .                 KB:   LOG MEASURED FROM
 DAPD.F                 4:   FEET ABOVE PERMANENT DATUM
 DMF .                 KB:   DRILLING MEASURED FROM
 EKB .F              5185:   KELLING BUSHING
 EGL .F              5181:   GROUND LEVEL
 DATE.        31-JUL-1978:   RUN DATE
 RUN .                  1:   RUN NUMBER
 DD  .F               595:   DEPTH DRILLER
 DL  .F               606:   DEPTH LOGGER
 BLI .F               600:   BOTTOM LOG INTERVAL
 TLI .F                40:   TOP LOG INTERVAL
 CBL .F                45:   CASING BOTTOM LOGGER
 BS  .IN            7.875:   BIT SIZE
 BSD .F               595:   BIT SIZE AT DEPTH
 DFT .                KCL:   DRILLING FLUID TYPE
 DFD .                9.0:   DRILLING FLUID DENSITY
 DFV .                 36:   DRILLING FLUID VISCOSITY
 DFPH.                9.0:   DRILLING FLUID PH
 DFL .                8.0:   DRILLING FLUID LOSS
 MSS .           FLOWLINE:   MUD SAMPLE SOURCE
 BHT .F                74:   BOTTOM HOLE TEMPERATURE
 TCS .HRS            0500:   TIME CURCULATED STOPPED
 MRT .F                74:   MAXIMUM RECORDED TEMPERATURE
 LUN .               2958:   LOGGING UNIT NUMBER
 LUL .               CASP:   LOGGING UNIT LOCATION
 ENGI.            POINTER:   RECORDING ENGINEER
 WITN.              AMEND:   WITNESSED BY
 CLNT.            A2DTECH:   CLIENT CODE
 ORIG.           5" PRINT:   ORIGIN OF DATA
 UWI .       490251067600:   UNIQUE WELL ID
 DICO. A2D Technologies, Inc.:   DIGITIZING COMPANY
~OTHER INFORMATION
~A   DEPT     CALD        GRD       CORR       DPHI       RHOB        SPR        ILD         SN       CILD   
# ...
  202.5000     7.5563   114.4324     0.0173     0.1061     2.4896   -32.3403     8.2276     9.3814   115.7338
  203.0000     7.5428   117.4566     0.0083     0.1103     2.4717   -32.1813     8.2316     9.3203   116.4694
  203.5000     7.5443   121.9778     0.0009     0.1084     2.4800   -32.1709     8.2356     9.2607   117.8275
  204.0000     7.5458   123.6472     0.0025     0.1072     2.4883   -32.4577     8.1266     9.1382   119.2510
  204.5000     7.5473   118.5951     0.0063     0.1063     2.4929   -32.5958     7.9639     9.0810   120.6702
  205.0000     7.5339   120.2720     0.0049     0.1107     2.4742   -32.7359     7.7508     9.0950   122.1108
  205.5000     7.5354   123.8950     0.0020     0.1131     2.4646   -32.8738     7.5434     9.1519   123.5130
  206.0000     7.5369   126.3204     0.0020     0.1148     2.4782   -33.0118     7.5472     9.1563   123.4362
  206.5000     7.5230   122.0093     0.0036     0.1076     2.4835   -32.9984     7.6032     9.1608   123.3595
  207.0000     7.5249   121.2834     0.0052     0.1055     2.4888   -32.8392     7.7127     9.1021   122.5336
  207.5000     7.5111   123.8585     0.0075     0.1022     2.5009   -32.1717     7.8238     9.1699   121.7228
  208.0000     7.5279   120.3034     0.0091     0.0973     2.5047   -31.9290     7.9366     9.1744   120.0598
  208.5000     7.5294   117.3288     0.0107     0.0895     2.5048   -32.5127     7.9946     9.2425   118.5592
  209.0000     7.5156   113.0540     0.0123     0.0904     2.5041   -32.3534     8.0539     9.3111   115.5042
  209.5000     7.5175   110.7010     0.0131     0.0945     2.5042   -32.3428     8.0579     9.3157   113.9293
  210.0000     7.5190   114.3243     0.0132     0.0960     2.5043   -32.3321     8.0618     9.3203   112.3544
  210.5000     7.5355   119.2990     0.0132     0.0885     2.5044   -32.3215     8.1780     9.3895   111.5286
  211.0000     7.5370   117.8171     0.0133     0.0950     2.5044   -32.4621     8.2387     9.4583   110.7028
  211.5000     7.5385   115.7347     0.0141     0.0908     2.5038   -32.3002     8.2428     9.5284   110.6260
  212.0000     7.5398   114.4031     0.0135     0.0939     2.5039   -31.8437     8.3040     9.5330   111.3175
  212.5000     7.5413   116.3747     0.0135     0.0961     2.5039   -31.9817     8.3081     9.5377   111.2216
  213.0000     7.5428   117.2342     0.0144     0.0933     2.5040   -32.2708     8.3698     9.6086   111.1611
  213.5000     7.5442   114.9126     0.0144     0.0924     2.5041   -32.4088     8.3739     9.6133   111.0861
  214.0000     7.5457   113.7310     0.0145     0.0948     2.5042   -32.2495     8.3194     9.6180   111.0105
  214.5000     7.5472   111.4985     0.0153     0.0903     2.5043   -32.0903     8.2663     9.6228   110.9337
  215.0000     7.5487   109.2610     0.0162     0.0890     2.5043   -31.9310     8.2134     9.6275   110.8569
  215.5000     7.5652   111.5378     0.0170     0.0875     2.5044   -31.6232     8.2744     9.6323   110.7802
  216.0000     7.5817   113.8098     0.0171     0.0890     2.5038   -31.3154     8.2785     9.6371   110.7034
  216.5000     7.5832   115.4811     0.0156     0.0916     2.5031   -31.7505     8.2826     9.5755   109.8776
  217.0000     7.5848   117.4528     0.0142     0.0916     2.5002   -32.1882     8.2287     9.5792   109.8008
  217.5000     7.5863   119.2742     0.0120     0.1002     2.4905   -31.5806     8.2908     9.5838   110.4923
  218.0000     7.5878   120.0447     0.0106     0.1104     2.4771   -31.5721     8.2949     9.5885   110.4120
  218.5000     7.5893   115.1094     0.0092     0.1017     2.4922   -31.8591     8.3565     9.5932   110.3371
  219.0000     7.5908   111.3753     0.0108     0.0983     2.5013   -32.1456     8.3606     9.5979   110.2620
  219.5000     7.5923   109.8935     0.0138     0.0962     2.5103   -32.1349     8.4219     9.6027   109.4362
  220.0000     7.5638   110.8141     0.0154     0.1022     2.4932   -31.8271     8.4843     9.6740   109.3595
  220.5000     7.5050   113.0860     0.0140     0.1057     2.4850   -31.5193     8.5472     9.7458   109.2827
  221.0000     7.4915   115.3580     0.0111     0.1096     2.4784   -31.0628     8.5515     9.8182   108.4569
  221.5000     7.4934   117.1745     0.0059     0.1110     2.4710   -31.3494     8.6150     9.8911   106.1329
  222.0000     7.4949   112.2702     0.0074     0.0963     2.4920   -31.6359     8.6789     9.9645   104.5580
  222.5000     7.5114   108.4559     0.0113     0.0918     2.5018   -31.4766     8.7434    10.0385   102.2341
  223.0000     7.4976   108.6056     0.0121     0.0927     2.5004   -31.1688     8.8083    10.0424   101.4082
  223.5000     7.4995   110.8423     0.0099     0.0956     2.4990   -31.0119     8.8737    10.1228    99.8502
  224.0000     7.5160   113.4295     0.0092     0.0983     2.4991   -30.8529     9.0639    10.1919    99.0262
  224.5000     7.5021   112.5732     0.0093     0.1009     2.4984   -30.5451     9.1312    10.2676    98.2009
  225.0000     7.5190   104.0991     0.0102     0.0991     2.4961   -30.3859     9.2087    10.2727    96.6260
  225.5000     7.5205   107.4221     0.0117     0.0937     2.5010   -30.3752     9.3952    10.3490    95.8002
  226.0000     7.4471   110.7451     0.0133     0.0918     2.5070   -30.3646     9.5304    10.3541    94.9744
  226.5000     7.3136   111.4700     0.0149     0.0957     2.5116   -30.3539     9.7347    10.3592    93.3995
  227.0000     7.2698   105.8295     0.0165     0.0870     2.5161   -30.1947     9.9433    10.4361    91.8246
  227.5000     7.2539   104.6972     0.0188     0.0815     2.5169   -30.3353    10.1565    10.5136    88.7516
  228.0000     7.2278   107.6707     0.0189     0.0843     2.5170   -30.4732    10.3742    10.6650    84.9295
  228.5000     7.2144   110.0927     0.0175     0.0926     2.5058   -30.3135    10.5236    10.9691    81.6376
  229.0000     7.2159   109.3617     0.0145     0.0898     2.5029   -30.1545    10.6752    11.2030    78.8014
  229.5000     7.2174   104.8769     0.0123     0.0994     2.4985   -30.1440    10.7545    11.4496    77.9768
  230.0000     7.2339   105.1968     0.0117     0.0973     2.4978   -29.9848    10.7598    11.7692    77.1510
  230.5000     7.2504   102.6640     0.0117     0.0945     2.4949   -29.9741    10.7640    12.1047    77.0742
  231.0000     7.2669   100.8769     0.0118     0.1032     2.4883   -29.9635    10.7692    12.1946    77.7657
  231.5000     7.2684   100.6012     0.0119     0.1007     2.4883   -29.9528    10.7744    12.2006    79.1871
  232.0000     7.2999    98.0684     0.0112     0.1022     2.4884   -30.0934    10.6318    12.2066    79.0911
  232.5000     7.3464    97.7828     0.0113     0.0977     2.4885   -30.0801    10.5638    12.1271    79.0144
  233.0000     7.3929   101.4110     0.0114     0.1030     2.4826   -30.2180    10.4952    12.0496    78.1886
  233.5000     7.4094    97.2265     0.0107     0.1084     2.4759   -30.2095    10.2864    11.8917    77.3783
  234.0000     7.4259    95.8899     0.0100     0.1095     2.4745   -30.1991    10.3628    11.7344    78.1927
  234.5000     7.4574    98.1668     0.0086     0.1101     2.4791   -30.0401    10.4398    11.4995    83.2209
  235.0000     7.4139   103.4417     0.0079     0.1083     2.4852   -30.0295    10.5173    11.2680    85.3913
  235.5000     7.3555   108.7167     0.0072     0.1052     2.4890   -30.0188    10.5954    10.9664    85.3146
  236.0000     7.3266   111.1338     0.0073     0.1031     2.4808   -29.7110    10.6730    10.7469    86.7359
  236.5000     7.3131   105.4527     0.0074     0.1109     2.4712   -29.5517    10.7593    10.6047    87.4274
  237.0000     7.3150   104.6877     0.0090     0.1077     2.4825   -29.2439    10.8319    10.5368    87.3315
  237.5000     7.3165   104.1116     0.0113     0.1046     2.4916   -28.9360    10.8372    10.5422    88.0230
  238.0000     7.3180   102.5746     0.0129     0.1007     2.4857   -28.9254    10.7677    10.5474    87.9270
  238.5000     7.3046    99.8964     0.0137     0.1032     2.4820   -29.2119    10.6256    10.6258    87.8503
