~VERSION INFORMATION
 VERS.                2.0:   CWLS LOG ASCII STANDARD - VERSION 2.0
 WRAP.                 NO:   ONE LINE PER DEPTH STEP
~WELL INFORMATION
#MNEM.UNIT      DATA TYPE    INFORMATION
#----------   ------------   ------------------------------
 STRT.F           20.0000:   START DEPTH
 STOP.F          478.0000:   STOP DEPTH
 STEP.F            0.5000:   STEP LENGTH
 NULL.          -999.2500:   NO VALUE
 COMP. FENIX & SCISSON INC:   COMPANY
 WELL.   56 31 SX #56-3FP:   WELL
 FLD .             TEAPOT:   FIELD
 LOC .       S3 T38N R78W:   LOCATION
 CNTY.            NATRONA:   COUNTY
 STAT.            WYOMING:   STATE
 CTRY. UNITED STATES OF AMERICA:   COUNTRY
 SRVC.              Welex:   SERVICE COMPANY
 DATE.        06-JUN-1980:   LOGDATE
 API .       490251082300:   API NUMBER
~CURVE INFORMATION
#MNEM.UNIT       API CODE    CURVE DESCRIPTION
#----------   ------------   ------------------------------
 DEPT.F                  :   
 RHOB.G/C3   45 350 01 00:   BULK DENSITY
 CORR.G/C3   45 356 01 00:   DENSITY CORRECTION
 GRD .GAPI   45 310 01 00:   GAMMA RAY FROM DENSITY LOG
 CALD.IN     45 280 60 00:   CALIPER
 DPHI.DEC    45 890 12 00:   DENSITY POROSITY SANDSTONE
 NPHI.DEC    42 890 03 00:   NEUTRON POROSITY SANDSTONE
 SPR .MV     07 010 01 00:   SPONTANEOUS POTENTIAL
 ILD .OHMM   07 120 46 00:   INDUCTION LOG DEEP
 ILM .OHMM   07 120 44 00:   INDUCTION LOG MEDIUM
 SGRD.OHMM   07 220 05 00:   SHALLOW GUARD RESISTIVITY
~PARAMETER INFORMATION
#MNEM.UNIT          VALUE    DESCRIPTION
#----------   ------------   ------------------------------
 PD  .                 GL:   PERMANENT DATUM
 EPD .F              5173:   ELEVATION PERMANENT DATUM
 LMF .                 KB:   LOG MEASURED FROM
 DAPD.F                 5:   FEET ABOVE PERMANENT DATUM
 DMF .                 KB:   DRILLING MEASURED FROM
 EKB .F              5178:   KELLING BUSHING
 EGL .F              5173:   GROUND LEVEL
 DATE.             6-6-80:   RUN DATE
 RUN .                  1:   RUN NUMBER
 DD  .F               450:   DEPTH DRILLER
 DL  .F               476:   DEPTH LOGGER
 BLI .F               474:   BOTTOM LOG INTERVAL
 TLI .F                30:   TOP LOG INTERVAL
 BS  .IN            9.875:   BIT SIZE
 BSD .F               450:   BIT SIZE AT DEPTH
 DFT .            KCL MUD:   DRILLING FLUID TYPE
 DFD .                9.5:   DRILLING FLUID DENSITY
 DFV .                 48:   DRILLING FLUID VISCOSITY
 DFPH.                7.5:   DRILLING FLUID PH
 DFL .                  7:   DRILLING FLUID LOSS
 MSS .           FLOWLINE:   MUD SAMPLE SOURCE
 RMS .OHMM           1.56:   RESISTIVITY MUD SAMPLE
 MST .F                62:   MUD SAMPLE TEMPERATURE
 RMF .OHMM           1.24:   RESISTIVITY MUD FILTRATE SAMPLE
 MFST.F                62:   MUD FILTRATE SAMPLE TEMPERATURE
 RMC .OHMM           1.87:   RESISTIVITY MUD CAKE
 MCST.F                62:   MUD CAKE SAMPLE TEMPERATURE
 MFSS.           MEASURED:   MUD FILTRATE SAMPLE SOURCE
 MCSS.           MEASURED:   MUD CAKE SAMPLE SOURCE
 RMB .OHMM           1.32:   RESISTIVITY MUD AT BHT
 BHT .F                73:   BOTTOM HOLE TEMPERATURE
 TCS .HRS               6:   TIME CURCULATED STOPPED
 MRT .F                73:   MAXIMUM RECORDED TEMPERATURE
 LUN .               1892:   LOGGING UNIT NUMBER
 LUL .             CASPER:   LOGGING UNIT LOCATION
 ENGI.               REIN:   RECORDING ENGINEER
 WITN.              AMEND:   WITNESSED BY
 CLNT.            A2DTECH:   CLIENT CODE
 ORIG.        2" 5" PRINT:   ORIGIN OF DATA
 UWI .       490251082300:   UNIQUE WELL ID
 DICO. A2D Technologies, Inc.:   DIGITIZING COMPANY
~OTHER INFORMATION
~A   DEPT     RHOB       CORR        GRD       CALD       DPHI       NPHI        SPR          ILD        ILM     SGRD   
# ...
  154.0000     2.3856     0.0415    83.8547     9.8638     0.1913     0.3300   -37.0312     3.4718     3.5597     4.6195
  154.5000     2.3721     0.0412    84.1503     9.8649     0.1933     0.3325   -37.1338     3.3526     3.4381     4.5276
  155.0000     2.3745     0.0398    83.8655     9.8660     0.1953     0.3308   -37.2358     3.2256     3.3207     4.4662
  155.5000     2.3658     0.0364    83.4566     9.8672     0.1904     0.3250   -37.3068     3.1092     3.2554     3.8753
  156.0000     2.3763     0.0379    83.0540     9.8683     0.1833     0.3192   -37.2910     3.0727     3.3286     3.2669
  156.5000     2.3821     0.0447    82.8819     9.8694     0.1798     0.3135   -36.9053     3.0526     3.4001     2.9154
  157.0000     2.3870     0.0294    83.2574     9.8705     0.1841     0.3114   -36.5051     3.0786     3.4731     4.1744
  157.5000     2.3753     0.0122    83.6211     9.8720     0.1837     0.3112   -36.1041     3.1246     3.5476     4.7795
  158.0000     2.3664     0.0146    83.9880     9.8741     0.1814     0.3126   -35.8572     3.1669     3.6484     4.8683
  158.5000     2.3954     0.0300    84.2040     9.8762     0.1764     0.3092   -35.7264     3.2887     3.8165     4.9744
  159.0000     2.3972     0.0267    84.3005     9.8783     0.1746     0.3066   -35.6000     3.4041     3.9924     5.1311
  159.5000     2.3991     0.0231    84.6608     9.8804     0.1727     0.3105   -35.6290     3.5234     4.1064     5.3478
  160.0000     2.4035     0.0222    85.3350     9.8825     0.1691     0.3140   -35.8355     3.6470     4.1298     5.2638
  160.5000     2.4123     0.0308    86.0265     9.8847     0.1648     0.3158   -36.0435     3.7749     4.1533     5.1357
  161.0000     2.4203     0.0390    85.9835     9.8868     0.1564     0.3106   -36.1077     3.8265     4.1858     5.0157
  161.5000     2.4323     0.0471    85.3516     9.8889     0.1524     0.3138   -35.7494     3.8544     4.2563     5.3478
  162.0000     2.4351     0.0503    84.6923     9.8909     0.1510     0.3092   -35.3857     3.8820     4.3280     5.2989
  162.5000     2.4408     0.0572    84.6618     9.8869     0.1431     0.3046   -35.1626     3.9098     4.4009     5.4310
  163.0000     2.4558     0.0762    84.8006     9.8823     0.1400     0.3072   -35.2575     3.9378     4.4750     5.5481
  163.5000     2.4575     0.0745    84.9431     9.8778     0.1402     0.3101   -35.3460     3.9604     4.5326     5.4954
  164.0000     2.4542     0.0717    85.0881     9.8733     0.1368     0.3130   -35.4362     3.9795     4.5325     6.0238
  164.5000     2.4691     0.0773    84.9123     9.8728     0.1299     0.3146   -35.5280     3.9988     4.5323     5.7653
  165.0000     2.4802     0.0854    84.4952     9.8755     0.1223     0.3147   -35.5324     4.0181     4.6203     5.5481
  165.5000     2.4845     0.0935    84.0754     9.8781     0.1277     0.3179   -35.4719     4.0377     4.8593     5.6190
  166.0000     2.4687     0.0926    83.6552     9.8808     0.1337     0.3213   -35.1242     4.0590     5.1108     5.6705
  166.5000     2.4673     0.0793    83.2394     9.8835     0.1397     0.3209   -34.7806     4.0803     5.3752     5.7231
  167.0000     2.4530     0.0662    82.9666     9.8862     0.1463     0.3168   -34.4391     4.1040     5.6140     5.7894
  167.5000     2.4387     0.0531    82.9717     9.8889     0.1557     0.3130   -34.1457     4.1278     5.6920     5.8783
  168.0000     2.4246     0.0400    82.9705     9.8909     0.1630     0.3092   -34.1525     4.1518     5.7710     5.9685
  168.5000     2.4215     0.0334    82.9064     9.8892     0.1581     0.3067   -34.1534     4.1735     5.8090     6.0833
  169.0000     2.4351     0.0363    82.5034     9.8875     0.1593     0.3074   -34.1527     4.1807     5.7267     6.0820
  169.5000     2.4277     0.0260    82.1143     9.8858     0.1578     0.3043   -34.1531     4.1879     5.6554     6.0823
  170.0000     2.4239     0.0213    81.9184     9.8842     0.1538     0.3030   -34.2117     4.1951     5.5850     6.0233
  170.5000     2.4409     0.0283    82.3701     9.8825     0.1490     0.3073   -34.5841     4.2024     5.5156     5.8216
  171.0000     2.4415     0.0354    83.0254     9.8809     0.1544     0.3110   -34.9563     4.2110     5.4470     5.6266
  171.5000     2.4307     0.0310    83.6923     9.8792     0.1643     0.3093   -35.3200     4.1648     5.4085     5.4470
  172.0000     2.4151     0.0244    84.0536     9.8776     0.1616     0.3074   -35.0415     4.1083     5.3703     5.5263
  172.5000     2.4200     0.0216    84.3178     9.8759     0.1577     0.3055   -34.7673     4.0527     5.3323     5.6030
  173.0000     2.4274     0.0300    84.5748     9.8743     0.1539     0.3036   -34.4997     3.9978     5.2946     5.6510
  173.5000     2.4374     0.0393    84.8324     9.8726     0.1501     0.3026   -34.4398     3.9436     5.2574     5.3972
  174.0000     2.4449     0.0484    85.0925     9.8722     0.1475     0.3019   -34.6420     3.8902     5.2204     5.4973
  174.5000     2.4414     0.0565    85.3287     9.8779     0.1594     0.3029   -34.8414     3.8375     5.0968     5.3778
  175.0000     2.4214     0.0563    85.0202     9.8834     0.1686     0.3081   -35.0418     3.7863     4.9006     5.1568
  175.5000     2.4017     0.0580    84.6869     9.8889     0.1718     0.3133   -35.2419     3.7359     4.7122     4.9451
  176.0000     2.4144     0.0623    84.7312     9.8944     0.1726     0.3185   -35.4421     3.5535     4.4877     4.7424
  176.5000     2.4019     0.0657    85.1735     9.8999     0.1833     0.3229   -35.6419     3.3851     4.2289     4.5291
  177.0000     2.3832     0.0492    85.6149     9.9054     0.1953     0.3255   -35.8432     3.1761     3.9850     4.2294
  177.5000     2.3605     0.0315    86.0628     9.9108     0.2073     0.3282   -35.9491     2.9656     3.7552     3.9490
  178.0000     2.3327     0.0275    86.1390     9.9137     0.2165     0.3306   -35.9931     2.7697     3.5403     3.6873
  178.5000     2.3285     0.0324    86.1390     9.9164     0.2258     0.3362   -36.0357     2.5744     3.2628     3.3503
  179.0000     2.3093     0.0268    86.1431     9.9192     0.2372     0.3414   -36.0778     2.3389     2.9517     2.9695
  179.5000     2.2796     0.0141    85.8070     9.9219     0.2566     0.3463   -36.1242     2.1385     2.6690     2.6320
  180.0000     2.2501     0.0007    85.2798     9.9247     0.2710     0.3477   -36.2702     1.9760     2.4125     2.3329
  180.5000     2.2286     0.0111    84.7482     9.9275     0.2776     0.3498   -36.4226     1.8241     2.1731     2.0678
  181.0000     2.2253     0.0272    84.2150     9.9302     0.2795     0.3542   -36.5747     1.7680     2.1511     1.8328
  181.5000     2.2306     0.0435    83.6790     9.9330     0.2723     0.3587   -36.7275     1.7372     2.1788     1.7747
  182.0000     2.2393     0.0485    83.1974     9.9357     0.2675     0.3628   -36.8860     1.7104     2.2627     2.2957
  182.5000     2.2644     0.0569    83.6374     9.9385     0.2512     0.3601   -36.7438     1.7594     2.5638     2.8714
  183.0000     2.2930     0.0564    84.1024     9.9412     0.2366     0.3628   -36.5365     1.8155     2.4948     3.4276
  183.5000     2.3009     0.0338    84.5770     9.9440     0.2304     0.3508   -36.3276     1.8731     2.7413     3.6503
  184.0000     2.2984     0.0108    85.3827     9.9467     0.2356     0.3493   -36.1194     2.0158     3.0784     3.8875
  184.5000     2.3142     0.0193    86.1472     9.9495     0.2186     0.3459   -35.9113     2.2156     3.4582     4.1401
  185.0000     2.3397     0.0362    86.9084     9.9505     0.2032     0.3408   -35.7032     2.4353     3.7238     4.4090
  185.5000     2.3812     0.0369    87.6692     9.9505     0.1893     0.3358   -35.4952     2.6764     3.8844     4.3918
  186.0000     2.3976     0.0348    88.4323     9.9505     0.1784     0.3307   -35.2871     2.9154     4.0510     4.3707
  186.5000     2.4137     0.0381    89.1985     9.9505     0.1642     0.3257   -35.0790     3.0200     4.1348     4.3497
  187.0000     2.4260     0.0447    89.2401     9.9505     0.1549     0.3238   -34.8709     3.1187     4.1496     4.3287
