~VERSION INFORMATION
 VERS.                2.0:   CWLS LOG ASCII STANDARD - VERSION 2.0
 WRAP.                 NO:   ONE LINE PER DEPTH STEP
~WELL INFORMATION
#MNEM.UNIT      DATA TYPE    INFORMATION
#----------   ------------   ------------------------------
 STRT.F           80.0000:   START DEPTH
 STOP.F          782.0000:   STOP DEPTH
 STEP.F            0.5000:   STEP LENGTH
 NULL.          -999.2500:   NO VALUE
 COMP.            US NAVY:   COMPANY
 WELL. NPR 3 TEAPOT DOM #87-S-34:   WELL
 FLD .             TEAPOT:   FIELD
 LOC .      S34 T39N R78W:   LOCATION
 CNTY.            NATRONA:   COUNTY
 STAT.            WYOMING:   STATE
 CTRY. UNITED STATES OF AMERICA:   COUNTRY
 SRVC.       Schlumberger:   SERVICE COMPANY
 DATE.        07-AUG-1961:   LOGDATE
 API .       490250651100:   API NUMBER
~CURVE INFORMATION
#MNEM.UNIT       API CODE    CURVE DESCRIPTION
#----------   ------------   ------------------------------
 DEPT.F                  :   
 GR  .GAPI   30 310 01 00:   GAMMA RAY
 SPR .MV     05 010 01 00:   SPONTANEOUS POTENTIAL FROM RES.
 ASN .OHMM   05 041 16 00:   AMPLIFIED SHORT NORMAL 16"
 ILD .OHMM   05 120 46 00:   INDUCTION LOG DEEP
 CILD.MMHO   05 110 46 00:   CONDUCTIVITY INDUCTION LOG DEEP
~PARAMETER INFORMATION
#MNEM.UNIT          VALUE    DESCRIPTION
#----------   ------------   ------------------------------
 PD  .                 KB:   PERMANENT DATUM
 EPD .F                  :   ELEVATION PERMANENT DATUM
 LMF .                 KB:   LOG MEASURED FROM
 DAPD.F                  :   FEET ABOVE PERMANENT DATUM
 DMF .                 KB:   DRILLING MEASURED FROM
 EKB .F              5102:   KELLING BUSHING
 EDF .F                  :   DRILLING FLOOR
 EGL .F              5097:   GROUND LEVEL
 DATE.        07-AUG-1961:   RUN DATE
 RUN .                  1:   RUN NUMBER
 DD  .F               770:   DEPTH DRILLER
 DL  .F               783:   DEPTH LOGGER
 BLI .F               782:   BOTTOM LOG INTERVAL
 TLI .F               100:   TOP LOG INTERVAL
 CS  .IN                 :   CASING SIZE
 CBD .F                  :   CASING BOTTOM DRILLER
 CBL .F                  :   CASING BOTTOM LOGGER
 BS  .IN             6.75:   BIT SIZE
 BSD .F               770:   BIT SIZE AT DEPTH
 DFT .       OIL EMULSION:   DRILLING FLUID TYPE
 DFD .               10.4:   DRILLING FLUID DENSITY
 DFV .                 45:   DRILLING FLUID VISCOSITY
 DFPH.                   :   DRILLING FLUID PH
 DFL .                   :   DRILLING FLUID LOSS
 MSS .                   :   MUD SAMPLE SOURCE
 RMS .OHMM           0.95:   RESISTIVITY MUD SAMPLE
 MST .F                72:   MUD SAMPLE TEMPERATURE
 RMF .OHMM               :   RESISTIVITY MUD FILTRATE SAMPLE
 MFST.F                  :   MUD FILTRATE SAMPLE TEMPERATURE
 RMC .OHMM               :   RESISTIVITY MUD CAKE
 MCST.F                  :   MUD CAKE SAMPLE TEMPERATURE
 MFSS.                   :   MUD FILTRATE SAMPLE SOURCE
 MCSS.                   :   MUD CAKE SAMPLE SOURCE
 RMB .OHMM               :   RESISTIVITY MUD AT BHT
 BHT .F                  :   BOTTOM HOLE TEMPERATURE
 TCS .HRS               1:   TIME CURCULATED STOPPED
 TLAB.HRS                :   TIME LOGGER AT BOTTOM
 MRT .F                  :   MAXIMUM RECORDED TEMPERATURE
 LUN .               2544:   LOGGING UNIT NUMBER
 LUL .                   :   LOGGING UNIT LOCATION
 ENGI.             QUINBY:   RECORDING ENGINEER
 WITN.          JORGENSON:   WITNESSED BY
 CLNT.            A2DTECH:   CLIENT CODE
 ORIG.       2", 5" PRINT:   ORIGIN OF DATA
 UWI .       490250651100:   UNIQUE WELL ID
 DICO. A2D Technologies, Inc.:   DIGITIZING COMPANY
 OS  .                   :   OTHER SERVICES
 PWI .                   :   PRIMARY WELL IDENTIFIER
 R1  .                   :   REMARKS 1
 R2  .                   :   REMARKS 2
~OTHER INFORMATION
~A   DEPT       GR        SPR         ASN         ILD      CILD  
# ...
  324.0000  -999.2500   -29.5287     8.3843     6.9096   138.5586
  324.5000  -999.2500   -29.7981     8.4113     6.9092   137.0336
  325.0000  -999.2500   -29.9471     8.4263     6.9089   137.0120
  325.5000  -999.2500   -29.9676     8.4238     6.9838   136.9895
  326.0000  -999.2500   -30.0937     8.3958     6.9835   136.9654
  326.5000  -999.2500   -29.8724     8.3738     6.9830   136.9445
  327.0000  -999.2500   -29.6209     8.3488     6.9827   136.9219
  327.5000  -999.2500   -29.4823     8.3464     6.9823   136.8972
  328.0000  -999.2500   -29.2689     8.3620     7.0040   136.1360
  328.5000  -999.2500   -29.1685     8.3807     7.0568   135.3528
  329.0000  -999.2500   -29.0222     8.4099     7.1027   133.8260
  329.5000  -999.2500   -28.8693     8.4301     7.1520   133.8063
  330.0000  -999.2500   -28.8671     8.4398     7.2063   133.7837
  330.5000  -999.2500   -28.7666     8.4546     7.2813   133.7579
  331.0000  -999.2500   -28.7115     8.4454     7.2999   133.7387
  331.5000  -999.2500   -28.8602     8.4092     7.3558   133.6335
  332.0000  -999.2500   -28.8580     8.4030     7.3554   132.1882
  332.5000  -999.2500   -29.0445     8.4879     7.3551   130.6681
  333.0000  -999.2500   -29.4576     8.6045     7.3546   129.1442
  333.5000  -999.2500   -29.6896     8.6894     7.4296   129.1216
  334.0000  -999.2500   -29.9066     8.7789     7.5046   127.5976
  334.5000  -999.2500   -30.0549     8.8450     7.5041   127.5746
  335.0000  -999.2500   -30.0529     8.8600     7.5791   126.0510
  335.5000  -999.2500   -30.0280     8.8447     7.6685   125.6257
  336.0000  -999.2500   -29.7459     8.8295     7.8042   124.5034
  336.5000  -999.2500   -29.4569     8.8211     7.9178   122.9805
  337.0000  -999.2500   -29.1224     8.8608     7.9671   122.6227
  337.5000  -999.2500   -28.9838     8.9194     8.1043   121.4322
  338.0000  -999.2500   -28.7704     9.0849     8.1792   121.4114
  338.5000  -999.2500   -28.6775     9.3031     8.2542   121.1211
  339.0000  -999.2500   -28.5238     9.5816     8.3290   119.8625
  339.5000  -999.2500   -28.6277     9.7749     8.3643   118.3409
  340.0000  -999.2500   -29.1239     9.9358     8.4136   118.1179
  340.5000  -999.2500   -29.3709    10.0235     8.4785   116.7914
  341.0000  -999.2500   -29.4668    10.1112     8.5123   116.1160
  341.5000  -999.2500   -29.5703    10.1989     8.6284   115.1149
  342.0000  -999.2500   -29.6586    10.2866     8.7033   113.7202
  342.5000  -999.2500   -29.7171    10.3788     8.8108   111.0235
  343.0000  -999.2500   -29.7144    10.4213     9.0178   107.6078
  343.5000  -999.2500   -29.7122    10.4864     9.3045   104.6430
  344.0000  -999.2500   -29.7099    10.6795     9.5482   102.6028
  344.5000  -999.2500   -29.7075    10.8324     9.7667   100.0976
  345.0000  -999.2500   -29.6299    10.9929    10.0564    97.5976
  345.5000  -999.2500   -29.5295    11.1309    10.1907    95.5481
  346.0000  -999.2500   -29.2475    11.2412    10.3609    94.0234
  346.5000  -999.2500   -29.1775    11.3653    10.5824    90.6835
  347.0000  -999.2500   -28.7749    11.5069    10.6855    87.9730
  347.5000  -999.2500   -28.6364    11.6134    10.8101    86.4477
  348.0000  -999.2500   -28.4834    11.7375    10.9578    86.4264
  348.5000  -999.2500   -28.3300    11.8830    10.9840    86.4039
  349.0000  -999.2500   -28.6295    12.0134    11.1077    86.3795
  349.5000  -999.2500   -28.8316    12.1098    11.1825    86.3588
  350.0000  -999.2500   -29.0786    12.1837    11.1320    87.8401
  350.5000  -999.2500   -29.3255    11.9853    10.8806    87.8128
  351.0000  -999.2500   -29.4214    11.8069    10.7558    87.7928
  351.5000  -999.2500   -29.5250    11.6097    10.6304    87.7702
  352.0000  -999.2500   -29.5227    11.4853    10.4548    87.7447
  352.5000  -999.2500   -29.4826    11.3547    10.4047    89.2267
  353.0000  -999.2500   -29.3669    11.3119    10.3516    89.2042
  353.5000  -999.2500   -29.0476    11.2791    10.3046    89.1780
  354.0000  -999.2500   -28.7281    11.2789    10.2756    90.6606
  354.5000  -999.2500   -28.4537    11.3540    10.2752    90.6382
  355.0000  -999.2500   -28.3761    11.3664    10.2749    90.6113
  355.5000  -999.2500   -28.1473    11.5044    10.3693    90.5931
  356.0000  -999.2500   -27.9937    11.6147    10.5000    92.0719
  356.5000  -999.2500   -27.9237    11.7388    10.6186    92.0496
  357.0000  -999.2500   -27.8384    11.8804    10.6679    92.0270
  357.5000  -999.2500   -27.9868    11.9116    10.7248    92.0037
  358.0000  -999.2500   -28.1964    12.0307    10.6491    91.9820
  358.5000  -999.2500   -28.4434    11.8799    10.6322    92.3275
  359.0000  -999.2500   -28.7352    11.7493    10.5730    94.9385
  359.5000  -999.2500   -28.7862    11.5772    10.4974    95.7409
  360.0000  -999.2500   -29.0332    11.4026    10.4217    96.6964
  360.5000  -999.2500   -29.0310    11.3284    10.3460    97.8754
  361.0000  -999.2500   -29.1802    11.2015    10.2703    98.6086
  361.5000  -999.2500   -29.1774    11.1549    10.1811    99.3339
  362.0000  -999.2500   -29.0242    11.0506    10.0436    99.3067
  362.5000  -999.2500   -28.8331    11.0504    10.0056    99.9750
  363.0000  -999.2500   -28.5663    10.9750     9.8924   100.9309
  363.5000  -999.2500   -28.3301    10.9749     9.8166   102.2447
  364.0000  -999.2500   -28.0785    10.9747     9.7048   104.3442
  364.5000  -999.2500   -27.8042    10.8992     9.6547   105.2036
  365.0000  -999.2500   -27.7266    10.8238     9.5143   106.6778
  365.5000  -999.2500   -27.6488    10.7483     9.4040   107.2123
  366.0000  -999.2500   -27.6463    10.7130     9.2033   108.1684
  366.5000  -999.2500   -27.6443    10.5975     8.9860   111.1141
  367.0000  -999.2500   -27.7932    10.5220     8.6604   114.0540
  367.5000  -999.2500   -27.7904    10.4003     8.3603   118.5807
  368.0000  -999.2500   -27.8490    10.2585     8.0060   123.4435
  368.5000  -999.2500   -27.9525    10.1167     7.7918   126.8795
  369.0000  -999.2500   -28.3878     9.9491     7.4722   132.0261
  369.5000  -999.2500   -28.7938     9.0001     7.3271   134.3795
  370.0000  -999.2500   -29.1390     8.7038     7.2214   136.4897
  370.5000  -999.2500   -29.3860     8.5782     7.1713   133.4594
  371.0000  -999.2500   -29.4819     8.5670     7.1001   131.1313
  371.5000  -999.2500   -29.4342     8.6316     7.2037   128.3459
  372.0000  -999.2500   -29.0997     8.7283     7.4066   124.3822
  372.5000  -999.2500   -28.7878     8.9867     7.6261   121.3837
  373.0000  -999.2500   -28.3700     9.5122     7.9058   118.1181
  373.5000  -999.2500   -28.1544     9.9377     8.1540   115.3050
  374.0000  -999.2500   -27.9652    10.1584     8.3779   113.1132
  374.5000  -999.2500   -27.7760    10.2185     8.4785   112.1120
  375.0000  -999.2500   -27.5869    10.2936     8.6032   110.7323
  375.5000  -999.2500   -27.4524    10.2935     8.6781   110.7132
  376.0000  -999.2500   -27.4501    10.2181     8.6024   112.1929
  376.5000  -999.2500   -27.4476    10.1427     8.5267   113.6672
  377.0000  -999.2500   -27.5967    10.1350     8.5264   114.1842
  377.5000  -999.2500   -27.7456    10.0670     8.5259   115.1277
  378.0000  -999.2500   -27.8939    10.0669     8.5256   115.1051
  378.5000  -999.2500   -27.9499    10.0667     8.5252   115.0826
  379.0000  -999.2500   -28.0408    10.0665     8.5248   115.0596
  379.5000  -999.2500   -28.1891    10.0664     8.5998   115.0375
  380.0000  -999.2500   -28.2377    10.0663     8.5994   115.0150
  380.5000  -999.2500   -28.3361    10.0661     8.6744   114.9914
  381.0000  -999.2500   -28.3338    10.0886     8.6739   114.9699
  381.5000  -999.2500   -28.3316    10.1411     8.6736   114.9475
  382.0000  -999.2500   -28.1782    10.1861     8.7485   114.9232
  382.5000  -999.2500   -28.0879    10.2349     8.7481   114.9024
  383.0000  -999.2500   -27.9522    10.2913     8.7477   114.8799
  383.5000  -999.2500   -27.5671    10.2911     8.6555   114.8550
  384.0000  -999.2500   -27.4139    10.2910     8.5211   114.8348
  384.5000  -999.2500   -27.2329    10.2908     8.4800   114.8123
