~VERSION INFORMATION
 VERS.                2.0:   CWLS LOG ASCII STANDARD - VERSION 2.0
 WRAP.                 NO:   ONE LINE PER DEPTH STEP
~WELL INFORMATION
#MNEM.UNIT      DATA TYPE    INFORMATION
#----------   ------------   ------------------------------
 STRT.F           14.0000:   START DEPTH
 STOP.F          549.0000:   STOP DEPTH
 STEP.F            0.5000:   STEP LENGTH
 NULL.          -999.2500:   NO VALUE
 COMP.   LAWRENCE-ALLISON:   COMPANY
 WELL.    NPR 3 #58-64SX3:   WELL
 FLD .           NPR NO 3:   FIELD
 LOC .       S3 T38N R78W:   LOCATION
 CNTY.            NATRONA:   COUNTY
 STAT.            WYOMING:   STATE
 CTRY. UNITED STATES OF AMERICA:   COUNTRY
 SRVC.      Dresser Atlas:   SERVICE COMPANY
 DATE.        05-DEC-1984:   LOGDATE
 API .       490251099700:   API NUMBER
~CURVE INFORMATION
#MNEM.UNIT       API CODE    CURVE DESCRIPTION
#----------   ------------   ------------------------------
 DEPT.F                  :   
 RFOC.OHMM   07 220 04 00:   RESISTIVITY FOCUSED LOG
 RILD.OHMM   07 120 46 00:   INDUCTION LOG DEEP RESISTIVITY
 RILM.OHMM   07 120 44 00:   INDUCTION LOG MEDIUM RESISTIVITY
 SPR .MV     07 010 01 00:   SPONTANEOUS POTENTIAL
 DT  .US/F   60 520 00 00:   INTERVAL TRANSIT TIME
 CALD.IN     45 280 60 00:   CALIPER FROM DENSITY LOG
 CORR.G/C3   45 356 01 00:   DENSITY CORRECTION
 CNC .DEC    42 890 03 00:   NEUTRON POROSITY SANDSTONE
 DEN .G/C3   45 350 01 00:   COMPENSATED BULK DENSTIY
 GRD .GAPI   45 310 01 00:   GAMMA RAY FROM DENSITY LOG
 PORD.DEC    45 890 12 00:   POROSITY DENSITY SANDSTONE
~PARAMETER INFORMATION
#MNEM.UNIT          VALUE    DESCRIPTION
#----------   ------------   ------------------------------
 PD  .                 GL:   PERMANENT DATUM
 EPD .F              5188:   ELEVATION PERMANENT DATUM
 LMF .                 KB:   LOG MEASURED FROM
 DMF .                 KB:   DRILLING MEASURED FROM
 EGL .F              5188:   GROUND LEVEL
 DATE.        05-DEC-1984:   RUN DATE
 RUN .                  1:   RUN NUMBER
 DD  .F               556:   DEPTH DRILLER
 DL  .F               551:   DEPTH LOGGER
 BLI .F               548:   BOTTOM LOG INTERVAL
 CS  .IN            8.625:   CASING SIZE
 CBD .F                20:   CASING BOTTOM DRILLER
 CBL .F                20:   CASING BOTTOM LOGGER
 BS  .IN            7.875:   BIT SIZE
 BSD .F               556:   BIT SIZE AT DEPTH
 DFT .          KCL WATER:   DRILLING FLUID TYPE
 MSS .           FLOWLINE:   MUD SAMPLE SOURCE
 RMS .OHMM            .36:   RESISTIVITY MUD SAMPLE
 MST .F                70:   MUD SAMPLE TEMPERATURE
 RMF .OHMM            .26:   RESISTIVITY MUD FILTRATE SAMPLE
 MFST.F                70:   MUD FILTRATE SAMPLE TEMPERATURE
 RMC .OHMM            .46:   RESISTIVITY MUD CAKE
 MCST.F                70:   MUD CAKE SAMPLE TEMPERATURE
 MFSS.               CALC:   MUD FILTRATE SAMPLE SOURCE
 MCSS.               CALC:   MUD CAKE SAMPLE SOURCE
 RMB .OHMM            .29:   RESISTIVITY MUD AT BHT
 BHT .F                85:   BOTTOM HOLE TEMPERATURE
 TCS .HRS               3:   TIME CURCULATED STOPPED
 MRT .F               100:   MAXIMUM RECORDED TEMPERATURE
 LUN .               6274:   LOGGING UNIT NUMBER
 LUL .               GLTE:   LOGGING UNIT LOCATION
 ENGI.             PAUTIO:   RECORDING ENGINEER
 WITN.       GROONS/LUERS:   WITNESSED BY
 CLNT.            A2DTECH:   CLIENT CODE
 ORIG.           5" PRINT:   ORIGIN OF DATA
 UWI .       490251099700:   UNIQUE WELL ID
 DICO. A2D Technologies, Inc.:   DIGITIZING COMPANY
~OTHER INFORMATION
~A   DEPT     RFOC       RILD       RILM        SPR         DT       CALD       CORR          CNC      DEN         GRD      PORD   
# ...
   75.0000     9.9970     9.0418     9.9186   -60.3092   106.9709     8.1406     0.0231     0.2932     2.4706   119.2901     0.1256
   75.5000     9.9909     9.1658     9.9107   -60.4753   106.6728     8.1553     0.0198     0.2919     2.4745   115.8611     0.1247
   76.0000     9.9825     9.1565     9.9773   -60.6415   106.3471     8.1545     0.0165     0.2885     2.4833   112.4444     0.1206
   76.5000    10.0494     9.2144    10.0424   -60.8076   105.7153     8.1538     0.0228     0.2837     2.4967   110.9292     0.1111
   77.0000    10.0410     9.2750    10.0323   -60.6660   104.6254     8.1530     0.0355     0.2771     2.5014   112.4631     0.1070
   77.5000    10.0338     9.3997    10.1718   -60.6783   103.6826     8.1522     0.0322     0.2784     2.4997   112.3920     0.1080
   78.0000    10.1018     9.5286    10.1637   -60.5367   103.5302     8.1515     0.0306     0.2836     2.4965   109.5556     0.1100
   78.5000    10.2410     9.6592    10.1555   -60.3952   103.3778     8.1507     0.0289     0.2821     2.4925   106.5278     0.1119
   79.0000    10.3104     9.7917    10.2218   -60.2536   103.2254     8.1499     0.0368     0.2781     2.4909   106.2531     0.1123
   79.5000    10.3765     9.9263    10.3659   -60.1090   102.9145     8.1491     0.0447     0.2747     2.4916   107.3364     0.1108
   80.0000    10.5985    10.0620    10.5079   -60.2781   102.3654     8.1484     0.0541     0.2732     2.4971   109.3214     0.1098
   80.5000    10.7485    10.0518    10.5786   -60.1335   101.3401     8.1476     0.0429     0.2742     2.4955   105.9149     0.1096
   81.0000    10.7388    10.0416    10.5680   -59.8412   100.3941     8.1468     0.0301     0.2758     2.4963   106.2143     0.1099
   81.5000    10.8116    10.0314    10.5595   -59.5427    99.1307     8.1461     0.0205     0.2787     2.4994   107.4420     0.1097
   82.0000    11.0409    10.0948    10.6305   -59.4011    97.8672     8.1453     0.0267     0.2783     2.5041   112.6781     0.1078
   82.5000    11.3597    10.1586    10.7330   -59.4165    97.2387     8.1600     0.0251     0.2749     2.5152   109.2738     0.0996
   83.0000    11.7734    10.1481    11.1680   -59.4287    96.8483     8.1590     0.0202     0.2724     2.5159   104.9436     0.0986
   83.5000    12.2021    10.1377    11.5741   -59.4410    96.2991     8.1584     0.0169     0.2692     2.5103   101.8480     0.1012
   84.0000    12.3725    10.2021    11.9077   -59.2964    95.9087     8.1575     0.0169     0.2661     2.5071   101.8388     0.1025
   84.5000    12.5457    10.1891    12.2509   -59.0010    95.5183     8.1413     0.0248     0.2668     2.5070   100.9037     0.1013
   85.0000    12.6281    10.2561    12.5123   -58.8625    94.9692     8.1405     0.0247     0.2668     2.5078    99.6599     0.1010
   85.5000    12.5271    10.2431    12.5022   -58.8747    95.0549     8.1399     0.0214     0.2656     2.5006    97.4902     0.1040
   86.0000    12.5181    10.2328    12.4922   -58.8870    95.4582     8.1390     0.0181     0.2590     2.4862    98.1005     0.1186
   86.5000    12.5090    10.2224    12.4822   -59.0531    96.0201     8.1383     0.0212     0.2587     2.4687    98.4000     0.1257
   87.0000    12.4090    10.2120    12.2913   -59.0654    96.4234     8.1376     0.0259     0.2584     2.4655    99.0057     0.1283
   87.5000    12.4000    10.2016    12.1033   -59.0777    97.1441     8.1367     0.0338     0.2570     2.4646   100.8484     0.1280
   88.0000    12.3910    10.1913    11.9183   -59.2438    97.8648     8.1359     0.0433     0.2546     2.4662   103.3083     0.1268
   88.5000    12.2919    10.1810    11.7360   -59.4099    98.1220     8.1352     0.0528     0.2569     2.4685   106.0769     0.1246
   89.0000    12.1865    10.1706    11.4724   -59.5761    98.2730     8.1498     0.0559     0.2585     2.4724   107.3025     0.1205
   89.5000    11.8250    10.1603    11.3798   -59.5883    98.6050     8.1491     0.0399     0.2570     2.4779   109.1449     0.1193
   90.0000    11.4742    10.1500    11.2080   -59.4437    99.1640     8.1483     0.0207     0.2522     2.4715   107.9011     0.1248
   90.5000    11.1467    10.1397    11.1146   -59.4590    99.6436     8.1475     0.0142     0.2513     2.4588   105.4227     0.1299
   91.0000    10.8826    10.1294    10.7859   -59.4713   100.0445     8.1468     0.0142     0.2549     2.4555   103.2530     0.1299
   91.5000    10.8087    10.1192    10.6210   -59.4836   100.6858     8.1460     0.0220     0.2613     2.4595   101.6965     0.1287
   92.0000    10.9597    10.1089    10.7686   -59.6497   100.5335     8.1452     0.0427     0.2635     2.4636   104.1687     0.1310
   92.5000    11.1128    10.0250    10.9183   -59.8158   100.2224     8.1444     0.0458     0.2600     2.4578   106.6307     0.1329
   93.0000    11.2700    10.0149    11.0723   -59.8281   100.0698     8.1437     0.0345     0.2540     2.4538   107.8458     0.1352
   93.5000    11.4274    10.0047    11.3892   -59.8404    99.4416     8.1429     0.0233     0.2512     2.4505   105.6533     0.1371
   94.0000    11.6698     9.9946    11.6345   -59.8527    96.5908     8.1421     0.0137     0.2452     2.4553   102.7736     0.1362
   94.5000    12.0948     9.9844    11.9698   -59.8646    92.5496     8.1414     0.0136     0.2408     2.4671    98.4887     0.1297
   95.0000    13.4842     9.9743    12.1362   -59.8772    89.7783     8.1406     0.0151     0.2351     2.4925    95.3807     0.1168
   95.5000    14.8155     9.9642    11.6042   -59.8895    89.9434     8.1398     0.0198     0.2310     2.5251    93.6022     0.0994
   96.0000    14.2742     9.9540    11.1791   -59.9015    92.2514     8.1391     0.0261     0.2294     2.5385    96.2757     0.0876
   96.5000    11.3758     9.8713    10.9280   -60.1392    97.0991     8.1383     0.0292     0.2374     2.5043    99.9352     0.1021
   97.0000    10.9602     9.8612    10.6048   -60.2338   100.3594     8.1375     0.0387     0.2451     2.4828   103.1402     0.1164
   97.5000    11.1153     9.8511    10.2912   -60.2463   101.7151     8.1368     0.0529     0.2658     2.4724   104.6765     0.1248
   98.0000    10.6294     9.8410    10.2082   -60.2586   102.4358     8.1360     0.0596     0.2676     2.4628   105.8995     0.1286
   98.5000    10.6217     9.7574    10.1257   -60.4247   102.2025     8.1352     0.0209     0.2608     2.4588   105.2730     0.1319
   99.0000    10.6140     9.6764    10.1176   -60.5908   101.8136     8.1345    -0.0030     0.2503     2.4548   102.4860     0.1339
   99.5000    10.7623     9.6666    10.1095   -60.6031   100.7883     8.1337    -0.0127     0.2443     2.4524    97.2299     0.1370
  100.0000    10.8352     9.8727    10.0284   -60.7692    99.8407     8.1329    -0.0032     0.2507     2.4555   100.6152     0.1326
  100.5000    10.9067     9.8634    10.0183   -60.4828   100.6459     8.1631     0.0144     0.2593     2.4602   101.8376     0.1302
  101.0000    10.8328     9.8540    10.0841   -60.6585   100.9728     8.1623     0.0256     0.2667     2.4665   102.7513     0.1262
  101.5000    10.7549     9.8446    10.1456   -60.6800   101.4585     8.1615     0.0385     0.2696     2.4744   103.6650     0.1226
  102.0000    10.6770     9.8352    10.0612   -60.7058   101.7854     8.1607     0.0510     0.2729     2.4887   106.1219     0.1181
  102.5000    10.5992     9.8241    10.1249   -60.7271   102.1123     8.1598     0.0538     0.2757     2.4839   103.9492     0.1147
  103.0000    10.5213     9.8869    10.1145   -60.9022   102.2805     8.1591     0.0394     0.2786     2.4799    99.9247     0.1182
  103.5000    10.4434     9.9501    10.1042   -61.0773   102.4486     8.1583     0.0314     0.2764     2.4759    98.0606     0.1202
  104.0000    10.3715     9.9408    10.0939   -61.2524   102.4581     8.1575     0.0361     0.2711     2.4742   101.1348     0.1209
  104.5000    10.2872     9.9314     9.9374   -61.4275   102.4675     8.1413     0.0456     0.2670     2.4758   102.9775     0.1206
  105.0000    10.2783     9.9221     9.9272   -61.7565   102.6357     8.1251     0.0567     0.2642     2.4765    99.8758     0.1197
