~VERSION INFORMATION
 VERS.                2.0:   CWLS LOG ASCII STANDARD - VERSION 2.0
 WRAP.                 NO:   ONE LINE PER DEPTH STEP
~WELL INFORMATION
#MNEM.UNIT      DATA TYPE    INFORMATION
#----------   ------------   ------------------------------
 STRT.F           36.0000:   START DEPTH
 STOP.F          521.0000:   STOP DEPTH
 STEP.F            0.5000:   STEP LENGTH
 NULL.          -999.2500:   NO VALUE
 COMP. FENIX & SCISSON INC:   COMPANY
 WELL.        NPR-3 #36-3:   WELL
 FLD .             TEAPOT:   FIELD
 LOC .       S3 T38N R78W:   LOCATION
 CNTY.            NATRONA:   COUNTY
 STAT.            WYOMING:   STATE
 CTRY. UNITED STATES OF AMERICA:   COUNTRY
 SRVC.            Unknown:   SERVICE COMPANY
 DATE.        09-JUL-1978:   LOGDATE
 API .       490251066200:   API NUMBER
~CURVE INFORMATION
#MNEM.UNIT       API CODE    CURVE DESCRIPTION
#----------   ------------   ------------------------------
 DEPT.F                  :   
 CALD.IN     45 280 60 00:   CALIPER FROM DENSITY LOG
 GRD .GAPI   45 310 01 00:   GAMMA RAY FROM DENSITY LOG
 CORR.G/C3   45 356 01 00:   DENSITY CORRECTION
 DPHI.DEC    45 890 12 00:   DENSITY POROSITY SANDSTONE
 RHOB.G/C3   45 350 01 00:   BULK DENSITY
 SPR .MV     07 010 01 00:   SPONTANEOUS POTENTIAL
 ILD .OHMM   07 120 46 00:   INDUCTION LOG DEEP
 SN  .OHMM   07 040 16 00:   SHORT NORMAL 16"
~PARAMETER INFORMATION
#MNEM.UNIT          VALUE    DESCRIPTION
#----------   ------------   ------------------------------
 PD  .                 GL:   PERMANENT DATUM
 EPD .F              5216:   ELEVATION PERMANENT DATUM
 LMF .                 KB:   LOG MEASURED FROM
 DAPD.F                 4:   FEET ABOVE PERMANENT DATUM
 DMF .                 KB:   DRILLING MEASURED FROM
 EKB .F              5220:   KELLING BUSHING
 EGL .F              5216:   GROUND LEVEL
 DATE.        09-JUL-1978:   RUN DATE
 RUN .                  1:   RUN NUMBER
 DD  .F               520:   DEPTH DRILLER
 DL  .F               524:   DEPTH LOGGER
 BLI .F               519:   BOTTOM LOG INTERVAL
 TLI .F                50:   TOP LOG INTERVAL
 CS  .IN            8.625:   CASING SIZE
 CBD .F                40:   CASING BOTTOM DRILLER
 BS  .IN            7.875:   BIT SIZE
 BSD .F               520:   BIT SIZE AT DEPTH
 DFT .                KCL:   DRILLING FLUID TYPE
 DFD .                8.6:   DRILLING FLUID DENSITY
 DFV .                 32:   DRILLING FLUID VISCOSITY
 DFPH.                9.5:   DRILLING FLUID PH
 DFL .               14.4:   DRILLING FLUID LOSS
 MSS .           FLOWLINE:   MUD SAMPLE SOURCE
 RMS .OHMM           0.24:   RESISTIVITY MUD SAMPLE
 MST .F                70:   MUD SAMPLE TEMPERATURE
 RMF .OHMM           0.24:   RESISTIVITY MUD FILTRATE SAMPLE
 MFST.F                70:   MUD FILTRATE SAMPLE TEMPERATURE
 RMC .OHMM           0.42:   RESISTIVITY MUD CAKE
 MCST.F                72:   MUD CAKE SAMPLE TEMPERATURE
 MFSS.               MEAS:   MUD FILTRATE SAMPLE SOURCE
 BHT .F                80:   BOTTOM HOLE TEMPERATURE
 TCS .HRS               3:   TIME CURCULATED STOPPED
 MRT .F                80:   MAXIMUM RECORDED TEMPERATURE
 LUN .               2958:   LOGGING UNIT NUMBER
 LUL .               CASP:   LOGGING UNIT LOCATION
 ENGI.             MILLER:   RECORDING ENGINEER
 WITN.           MCGINLEY:   WITNESSED BY
 CLNT.            A2DTECH:   CLIENT CODE
 ORIG.           5" PRINT:   ORIGIN OF DATA
 UWI .       490251066200:   UNIQUE WELL ID
 DICO. A2D Technologies, Inc.:   DIGITIZING COMPANY
~OTHER INFORMATION
~A   DEPT     CALD        GRD       CORR       DPHI       RHOB        SPR        ILD         SN   
# ...
  117.0000     8.0801    87.0193     0.0578     0.1083     2.5045   -17.6778     8.9003     8.8532
  117.5000     8.0047    92.0020     0.0730     0.1035     2.5150   -17.6892     8.8375     8.9136
  118.0000     7.8999    95.4993     0.0785     0.0978     2.5218   -17.7006     8.5363     9.0367
  118.5000     7.7974    95.5067     0.0726     0.0936     2.5233   -17.7120     8.3601     9.0983
  119.0000     7.7379    95.6646     0.0667     0.1055     2.5092   -17.7237     8.2443     9.1600
  119.5000     7.6671    94.6287     0.0712     0.1094     2.5010   -17.7377     8.1289     9.2224
  120.0000     7.5933    93.1439     0.0683     0.1091     2.5078   -17.7491     7.9619     9.2212
  120.5000     7.5344    93.4512     0.0519     0.1105     2.4974   -17.7605     7.9061     9.3486
  121.0000     7.4904    93.7566     0.0444     0.1242     2.4802   -17.7719     7.9050     9.4123
  121.5000     7.4761    91.5285     0.0430     0.1245     2.4785   -17.7861     7.9588     9.5423
  122.0000     7.4919    92.1320     0.0505     0.1221     2.4818   -17.7975     7.9577     9.7410
  122.5000     7.5075    91.5432     0.0326     0.1200     2.4818   -17.9591     8.1233     9.8758
  123.0000     7.5083    89.1661     0.0312     0.1201     2.4841   -17.9705     8.4075    10.0119
  123.5000     7.5239    85.1496     0.0328     0.1146     2.5088   -17.9820     8.7019    10.0106
  124.0000     7.5247    81.8783     0.0328     0.1035     2.5097   -17.8432     8.8221    10.0788
  124.5000     7.5403    79.7974     0.0329     0.1064     2.5088   -17.8574     8.8821    10.0771
  125.0000     7.5559    80.1292     0.0269     0.1001     2.5262   -17.8688     9.0042    10.0758
  125.5000     7.5716    78.4726    -0.0044     0.1002     2.4982   -17.8802     9.1282    10.0745
  126.0000     7.5723    77.2876     0.0091     0.1226     2.4761   -17.8919     9.2540    10.0036
  126.5000     7.4985    85.3428     0.0196     0.1352     2.4611   -17.9059     9.3813    10.0023
  127.0000     7.4397    87.2876     0.0242     0.1309     2.4617   -17.7671     9.4454     9.9316
  127.5000     7.3361    86.8478     0.0257     0.1209     2.4756   -17.7785     9.5093     9.7261
  128.0000     7.3517    87.3820     0.0259     0.1185     2.4749   -17.7899     9.4374     9.0115
  128.5000     7.4427    89.4784     0.0291     0.1251     2.4813   -17.8042     9.1836     8.5840
  129.0000     7.4873    90.2976     0.0319     0.1215     2.4877   -17.8156     8.9940     8.8239
  129.5000     7.7132    89.5598     0.0320     0.1176     2.4885   -17.8270     8.6875     9.0706
  130.0000     7.9389    89.8671     0.0380     0.1134     2.4922   -17.8384     8.8683     9.1958
  130.5000     8.0575    89.2765     0.0441     0.1163     2.4885   -17.8498     9.0528     8.8814
  131.0000     8.0864    89.7328     0.0396     0.1190     2.4811   -17.8641     8.9175     8.5780
  131.5000     8.0369    92.1246     0.0457     0.1213     2.4804   -17.8755     8.6228     8.2850
  132.0000     7.9688    97.1991     0.0607     0.1210     2.4842   -17.8869     8.3289     8.4013
  132.5000     7.9396    96.6103     0.0728     0.1168     2.4872   -17.8983     8.1008     8.6939
  133.0000     7.8956    96.3178     0.0683     0.1078     2.5037   -17.9099     8.0440     8.8143
  133.5000     7.8518    91.2599     0.0609     0.1069     2.5008   -17.9239     7.9325     8.8128
  134.0000     7.7632    88.2866     0.0520     0.1114     2.4948   -17.9353     7.9865     8.8116
  134.5000     7.4807    87.5488     0.0431     0.1149     2.4926   -17.9467     7.9301     8.8105
  135.0000     7.4070    85.7678     0.0311     0.1203     2.4822   -17.8078     7.9291     8.8093
  135.5000     7.3481    86.2223     0.0267     0.1310     2.4718   -17.8198     7.8735     8.8693
  136.0000     7.3039    88.6141     0.0253     0.1346     2.4621   -17.8337     7.8724     8.9295
  136.5000     7.2750    89.0760     0.0268     0.1372     2.4577   -17.6949     7.9260     8.9283
  137.0000     7.2460    86.8256     0.0299     0.1347     2.4600   -17.7063     8.0349     8.9892
  137.5000     7.2316    86.4007     0.0329     0.1327     2.4630   -17.7177     8.2021     9.1133
  138.0000     7.1878    87.0042     0.0330     0.1336     2.4601   -17.5790     8.3728     9.2477
  138.5000     7.1886    85.6433     0.0271     0.1422     2.4541   -17.5932     8.5470     9.4319
  139.0000     7.2042    85.5286     0.0226     0.1518     2.4430   -17.6046     8.6052     9.6283
  139.5000     7.2199    87.0281     0.0260     0.1565     2.4251   -17.6160     8.7839     9.6942
  140.0000     7.2206    87.3336     0.0396     0.1410     2.4475   -17.4675     9.0292     9.6926
  140.5000     7.1766    91.8119     0.0498     0.1326     2.4633   -17.1884     9.2168     9.6913
  141.0000     7.0581    93.4586     0.0483     0.1191     2.4865   -17.2026     9.4086     9.6897
  141.5000     7.0142    93.7640     0.0409     0.1116     2.5022   -17.2141     9.5383     9.7561
  142.0000     7.1506    93.9204     0.0260     0.1191     2.4926   -17.2255     9.6031     9.7545
  142.5000     7.3753    93.9277     0.0201     0.1169     2.4806   -17.2373     9.6015     9.8213
  143.0000     7.5624    94.0841     0.0336     0.1094     2.4792   -17.2511     9.6003     9.8196
  143.5000     7.8924    94.2405     0.0307     0.1223     2.4807   -17.2625     9.5990     9.8183
  144.0000     8.0490    94.2479     0.0502     0.1061     2.4987   -17.2739     9.4660     9.8167
  144.5000     8.0918    90.2314     0.0442     0.1153     2.4952   -17.2853     9.3983     9.8154
  145.0000     8.0627    88.1523     0.0428     0.1279     2.4733   -17.2996     9.2690     9.7464
  145.5000     8.0335    88.0104     0.0564     0.1279     2.4704   -17.3110     9.2678     9.6778
  146.0000     8.0046    87.7199     0.0654     0.1248     2.4690   -17.3224     9.2666     9.6098
  146.5000     7.9457    86.6841     0.0655     0.1161     2.4873   -17.3338     9.2654     9.4109
  147.0000     7.8719    87.7347     0.0580     0.1158     2.4908   -17.3453     9.3284     9.3444
  147.5000     7.7684    87.5930     0.0446     0.1211     2.4863   -17.3594     9.3918     9.2787
  148.0000     7.6201    89.0611     0.0237     0.1326     2.4714   -17.3709     9.5209     9.0867
  148.5000     7.4867    92.6354     0.0178     0.1391     2.4520   -17.3823     9.5860     8.9606
  149.0000     7.4129    93.7253     0.0193     0.1381     2.4513   -17.2432     9.7851     8.9594
  149.5000     7.3540    89.7107     0.0239     0.1345     2.4708   -16.7869     9.9200     9.0204
  150.0000     7.3248    86.4381     0.0254     0.1267     2.4761   -16.6686     9.9874     9.0888
  150.5000     7.3258    86.5961     0.0225     0.1333     2.4618   -16.6898    10.1239     9.1749
  151.0000     7.3416    84.1659     0.0226     0.1368     2.4628   -16.5535    10.3385     9.2678
  151.5000     7.3425    81.9777     0.0226     0.1347     2.4624   -16.4264    10.6212     9.5249
  152.0000     7.2988    81.0830     0.0256     0.1380     2.4501   -16.4449    10.7674     9.8762
  152.5000     7.2846    80.3722     0.0257     0.1404     2.4546   -16.6141    10.5445    10.2728
  153.0000     7.2706    80.3832     0.0257     0.1367     2.4599   -16.4818    10.9881    10.5585
  153.5000     7.2419    79.4979     0.0243     0.1355     2.4510   -16.5049    11.1388    10.7773
  154.0000     7.2427    79.6558     0.0213     0.1421     2.4570   -16.5234    11.1360    10.8494
  154.5000     7.2285    80.5589     0.0139     0.1483     2.4384   -16.5421    11.2116    10.9978
  155.0000     7.2296    81.7600     0.0184     0.1429     2.4534   -16.5649    11.3648    11.2257
  155.5000     7.2454    82.5140     0.0259     0.1312     2.4706   -16.5834    11.6005    11.6173
  156.0000     7.2463    82.2248     0.0230     0.1264     2.4774   -16.6019    12.0914    11.9405
  156.5000     7.2472    81.0414     0.0230     0.1243     2.4797   -16.6204    12.6851    12.3579
  157.0000     7.2480    79.8580     0.0231     0.1252     2.4797   -16.6435    13.0380    12.8017
