~VERSION INFORMATION
 VERS.                2.0:   CWLS LOG ASCII STANDARD - VERSION 2.0
 WRAP.                 NO:   ONE LINE PER DEPTH STEP
~WELL INFORMATION
#MNEM.UNIT      DATA TYPE    INFORMATION
#----------   ------------   ------------------------------
 STRT.F           34.0000:   START DEPTH
 STOP.F          496.0000:   STOP DEPTH
 STEP.F            0.5000:   STEP LENGTH
 NULL.          -999.2500:   NO VALUE
 COMP. LAWRENCE/ALLISON INC:   COMPANY
 WELL.   55-55 SX FI #3-3:   WELL
 FLD .             TEAPOT:   FIELD
 LOC .       S3 T38N R78W:   LOCATION
 CNTY.            NATRONA:   COUNTY
 STAT.            WYOMING:   STATE
 CTRY. UNITED STATES OF AMERICA:   COUNTRY
 SRVC.       Schlumberger:   SERVICE COMPANY
 DATE.        18-JUL-1982:   LOGDATE
 API .       490251089500:   API NUMBER
~CURVE INFORMATION
#MNEM.UNIT       API CODE    CURVE DESCRIPTION
#----------   ------------   ------------------------------
 DEPT.F                  :   
 CALD.IN     45 280 60 00:   CALIPER FROM DENSITY LOG
 GRD .GAPI   45 310 01 00:   GAMMA RAY FROM DENSITY LOG
 CORR.G/C3   45 356 01 00:   DENSITY CORRECTION
 RHOB.G/C3   45 350 01 00:   BULK DENSITY
 DPHI.DEC    45 890 12 00:   DENSITY POROSITY SANDSTONE
 SPR .MV     07 010 01 00:   SPONTANEOUS POTENTIAL
 ILD .OHMM   07 120 46 00:   INDUCTION LOG DEEP
 ILM .OHMM   07 120 44 00:   INDUCTION LOG MEDIUM
 SFL .OHMM   07 220 01 00:   SHALLOW FOCUSED LOG RESISTIVITY
~PARAMETER INFORMATION
#MNEM.UNIT          VALUE    DESCRIPTION
#----------   ------------   ------------------------------
 PD  .                 GL:   PERMANENT DATUM
 EPD .F              5167:   ELEVATION PERMANENT DATUM
 LMF .                 KB:   LOG MEASURED FROM
 DAPD.F                 9:   FEET ABOVE PERMANENT DATUM
 DMF .                 KB:   DRILLING MEASURED FROM
 EKB .F              5176:   KELLING BUSHING
 EDF .F                  :   DRILLING FLOOR
 EGL .F              5167:   GROUND LEVEL
 DATE.        18-JUL-1982:   RUN DATE
 RUN .                  1:   RUN NUMBER
 DD  .F               500:   DEPTH DRILLER
 DL  .F               499:   DEPTH LOGGER
 BLI .F               436:   BOTTOM LOG INTERVAL
 TLI .F                50:   TOP LOG INTERVAL
 CS  .IN           13.375:   CASING SIZE
 CBD .F                50:   CASING BOTTOM DRILLER
 CBL .F                50:   CASING BOTTOM LOGGER
 BS  .IN            12.25:   BIT SIZE
 BSD .F               500:   BIT SIZE AT DEPTH
 DFT .         KCL FILLED:   DRILLING FLUID TYPE
 DFD .                   :   DRILLING FLUID DENSITY
 DFV .                   :   DRILLING FLUID VISCOSITY
 DFPH.                   :   DRILLING FLUID PH
 DFL .                   :   DRILLING FLUID LOSS
 MSS .           WELLHEAD:   MUD SAMPLE SOURCE
 RMS .OHMM           2.82:   RESISTIVITY MUD SAMPLE
 MST .F                80:   MUD SAMPLE TEMPERATURE
 RMF .OHMM               :   RESISTIVITY MUD FILTRATE SAMPLE
 MFST.F                  :   MUD FILTRATE SAMPLE TEMPERATURE
 RMC .OHMM               :   RESISTIVITY MUD CAKE
 MCST.F                  :   MUD CAKE SAMPLE TEMPERATURE
 MFSS.                   :   MUD FILTRATE SAMPLE SOURCE
 MCSS.                   :   MUD CAKE SAMPLE SOURCE
 RMB .OHMM           2.62:   RESISTIVITY MUD AT BHT
 BHT .F                86:   BOTTOM HOLE TEMPERATURE
 TCS .HRS            1530:   TIME CURCULATED STOPPED
 TLAB.HRS            1800:   TIME LOGGER AT BOTTOM
 MRT .F                86:   MAXIMUM RECORDED TEMPERATURE
 LUN .               8035:   LOGGING UNIT NUMBER
 LUL .             CASPER:   LOGGING UNIT LOCATION
 ENGI.              PENNY:   RECORDING ENGINEER
 WITN.             TAYLOR:   WITNESSED BY
 CLNT.            A2DTECH:   CLIENT CODE
 ORIG.           5" PRINT:   ORIGIN OF DATA
 UWI .       490251089500:   UNIQUE WELL ID
 DICO. A2D Technologies, Inc.:   DIGITIZING COMPANY
 OS  .                   :   OTHER SERVICES
 PWI .                   :   PRIMARY WELL IDENTIFIER
 R1  . POROSITY WITH SANDSTONE:   REMARKS 1
 R2  .                   :   REMARKS 2
 LSRV.                   :   LOG MNEMONIC
~OTHER INFORMATION
~A   DEPT     CALD         GRD      CORR       RHOB       DPHI        SPR        ILD        ILM        SFL   
# ...
  289.5000    12.1099    54.7803     0.0187     2.2989     0.2381   -43.0249    22.7207    22.7199    28.7359
  290.0000    12.1233    55.3991     0.0239     2.3050     0.2272   -42.4476    22.5328    22.5451    25.5309
  290.5000    12.1066    53.2705     0.0284     2.2927     0.2236   -42.0000    22.3723    22.5275    24.4774
  291.0000    12.1050    51.7499     0.0215     2.2895     0.2306   -41.5758    22.3548    22.5100    24.4623
  291.5000    12.1033    49.9275     0.0214     2.2894     0.2346   -41.1400    22.3373    22.4924    24.9599
  292.0000    12.1005    49.0074     0.0228     2.2825     0.2386   -40.7041    22.3199    22.3193    26.0019
  292.5000    12.1000    48.7640     0.0189     2.2588     0.2481   -40.5473    22.3025    22.3019    26.7151
  293.0000    12.0983    48.2950     0.0095     2.2526     0.2555   -40.2802    22.2850    21.9771    27.0707
  293.5000    12.0967    49.1794    -0.0065     2.2649     0.2482   -40.1428    22.1052    21.8080    27.6214
  294.0000    12.1102    51.4172    -0.0033     2.3258     0.2135   -40.1552    21.7838    21.6401    27.9933
  294.5000    12.1081    53.2039     0.0005     2.3478     0.1995   -40.0174    21.5980    21.3249    26.8340
  295.0000    12.1065    54.0883     0.0017     2.3528     0.1935   -39.7307    21.4094    21.1608    25.3732
  295.5000    12.0898    55.1983     0.0100     2.3519     0.1947   -39.2979    20.9789    20.7083    23.4989
  296.0000    12.1032    56.7594     0.0091     2.3526     0.1948   -38.7127    20.3888    20.1640    21.7631
  296.5000    12.1016    57.8693     0.0037     2.3578     0.1927   -37.9784    19.9558    19.8896    21.1559
  297.0000    12.0999    59.6560    -0.0032     2.3615     0.1908   -37.3933    19.6677    19.8758    20.9970
  297.5000    12.0983    60.5448    -0.0026     2.3653     0.1888   -36.9574    19.5185    20.1361    20.8393
  298.0000    12.1117    58.7180     0.0012     2.3583     0.1903   -36.5186    19.6440    20.4027    20.6827
  298.5000    12.0950    57.5724    -0.0005     2.3422     0.2023   -36.2320    20.0391    20.8164    20.8134
  299.0000    12.1088    56.4267    -0.0021     2.3391     0.2036   -36.0946    20.5878    21.2421    21.3843
  299.5000    12.1222    55.0554     0.0008     2.3504     0.1987   -36.1095    21.1514    21.8195    22.5875
  300.0000    12.1203    52.3306     0.0038     2.3595     0.1927   -36.0842    21.4422    21.9597    23.6254
  300.5000    12.1197    52.5539     0.0014     2.3602     0.1881   -35.6724    21.5253    21.7922    24.1787
  301.0000    12.0890    55.0329    -0.0002     2.3555     0.1919   -35.3869    21.4133    21.1841    22.7062
  301.5000    12.0884    56.6096     0.0020     2.3615     0.1931   -35.0959    20.9628    20.7359    21.0303
  302.0000    12.0878    59.5396     0.0050     2.3690     0.1886   -34.8049    20.5218    20.5800    19.6133
  302.5000    12.0722    62.9208     0.0087     2.3689     0.1840   -34.6631    20.0901    20.4253    18.9357
  303.0000    12.0866    62.6930     0.0124     2.3627     0.1890   -34.3740    19.8041    20.2718    19.0569
  303.5000    12.0860    59.5329     0.0116     2.3626     0.1899   -34.3815    19.7945    19.9807    19.1787
  304.0000    12.0854    56.5983     0.0100     2.3664     0.1872   -34.3890    19.5127    19.8305    19.1676
  304.5000    12.0848    57.4983     0.0114     2.3731     0.1818   -34.3965    19.3686    19.5457    19.1570
  305.0000    12.0692    58.8494     0.0129     2.3769     0.1781   -34.2529    19.2256    19.2650    18.7529
  305.5000    12.0686    59.2988     0.0090     2.3676     0.1846   -34.2622    18.9519    19.1202    18.3574
  306.0000    12.0680    57.4915     0.0044     2.3614     0.1901   -34.2697    18.8120    18.9765    18.0950
  306.5000    12.0824    55.9103     0.0005     2.3591     0.1914   -34.2772    18.8029    18.9647    17.8364
  307.0000    12.0968    55.6824    -0.0018     2.3612     0.1899   -34.2847    18.9247    19.0844    17.9528
  307.5000    12.0812    54.7779     0.0011     2.3650     0.1878   -34.1411    19.0470    19.2079    18.1928
  308.0000    12.0806    54.7757     0.0071     2.3687     0.1839   -33.9993    19.1719    19.1929    18.5615
  308.5000    12.0800    55.6757     0.0131     2.3754     0.1812   -33.7083    19.2958    19.3172    18.9404
  309.0000    12.0794    55.8995     0.0236     2.3814     0.1775   -33.5666    19.5530    19.4391    19.1963
  309.5000    12.0788    57.4756     0.0304     2.3791     0.1794   -33.2756    19.6817    19.5619    19.4530
  310.0000    12.0932    57.9251     0.0220     2.3622     0.1913   -32.9846    19.8064    19.6854    19.5772
  310.5000    12.0926    57.0206     0.0113     2.3552     0.1963   -32.6954    19.9343    19.6701    19.6994
  311.0000    12.0770    57.2439     0.0036     2.3620     0.1905   -32.5518    19.9246    19.7974    19.6885
  311.5000    12.0914    58.1433     0.0111     2.3680     0.1860   -32.2627    20.0558    19.7819    20.0931
  312.0000    12.0908    59.4944     0.0179     2.3626     0.1888   -32.2687    20.1853    19.9099    20.2185
  312.5000    12.0752    58.3643     0.0163     2.3564     0.1928   -32.2761    20.1731    20.0325    20.2073
  313.0000    12.0746    57.6859     0.0155     2.3586     0.1904   -32.4328    20.1632    20.0200    20.0568
  313.5000    12.0740    59.9388     0.0192     2.3669     0.1852   -32.5896    20.0144    19.8696    19.4984
  314.0000    12.0734    61.9666     0.0236     2.3775     0.1792   -32.4476    20.0046    19.5842    18.9555
  314.5000    12.0728    63.5433     0.0243     2.3766     0.1801   -32.4552    19.7199    19.3030    18.4278
  315.0000    12.0722    63.3154     0.0182     2.3743     0.1811   -32.3133    19.5743    19.0258    18.2905
  315.5000    12.0716    62.1853     0.0128     2.3764     0.1799   -32.3208    19.2956    18.6232    18.1543
  316.0000    12.0710    61.2808     0.0135     2.3832     0.1781   -32.1791    19.1532    18.4833    18.1442
  316.5000    12.0704    62.4064     0.0164     2.3869     0.1760   -32.0373    19.0117    18.2178    18.1341
  317.0000    12.0698    64.2086     0.0202     2.3884     0.1736   -32.0448    18.7411    18.0809    17.9990
  317.5000    12.0692    66.0109     0.0140     2.3822     0.1770   -32.0523    18.4744    17.9472    17.8650
  318.0000    12.0836    66.6859     0.0086     2.3722     0.1844   -32.0598    18.2114    17.8124    17.6096
  318.5000    12.0980    64.8785     0.0025     2.3637     0.1899   -32.2166    18.0769    17.8013    17.4785
  319.0000    12.0974    63.9740     0.0085     2.3613     0.1899   -32.2241    17.9434    17.6675    17.3483
  319.5000    12.0968    63.0695     0.0114     2.3628     0.1900   -32.3808    17.9347    17.6565    17.2190
  320.0000    12.1113    62.1650     0.0083     2.3596     0.1912   -32.3883    17.9260    17.6455    17.0927
  320.5000    12.1107    61.2605     0.0052     2.3496     0.1949   -32.3958    17.9173    17.7718    16.9654
  321.0000    12.1101    61.0327    -0.0002     2.3412     0.1998   -32.2537    17.9086    17.9936    16.8391
  321.5000    12.0944    61.0304     0.0036     2.3357     0.2045   -32.1119    18.0264    18.1072    16.8298
  322.0000    12.0788    61.0281     0.0103     2.3357     0.2039   -31.8194    18.1429    18.3480    16.9514
  322.5000    12.0632    60.8003     0.0133     2.3386     0.2027   -31.5303    18.3847    18.3364    17.5360
  323.0000    12.0475    61.0242     0.0079     2.3378     0.2037   -31.5378    18.5035    18.3250    18.0157
  323.5000    12.0469    61.2475     0.0055     2.3368     0.2034   -31.5453    18.4945    18.3136    18.1209
  324.0000    12.0614    61.5128     0.0077     2.3414     0.2016   -31.5528    18.2312    17.9228    17.6114
  324.5000    12.0457    62.1452     0.0114     2.3474     0.1980   -31.5603    17.8477    17.5469    17.0054
  325.0000    12.0451    62.6316     0.0136     2.3572     0.1922   -31.5678    17.7159    17.2950    16.5343
  325.5000    12.0445    63.3393     0.0098     2.3662     0.1868   -31.5753    17.4637    17.1650    16.2980
