~VERSION INFORMATION
 VERS.                2.0:   CWLS LOG ASCII STANDARD - VERSION 2.0
 WRAP.                 NO:   ONE LINE PER DEPTH STEP
~WELL INFORMATION
#MNEM.UNIT      DATA TYPE    INFORMATION
#----------   ------------   ------------------------------
 STRT.F            0.5000:   START DEPTH
 STOP.F         2271.5000:   STOP DEPTH
 STEP.F            0.5000:   STEP LENGTH
 NULL.          -999.2500:   NO VALUE
 COMP. BROWN JOHN E&C INC:   COMPANY
 WELL. NPR 3 STX-11 #27-11:   WELL
 FLD .             TEAPOT:   FIELD
 LOC .      S11 T38N R78W:   LOCATION
 CNTY.            NATRONA:   COUNTY
 STAT.            WYOMING:   STATE
 CTRY. UNITED STATES OF AMERICA:   COUNTRY
 SRVC.      Dresser Atlas:   SERVICE COMPANY
 DATE.        20-JAN-1993:   LOGDATE
 API .       490251108500:   API NUMBER
~CURVE INFORMATION
#MNEM.UNIT       API CODE    CURVE DESCRIPTION
#----------   ------------   ------------------------------
 DEPT.F                  :   
 ILD .OHMM   07 120 46 00:   INDUCTION LOG DEEP
 ILM .OHMM   07 120 44 00:   INDUCTION LOG MEDIUM
 GRR .GAPI   07 310 01 00:   GAMMA RAY FROM RES. LOG.
~PARAMETER INFORMATION
#MNEM.UNIT          VALUE    DESCRIPTION
#----------   ------------   ------------------------------
 PD  .                 GL:   PERMANENT DATUM
 EPD .F              5187:   ELEVATION PERMANENT DATUM
 LMF .                 KB:   LOG MEASURED FROM
 DAPD.F                12:   FEET ABOVE PERMANENT DATUM
 DMF .                 KB:   DRILLING MEASURED FROM
 EKB .F            5198.8:   KELLING BUSHING
 EDF .F            5197.8:   DRILLING FLOOR
 EGL .F              5187:   GROUND LEVEL
 DATE.            1-20-93:   RUN DATE
 RUN .                  1:   RUN NUMBER
 DD  .F              2279:   DEPTH DRILLER
 DL  .F              2279:   DEPTH LOGGER
 BLI .F              2271:   BOTTOM LOG INTERVAL
 TLI .F               692:   TOP LOG INTERVAL
 CS  .IN            8.625:   CASING SIZE
 CBD .F               689:   CASING BOTTOM DRILLER
 CBL .F               692:   CASING BOTTOM LOGGER
 BS  .IN            7.875:   BIT SIZE
 BSD .F              2279:   BIT SIZE AT DEPTH
 DFT .                OIL:   DRILLING FLUID TYPE
 BHT .F                92:   BOTTOM HOLE TEMPERATURE
 TCS .HRS               2:   TIME CURCULATED STOPPED
 MRT .F                92:   MAXIMUM RECORDED TEMPERATURE
 LUN .            HL-6274:   LOGGING UNIT NUMBER
 LUL .             CASPER:   LOGGING UNIT LOCATION
 ENGI.             RAUTIO:   RECORDING ENGINEER
 WITN.             STRONG:   WITNESSED BY
 CLNT.            A2DTECH:   CLIENT CODE
 ORIG.  2", 5", 20" PRINT:   ORIGIN OF DATA
 UWI .       490251108500:   UNIQUE WELL ID
 DICO. A2D Technologies, Inc.:   DIGITIZING COMPANY
~OTHER INFORMATION
~A    DEPT     ILD        ILM         GRR  
# ...
 1365.5000     9.3773     9.2349   130.7423
 1366.0000     9.4608     9.3405   129.5332
 1366.5000     9.5145     9.3000   121.4036
 1367.0000     9.4656     9.2282   113.2701
 1367.5000     9.4238     9.1570   106.5491
 1368.0000     9.3821     9.0863   104.9273
 1368.5000     9.3406     9.0161   108.3376
 1369.0000     9.2993     8.9465   112.5631
 1369.5000     9.2582     8.8774   116.2072
 1370.0000     9.2173     8.8088   115.0105
 1370.5000     9.1697     8.7561   113.7154
 1371.0000     9.2082     8.9074   112.4192
 1371.5000     9.2630     9.0084   112.3805
 1372.0000     9.2976     9.0336   115.6538
 1372.5000     9.3322     9.0591   117.5311
 1373.0000     9.3671     9.0846   115.5011
 1373.5000     9.4019     9.1103   113.4994
 1374.0000     9.4271     9.1360   114.4083
 1374.5000     9.3710     9.1697   115.5452
 1375.0000     9.3275     9.1159   115.2878
 1375.5000     9.2843     9.0392   114.4946
 1376.0000     9.2263     8.9539   113.6813
 1376.5000     9.1364     8.8043   112.8287
 1377.0000     9.0475     8.6566   113.2250
 1377.5000     8.9597     8.5113   114.0031
 1378.0000     8.8247     8.3686   114.7935
 1378.5000     8.6537     8.2282   115.7897
 1379.0000     8.4858     8.0902   117.9124
 1379.5000     8.3212     7.9545   120.0489
 1380.0000     8.2019     7.7662   122.1734
 1380.5000     7.9842     7.8085   123.8024
 1381.0000     8.0951     7.8814   121.2682
 1381.5000     8.2088     7.9551   118.4577
 1382.0000     8.3242     8.0294   114.6104
 1382.5000     8.4411     8.1045   110.5555
 1383.0000     8.5597     8.2516   106.5188
 1383.5000     8.6757     8.4388   103.1975
 1384.0000     8.6575     8.3938   105.1069
 1384.5000     8.6402     8.3505   108.9328
 1385.0000     8.6225     8.3074   111.7606
 1385.5000     8.6066     8.2845   114.3076
 1386.0000     8.5021     8.3659   117.9043
 1386.5000     8.4388     8.3756   120.9409
 1387.0000     8.4918     8.3854   116.1715
 1387.5000     8.5278     8.3951   108.5378
 1388.0000     8.5639     8.4049   101.6237
 1388.5000     8.6002     8.4147   103.6127
 1389.0000     8.6366     8.4246   108.3898
 1389.5000     8.6757     8.4342   109.4018
 1390.0000     8.5764     8.4388   110.3651
 1390.5000     8.4712     8.2828   113.3694
 1391.0000     8.3674     8.1680   117.0746
 1391.5000     8.2647     8.0548   117.2831
 1392.0000     8.1634     7.9432   114.8761
 1392.5000     8.0632     7.8331   113.7890
 1393.0000     7.9643     7.7266   113.5477
 1393.5000     7.8665     7.6242   111.2906
 1394.0000     7.7702     7.6185   108.7026
 1394.5000     7.6948     7.6127   110.1570
 1395.0000     7.7238     7.6070   113.9262
 1395.5000     7.7478     7.6013   117.5934
 1396.0000     7.7662     7.5956   121.0202
 1396.5000     7.7519     7.5900   119.4777
 1397.0000     7.7403     7.5842   115.7554
 1397.5000     7.7287     7.5786   112.1102
 1398.0000     7.7171     7.5729   109.3175
 1398.5000     7.7056     7.5672   111.6253
 1399.0000     7.6940     7.5615   114.1650
 1399.5000     7.6825     7.5556   115.5128
 1400.0000     7.6710     7.5431   113.7980
 1400.5000     7.6596     7.5273   111.9651
 1401.0000     7.6481     7.5115   110.6130
 1401.5000     7.6365     7.4957   112.7861
 1402.0000     7.6242     7.4845   117.0053
 1402.5000     7.6634     7.5223   121.3233
 1403.0000     7.7072     7.5566   119.5776
 1403.5000     7.7511     7.5909   115.6927
 1404.0000     7.7952     7.6254   110.7480
 1404.5000     7.8396     7.6600   106.6512
 1405.0000     7.8843     7.6948   107.8916
 1405.5000     7.9292     7.7298   108.1834
 1406.0000     7.9743     7.7649   108.2357
 1406.5000     8.0198     7.8002   108.3865
 1407.0000     8.0656     7.8388   109.3964
 1407.5000     8.1111     7.8378   109.4242
 1408.0000     8.1329     7.8382   110.1814
 1408.5000     8.1269     7.8398   110.9884
 1409.0000     8.1229     7.8519   110.4051
 1409.5000     8.1188     7.8640   110.1630
 1410.0000     8.1149     7.8762   111.6742
 1410.5000     8.1109     7.8883   113.1850
 1411.0000     8.1069     7.9006   113.1617
 1411.5000     8.1029     7.9103   111.5961
 1412.0000     8.0989     7.8988   109.7728
 1412.5000     8.0949     7.8885   109.2546
 1413.0000     8.0909     7.8781   110.8811
 1413.5000     8.0870     7.8677   111.6532
 1414.0000     8.0830     7.8572   111.1357
 1414.5000     8.0790     7.8468   110.6419
 1415.0000     8.0750     7.8388   111.7974
 1415.5000     8.0711     7.8574   113.6286
 1416.0000     8.0670     7.8737   115.1471
 1416.5000     8.0627     7.8904   115.3934
 1417.0000     8.0580     7.9061   115.6594
 1417.5000     8.2197     8.0662   115.9278
 1418.0000     8.4378     8.2708   116.1995
 1418.5000     8.5274     8.3881   116.4736
 1419.0000     8.6184     8.4318   116.6694
 1419.5000     8.7108     8.4769   114.5981
 1420.0000     8.8041     8.5223   110.8355
 1420.5000     8.9193     8.5678   107.1092
 1421.0000     8.8504     8.5960   106.9532
 1421.5000     8.7631     8.4790   107.4604
 1422.0000     8.6757     8.3954   108.3413
 1422.5000     8.6301     8.3350   110.5526
 1423.0000     8.5842     8.2907   112.6998
 1423.5000     8.5385     8.2466   114.8367
 1424.0000     8.4931     8.2027   114.4725
 1424.5000     8.4383     8.1587   113.7987
 1425.0000     8.4388     8.1331   113.0790
 1425.5000     8.4388     8.1476   111.5413
 1426.0000     8.4388     8.1581   109.8648
 1426.5000     8.4388     8.1685   109.8130
 1427.0000     8.4388     8.1790   113.6935
 1427.5000     8.4388     8.1895   118.0640
 1428.0000     8.4388     8.2000   118.7356
 1428.5000     8.4389     8.2079   116.0586
 1429.0000     8.4388     8.1668   113.2082
 1429.5000     8.4388     8.1339   110.3444
 1430.0000     8.3743     8.0850   109.1097
 1430.5000     8.3216     8.0273   109.2431
 1431.0000     8.2693     7.9698   109.4031
 1431.5000     8.2174     7.9126   109.2461
 1432.0000     8.1657     7.8559   109.1611
 1432.5000     8.1144     7.7996   110.0683
 1433.0000     8.0633     7.7437   111.2499
 1433.5000     8.0124     7.6882   112.9562
 1434.0000     7.9843     7.6243   114.6514
 1434.5000     7.9973     7.6438   116.3677
 1435.0000     8.0067     7.6674   116.8912
 1435.5000     8.0160     7.6911   116.2258
 1436.0000     8.0253     7.7149   113.5825
 1436.5000     8.0345     7.7386   111.4748
 1437.0000     8.0435     7.7659   110.4315
 1437.5000     8.0531     7.7174   111.6490
 1438.0000     8.0582     7.6608   112.8474
 1438.5000     7.8893     7.6042   112.8866
 1439.0000     7.7750     7.5481   112.6707
 1439.5000     7.6242     7.4926   113.2576
 1440.0000     7.6298     7.4847   118.0194
 1440.5000     7.6384     7.5006   121.6842
 1441.0000     7.6471     7.5132   120.9280
 1441.5000     7.6557     7.5259   117.7946
 1442.0000     7.6643     7.5385   114.7519
 1442.5000     7.6730     7.5512   112.2120
 1443.0000     7.6816     7.5639   110.3093
 1443.5000     7.6904     7.5767   108.4012
 1444.0000     7.7090     7.5894   106.5123
 1444.5000     7.7649     7.6021   107.4330
 1445.0000     7.8204     7.6151   110.1362
 1445.5000     7.8382     7.6240   112.8271
 1446.0000     7.7670     7.5881   115.5055
 1446.5000     7.7194     7.5601   117.4918
 1447.0000     7.6793     7.5322   116.3303
 1447.5000     7.6483     7.5043   113.8989
 1448.0000     7.6172     7.4766   111.4824
 1448.5000     7.5861     7.4490   109.9922
 1449.0000     7.5553     7.4215   109.4835
 1449.5000     7.5245     7.3941   108.9752
 1450.0000     7.4847     7.3667   108.9763
 1450.5000     7.5379     7.3474   114.3137
 1451.0000     7.6144     7.3482   119.6881
 1451.5000     7.6916     7.3478   118.0906
 1452.0000     7.7696     7.4464   111.6305
 1452.5000     7.8484     7.5552   112.5965
 1453.0000     7.9280     7.6656   115.2671
 1453.5000     8.0084     7.7068   114.9540
 1454.0000     8.0896     7.7231   111.7058
 1454.5000     8.1717     7.7394   108.4395
 1455.0000     8.2836     7.7558   105.1432
 1455.5000     8.4204     7.8337   103.8378
 1456.0000     8.5595     8.0222   106.0831
