~VERSION INFORMATION
 VERS.                2.0:   CWLS LOG ASCII STANDARD - VERSION 2.0
 WRAP.                 NO:   ONE LINE PER DEPTH STEP
~WELL INFORMATION
#MNEM.UNIT      DATA TYPE    INFORMATION
#----------   ------------   ------------------------------
 STRT.F           36.0000:   START DEPTH
 STOP.F          521.0000:   STOP DEPTH
 STEP.F            0.5000:   STEP LENGTH
 NULL.          -999.2500:   NO VALUE
 COMP. FENIX & SCISSON INC:   COMPANY
 WELL.        NPR-3 #36-3:   WELL
 FLD .             TEAPOT:   FIELD
 LOC .       S3 T38N R78W:   LOCATION
 CNTY.            NATRONA:   COUNTY
 STAT.            WYOMING:   STATE
 CTRY. UNITED STATES OF AMERICA:   COUNTRY
 SRVC.            Unknown:   SERVICE COMPANY
 DATE.        09-JUL-1978:   LOGDATE
 API .       490251066200:   API NUMBER
~CURVE INFORMATION
#MNEM.UNIT       API CODE    CURVE DESCRIPTION
#----------   ------------   ------------------------------
 DEPT.F                  :   
 CALD.IN     45 280 60 00:   CALIPER FROM DENSITY LOG
 GRD .GAPI   45 310 01 00:   GAMMA RAY FROM DENSITY LOG
 CORR.G/C3   45 356 01 00:   DENSITY CORRECTION
 DPHI.DEC    45 890 12 00:   DENSITY POROSITY SANDSTONE
 RHOB.G/C3   45 350 01 00:   BULK DENSITY
 SPR .MV     07 010 01 00:   SPONTANEOUS POTENTIAL
 ILD .OHMM   07 120 46 00:   INDUCTION LOG DEEP
 SN  .OHMM   07 040 16 00:   SHORT NORMAL 16"
~PARAMETER INFORMATION
#MNEM.UNIT          VALUE    DESCRIPTION
#----------   ------------   ------------------------------
 PD  .                 GL:   PERMANENT DATUM
 EPD .F              5216:   ELEVATION PERMANENT DATUM
 LMF .                 KB:   LOG MEASURED FROM
 DAPD.F                 4:   FEET ABOVE PERMANENT DATUM
 DMF .                 KB:   DRILLING MEASURED FROM
 EKB .F              5220:   KELLING BUSHING
 EGL .F              5216:   GROUND LEVEL
 DATE.        09-JUL-1978:   RUN DATE
 RUN .                  1:   RUN NUMBER
 DD  .F               520:   DEPTH DRILLER
 DL  .F               524:   DEPTH LOGGER
 BLI .F               519:   BOTTOM LOG INTERVAL
 TLI .F                50:   TOP LOG INTERVAL
 CS  .IN            8.625:   CASING SIZE
 CBD .F                40:   CASING BOTTOM DRILLER
 BS  .IN            7.875:   BIT SIZE
 BSD .F               520:   BIT SIZE AT DEPTH
 DFT .                KCL:   DRILLING FLUID TYPE
 DFD .                8.6:   DRILLING FLUID DENSITY
 DFV .                 32:   DRILLING FLUID VISCOSITY
 DFPH.                9.5:   DRILLING FLUID PH
 DFL .               14.4:   DRILLING FLUID LOSS
 MSS .           FLOWLINE:   MUD SAMPLE SOURCE
 RMS .OHMM           0.24:   RESISTIVITY MUD SAMPLE
 MST .F                70:   MUD SAMPLE TEMPERATURE
 RMF .OHMM           0.24:   RESISTIVITY MUD FILTRATE SAMPLE
 MFST.F                70:   MUD FILTRATE SAMPLE TEMPERATURE
 RMC .OHMM           0.42:   RESISTIVITY MUD CAKE
 MCST.F                72:   MUD CAKE SAMPLE TEMPERATURE
 MFSS.               MEAS:   MUD FILTRATE SAMPLE SOURCE
 BHT .F                80:   BOTTOM HOLE TEMPERATURE
 TCS .HRS               3:   TIME CURCULATED STOPPED
 MRT .F                80:   MAXIMUM RECORDED TEMPERATURE
 LUN .               2958:   LOGGING UNIT NUMBER
 LUL .               CASP:   LOGGING UNIT LOCATION
 ENGI.             MILLER:   RECORDING ENGINEER
 WITN.           MCGINLEY:   WITNESSED BY
 CLNT.            A2DTECH:   CLIENT CODE
 ORIG.           5" PRINT:   ORIGIN OF DATA
 UWI .       490251066200:   UNIQUE WELL ID
 DICO. A2D Technologies, Inc.:   DIGITIZING COMPANY
~OTHER INFORMATION
~A   DEPT     CALD        GRD       CORR       DPHI       RHOB        SPR        ILD         SN   
   36.0000  -999.2500  -999.2500  -999.2500  -999.2500  -999.2500  -999.2500  -999.2500  -999.2500
   36.5000  -999.2500    70.1822  -999.2500  -999.2500  -999.2500  -999.2500  -999.2500  -999.2500
   37.0000  -999.2500    73.4667  -999.2500  -999.2500  -999.2500  -999.2500  -999.2500  -999.2500
   37.5000  -999.2500    78.5396  -999.2500  -999.2500  -999.2500  -999.2500  -999.2500  -999.2500
   38.0000  -999.2500    80.3338  -999.2500  -999.2500  -999.2500  -999.2500  -999.2500  -999.2500
   38.5000  -999.2500    79.0358  -999.2500  -999.2500  -999.2500  -999.2500  -999.2500  -999.2500
   39.0000  -999.2500    72.9935  -999.2500  -999.2500  -999.2500  -999.2500  -999.2500  -999.2500
   39.5000  -999.2500    70.8133  -999.2500  -999.2500  -999.2500  -999.2500  -999.2500  -999.2500
   40.0000  -999.2500    71.4168  -999.2500  -999.2500  -999.2500  -999.2500  -999.2500  -999.2500
   40.5000     8.2021    72.0173  -999.2500  -999.2500  -999.2500  -999.2500  -999.2500  -999.2500
   41.0000     8.2179    70.3852  -999.2500  -999.2500  -999.2500  -999.2500  -999.2500  -999.2500
   41.5000     8.2339    70.0915  -999.2500  -999.2500  -999.2500  -999.2500  -999.2500  -999.2500
   42.0000     8.2496    70.3969  -999.2500  -999.2500  -999.2500  -999.2500  -999.2500  -999.2500
   42.5000     8.2654    69.8066  -999.2500  -999.2500  -999.2500  -999.2500  -999.2500  -999.2500
   43.0000     8.2663    64.1493  -999.2500  -999.2500  -999.2500  -999.2500  -999.2500  -999.2500
   43.5000     8.2520    60.8764  -999.2500  -999.2500  -999.2500  -999.2500  -999.2500  -999.2500
   44.0000     8.2231    59.5410  -999.2500  -999.2500  -999.2500  -999.2500  -999.2500  -999.2500
   44.5000     8.1795    59.0997  -999.2500  -999.2500  -999.2500  -999.2500  -999.2500  -999.2500
   45.0000     8.1207    59.5777  -999.2500  -999.2500  -999.2500  -999.2500  -999.2500  -999.2500
   45.5000     8.1067    60.0071  -999.2500  -999.2500  -999.2500  -999.2500  -999.2500  -999.2500
   46.0000     9.4041    58.9697  -999.2500  -999.2500  -999.2500  -999.2500  -999.2500  -999.2500
   46.5000     9.0026    57.3362     0.3032     0.3190     1.9534  -999.2500  -999.2500  -999.2500
   47.0000     9.9128    57.1915     0.2643     0.3193     1.9512  -999.2500  -999.2500  -999.2500
   47.5000    10.4798    57.1988     0.2016     0.3198     1.9504  -999.2500  -999.2500  -999.2500
   48.0000     8.3944    59.5892     0.1957     0.2696     2.0716  -999.2500     3.3556  -999.2500
   48.5000     9.6025    64.9601     0.1434     0.2585     2.1026  -999.2500     3.3549  -999.2500
   49.0000     8.9178    64.8167     0.1420     0.2713     2.0708     5.4393     3.3540  -999.2500
   49.5000     8.7696    64.9718     0.1721     0.2812     2.0463     5.4338     3.3531  -999.2500
   50.0000     8.5320    66.0209     0.1557     0.2638     2.0912     5.5814     3.3292     0.7981
   50.5000     9.4345    66.4863     0.1513     0.2653     2.0845     5.5760     3.3054     0.7926
   51.0000     8.5340    68.6657     0.1963     0.2650     2.0883     5.5716     3.3043     0.7926
   51.5000     8.4750    74.0875     0.1350     0.2584     2.3506     5.5907     3.3034     0.7926
   52.0000     9.5340    81.6940     0.0229     0.2198     2.2864     5.7138     3.3254     0.7926
   52.5000     8.0597    85.1275     0.0499     0.1986     2.3500     5.7083     3.3708     0.7926
   53.0000     7.9861    84.0901     0.0503     0.1976     2.3605     5.7040     3.5125     0.7926
   53.5000     8.1805    83.0528     0.0756     0.1803     2.4188     5.6996     3.9796     0.7926
   54.0000     8.2263    82.7591     0.0592     0.1396     2.4555     5.3936     4.5330     0.7926
   54.5000     8.1228    84.7038     0.0204     0.1468     2.4458     0.1786     4.9235     0.7926
   55.0000     8.0641    89.9257     0.0265     0.1474     2.4518    -2.3085     5.1662     0.7926
   55.5000     8.1246    92.1670     0.0356     0.1336     2.4653    -3.5194     5.3463     0.7926
   56.0000     8.1704    92.0238     0.0312     0.1288     2.4713    -4.5796     5.7978     0.7926
   56.5000     8.1861    92.0422     0.0238     0.1306     2.4640    -5.3381     6.4837     0.7926
   57.0000     7.9933    92.1848     0.0234     0.1375     2.4520    -7.1524     6.7099     0.7926
   57.5000     7.8151    92.3394     0.0375     0.1395     2.4587    -9.4897     6.5252     0.7926
   58.0000     7.8758    90.8564     0.0361     0.1374     2.4640   -11.5362     6.3456     0.7926
   58.5000     7.9661    90.8623     0.0437     0.1338     2.4603   -13.0489     6.0028     0.7926
   59.0000     8.1756    90.2720     0.0423     0.1278     2.4715   -13.8074     6.0001     0.7926
   59.5000     8.3259    89.9783     0.0409     0.1290     2.4701   -13.9625     6.1355     0.7926
   60.0000     8.3244    91.0288     0.0425     0.1392     2.4596   -13.8160     6.4267     0.8037
   60.5000     8.2529    92.5250     0.0501     0.1376     2.4573   -13.8205     6.5595     3.3433
   61.0000     8.1942    93.2760     0.0682     0.1310     2.4649   -13.6750     6.6951     1.9896
   61.5000     8.0758    89.7050     0.0833     0.1292     2.4769   -13.2269     6.7865     1.2006
   62.0000     7.9575    87.9225     0.0938     0.1306     2.4710   -12.7787     6.8791     2.6978
   62.5000     7.9432    88.8351     0.1164     0.1169     2.4912   -13.0847     6.8772     1.4982
   63.0000     7.8400    89.5986     0.1285     0.1013     2.5152   -13.3907     6.8753     2.5349
   63.5000     7.6173    89.2828     0.1151     0.0956     2.4920   -13.8477     6.8258     3.0346
   64.0000     7.4543    88.5420     0.0763     0.1377     2.4585   -13.8530     6.7303     1.4776
   64.5000     7.3345    88.9964     0.0507     0.1547     2.4241   -13.8574     6.7756     2.6424
   65.0000     7.2774    89.7474     0.0495     0.1562     2.4226   -13.8617     6.8681     1.7325
   65.5000     7.3080    89.6027     0.0377     0.1578     2.4294   -13.8661     7.1071     2.6792
   66.0000     7.4281    90.0571     0.0273     0.1714     2.4040   -13.8704     7.4087     3.1852
   66.5000     7.2502    89.1688     0.0379     0.1696     2.4078   -13.8749     7.8243     2.3491
   67.0000     7.2660    87.0882     0.0575     0.1558     2.4407   -13.8802     8.0971     2.9929
   67.5000     7.5947    83.6663     0.0486     0.1277     2.4933   -14.0354     8.3218     1.3788
   68.0000     7.9979    77.7109     0.0367     0.1082     2.5043   -13.8878     8.6121     3.5581
   68.5000     8.2373    75.4812     0.0278     0.1118     2.4984   -13.8932     8.7907     4.2595
   69.0000     8.2930    77.2260     0.0399     0.1204     2.4865   -13.8976     8.9719     3.2073
   69.5000     8.3286    83.2440     0.0460     0.1243     2.4761   -13.9019     9.0975     1.8956
   70.0000     8.3443    86.5285     0.0461     0.1267     2.4671   -13.9074     9.1548     2.7735
   70.5000     8.4048    85.1931     0.0477     0.1308     2.4649   -13.9117     9.0888     2.8317
   71.0000     8.1225    84.4523     0.0543     0.1342     2.4627   -13.9160     8.8387     3.3039
   71.5000     8.0626    84.9067     0.0734     0.1335     2.4657   -13.9204     8.4775     4.6928
   72.0000     8.0796    86.9990     0.0780     0.1212     2.4792   -13.9247     8.1874     3.8395
   72.5000     8.0020    86.8543     0.0676     0.1185     2.4875   -13.9291     7.9621     6.0203
   73.0000     7.9027    86.7124     0.0542     0.1250     2.4808   -13.9345     8.0841     7.5647
   73.5000     7.8142    86.5693     0.0364     0.1361     2.4620   -13.9389     8.4684     8.2197
   74.0000     7.7256    86.8733     0.0245     0.1381     2.4584   -13.9432     8.5249     8.5681
   74.5000     7.6666    88.3696     0.0231     0.1357     2.4615   -13.9476     8.5220     8.6276
   75.0000     7.6677    88.3756     0.0239     0.1399     2.4540   -13.9519     8.5198     8.5090
   75.5000     7.6388    88.3826     0.0248     0.1428     2.4473   -13.9563     8.5175     8.4504
   76.0000     7.5652    86.7491     0.0294     0.1404     2.4564   -13.9608     8.5152     8.4504
