~VERSION INFORMATION
 VERS.                2.0:   CWLS LOG ASCII STANDARD - VERSION 2.0
 WRAP.                 NO:   ONE LINE PER DEPTH STEP
~WELL INFORMATION
#MNEM.UNIT      DATA TYPE    INFORMATION
#----------   ------------   ------------------------------
 STRT.F           22.0000:   START DEPTH
 STOP.F          500.0000:   STOP DEPTH
 STEP.F            0.5000:   STEP LENGTH
 NULL.          -999.2500:   NO VALUE
 COMP.    FENIX & SCISSON:   COMPANY
 WELL.      NPR-3 #65S3-3:   WELL
 FLD .             teapot:   FIELD
 LOC .       S3 T38N R78W:   LOCATION
 CNTY.            NATRONA:   COUNTY
 STAT.            WYOMING:   STATE
 CTRY. UNITED STATES OF AMERICA:   COUNTRY
 SRVC.           BIRDWELL:   SERVICE COMPANY
 DATE.        07-JAN-1978:   LOGDATE
 API .       490251055200:   API NUMBER
~CURVE INFORMATION
#MNEM.UNIT       API CODE    CURVE DESCRIPTION
#----------   ------------   ------------------------------
 DEPT.F                  :   
 ILD .OHMM   05 120 46 00:   INDUCTION LOG DEEP
 SN  .OHMM   05 040 16 00:   SHORT NORMAL 16"
 SPR .MV     05 010 01 00:   SPONTANEOUS POTENTIAL FROM RES.
 CALD.IN     45 280 60 00:   CALIPER FROM DENSITY LOG
 DPHI.DEC    45 890 12 00:   DENSITY POROSITY SANDSTONE
 DRHO.G/C3   45 356 01 00:   DENSITY CORRECTION
 GRD .GAPI   45 310 01 00:   GAMMA RAY FROM DENSITY LOG
 RHOB.G/C3   45 350 01 00:   BULK DENSITY
~PARAMETER INFORMATION
#MNEM.UNIT          VALUE    DESCRIPTION
#----------   ------------   ------------------------------
 PD  .                 GL:   PERMANENT DATUM
 EPD .F              5156:   ELEVATION PERMANENT DATUM
 LMF .                 KB:   LOG MEASURED FROM
 DAPD.F                 4:   FEET ABOVE PERMANENT DATUM
 DMF .                 KB:   DRILLING MEASURED FROM
 EKB .F              5160:   KELLING BUSHING
 EGL .F              5156:   GROUND LEVEL
 DATE.        07-JAN-1978:   RUN DATE
 RUN .                  1:   RUN NUMBER
 DD  .F               500:   DEPTH DRILLER
 DL  .F               502:   DEPTH LOGGER
 BLI .F               500:   BOTTOM LOG INTERVAL
 TLI .F                30:   TOP LOG INTERVAL
 CS  .IN            8.625:   CASING SIZE
 CBD .F                40:   CASING BOTTOM DRILLER
 CBL .F                40:   CASING BOTTOM LOGGER
 BS  .IN            7.875:   BIT SIZE
 BSD .F               500:   BIT SIZE AT DEPTH
 DFT .                KCL:   DRILLING FLUID TYPE
 DFD .                8.6:   DRILLING FLUID DENSITY
 DFV .                 33:   DRILLING FLUID VISCOSITY
 DFPH.                9.0:   DRILLING FLUID PH
 DFL .                7.6:   DRILLING FLUID LOSS
 MSS .           FLOWLINE:   MUD SAMPLE SOURCE
 RMS .OHMM           0.23:   RESISTIVITY MUD SAMPLE
 MST .F                60:   MUD SAMPLE TEMPERATURE
 RMF .OHMM            2.2:   RESISTIVITY MUD FILTRATE SAMPLE
 MFST.F                60:   MUD FILTRATE SAMPLE TEMPERATURE
 RMC .OHMM            3.4:   RESISTIVITY MUD CAKE
 MCST.F                60:   MUD CAKE SAMPLE TEMPERATURE
 MFSS.               MEAS:   MUD FILTRATE SAMPLE SOURCE
 MCSS.               MEAS:   MUD CAKE SAMPLE SOURCE
 RMB .OHMM            1.9:   RESISTIVITY MUD AT BHT
 BHT .F                71:   BOTTOM HOLE TEMPERATURE
 TCS .HRS               8:   TIME CURCULATED STOPPED
 MRT .F                71:   MAXIMUM RECORDED TEMPERATURE
 LUN .               2958:   LOGGING UNIT NUMBER
 LUL .             CASPER:   LOGGING UNIT LOCATION
 ENGI.            POINTER:   RECORDING ENGINEER
 WITN.      DAVE MCGINLEY:   WITNESSED BY
 CLNT.            A2DTECH:   CLIENT CODE
 ORIG.           5" PRINT:   ORIGIN OF DATA
 UWI .       490251055200:   UNIQUE WELL ID
 DICO. A2D Technologies, Inc.:   DIGITIZING COMPANY
~OTHER INFORMATION
~A   DEPT      ILD         SN        SPR       CALD       DPHI       DRHO         GRD      RHOB   
# ...
  305.5000    24.8684    25.8651   -26.4457     8.0389     0.1924     0.0197    74.4183     2.3337
  306.0000    24.3268    25.4805   -26.6147     8.0389     0.1903     0.0009    75.3229     2.3188
  306.5000    23.4672    24.7535   -26.9363     8.0389     0.1731     0.0221    76.2274     2.3414
  307.0000    22.4806    24.3855   -27.2600     8.0389     0.1624     0.0184    77.4296     2.3744
  307.5000    21.9858    24.1912   -27.6005     8.0389     0.1584     0.0063    78.3342     2.3797
  308.0000    21.5113    24.1620   -27.9053     8.0389     0.1626     0.0011    78.0482     2.3723
  308.5000    21.0379    23.9476   -27.3110     8.0389     0.1593     0.0162    76.8695     2.3769
  309.0000    20.5798    23.4474   -27.0178     8.0389     0.1584     0.0186    76.2857     2.3942
  309.5000    20.1316    23.0987   -26.8855     8.0389     0.1614     0.0125    77.4881     2.3905
  310.0000    19.8311    22.7553   -26.9019     8.0389     0.1629     0.0043    78.3929     2.3853
  310.5000    19.5350    22.5759   -27.0708     8.0389     0.1650     0.0028    78.1067     2.3764
  311.0000    19.5138    22.5523   -27.2398     8.0389     0.1671     0.0030    77.5261     2.3674
  311.5000    19.4849    22.5244   -27.1034     8.0389     0.1668     0.0061    77.2373     2.3630
  312.0000    19.6079    22.6649   -26.8144     8.0389     0.1619     0.0150    76.9514     2.3678
  312.5000    19.5866    22.8006   -26.6780     8.0389     0.1559     0.0204    77.2636     2.3807
  313.0000    19.7023    22.6132   -26.6984     8.0389     0.1568     0.0189    77.2753     2.3834
  313.5000    19.5388    22.5903   -26.8674     8.0389     0.1589     0.0190    77.5817     2.3790
  314.0000    19.3819    22.7262   -27.4944     8.0389     0.1607     0.0205    77.2958     2.3805
  314.5000    19.3609    22.7024   -27.2053     8.0389     0.1610     0.0198    76.1199     2.3738
  315.0000    19.3398    22.6786   -27.3743     8.0389     0.1607     0.0207    74.9382     2.3754
  315.5000    19.4549    22.6506   -27.3908     8.0389     0.1601     0.0244    74.0595     2.3777
  316.0000    19.5693    22.7920   -27.2543     8.0389     0.1604     0.0252    72.5836     2.3785
  316.5000    19.9614    22.9284   -27.5800     8.0389     0.1680     0.0245    71.7024     2.3666
  317.0000    20.4985    22.8993   -27.9016     8.0389     0.1691     0.0261    72.3095     2.3591
  317.5000    21.0558    23.0422   -28.2233     8.0389     0.1697     0.0276    72.9862     2.3622
  318.0000    21.3343    23.0130   -28.2396     8.0389     0.1784     0.0261    75.6095     2.3630
  318.5000    21.4604    22.8296   -28.4086     8.0389     0.1829     0.0217    77.1093     2.3569
  319.0000    21.4313    22.4894   -28.4249     8.0389     0.1819     0.0104    78.3115     2.3402
  319.5000    21.5638    22.3054   -28.5939     8.0389     0.1777     0.0067    79.2160     2.3362
  320.0000    21.5345    21.9737   -28.4886     8.0389     0.1732     0.0112    79.5254     2.3460
  320.5000    21.5112    21.6470   -27.5577     8.0389     0.1684     0.0158    79.8347     2.3521
  321.0000    21.1895    21.1767   -27.8835     8.0389     0.1666     0.0166    79.5458     2.3664
  321.5000    20.5789    21.0080   -28.0524     8.0389     0.1678     0.0144    79.5605     2.3672
  322.0000    19.7137    20.8407   -28.2214     8.0389     0.1714     0.0076    79.5722     2.3635
  322.5000    19.4194    20.8194   -28.3904     8.0389     0.1672     0.0084    79.5839     2.3598
  323.0000    18.9965    20.7976   -28.2534     8.0389     0.1657     0.0092    79.8932     2.3636
  323.5000    18.5828    20.7720   -27.6597     8.0389     0.1653     0.0100    79.9049     2.3704
  324.0000    18.4336    20.7510   -27.5233     8.0389     0.1671     0.0077    79.9167     2.3720
  324.5000    18.1584    20.7299   -27.5437     8.0389     0.1734     0.0010    79.6307     2.3630
  325.0000    18.0126    20.5648   -27.8653     8.0389     0.1801    -0.0004    79.9405     2.3481
  325.5000    17.9925    20.5439   -28.0343     8.0389     0.1788     0.0004    79.9546     2.3474
  326.0000    18.0944    20.5230   -28.3559     8.0389     0.1758     0.0020    79.3711     2.3483
  326.5000    18.2063    20.6459   -28.3722     8.0389     0.1675     0.0043    78.7875     2.3543
  327.0000    18.4371    20.6240   -28.5412     8.0389     0.1629     0.0104    78.4987     2.3626
  327.5000    18.5461    20.5988   -28.4049     8.0389     0.1650     0.0149    78.2128     2.3732
  328.0000    18.6557    20.5779   -28.7349     8.0389     0.1686     0.0142    77.9298     2.3740
  328.5000    18.6354    20.4139   -29.0489     8.0389     0.1671     0.0158    77.9415     2.3598
  329.0000    18.6152    20.2513   -28.9118     8.0389     0.1691     0.0166    77.6526     2.3613
  329.5000    18.4630    20.2308   -28.7754     8.0389     0.1673     0.0113    77.3667     2.3666
  330.0000    18.1894    20.2102   -29.2538     8.0389     0.1706     0.0046    77.6790     2.3607
  330.5000    18.0391    20.1894   -29.1134     8.0389     0.1697     0.0031    78.2859     2.3622
  331.0000    17.8942    20.0238   -28.8243     8.0389     0.1709     0.0032    78.8949     2.3608
  331.5000    17.7505    19.8643   -28.8447     8.0389     0.1727     0.0032    79.2024     2.3624
  332.0000    17.6079    19.5689   -28.8651     8.0389     0.1736    -0.0005    78.9162     2.3571
  332.5000    17.2245    19.4130   -29.3353     8.0389     0.1714    -0.0020    79.2285     2.3565
  333.0000    17.0862    19.3933   -29.0463     8.0389     0.1654     0.0003    79.8354     2.3628
  333.5000    16.9489    19.5094   -29.2193     8.0389     0.1595     0.0019    80.1447     2.3739
  334.0000    16.6957    19.3540   -29.3883     8.0389     0.1543     0.0081    80.4541     2.3837
  334.5000    16.5612    19.0659   -28.9425     8.0389     0.1525     0.0110    79.2753     2.3897
  335.0000    16.1968    18.9095   -28.8062     8.0389     0.1519     0.0096    78.9864     2.3928
  335.5000    15.8440    18.7589   -29.2846     8.0389     0.1525     0.0134    78.7005     2.3929
  336.0000    15.6075    18.7399   -29.6062     8.0389     0.1552     0.0127    78.1170     2.3922
  336.5000    15.4822    18.7209   -29.6229     8.0389     0.1714    -0.0008    77.8311     2.3877
  337.0000    15.1450    18.3142   -29.7956     8.0389     0.1702    -0.0061    78.1433     2.3615
  337.5000    15.1286    18.1683   -29.9646     8.0389     0.1663    -0.0045    78.7502     2.3578
  338.0000    15.2182    18.0235   -29.9809     8.0389     0.1558     0.0038    79.0596     2.3624
  338.5000    15.1949    17.8796   -29.9972     8.0389     0.1540     0.0069    79.3859     2.3835
  339.0000    14.8518    17.7330   -30.0135     8.0389     0.1543     0.0009    80.2738     2.3933
  339.5000    14.7470    17.7150   -29.8730     8.0389     0.1560     0.0002    81.1809     2.3841
  340.0000    14.7310    17.5739   -30.5041     8.0389     0.1584    -0.0005    81.4902     2.3829
  340.5000    14.7150    17.5561   -30.8341     8.0389     0.1620    -0.0035    81.5019     2.3822
  341.0000    14.6990    17.4162   -30.9954     8.0389     0.1656    -0.0072    81.5136     2.3778
  341.5000    14.6831    17.5211   -31.1678     8.0389     0.1671    -0.0072    81.5253     2.3696
  342.0000    14.6672    17.6254   -31.1841     8.0389     0.1620    -0.0034    81.2365     2.3666
  342.5000    14.6512    17.6070   -31.0477     8.0389     0.1524     0.0035    80.6530     2.3772
  343.0000    14.6269    17.5851   -30.7546     8.0389     0.1560     0.0058    80.3670     2.3863
  343.5000    14.2132    17.5673   -30.7750     8.0389     0.1527     0.0066    80.9769     2.3871
  344.0000    14.0010    17.4273   -30.9439     8.0389     0.1470     0.0112    81.5838     2.3939
  344.5000    13.7920    17.2885   -30.8076     8.0389     0.1454     0.0112    82.4884     2.3999
  345.0000    13.7771    17.1508   -30.9975     8.0389     0.1433     0.0105    83.0953     2.4053
  345.5000    13.6664    17.1334   -31.1496     8.0389     0.1397     0.0105    84.6061     2.4128
