~VERSION INFORMATION
 VERS.                2.0:   CWLS LOG ASCII STANDARD - VERSION 2.0
 WRAP.                 NO:   ONE LINE PER DEPTH STEP
~WELL INFORMATION
#MNEM.UNIT      DATA TYPE    INFORMATION
#----------   ------------   ------------------------------
 STRT.F           92.0000:   START DEPTH
 STOP.F          810.0000:   STOP DEPTH
 STEP.F            0.5000:   STEP LENGTH
 NULL.          -999.2500:   NO VALUE
 COMP. U S NAVY/INTEX OIL CO:   COMPANY
 WELL. NPR #3 #86 S 34-34:   WELL
 FLD .        EAST TEAPOT:   FIELD
 LOC .      S34 T39N R78W:   LOCATION
 CNTY.            NATRONA:   COUNTY
 STAT.            WYOMING:   STATE
 CTRY. UNITED STATES OF AMERICA:   COUNTRY
 SRVC. Schlumberger Well Surveying Corp:   SERVICE COMPANY
 DATE.        22-JUL-1962:   LOGDATE
 API .       490250652900:   API NUMBER
~CURVE INFORMATION
#MNEM.UNIT       API CODE    CURVE DESCRIPTION
#----------   ------------   ------------------------------
 DEPT.F                  :   
 GR  .GAPI   30 310 01 00:   GAMMA RAY
 SPR .MV     05 010 01 00:   SPONTANEOUS POTENTIAL FROM RES.
 CILD.MMHO   05 110 46 00:   CONDUCTIVITY INDUCTION LOG DEEP
 ASN .OHMM   05 041 16 00:   AMPLIFIED SHORT NORMAL 16"
 ILD .OHMM   05 120 46 00:   INDUCTION LOG DEEP
 CALM.IN     15 280 01 00:   CALIPER FROM MICRO LOG
~PARAMETER INFORMATION
#MNEM.UNIT          VALUE    DESCRIPTION
#----------   ------------   ------------------------------
 PD  .                 GL:   PERMANENT DATUM
 EPD .F              5094:   ELEVATION PERMANENT DATUM
 LMF .                 KB:   LOG MEASURED FROM
 DAPD.F                 5:   FEET ABOVE PERMANENT DATUM
 DMF .                 KB:   DRILLING MEASURED FROM
 EKB .F              5099:   KELLING BUSHING
 EGL .F              5094:   GROUND LEVEL
 DATE.            7-22-62:   RUN DATE
 RUN .                  1:   RUN NUMBER
 DD  .F               810:   DEPTH DRILLER
 DL  .F               811:   DEPTH LOGGER
 BLI .F               810:   BOTTOM LOG INTERVAL
 TLI .F               100:   TOP LOG INTERVAL
 BS  .IN             6.75:   BIT SIZE
 BSD .F               810:   BIT SIZE AT DEPTH
 DFT .                GEL:   DRILLING FLUID TYPE
 DFD .               10.3:   DRILLING FLUID DENSITY
 DFV .                 43:   DRILLING FLUID VISCOSITY
 RMS .OHMM              4:   RESISTIVITY MUD SAMPLE
 MST .F                75:   MUD SAMPLE TEMPERATURE
 RMF .OHMM            2.9:   RESISTIVITY MUD FILTRATE SAMPLE
 MFST.F                75:   MUD FILTRATE SAMPLE TEMPERATURE
 RMC .OHMM            3.8:   RESISTIVITY MUD CAKE
 MCST.F                75:   MUD CAKE SAMPLE TEMPERATURE
 TCS .HRS               1:   TIME CURCULATED STOPPED
 LUN .               2503:   LOGGING UNIT NUMBER
 ENGI.           ELLERMAN:   RECORDING ENGINEER
 WITN.          JORGENSON:   WITNESSED BY
 CLNT.            A2DTECH:   CLIENT CODE
 ORIG.   1", 2", 5" PRINT:   ORIGIN OF DATA
 UWI .       490250652900:   UNIQUE WELL ID
 DICO. A2D Technologies, Inc.:   DIGITIZING COMPANY
~OTHER INFORMATION
~A   DEPT       GR        SPR       CILD        ASN        ILD       CALM   
# ...
  352.0000  -999.2500   -36.9912   126.8073     8.7557     8.1468  -999.2500
  352.5000  -999.2500   -37.2547   134.8750     8.1798     7.8653  -999.2500
  353.0000  -999.2500   -37.5320   142.9427     7.8696     7.5842  -999.2500
  353.5000  -999.2500   -37.2016   147.9351     7.6506     7.3033  -999.2500
  354.0000  -999.2500   -36.7118   151.9690     7.4939     7.0214  -999.2500
  354.5000  -999.2500   -36.2224   155.2440     7.3389     6.7456  -999.2500
  355.0000  -999.2500   -35.9518   155.2440     7.1849     6.7496  -999.2500
  355.5000  -999.2500   -36.0446   155.2440     7.0749     6.8144  -999.2500
  356.0000  -999.2500   -36.1257   155.2440     7.0568     6.8807  -999.2500
  356.5000  -999.2500   -36.0861   153.7572     7.0723     6.9464  -999.2500
  357.0000  -999.2500   -35.8725   151.3736     7.0856     7.0119  -999.2500
  357.5000  -999.2500   -35.7455   148.9899     7.1958     7.0775  -999.2500
  358.0000  -999.2500   -35.9140   146.6062     7.3461     7.1430  -999.2500
  358.5000  -999.2500   -36.0806   144.2226     7.4939     7.2086  -999.2500
  359.0000  -999.2500   -35.9593   141.8389     7.6134     7.2741  -999.2500
  359.5000  -999.2500   -35.7167   139.6677     7.6949     7.3397  -999.2500
  360.0000  -999.2500   -35.4743   136.8121     7.6720     7.4052  -999.2500
  360.5000  -999.2500   -35.3311   134.3731     7.6452     7.4708  -999.2500
  361.0000  -999.2500   -35.4524   133.4319     7.6680     7.5363  -999.2500
  361.5000  -999.2500   -35.5680   132.4906     7.7238     7.6020  -999.2500
  362.0000  -999.2500   -35.6845   131.5494     7.7472     7.6680  -999.2500
  362.5000  -999.2500   -35.8015   130.6081     7.7704     7.7335  -999.2500
  363.0000  -999.2500   -35.9173   129.6669     7.8767     7.7367  -999.2500
  363.5000  -999.2500   -35.9022   128.7257     8.0064     7.7363  -999.2500
  364.0000  -999.2500   -35.8755   127.7844     8.0918     7.7362  -999.2500
  364.5000  -999.2500   -35.8491   127.2066     8.0945     7.7362  -999.2500
  365.0000  -999.2500   -35.8230   127.2066     8.0986     7.7362  -999.2500
  365.5000  -999.2500   -35.7968   127.5960     8.1026     7.7363  -999.2500
  366.0000  -999.2500   -35.7707   129.4689     8.1072     7.7362  -999.2500
  366.5000  -999.2500   -35.7440   131.3418     8.1053     7.7367  -999.2500
  367.0000  -999.2500   -35.7149   133.2147     7.9796     7.7042  -999.2500
  367.5000  -999.2500   -35.8314   135.0875     7.8510     7.6547  -999.2500
  368.0000  -999.2500   -35.9711   136.9604     7.7232     7.6048  -999.2500
  368.5000  -999.2500   -36.1108   138.8333     7.5951     7.5548  -999.2500
  369.0000  -999.2500   -36.1285   140.7061     7.5108     7.5048  -999.2500
  369.5000  -999.2500   -36.1275   142.5790     7.5384     7.4548  -999.2500
  370.0000  -999.2500   -36.1369   141.7446     7.5740     7.4048  -999.2500
  370.5000  -999.2500   -36.3019   141.9075     7.6093     7.3556  -999.2500
  371.0000  -999.2500   -36.1027   142.0883     7.5447     7.3272  -999.2500
  371.5000  -999.2500   -35.7832   142.2691     7.4704     7.3510  -999.2500
  372.0000  -999.2500   -35.5800   142.4500     7.3962     7.3737  -999.2500
  372.5000  -999.2500   -36.1872   142.6302     7.3850     7.3965  -999.2500
  373.0000  -999.2500   -36.7788   142.6799     7.4508     7.4193  -999.2500
  373.5000  -999.2500   -36.9908   141.9910     7.5162     7.4421  -999.2500
  374.0000  -999.2500   -36.0543   141.3072     7.5705     7.4649  -999.2500
  374.5000  -999.2500   -35.2810   140.6226     7.5630     7.4877  -999.2500
  375.0000  -999.2500   -35.2977   139.9386     7.5564     7.5105  -999.2500
  375.5000  -999.2500   -35.3000   139.2546     7.5486     7.5333  -999.2500
  376.0000  -999.2500   -35.3002   138.5706     7.6177     7.5561  -999.2500
  376.5000  -999.2500   -35.3000   137.8866     7.7029     7.5789  -999.2500
  377.0000  -999.2500   -35.3007   137.2026     7.6890     7.6017  -999.2500
  377.5000  -999.2500   -35.2969   136.5524     7.6552     7.6245  -999.2500
  378.0000  -999.2500   -35.5111   135.8655     7.7532     7.6473  -999.2500
  378.5000  -999.2500   -35.8260   135.0561     7.8452     7.6702  -999.2500
  379.0000  -999.2500   -36.1452   134.3342     7.8602     7.6935  -999.2500
  379.5000  -999.2500   -36.4658   133.8064     7.8773     7.7148  -999.2500
  380.0000  -999.2500   -36.7458   133.4372     7.9168     7.6846  -999.2500
  380.5000  -999.2500   -36.3716   131.9252     8.0614     7.7134  -999.2500
  381.0000  -999.2500   -35.9429   130.2471     8.0690     7.8018  -999.2500
  381.5000  -999.2500   -35.9167   128.5691     8.0714     7.8920  -999.2500
  382.0000  -999.2500   -36.2338   126.8910     8.2075     7.9817  -999.2500
  382.5000  -999.2500   -36.8472   125.1298     8.3698     8.0712  -999.2500
  383.0000  -999.2500   -36.2972   124.5317     8.5028     8.1607  -999.2500
  383.5000  -999.2500   -36.0913   123.9024     8.6181     8.2504  -999.2500
  384.0000  -999.2500   -36.5332   123.2731     8.7286     8.3418  -999.2500
  384.5000  -999.2500   -36.9846   122.6438     8.7142     8.3704  -999.2500
  385.0000  -999.2500   -37.0771   122.0145     8.6899     8.3848  -999.2500
  385.5000  -999.2500   -36.9421   121.8203     8.6526     8.3988  -999.2500
  386.0000  -999.2500   -36.8000   121.6261     8.6142     8.4129  -999.2500
  386.5000  -999.2500   -36.8386   121.4319     8.6418     8.4270  -999.2500
  387.0000  -999.2500   -36.9742   121.2376     8.6925     8.4408  -999.2500
  387.5000  -999.2500   -37.1235   121.0434     8.8147     8.4556  -999.2500
  388.0000  -999.2500   -36.7364   119.6435     8.9708     8.4970  -999.2500
  388.5000  -999.2500   -36.7666   117.6041     9.1283     8.6538  -999.2500
  389.0000  -999.2500   -37.0876   115.5648     9.2857     8.8058  -999.2500
  389.5000  -999.2500   -37.4104   113.5254     9.4387     8.9576  -999.2500
  390.0000  -999.2500   -37.3793   111.4861     9.5879     9.1094  -999.2500
  390.5000  -999.2500   -36.5283   109.4467     9.7313     9.2612  -999.2500
  391.0000  -999.2500   -36.3362   107.4074     9.8749     9.4131  -999.2500
  391.5000  -999.2500   -36.3424   105.3681    10.0297     9.5689  -999.2500
  392.0000  -999.2500   -35.8636   103.3287    10.2366     9.6785  -999.2500
  392.5000  -999.2500   -35.1327   101.2894    10.4150     9.7788  -999.2500
  393.0000  -999.2500   -35.4591    99.1693    10.5711     9.8783  -999.2500
  393.5000  -999.2500   -35.8582    98.1620    10.7250     9.9786  -999.2500
  394.0000  -999.2500   -36.2740    97.1132    10.8496    10.0478  -999.2500
  394.5000  -999.2500   -35.7860    96.0644    10.8134    10.0956  -999.2500
  395.0000  -999.2500   -35.5178    95.0156    10.7802    10.1183  -999.2500
  395.5000  -999.2500   -35.3674    95.9360    10.7473    10.0798  -999.2500
  396.0000  -999.2500   -35.1933    96.8564    10.7146    10.0423  -999.2500
  396.5000  -999.2500   -35.0191    97.7768    10.6819    10.0048  -999.2500
  397.0000  -999.2500   -34.8447    98.6973    10.6503     9.9673  -999.2500
  397.5000  -999.2500   -34.6577    99.6177    10.5842     9.9301  -999.2500
  398.0000  -999.2500   -34.4731   100.5381    10.5133     9.8794  -999.2500
  398.5000  -999.2500   -34.2886   101.4585    10.4423     9.8231  -999.2500
  399.0000  -999.2500   -34.1039   102.3789    10.3714     9.7663  -999.2500
  399.5000  -999.2500   -33.9199   103.2993    10.3004     9.7095  -999.2500
  400.0000  -999.2500   -33.7347   104.2198    10.2297     9.6527  -999.2500
  400.5000  -999.2500   -33.6751   105.1402    10.1585     9.5958  -999.2500
  401.0000  -999.2500   -33.7317   105.0739    10.1335     9.5398  -999.2500
  401.5000  -999.2500   -33.7897   104.6201    10.1489     9.5060  -999.2500
  402.0000  -999.2500   -33.8421   104.1662    10.1648     9.5224  -999.2500
  402.5000  -999.2500   -34.1289   103.7124    10.1808     9.5377  -999.2500
  403.0000  -999.2500   -34.4929   103.2585    10.1967     9.5532  -999.2500
  403.5000  -999.2500   -34.8601   102.8046    10.2127     9.5687  -999.2500
