~VERSION INFORMATION
 VERS.                2.0:   CWLS LOG ASCII STANDARD - VERSION 2.0
 WRAP.                 NO:   ONE LINE PER DEPTH STEP
~WELL INFORMATION
#MNEM.UNIT      DATA TYPE    INFORMATION
#----------   ------------   ------------------------------
 STRT.F           87.0000:   START DEPTH
 STOP.F          987.0000:   STOP DEPTH
 STEP.F            0.5000:   STEP LENGTH
 NULL.          -999.2500:   NO VALUE
 COMP.   FLUOR DANIEL INC:   COMPANY
 WELL. NAVAL PETROLEUM RESERVE 3 SH-2 #53-2:   WELL
 FLD .        TEAPOT DOME:   FIELD
 LOC .       S2 T38N R78W:   LOCATION
 CNTY.            NATRONA:   COUNTY
 STAT.            WYOMING:   STATE
 CTRY. UNITED STATES OF AMERICA:   COUNTRY
 SRVC. Schlumberger Well Surveying Corp:   SERVICE COMPANY
 DATE.        17-JUL-1963:   LOGDATE
 API .       490250645200:   API NUMBER
~CURVE INFORMATION
#MNEM.UNIT       API CODE    CURVE DESCRIPTION
#----------   ------------   ------------------------------
 DEPT.F                  :   
 GR  .GAPI   30 310 01 00:   GAMMA RAY
 SPR .MV     05 010 01 00:   SPONTANEOUS POTENTIAL
 CILD.MMHO   05 110 46 00:   CONDUCTIVITY INDUCTION LOG DEEP
 ILD .OHMM   05 120 46 00:   INDUCTION LOG DEEP
 ASN .OHMM   05 041 16 00:   AMPLIFIED SHORT NORMAL 16"
~PARAMETER INFORMATION
#MNEM.UNIT          VALUE    DESCRIPTION
#----------   ------------   ------------------------------
 PD  .                 GL:   PERMANENT DATUM
 EPD .F              5165:   ELEVATION PERMANENT DATUM
 LMF .                 KB:   LOG MEASURED FROM
 DAPD.F                 5:   FEET ABOVE PERMANENT DATUM
 DMF .                 KB:   DRILLING MEASURED FROM
 EKB .F              5170:   KELLING BUSHING
 EGL .F              5165:   GROUND LEVEL
 DATE.          7-17-1963:   RUN DATE
 RUN .                  1:   RUN NUMBER
 DD  .F               986:   DEPTH DRILLER
 DL  .F               987:   DEPTH LOGGER
 BLI .F               986:   BOTTOM LOG INTERVAL
 TLI .F                30:   TOP LOG INTERVAL
 CS  .IN            8.625:   CASING SIZE
 CBD .F                10:   CASING BOTTOM DRILLER
 BS  .IN            7.875:   BIT SIZE
 BSD .F               986:   BIT SIZE AT DEPTH
 DFT .            GEL-OIL:   DRILLING FLUID TYPE
 DFD .                9.4:   DRILLING FLUID DENSITY
 DFV .                 67:   DRILLING FLUID VISCOSITY
 DFPH.                8.5:   DRILLING FLUID PH
 DFL .                4.6:   DRILLING FLUID LOSS
 MSS .           FLOWLINE:   MUD SAMPLE SOURCE
 RMS .OHMM           3.37:   RESISTIVITY MUD SAMPLE
 MST .F                79:   MUD SAMPLE TEMPERATURE
 RMF .OHMM           1.49:   RESISTIVITY MUD FILTRATE SAMPLE
 MFST.F                83:   MUD FILTRATE SAMPLE TEMPERATURE
 MFSS.           MEASURED:   MUD FILTRATE SAMPLE SOURCE
 BHT .F                80:   BOTTOM HOLE TEMPERATURE
 TCS .HRS            0030:   TIME CURCULATED STOPPED
 MRT .F                80:   MAXIMUM RECORDED TEMPERATURE
 LUN .               4507:   LOGGING UNIT NUMBER
 LUL .              CSPR.:   LOGGING UNIT LOCATION
 ENGI.            WINKLER:   RECORDING ENGINEER
 WITN.          JORGENSON:   WITNESSED BY
 CLNT.            A2DTECH:   CLIENT CODE
 ORIG.      2" & 5" PRINT:   ORIGIN OF DATA
 UWI .       490250645200:   UNIQUE WELL ID
 DICO. A2D Technologies, Inc.:   DIGITIZING COMPANY
~OTHER INFORMATION
~A   DEPT       GR        SPR       CILD          ILD        ASN 
# ...
  453.0000    97.6158   -62.1455   144.5054     7.0960     7.8558
  453.5000    92.3254   -62.2584   137.6808     7.4286     7.9706
  454.0000    90.2045   -62.3713   130.8540     7.7613     8.0497
  454.5000    92.9609   -62.4842   124.0151     8.0940     8.1529
  455.0000    90.9630   -62.5970   117.1178     8.4258     8.2595
  455.5000    96.0957   -62.7114   114.0704     8.7608     8.3673
  456.0000    98.9900   -62.7214   114.0704     8.8923     8.4644
  456.5000    99.7670   -62.6773   114.3266     8.8956     8.3023
  457.0000    98.7331   -62.6321   115.5930     8.8282     8.1552
  457.5000    87.6255   -62.5868   116.8593     8.7218     8.0275
  458.0000    84.6750   -62.5416   119.5819     8.6250     7.8784
  458.5000    85.0917   -62.4965   126.1307     8.0575     7.6329
  459.0000    99.6443   -62.4513   141.2060     7.4211     7.3219
  459.5000   109.4268   -62.4062   172.1970     6.3692     7.0011
  460.0000   111.7637   -62.3610   219.8277     5.1283     6.6073
  460.5000   112.3381   -62.3158   279.1644     3.8690     5.9214
  461.0000   110.8636   -62.2707   338.5011     3.2028     5.1339
  461.5000   104.9272   -62.2255   393.4813     2.8147     4.3042
  462.0000   103.5302   -62.1804   443.7449     2.5378     3.8425
  462.5000    92.6506   -62.1352   498.9950     2.2851     3.5694
  463.0000    90.3565   -62.0900   514.2092     2.0671     3.3539
  463.5000    87.5405   -62.0449   518.5928     2.1985     3.1861
  464.0000    81.5614   -61.9992   462.4622     2.3255     3.2427
  464.5000    71.5294   -61.9521   406.7017     2.6607     3.5724
  465.0000    73.4687   -61.9487   349.1314     3.0710     3.9280
  465.5000    76.8982   -62.1113   290.5225     3.4797     4.3692
  466.0000    83.6950   -62.8509   227.1942     4.3346     5.5459
  466.5000    85.5313   -63.5341   166.9548     6.1163     7.0753
  467.0000    80.3379   -64.1991   121.3668     8.3419     8.2450
  467.5000    81.8162   -64.4002    92.2412    10.5749     9.1474
  468.0000    75.6959   -64.6132    77.0352    12.7757     9.9070
  468.5000    79.5636   -64.7614    70.8543    13.7018    10.2325
  469.0000    84.7188   -64.7592    71.8794    13.5301    10.2904
  469.5000    83.4173   -64.7018    78.9849    12.4344    10.2271
  470.0000    89.0378   -64.6006    90.1364    10.8602    10.1318
  470.5000    96.7606   -64.4987   114.0158     9.0114     9.9489
  471.0000   100.3535   -64.3986   137.8952     7.1384     9.5522
  471.5000   101.7444   -64.1794   160.7387     6.3080     8.6681
  472.0000    88.2204   -63.8904   170.9628     6.0182     7.5155
  472.5000    71.9506   -63.6001   173.6884     5.9391     6.6342
  473.0000    70.8981   -63.3092   175.7146     5.8935     6.6975
  473.5000    84.8452   -63.1459   177.7407     5.8474     6.7747
  474.0000    86.1439   -63.1877   178.3920     5.8075     6.7405
  474.5000    79.4280   -63.9276   172.3618     6.0868     7.5878
  475.0000    87.4653   -64.6498   149.6770     7.0279     8.7413
  475.5000    83.7481   -65.1973   122.9092     8.3282     9.6363
  476.0000    84.8314   -65.2801   106.7446     9.6087    10.1222
  476.5000    79.6376   -65.3739    95.1517    10.6565    10.3177
  477.0000    83.3716   -65.4649    89.6655    11.0957    10.5419
  477.5000    82.9261   -65.5655    87.7882    11.4180    10.7641
  478.0000    83.1016   -65.9026    85.8633    11.6342    10.9876
  478.5000    89.7448   -66.2594    83.9489    11.8475    11.2110
  479.0000    81.0734   -66.6167    82.0323    12.0625    11.4346
  479.5000    80.2295   -66.9604    80.1157    12.2916    11.6607
  480.0000    79.6410   -67.0481    78.1998    12.5282    11.8469
  480.5000    78.9427   -67.1277    76.2675    12.7664    12.0259
  481.0000    73.5796   -67.3407    75.8825    12.9480    12.2041
  481.5000    76.7668   -67.7380    75.8769    13.0654    12.3607
  482.0000    76.0977   -68.1330    75.8789    13.1502    12.4818
  482.5000    81.2240   -68.5228    75.8798    13.2346    12.6034
  483.0000    79.7552   -68.7380    75.8848    13.3189    12.7250
  483.5000    77.0593   -68.9301    75.5531    13.4035    12.8471
  484.0000    76.5286   -68.9761    74.7987    13.4876    12.9729
  484.5000    73.8111   -68.8437    74.0443    13.5859    13.1055
  485.0000    76.4942   -68.5892    73.2898    13.6901    13.2379
  485.5000    78.5308   -68.3363    72.5354    13.7949    13.3704
  486.0000    75.9042   -68.1014    71.7810    13.8998    13.5028
  486.5000    72.5357   -68.0230    71.0266    14.0043    13.6353
  487.0000    69.1773   -68.1712    70.2722    14.1048    13.7678
  487.5000    68.0408   -68.3159    69.5178    14.2712    13.9003
  488.0000    68.9695   -68.4613    68.7598    14.4438    14.0328
  488.5000    71.0353   -68.6055    68.0454    14.5984    14.1652
  489.0000    77.5383   -68.7429    67.3196    14.7575    14.2976
  489.5000    79.3930   -69.1471    66.5958    14.9168    14.4300
  490.0000    77.0753   -69.5918    65.8722    15.0759    14.5623
  490.5000    84.5789   -70.0391    65.1486    15.2351    14.7538
  491.0000    79.2602   -70.3436    64.4250    15.3943    14.9953
  491.5000    71.9602   -70.5821    63.6274    15.5620    15.2364
  492.0000    73.0537   -70.8174    62.4495    15.7631    15.4781
  492.5000    72.6853   -70.9868    61.2715    15.9658    15.7775
  493.0000    73.9428   -70.9814    60.0935    16.1685    16.1787
  493.5000    65.5971   -71.3499    58.9155    16.3709    16.5786
  494.0000    68.0080   -72.2050    57.7375    16.5706    16.9790
  494.5000    69.5691   -73.1833    56.5595    16.7520    17.3413
  495.0000    66.9963   -73.5267    55.3816    17.2022    17.7024
  495.5000    65.9673   -73.0383    54.2036    17.6595    18.0928
  496.0000    64.5560   -72.5621    51.4066    18.6927    18.7202
  496.5000    63.3051   -72.1547    47.6627    20.0215    19.4816
  497.0000    61.1696   -72.0386    43.9187    21.3264    20.2407
  497.5000    56.2924   -71.6794    40.1748    23.1639    21.0018
  498.0000    55.7019   -70.8081    36.6834    23.8418    21.7441
  498.5000    60.5858   -69.8809    36.6834    24.2815    22.5152
  499.0000    70.4319   -69.2436    36.6834    24.2700    23.2818
  499.5000    75.5341   -69.2972    36.6834    24.2218    23.7850
  500.0000    79.9689   -70.2723    37.6884    23.4383    23.3689
  500.5000    80.3772   -71.7421    40.2227    22.4153    22.5989
  501.0000    73.6373   -73.9667    43.0312    21.3764    21.8202
  501.5000    74.0402   -76.3092    45.8458    20.3380    21.0385
  502.0000    84.7042   -77.0376    48.6564    19.3093    20.2584
  502.5000    81.8145   -77.4153    51.4677    18.5430    19.4831
  503.0000    80.5008   -77.2319    53.6301    18.2872    18.9219
  503.5000    81.2358   -76.7486    52.8658    18.1673    18.7699
  504.0000    82.5692   -76.2681    52.1015    18.2158    18.6722
  504.5000    77.3907   -75.8110    51.3372    18.2966    18.5790
  505.0000    80.4094   -75.7139    50.7538    18.3758    18.4120
  505.5000    80.6345   -75.6302    51.0649    18.4573    18.2131
  506.0000    79.0061   -75.6019    51.7597    18.5406    17.8018
  506.5000    82.1611   -75.6094    52.4546    18.3645    17.3977
  507.0000    82.4405   -75.2047    53.1494    17.9831    17.2654
  507.5000    79.3579   -74.6250    53.7688    16.7455    17.1323
  508.0000    88.9676   -74.1785    58.9604    15.4554    16.8950
  508.5000   100.0595   -73.7245    68.5399    14.0863    15.7500
  509.0000   100.8147   -73.2708    78.1194    12.7158    14.6024
  509.5000   101.6789   -72.7767    87.6989    11.3370    13.4228
  510.0000    97.0819   -70.9852    97.2784    10.3515    12.0753
  510.5000   113.5505   -68.2494   107.5066     9.3734    10.6728
  511.0000   120.0740   -65.5789   120.4769     8.4640    10.0616
  511.5000   113.3681   -63.9756   133.1658     7.8748     9.5998
  512.0000   111.0975   -63.5799   143.9447     7.2852     9.1312
  512.5000    98.3952   -63.2277   150.3141     6.8252     8.6646
  513.0000   102.4515   -62.8662   154.2955     6.6849     8.3013
  513.5000   106.9871   -62.7300   157.8623     6.6829     8.0649
