~VERSION INFORMATION
 VERS.                2.0:   CWLS LOG ASCII STANDARD - VERSION 2.0
 WRAP.                 NO:   ONE LINE PER DEPTH STEP
~WELL INFORMATION
#MNEM.UNIT      DATA TYPE    INFORMATION
#----------   ------------   ------------------------------
 STRT.F           94.0000:   START DEPTH
 STOP.F          939.0000:   STOP DEPTH
 STEP.F            0.5000:   STEP LENGTH
 NULL.          -999.2500:   NO VALUE
 COMP. U S NAVY/INTEX OIL CO:   COMPANY
 WELL.    NPR #3 #88-S-27:   WELL
 FLD .             TEAPOT:   FIELD
 LOC .      S27 T39N R78W:   LOCATION
 CNTY.            NATRONA:   COUNTY
 STAT.            WYOMING:   STATE
 CTRY. UNITED STATES OF AMERICA:   COUNTRY
 SRVC.       Schlumberger:   SERVICE COMPANY
 DATE.        30-JUL-1963:   LOGDATE
 API .       490250658100:   API NUMBER
~CURVE INFORMATION
#MNEM.UNIT       API CODE    CURVE DESCRIPTION
#----------   ------------   ------------------------------
 DEPT.F                  :   
 SPR .MV     05 010 01 00:   SPONTANEOUS POTENTIAL FROM RES.
 CILD.MMHO   05 110 46 00:   CONDUCTIVITY INDUCTION LOG DEEP
 ASN .OHMM   05 041 16 00:   AMPLIFIED SHORT NORMAL 16"
 ILD .OHMM   05 120 46 00:   INDUCTION LOG DEEP
 GR  .GAPI   30 310 01 00:   GAMMA RAY
~PARAMETER INFORMATION
#MNEM.UNIT          VALUE    DESCRIPTION
#----------   ------------   ------------------------------
 PD  .                 GL:   PERMANENT DATUM
 EPD .F              5069:   ELEVATION PERMANENT DATUM
 LMF .                 KB:   LOG MEASURED FROM
 DAPD.F                 5:   FEET ABOVE PERMANENT DATUM
 DMF .                 KB:   DRILLING MEASURED FROM
 EKB .F              5074:   KELLING BUSHING
 EGL .F              5069:   GROUND LEVEL
 DATE.          7-30-1969:   RUN DATE
 RUN .                  1:   RUN NUMBER
 DD  .F               940:   DEPTH DRILLER
 DL  .F               940:   DEPTH LOGGER
 BLI .F               939:   BOTTOM LOG INTERVAL
 TLI .F                94:   TOP LOG INTERVAL
 CS  .IN            8.625:   CASING SIZE
 CBD .F                10:   CASING BOTTOM DRILLER
 BS  .IN             6.75:   BIT SIZE
 BSD .F               940:   BIT SIZE AT DEPTH
 DFT .            GEL/OIL:   DRILLING FLUID TYPE
 DFD .                9.6:   DRILLING FLUID DENSITY
 DFV .                 40:   DRILLING FLUID VISCOSITY
 DFPH.                  9:   DRILLING FLUID PH
 DFL .                  6:   DRILLING FLUID LOSS
 MSS .          FLOW LINE:   MUD SAMPLE SOURCE
 RMS .OHMM           2.94:   RESISTIVITY MUD SAMPLE
 MST .F                89:   MUD SAMPLE TEMPERATURE
 RMF .OHMM           2.19:   RESISTIVITY MUD FILTRATE SAMPLE
 MFST.F                87:   MUD FILTRATE SAMPLE TEMPERATURE
 MFSS.           MEASURED:   MUD FILTRATE SAMPLE SOURCE
 TCS .HRS               1:   TIME CURCULATED STOPPED
 LUN .               4507:   LOGGING UNIT NUMBER
 LUL .               CSPR:   LOGGING UNIT LOCATION
 ENGI.            WINKLER:   RECORDING ENGINEER
 WITN.          JORGENSEN:   WITNESSED BY
 CLNT.            A2DTECH:   CLIENT CODE
 ORIG.           5" PRINT:   ORIGIN OF DATA
 UWI .       490250658100:   UNIQUE WELL ID
 DICO. A2D Technologies, Inc.:   DIGITIZING COMPANY
~OTHER INFORMATION
~A   DEPT      SPR        CILD         ASN        ILD       GR   
# ...
  826.0000   -48.5000    57.2864    20.6820    17.1509    28.7864
  826.5000   -48.7926    58.9615    20.0838    16.6139    26.6821
  827.0000   -48.0252    60.6365    19.4821    16.2251    29.0001
  827.5000   -48.3912    62.3116    18.9477    15.9912    33.2225
  828.0000   -48.4468    62.8141    18.9416    15.9139    36.0544
  828.5000   -46.9867    62.8141    18.8961    15.8370    37.4991
  829.0000   -46.9418    62.8141    18.7259    15.8289    36.3627
  829.5000   -47.6133    62.8141    18.5608    15.8290    37.3128
  830.0000   -48.2691    62.8141    18.6325    15.8748    31.9847
  830.5000   -48.2991    62.8189    18.7306    15.9662    28.9152
  831.0000   -48.1380    62.8150    18.7528    16.0569    26.5687
  831.5000   -47.8714    61.8080    18.8564    16.1479    27.7776
  832.0000   -47.6078    61.3568    19.0030    16.2737    29.4249
  832.5000   -47.8030    59.8493    19.0429    16.6820    21.5483
  833.0000   -48.6663    58.3417    19.0474    17.0945    19.5613
  833.5000   -49.5313    56.8337    19.4363    17.5060    18.9940
  834.0000   -49.8945    55.3252    19.8748    17.9225    16.9709
  834.5000   -49.7845    53.8146    20.2935    18.0390    18.9036
  835.0000   -49.0154    52.7638    20.1513    18.0411    24.4508
  835.5000   -48.2483    52.7638    19.9718    18.0420    22.8262
  836.0000   -47.4790    53.8945    20.1516    18.0386    27.0071
  836.5000   -46.7162    55.1507    20.2877    17.7204    32.0312
  837.0000   -46.6917    56.4070    19.7113    17.3633    29.7904
  837.5000   -47.1505    57.6633    19.3461    17.0061    28.0085
  838.0000   -47.1961    58.9196    19.0253    16.6493    29.5409
  838.5000   -46.3110    60.1759    18.8234    16.2926    30.8319
  839.0000   -46.7294    61.4322    18.6228    15.9333    28.2054
  839.5000   -47.3527    62.6884    18.4290    15.7242    22.3721
  840.0000   -47.4884    63.8191    18.2931    15.5700    16.8235
  840.5000   -47.5108    63.8191    18.1581    15.5215    19.4902
  841.0000   -47.6577    63.9836    18.0227    15.6304    22.4426
  841.5000   -47.6914    64.1663    17.8869    15.6263    24.0706
  842.0000   -47.7534    64.3490    17.7533    15.4780    28.0664
  842.5000   -47.8936    64.5318    17.7390    15.3101    27.6871
  843.0000   -47.9673    64.7145    17.7144    15.2261    28.1965
  843.5000   -48.1077    64.8972    17.4874    15.2262    26.9491
  844.0000   -48.2493    65.0799    17.2603    15.2261    27.4366
  844.5000   -48.4803    65.2627    17.2356    15.2263    26.9825
  845.0000   -47.8232    65.4454    17.2386    15.2218    29.5661
  845.5000   -47.0660    65.6281    17.0906    15.1803    31.4734
  846.0000   -46.8992    65.8109    16.8842    15.1382    26.9944
  846.5000   -46.4058    65.9662    16.6765    15.0963    29.4325
  847.0000   -45.7400    66.1185    16.5393    15.0544    28.4959
  847.5000   -45.0712    66.2708    16.6293    15.0126    27.4579
  848.0000   -44.4643    66.4230    16.5789    14.9707    26.8106
  848.5000   -44.8841    66.5753    16.3866    14.9289    26.4033
  849.0000   -44.8911    66.7276    16.3334    14.8869    26.8734
  849.5000   -45.7877    67.2039    16.2952    14.8451    32.7172
  850.0000   -46.6215    68.4363    15.9521    14.7090    32.2003
  850.5000   -45.7205    69.6687    15.6047    14.4783    26.0470
  851.0000   -45.0537    70.9010    15.2609    14.2479    28.1847
  851.5000   -44.5900    72.1334    14.9331    14.0173    37.6258
  852.0000   -44.2076    73.3658    14.6581    13.7864    35.3260
  852.5000   -44.0070    74.5982    14.4156    13.5540    34.2775
  853.0000   -43.6267    75.8794    14.4205    13.3290    32.6775
  853.5000   -42.9009    74.8744    14.3736    13.3905    31.7757
  854.0000   -42.8091    74.8744    14.2370    13.3979    31.6371
  854.5000   -42.4310    75.6683    14.1029    13.2685    33.2353
  855.0000   -42.4589    76.6834    14.0191    13.1407    33.8628
  855.5000   -42.9691    77.6985    14.0098    13.0138    35.0156
  856.0000   -43.4612    78.7136    13.9520    12.8875    36.2223
  856.5000   -43.4931    78.5301    13.8956    12.8134    36.1328
  857.0000   -43.0676    78.0921    13.8386    12.8142    29.9702
  857.5000   -42.7186    77.6488    13.8194    12.8140    22.4257
  858.0000   -42.3703    77.2062    13.8190    12.8141    18.1652
  858.5000   -42.0242    76.8844    13.8190    12.8141    20.5748
  859.0000   -41.6779    77.1122    13.8189    12.8141    26.0339
  859.5000   -41.3311    77.4506    13.8193    12.8139    32.6797
  860.0000   -40.9832    77.7889    13.8332    12.8139    30.4504
  860.5000   -40.6613    77.6185    13.8921    12.8209    21.8739
  861.0000   -40.8791    76.7358    13.9198    12.8813    18.1476
  861.5000   -41.0703    75.8532    13.9226    12.9425    20.0760
  862.0000   -40.8786    74.9705    14.0366    13.0036    23.7613
  862.5000   -40.6154    74.0878    14.1043    13.0645    26.8529
  863.0000   -40.3466    74.0847    14.1744    13.1169    29.1362
  863.5000   -40.0737    74.6889    14.2218    13.1163    29.1598
  864.0000   -40.0585    75.2931    14.2210    13.0649    29.6619
  864.5000   -40.0588    75.8973    14.2216    12.9779    28.4975
  865.0000   -39.9832    76.5016    14.2246    12.8904    27.2948
  865.5000   -39.7445    77.1058    14.0854    12.8028    22.8248
  866.0000   -39.5084    77.7100    13.9161    12.7153    27.0631
  866.5000   -39.2720    78.3142    13.7450    12.6278    30.4196
  867.0000   -39.0353    78.9184    13.7184    12.5403    31.8706
  867.5000   -38.7991    79.5226    13.7183    12.4528    32.4083
  868.0000   -38.6619    80.1268    13.7186    12.3653    32.8220
  868.5000   -39.0315    80.7310    13.7176    12.2777    35.0704
  869.0000   -39.4106    81.3353    13.6632    12.1902    37.7107
  869.5000   -39.4666    81.9395    13.5455    12.1093    41.6888
  870.0000   -39.2532    82.5437    13.4287    12.0710    45.5605
  870.5000   -38.9993    83.1479    13.3114    12.0348    49.4208
  871.0000   -38.7444    83.7521    13.1955    11.9984    49.4309
  871.5000   -38.6990    83.9196    13.1148    11.9632    45.2570
  872.0000   -38.8577    83.9253    13.1187    11.9290    42.0027
  872.5000   -38.7989    82.9085    13.2366    12.0164    38.7571
  873.0000   -38.5336    82.4928    13.3304    12.0142    35.5164
  873.5000   -38.4613    81.9263    13.4270    12.1240    32.9663
  874.0000   -38.5979    81.3624    13.5254    12.2438    32.5111
  874.5000   -38.7336    80.7984    13.6237    12.3644    34.0139
  875.0000   -38.8532    80.2345    13.7224    12.4113    24.5378
  875.5000   -38.6881    79.6706    13.8166    12.4122    25.9169
  876.0000   -38.5312    79.1066    13.8205    12.4122    29.8625
  876.5000   -39.2312    78.8945    13.8149    12.4118    32.9296
  877.0000   -39.9345    79.5346    13.6993    12.4136    36.5589
  877.5000   -40.2537    80.6802    13.5815    12.3080    40.1212
  878.0000   -40.4342    81.9079    13.4642    12.1501    38.2589
  878.5000   -41.6710    83.1295    13.3471    11.9905    41.4925
  879.0000   -42.6295    84.3514    13.2299    11.8309    37.4756
  879.5000   -42.6527    85.5732    13.1128    11.6714    39.9058
  880.0000   -43.5476    86.7951    12.9970    11.5118    43.5919
  880.5000   -44.6846    88.0169    12.8950    11.3467    42.5050
  881.0000   -44.5394    89.2388    12.8344    11.2550    40.2117
  881.5000   -43.6506    90.4606    12.7726    11.1820    39.3340
  882.0000   -42.7617    91.6825    12.7111    11.1099    39.2467
  882.5000   -41.6989    92.9648    12.6496    11.0371    37.5647
  883.0000   -39.8147    91.9598    12.5880    10.9914    36.7419
  883.5000   -37.3850    91.9598    12.5247    10.9655    35.7975
  884.0000   -34.9674    91.9598    12.5119    10.9401    38.6623
  884.5000   -33.2784    91.9598    12.5159    10.9151    38.7302
  885.0000   -32.5039    91.9598    12.6364    10.9316    38.7671
  885.5000   -31.7267    91.9598    12.7128    11.0012    39.6581
  886.0000   -31.7128    91.6196    12.7209    11.0701    38.3339
  886.5000   -31.9013    90.0580    12.9340    11.1382    35.1364
