~VERSION INFORMATION
 VERS.                2.0:   CWLS LOG ASCII STANDARD - VERSION 2.0
 WRAP.                 NO:   ONE LINE PER DEPTH STEP
~WELL INFORMATION
#MNEM.UNIT      DATA TYPE    INFORMATION
#----------   ------------   ------------------------------
 STRT.F           29.0000:   START DEPTH
 STOP.F          882.0000:   STOP DEPTH
 STEP.F            0.5000:   STEP LENGTH
 NULL.          -999.2500:   NO VALUE
 COMP. FENIX & SCISSON INC:   COMPANY
 WELL. NAVAL PETROLEUM RESERVE 3 S-14 #42-14:   WELL
 FLD .             TEAPOT:   FIELD
 LOC .      S14 T38N R78W:   LOCATION
 CNTY.            NATRONA:   COUNTY
 STAT.            WYOMING:   STATE
 CTRY. UNITED STATES OF AMERICA:   COUNTRY
 SRVC.              Welex:   SERVICE COMPANY
 DATE.        03-MAY-1977:   LOGDATE
 API .       490251035400:   API NUMBER
~CURVE INFORMATION
#MNEM.UNIT       API CODE    CURVE DESCRIPTION
#----------   ------------   ------------------------------
 DEPT.F                  :   
 CALD.IN     45 280 60 00:   CALIPER FROM DENSITY LOG
 GRD .GAPI   45 310 01 00:   GAMMA RAY FROM DENSITY LOG
 CORR.G/C3   45 356 01 00:   DENSITY CORRECTION
 DPHI.DEC    45 890 12 00:   DENSITY POROSITY SANDSTONE
 RHOB.G/C3   45 350 01 00:   BULK DENSITY
 SPR .MV     07 010 01 00:   SPONTANEOUS POTENTIAL
 ILD .OHMM   07 120 46 00:   INDUCTION LOG DEEP
 ILM .OHMM   07 120 44 00:   INDUCTION LOG MEDIUM
 SGRD.OHMM   07 221 05 00:   SHALLOW SHORT GUARD RESISTIVITY
~PARAMETER INFORMATION
#MNEM.UNIT          VALUE    DESCRIPTION
#----------   ------------   ------------------------------
 PD  .                 GL:   PERMANENT DATUM
 EPD .F              5206:   ELEVATION PERMANENT DATUM
 LMF .                 GL:   LOG MEASURED FROM
 DMF .                 GL:   DRILLING MEASURED FROM
 EGL .F              5206:   GROUND LEVEL
 DATE.        03-MAY-1977:   RUN DATE
 RUN .                  1:   RUN NUMBER
 DD  .F               855:   DEPTH DRILLER
 DL  .F               884:   DEPTH LOGGER
 BLI .F               882:   BOTTOM LOG INTERVAL
 TLI .F                28:   TOP LOG INTERVAL
 CS  .IN            8.625:   CASING SIZE
 BS  .IN               12:   BIT SIZE
 BSD .F               855:   BIT SIZE AT DEPTH
 DFT .            KCL MUD:   DRILLING FLUID TYPE
 DFD .                8.7:   DRILLING FLUID DENSITY
 BHT .F                75:   BOTTOM HOLE TEMPERATURE
 TCS .HRS            0130:   TIME CURCULATED STOPPED
 MRT .F                75:   MAXIMUM RECORDED TEMPERATURE
 ENGI.            C. DOAK:   RECORDING ENGINEER
 WITN.            R. LYON:   WITNESSED BY
 CLNT.            A2DTECH:   CLIENT CODE
 ORIG.           5" PRINT:   ORIGIN OF DATA
 UWI .       490251035400:   UNIQUE WELL ID
 DICO. A2D Technologies, Inc.:   DIGITIZING COMPANY
~OTHER INFORMATION
~A   DEPT       CALD      GRD       CORR       DPHI         RHOB      SPR        ILD        ILM       SGRD   
# ...
  138.5000     8.0961   130.4176     0.0426     0.1990     2.3368   -47.9658     3.4885     3.5864     6.3327
  139.0000     8.0960   123.8573     0.0426     0.1918     2.3443   -48.7188     3.2103     3.2326     6.2878
  139.5000     8.0808   120.1845     0.0545     0.1792     2.3695   -49.1731     2.9543     2.9748     6.1573
  140.0000     8.0657   117.7836     0.0560     0.1607     2.4160   -49.1803     2.7757     2.7757     5.0725
  140.5000     8.0656   116.4305     0.0545     0.1541     2.4190   -49.1877     2.7562     2.7539     3.5891
  141.0000     8.0655   116.2751     0.0559     0.1538     2.4189   -48.8985     2.7558     2.7749     3.9805
  141.5000     8.0504   116.2693     0.0574     0.1502     2.4234   -48.6058     2.6594     2.6252     4.2646
  142.0000     8.0494   114.7106     0.0574     0.1440     2.4317   -48.1678     2.5181     2.5532     4.1189
  142.5000     8.0351   113.7129     0.0573     0.1431     2.4361   -47.7261     2.5706     2.5179     2.5556
  143.0000     8.0200   114.6053     0.0543     0.1476     2.4308   -47.1390     2.7926     2.7734     2.7130
  143.5000     8.0199   112.0532     0.0483     0.1491     2.4226   -46.8480     3.1623     3.0338     4.1162
  144.0000     8.0048   115.0415     0.0453     0.1527     2.4181   -46.3983     3.4833     3.3187     6.9125
  144.5000     8.0046   115.0357     0.0422     0.1509     2.4218   -45.9683     3.7580     3.6344     6.5392
  145.0000     8.0045   116.0828     0.0407     0.1518     2.4202   -45.5303     3.8363     3.8098     6.1860
  145.5000     8.0043   115.4719     0.0392     0.1530     2.4142   -45.0904     4.1505     4.1388     5.8116
  146.0000     8.0042   110.3763     0.0377     0.1551     2.4135   -44.7995     4.5275     4.5275     6.7185
  146.5000     8.0040   112.9155     0.0406     0.1524     2.4164   -44.6559     4.7843     4.6538     7.0536
  147.0000     8.0039   113.5085     0.0451     0.1501     2.4209   -44.5157     4.9863     4.7837     7.3471
  147.5000     8.0187   115.5986     0.0466     0.1441     2.4293   -44.2250     5.1610     4.9513     7.7099
  148.0000     8.0185   113.9361     0.0510     0.1378     2.4403   -44.2126     5.3419     5.1277     6.7597
  148.5000     8.0184   110.6455     0.0540     0.1369     2.4448   -44.0904     5.4910     5.3044     7.0443
  149.0000     8.0182   110.0424     0.0555     0.1405     2.4447   -43.9486     5.6468     5.4524     7.2404
  149.5000     8.0031   114.0771     0.0509     0.1426     2.4335   -43.9576     5.8017     5.6044     7.4936
  150.0000     8.0036   120.0599     0.0419     0.1606     2.4157   -43.9637     5.8817     5.6985     7.7022
  150.5000     8.0076   117.8109     0.0299     0.1678     2.3981   -43.9684     5.7996     5.8015     7.7372
  151.0000     8.0116   117.8080     0.0269     0.1723     2.3841   -43.9730     5.8795     5.9208     7.8048
  151.5000     8.0156   113.9130     0.0284     0.1735     2.3878   -43.9777     6.0429     6.0025     7.9668
  152.0000     8.0196   113.1617     0.0314     0.1729     2.3788   -43.9828     6.0836     5.9601     8.1875
  152.5000     8.0235   116.0025     0.0314     0.1735     2.3811   -44.2852     6.0402     5.9182     8.1940
  153.0000     8.0275   116.2998     0.0237     0.1774     2.3728   -44.4385     5.9560     5.7960     7.1708
  153.5000     8.0315   112.4040     0.0209     0.1867     2.3599   -44.5919     5.8326     5.6762     6.4220
  154.0000     8.0355   113.7603     0.0193     0.1900     2.3503   -44.8942     5.6713     5.4826     7.5793
  154.5000     8.0395   114.1948     0.0268     0.1846     2.3585   -45.1967     5.4782     5.2563     7.2193
  155.0000     8.0434   111.3470     0.0344     0.1702     2.3727   -45.5000     5.3277     5.0445     6.9241
  155.5000     8.0457   113.1406     0.0403     0.1574     2.4039   -45.8024     5.1102     4.8897     6.7334
  156.0000     8.0439   113.2875     0.0447     0.1517     2.4213   -46.4028     4.9015     4.7114     6.4562
  156.5000     8.0422   109.9905     0.0447     0.1484     2.4235   -46.7051     4.6368     4.5332     6.2798
  157.0000     8.0405   108.7901     0.0446     0.1451     2.4324   -47.0075     4.4154     4.3549     6.1919
  157.5000     8.0388   112.9789     0.0417     0.1457     2.4323   -47.4764     4.1781     4.1767     6.0214
  158.0000     8.0370   112.4949     0.0372     0.1490     2.4249   -47.9114     3.9799     3.9984     5.9783
  158.5000     8.0353   110.2780     0.0372     0.1499     2.4196   -48.2137     3.7911     3.8220     5.8946
  159.0000     8.0336   111.4727     0.0387     0.1487     2.4249   -48.0679     3.7126     3.7172     4.5498
  159.5000     8.0319   114.1645     0.0431     0.1469     2.4278   -47.7741     3.6608     3.6657     3.6812
  160.0000     8.0301   114.3114     0.0431     0.1487     2.4256   -47.4814     3.7403     3.7454     4.0264
  160.5000     8.0284   114.6073     0.0416     0.1538     2.4173   -47.1877     3.9484     3.9542     5.9700
  161.0000     8.0267   115.6531     0.0431     0.1587     2.4031   -46.8950     4.1148     4.1785     6.1362
  161.5000     8.0250   114.6017     0.0431     0.1661     2.3934   -46.6001     4.3180     4.3852     6.2627
  162.0000     8.0232   113.0779     0.0475     0.1685     2.3903   -46.4554     4.5000     4.5075     6.3482
  162.5000     8.0215   112.7996     0.0520     0.1697     2.3866   -46.1627     4.6253     4.6014     6.2590
  163.0000     8.0198   113.0962     0.0505     0.1731     2.3836   -46.1670     4.6888     4.6649     6.0030
  163.5000     8.0181   111.7454     0.0400     0.1808     2.3716   -46.3204     4.7204     4.7290     5.9190
  164.0000     8.0163   110.6806     0.0400     0.1913     2.3521   -46.4747     4.7522     4.7943     5.9998
  164.5000     8.0146   110.3918     0.0370     0.2023     2.3274   -46.6281     4.7183     4.7936     6.0818
  165.0000     8.0134   113.3829     0.0280     0.2148     2.3058   -46.9304     4.6848     4.7599     6.1691
  165.5000     7.9979   114.5997     0.0205     0.2377     2.2706   -47.2328     4.6516     4.6616     6.2924
  166.0000     7.9966   113.2116     0.0175     0.2466     2.2526   -47.5351     4.5834     4.5965     6.2470
  166.5000     7.9954   111.8768     0.0145     0.2428     2.2608   -47.8460     4.4915     4.4400     5.8281
  167.0000     7.9941   109.4788     0.0085     0.2254     2.2930   -48.4390     4.3681     4.2886     5.7864
  167.5000     7.9929   106.6316     0.0174     0.2015     2.3497   -48.8904     4.1323     4.1137     5.7450
  168.0000     7.9916   104.8143     0.0204     0.1817     2.3677   -49.4908     3.9091     3.8119     5.3552
  168.5000     7.9904   105.4277     0.0204     0.1779     2.3736   -50.0912     3.6980     3.4598     5.3583
  169.0000     7.9891   107.0716     0.0204     0.1803     2.3728   -50.5426     3.4413     3.2282     5.2829
  169.5000     7.9879   109.4640     0.0204     0.1818     2.3676   -50.8450     2.9626     2.9414     4.9973
  170.0000     7.9866   111.2975     0.0204     0.1800     2.3713   -50.9994     2.7074     2.6776     3.9493
  170.5000     7.9854   111.1044     0.0203     0.1809     2.3698   -51.0037     2.4741     2.4135     2.8136
  171.0000     7.9841   110.8028     0.0203     0.1821     2.3645   -50.8579     2.4062     2.3800     2.3595
  171.5000     7.9829   112.8951     0.0218     0.1800     2.3712   -50.5652     2.4392     2.4634     2.3011
  172.0000     7.9814   114.7105     0.0248     0.1781     2.3764   -50.2714     2.5853     2.6032     2.6415
  172.5000     7.9813   114.9853     0.0293     0.1749     2.3787   -50.1267     2.8387     2.7537     5.1645
  173.0000     7.9961   113.3351     0.0307     0.1749     2.3786   -50.2811     3.0837     3.0722     5.4568
  173.5000     7.9960   113.1826     0.0322     0.1750     2.3786   -50.7324     3.3038     3.3840     6.2213
  174.0000     7.9958   113.7779     0.0322     0.1736     2.3831   -51.0348     3.6389     3.6509     6.3063
  174.5000     7.9956   113.9254     0.0322     0.1710     2.3875   -51.1881     3.8986     3.9118     6.1322
