~VERSION INFORMATION
 VERS.                2.0:   CWLS LOG ASCII STANDARD - VERSION 2.0
 WRAP.                 NO:   ONE LINE PER DEPTH STEP
~WELL INFORMATION
#MNEM.UNIT      DATA TYPE    INFORMATION
#----------   ------------   ------------------------------
 STRT.F           80.0000:   START DEPTH
 STOP.F          718.5000:   STOP DEPTH
 STEP.F            0.5000:   STEP LENGTH
 NULL.          -999.2500:   NO VALUE
 COMP. U S NAVY-INTEX OIL:   COMPANY
 WELL. RES 3 TEAPOT DOM #21-S-2:   WELL
 FLD .        TEAPOT DOME:   FIELD
 LOC .       S2 T38N R78W:   LOCATION
 CNTY.            NATRONA:   COUNTY
 STAT.            WYOMING:   STATE
 CTRY. UNITED STATES OF AMERICA:   COUNTRY
 SRVC. Schlumberger Well Surveying Corp:   SERVICE COMPANY
 DATE.        18-JUL-1962:   LOGDATE
 API .       490250648100:   API NUMBER
~CURVE INFORMATION
#MNEM.UNIT       API CODE    CURVE DESCRIPTION
#----------   ------------   ------------------------------
 DEPT.F                  :   
 CALM.IN     15 280 01 00:   CALIPER FROM MICRO LOG
 SPR .MV     05 010 01 00:   SPONTANEOUS POTENTIAL FROM RES.
 ASN .OHMM   05 041 16 00:   AMPLIFIED SHORT NORMAL 16"
 ILD .OHMM   05 120 46 00:   INDUCTION LOG DEEP
 CILD.MMHO   05 110 46 00:   CONDUCTIVITY INDUCTION LOG DEEP
~PARAMETER INFORMATION
#MNEM.UNIT          VALUE    DESCRIPTION
#----------   ------------   ------------------------------
 LMF .                 KB:   LOG MEASURED FROM
 DMF .                 KB:   DRILLING MEASURED FROM
 EKB .F              5116:   KELLING BUSHING
 EGL .F              5111:   GROUND LEVEL
 DATE.          7-18-1962:   RUN DATE
 RUN .                  1:   RUN NUMBER
 DD  .F               719:   DEPTH DRILLER
 DL  .F               719:   DEPTH LOGGER
 BLI .F               718:   BOTTOM LOG INTERVAL
 TLI .F                90:   TOP LOG INTERVAL
 BS  .IN             6.75:   BIT SIZE
 BSD .F               719:   BIT SIZE AT DEPTH
 DFT .           OIL EMUL:   DRILLING FLUID TYPE
 DFD .                 10:   DRILLING FLUID DENSITY
 DFV .                 45:   DRILLING FLUID VISCOSITY
 DFL .                2.8:   DRILLING FLUID LOSS
 RMS .OHMM           3.87:   RESISTIVITY MUD SAMPLE
 MST .F                94:   MUD SAMPLE TEMPERATURE
 RMF .OHMM           2.93:   RESISTIVITY MUD FILTRATE SAMPLE
 MFST.F                94:   MUD FILTRATE SAMPLE TEMPERATURE
 RMC .OHMM           3.95:   RESISTIVITY MUD CAKE
 MCST.F                94:   MUD CAKE SAMPLE TEMPERATURE
 TCS .HRS              .5:   TIME CURCULATED STOPPED
 LUN .               2503:   LOGGING UNIT NUMBER
 LUL .              CSPR.:   LOGGING UNIT LOCATION
 ENGI.             DANNER:   RECORDING ENGINEER
 WITN.          JORGENSEN:   WITNESSED BY
 CLNT.            A2DTECH:   CLIENT CODE
 ORIG.      2" , 5" PRINT:   ORIGIN OF DATA
 UWI .       490250648100:   UNIQUE WELL ID
 DICO. A2D Technologies, Inc.:   DIGITIZING COMPANY
~OTHER INFORMATION
~A   DEPT     CALM        SPR          ASN        ILD      CILD  
# ...
  629.0000     6.5359   -59.7729    26.4330    22.7376    38.9500
  629.5000     6.5474   -59.5953    28.3501    23.8229    37.5373
  630.0000     6.5675   -59.3992    30.0704    24.9045    36.1246
  630.5000     6.5990   -59.6147    30.5799    25.9925    34.7071
  631.0000     6.6309   -60.0803    31.7080    26.6815    33.3060
  631.5000     6.6008   -60.8055    33.0624    27.0684    32.7866
  632.0000     6.5629   -61.5348    33.8977    27.4453    33.0447
  632.5000     6.5239   -61.8047    33.5278    27.8292    33.2908
  633.0000     6.5340   -61.2360    33.2384    27.5326    33.5369
  633.5000     6.5629   -60.5755    32.6981    26.7233    33.7831
  634.0000     6.5925   -60.6147    31.9728    26.2533    34.0292
  634.5000     6.6224   -61.6206    31.5020    25.8997    34.2753
  635.0000     6.6524   -61.6600    31.8971    26.2275    34.5214
  635.5000     6.6449   -60.4007    32.0844    26.5932    34.4979
  636.0000     6.6346   -59.1395    30.8580    26.9559    34.0393
  636.5000     6.6243   -59.7323    31.1159    27.3177    33.5806
  637.0000     6.6146   -59.2436    31.4937    27.6794    33.1220
  637.5000     6.5926   -59.4498    31.5824    28.0411    32.6633
  638.0000     6.5644   -60.4963    32.0812    28.4029    31.9214
  638.5000     6.5370   -61.7691    32.6781    28.7642    31.1794
  639.0000     6.5281   -61.7927    33.2650    29.1259    30.4375
  639.5000     6.5560   -61.8465    33.5592    29.4926    29.6955
  640.0000     6.5790   -62.9688    33.1456    30.0806    28.9536
  640.5000     6.5902   -63.9763    33.7506    31.0013    28.2117
  641.0000     6.5808   -63.5843    34.0718    31.7855    27.7814
  641.5000     6.5817   -63.2308    33.0893    31.8570    28.4121
  642.0000     6.6303   -63.8693    31.6657    30.1195    29.0427
  642.5000     6.6781   -65.5165    29.7605    28.0874    29.6482
  643.0000     6.7260   -66.0527    27.8459    26.0484    33.6172
  643.5000     6.7515   -65.2134    25.9268    24.0135    37.4674
  644.0000     6.7725   -62.8756    24.0137    21.9798    41.3051
  644.5000     6.7934   -60.4080    22.4121    19.9417    45.1320
  645.0000     6.8144   -57.9236    21.2130    18.3355    48.7659
  645.5000     6.8354   -56.4688    20.0130    17.2390    52.0784
  646.0000     6.8546   -55.7287    19.2910    16.3309    54.3222
  646.5000     6.8504   -55.7459    18.8145    15.9744    55.5093
  647.0000     6.8457   -55.8348    18.5372    15.6162    56.6964
  647.5000     6.8411   -56.0195    18.2594    15.4881    57.7889
  648.0000     6.8364   -56.2038    17.9816    15.6189    57.6677
  648.5000     6.8394   -56.3908    17.8078    15.7478    57.5554
  649.0000     6.8456   -56.5266    17.6763    15.8776    57.4431
  649.5000     6.8520   -56.0518    17.5502    16.0071    57.3308
  650.0000     6.8545   -55.5844    17.5635    16.1366    57.2184
  650.5000     6.8429   -55.9543    17.5930    16.2663    57.1061
  651.0000     6.8316   -56.5413    17.6227    16.4007    56.9938
  651.5000     6.8205   -57.1226    17.6521    16.4449    56.8815
  652.0000     6.8207   -56.5852    17.6814    16.4636    56.7622
  652.5000     6.8410   -55.9577    17.7108    16.4814    56.5961
  653.0000     6.8536   -55.3371    17.7401    16.4994    56.4300
  653.5000     6.8470   -54.7992    17.7695    16.5173    56.2639
  654.0000     6.8406   -54.4249    17.7989    16.5339    56.0979
  654.5000     6.8351   -54.0471    17.8282    16.5701    55.9318
  655.0000     6.8485   -53.6694    17.8576    16.6091    55.7657
  655.5000     6.8637   -53.2902    17.8872    16.6482    55.5996
  656.0000     6.8789   -52.9352    17.9175    16.6871    55.4336
  656.5000     6.8937   -53.0076    17.9348    16.7276    55.2675
  657.0000     6.8834   -53.0910    17.7567    16.6715    55.1014
  657.5000     6.8699   -53.3905    17.5722    16.5711    54.9353
  658.0000     6.8565   -53.7944    17.3884    16.4694    54.7739
  658.5000     6.8430   -54.2063    17.2049    16.3694    55.8302
  659.0000     6.8295   -54.3295    17.0213    16.1857    56.8579
  659.5000     6.8163   -54.1263    16.8378    15.9612    57.8857
  660.0000     6.8299   -53.6924    16.6543    15.7350    58.9134
  660.5000     6.8467   -53.2615    16.4708    15.5088    59.9412
  661.0000     6.8762   -52.8293    16.2872    15.2827    60.9689
  661.5000     6.9183   -52.3967    16.1037    15.0565    61.9967
  662.0000     6.9517   -51.9606    15.9202    14.8304    63.0244
  662.5000     6.9156   -51.5342    15.7370    14.6043    64.0521
  663.0000     6.8792   -51.7496    15.5524    14.3780    65.0799
  663.5000     6.8801   -52.0074    15.3489    14.1530    66.1076
  664.0000     6.8979   -52.2625    15.2965    13.9273    67.1354
  664.5000     6.9155   -52.5175    15.2044    13.7958    68.1631
  665.0000     6.9330   -52.8118    15.1128    13.7213    68.6456
  665.5000     6.9507   -53.2915    15.0200    13.7316    68.0566
  666.0000     6.9488   -53.7659    14.9283    13.8314    67.4688
  666.5000     6.9352   -54.1419    14.9273    13.9307    66.8786
  667.0000     6.9215   -54.1337    14.9500    14.0296    66.2896
  667.5000     6.9077   -54.1333    14.9722    14.1285    65.7006
  668.0000     6.8940   -54.1582    14.9943    14.2273    65.1116
  668.5000     6.8803   -54.2754    15.0165    14.3263    64.5226
  669.0000     6.8665   -54.3877    15.0253    14.4261    63.9243
  669.5000     6.8528   -54.5091    15.0278    14.5243    64.3673
  670.0000     6.8389   -54.2097    14.9249    14.3615    65.0424
  670.5000     6.8428   -53.7538    14.8017    14.1624    65.7224
  671.0000     6.8582   -53.2904    14.6780    13.9628    66.4007
  671.5000     6.8737   -52.8271    14.5546    13.7637    67.0791
  672.0000     6.8893   -52.3637    14.4312    13.5649    67.7575
  672.5000     6.9045   -51.9012    14.3078    13.3872    68.4359
  673.0000     6.9067   -51.4600    14.1844    13.2670    69.1143
  673.5000     6.8746   -51.1891    14.0611    13.1479    69.7927
  674.0000     6.8431   -50.9121    13.9377    13.0288    70.4711
  674.5000     6.8136   -50.7195    13.8143    12.9096    71.1495
  675.0000     6.8000   -50.5304    13.6909    12.7904    71.8279
  675.5000     6.7866   -50.3490    13.5675    12.6712    72.5063
  676.0000     6.7782   -49.7514    13.4441    12.5520    73.1847
  676.5000     6.8113   -49.0759    13.3207    12.4329    73.8631
  677.0000     6.8454   -48.6606    13.1983    12.3137    74.5415
  677.5000     6.8579   -48.6045    13.0876    12.1945    75.2198
  678.0000     6.8620   -48.5464    13.0065    12.0752    75.8982
  678.5000     6.8660   -48.4675    12.9246    11.9576    76.5766
  679.0000     6.8700   -48.0240    12.8429    11.8405    77.2550
  679.5000     6.8740   -47.6116    12.7611    11.6923    77.9334
  680.0000     6.8781   -47.2225    12.6795    11.6554    78.6118
  680.5000     6.8821   -46.8646    12.6084    11.6205    79.0104
  681.0000     6.8861   -46.8734    12.5922    11.5864    79.2090
  681.5000     6.8901   -46.8750    12.5749    11.5522    79.4076
  682.0000     6.8942   -46.8750    12.5574    11.5180    79.6063
  682.5000     6.8978   -46.8750    12.5399    11.4838    79.8049
  683.0000     6.9012   -46.8750    12.5225    11.4495    80.0035
  683.5000     6.9046   -46.8750    12.5050    11.4153    80.2022
  684.0000     6.9081   -46.8750    12.4875    11.3811    80.4008
  684.5000     6.9115   -46.8750    12.4701    11.3469    80.5995
  685.0000     6.9149   -46.8750    12.4526    11.3126    80.7981
  685.5000     6.9184   -46.8750    12.4352    11.2784    81.0667
  686.0000     6.9218   -46.8756    12.4176    11.2443    81.4161
  686.5000     6.9252   -46.8798    12.4120    11.2113    81.7654
  687.0000     6.9286   -46.7001    12.4001    11.1613    82.1147
  687.5000     6.9321   -46.4897    12.3499    11.1107    82.4640
  688.0000     6.9355   -46.2785    12.3016    11.0599    82.8134
  688.5000     6.9389   -46.0674    12.2534    11.0092    83.0975
  689.0000     6.9424   -45.8560    12.2051    10.9581    83.3551
  689.5000     6.9458   -45.6692    12.1569    10.9071    83.6126
