~VERSION INFORMATION
 VERS.                2.0:   CWLS LOG ASCII STANDARD - VERSION 2.0
 WRAP.                 NO:   ONE LINE PER DEPTH STEP
~WELL INFORMATION
#MNEM.UNIT      DATA TYPE    INFORMATION
#----------   ------------   ------------------------------
 STRT.F            0.0000:   START DEPTH
 STOP.F          586.0000:   STOP DEPTH
 STEP.F            0.5000:   STEP LENGTH
 NULL.          -999.2500:   NO VALUE
 COMP. Fluor Daniel (NPOSR) Inc:   COMPANY
 WELL.    NPR 3 #52-6-X-3:   WELL
 FLD .             TEAPOT:   FIELD
 LOC .       S3 T38N R78W:   LOCATION
 CNTY.            NATRONA:   COUNTY
 STAT.            WYOMING:   STATE
 CTRY. UNITED STATES OF AMERICA:   COUNTRY
 SRVC.      Western Atlas:   SERVICE COMPANY
 DATE.        17-APR-1996:   LOGDATE
 API .       490252277700:   API NUMBER
~CURVE INFORMATION
#MNEM.UNIT       API CODE    CURVE DESCRIPTION
#----------   ------------   ------------------------------
 DEPT.F                  :   
 GRR .GAPI   07 310 01 00:   GAMMA RAY FROM RES. LOG.
 RILD.OHMM   07 120 46 00:   INDUCTION LOG DEEP RESISTIVITY
 RILM.OHMM   07 120 44 00:   INDUCTION LOG MEDIUM
~PARAMETER INFORMATION
#MNEM.UNIT          VALUE    DESCRIPTION
#----------   ------------   ------------------------------
 PD  .                 GL:   PERMANENT DATUM
 EPD .F              5070:   ELEVATION PERMANENT DATUM
 LMF .                 KB:   LOG MEASURED FROM
 DAPD.F                10:   FEET ABOVE PERMANENT DATUM
 DMF .                 KB:   DRILLING MEASURED FROM
 EKB .F              5080:   KELLING BUSHING
 EDF .F              5079:   DRILLING FLOOR
 EGL .F              5070:   GROUND LEVEL
 DATE.            4-17-96:   RUN DATE
 RUN .                  1:   RUN NUMBER
 DD  .F               594:   DEPTH DRILLER
 DL  .F               594:   DEPTH LOGGER
 BLI .F               586:   BOTTOM LOG INTERVAL
 CS  .IN            9.625:   CASING SIZE
 CBD .F                58:   CASING BOTTOM DRILLER
 CBL .F                59:   CASING BOTTOM LOGGER
 BS  .IN             8.75:   BIT SIZE
 BSD .F               594:   BIT SIZE AT DEPTH
 DFT .                AIR:   DRILLING FLUID TYPE
 MRT .F                86:   MAXIMUM RECORDED TEMPERATURE
 LUN .            HL-6530:   LOGGING UNIT NUMBER
 LUL .             CASPER:   LOGGING UNIT LOCATION
 ENGI.             RAUTIO:   RECORDING ENGINEER
 WITN.              HARDY:   WITNESSED BY
 CLNT.            A2DTECH:   CLIENT CODE
 ORIG.       2", 5" PRINT:   ORIGIN OF DATA
 UWI .       490252277700:   UNIQUE WELL ID
 DICO. A2D Technologies, Inc.:   DIGITIZING COMPANY
~OTHER INFORMATION
~A    DEPT      GRR      RILD       RILM   
# ...
  182.0000   120.4361     7.3434     7.9223
  182.5000   118.7383     7.7298     8.0092
  183.0000   119.2255     8.0030     8.0289
  183.5000   121.8726     7.9977     8.0490
  184.0000   125.6252     7.9991     8.0729
  184.5000   127.9053     7.9989     8.0174
  185.0000   125.9475     7.9008     7.9503
  185.5000   121.4836     7.7872     7.8876
  186.0000   119.6593     7.6751     7.7770
  186.5000   120.5481     7.5647     7.5993
  187.0000   121.5660     7.3996     7.4102
  187.5000   119.8430     7.1570     7.2264
  188.0000   117.7481     6.9422     7.0963
  188.5000   118.6757     6.7251     6.6720
  189.0000   120.8216     6.2879     6.2244
  189.5000   123.1483     5.8791     5.8068
  190.0000   124.3108     5.4968     5.4173
  190.5000   125.9208     5.3446     5.0937
  191.0000   125.0264     5.1884     5.1535
  191.5000   122.7976     5.2692     5.3105
  192.0000   120.4166     5.4330     5.5555
  192.5000   118.5386     5.6018     5.8111
  193.0000   119.8185     5.6889     6.0816
  193.5000   121.0491     6.0567     6.4821
  194.0000   119.4699     6.4391     6.9921
  194.5000   116.1135     6.8456     7.5689
  195.0000   115.8202     7.2951     7.8529
  195.5000   117.5945     7.6953     8.2230
  196.0000   119.3661     7.8267     8.1520
  196.5000   120.5791     7.8842     7.9989
  197.0000   121.6793     7.9426     8.0310
  197.5000   123.5647     8.0026     8.0789
  198.0000   123.1838     8.0630     8.1272
  198.5000   121.4337     8.1238     8.2130
  199.0000   122.9722     8.2670     8.3278
  199.5000   125.6415     8.4534     8.4441
  200.0000   126.9320     8.4794     8.5620
  200.5000   128.1853     8.5177     8.6816
  201.0000   128.6531     8.5561     8.8028
  201.5000   128.0310     8.5947     8.9257
  202.0000   124.6026     8.6336     9.0163
  202.5000   120.5543     8.6726     9.0163
  203.0000   118.0666     8.7020     9.0164
  203.5000   117.8216     8.7228     9.0163
  204.0000   119.1019     8.7438     9.0165
  204.5000   120.3721     8.7706     9.0163
  205.0000   121.2604     8.7269     8.9485
  205.5000   122.2899     8.6670     8.8233
  206.0000   121.2885     8.6076     8.6997
  206.5000   119.5973     8.5486     8.5779
  207.0000   118.5387     8.5316     8.4579
  207.5000   121.0987     8.5316     8.3394
  208.0000   123.9670     8.5316     8.2227
  208.5000   124.4067     8.5321     8.0729
  209.0000   123.7112     8.5324     8.2230
  209.5000   124.5666     8.3050     8.0903
  210.0000   124.3940     8.0684     7.8540
  210.5000   123.1055     7.9256     7.6389
  211.0000   122.8166     7.5519     7.6402
  211.5000   125.4889     7.1449     6.9282
  212.0000   128.0204     6.7599     6.4258
  212.5000   125.6669     6.4125     5.9596
  213.0000   123.7800     5.7760     5.5275
  213.5000   124.9896     5.2274     5.1267
  214.0000   128.0640     4.6029     4.6760
  214.5000   129.4057     4.0669     3.9505
  215.0000   126.9625     3.5882     3.4505
  215.5000   123.3679     3.1658     3.0682
  216.0000   121.4724     2.8306     2.7283
  216.5000   120.6593     2.7083     2.4917
  217.0000   120.2556     2.5754     2.4380
  217.5000   117.4630     2.5525     2.6011
  218.0000   114.4747     2.6620     2.8021
  218.5000   114.0993     2.8667     3.0289
  219.0000   116.9455     3.1028     3.2773
  219.5000   119.7272     3.3345     3.7536
  220.0000   119.7476     3.8818     4.4252
  220.5000   120.4384     4.4626     5.0984
  221.0000   123.1585     5.1303     5.6479
  221.5000   128.8506     5.7575     6.1253
  222.0000   132.9055     6.2790     6.4125
  222.5000   135.1892     6.6354     6.5582
  223.0000   136.8834     6.8300     6.6070
  223.5000   137.9167     6.9668     6.6532
  224.0000   136.9863     6.8866     6.7676
  224.5000   134.3210     6.8315     6.8290
  225.0000   131.6898     6.7769     6.9049
  225.5000   132.2652     6.7769     6.8247
  226.0000   131.9328     6.4142     6.6438
  226.5000   129.5399     6.0850     6.3565
  227.0000   127.6601     5.7727     6.0367
  227.5000   130.2325     5.4764     5.7331
  228.0000   137.0171     5.1954     5.4447
  228.5000   144.7634     4.9094     5.1708
  229.0000   147.7679     4.8075     4.9637
  229.5000   142.7007     4.6997     4.8602
  230.0000   133.1034     4.5607     4.7589
  230.5000   123.6583     4.6204     4.6885
  231.0000   120.5062     4.7103     4.8194
  231.5000   123.2978     4.8951     5.0799
  232.0000   129.0116     5.1177     5.3544
  232.5000   134.3592     5.3662     5.6434
  233.0000   137.4650     5.6831     5.9479
  233.5000   140.0668     6.0141     6.2688
  234.0000   139.3291     6.3655     6.6074
  234.5000   136.8263     6.7373     6.9617
  235.0000   135.3000     7.1619     7.3170
  235.5000   136.1378     7.3337     7.4735
  236.0000   135.2139     7.5204     7.6373
  236.5000   133.1682     7.7131     7.8046
  237.0000   131.2455     7.8529     8.0729
  237.5000   131.5948     7.7559     7.9492
  238.0000   132.7338     7.6396     7.8152
  238.5000   133.8482     7.4578     7.6835
  239.0000   134.3078     7.2951     7.5540
  239.5000   134.3085     7.2409     7.4272
  240.0000   136.4476     7.0995     7.2978
  240.5000   137.5655     6.9306     7.2951
  241.0000   136.3770     6.7022     6.9168
  241.5000   137.2052     6.4076     6.6204
  242.0000   138.8884     6.1260     6.3368
  242.5000   140.6535     5.7510     6.0678
  243.0000   142.4389     5.3271     5.5502
  243.5000   144.0000     5.0088     5.0811
  244.0000   141.6647     4.8789     4.6516
  244.5000   136.2325     4.7756     4.4774
  245.0000   135.8849     4.8964     4.7063
  245.5000   137.5748     5.0007     5.0603
  246.0000   138.5506     5.1325     5.4447
  246.5000   137.9594     5.4510     5.8579
  247.0000   139.5239     5.8355     6.3021
  247.5000   142.8297     6.2807     6.7364
  248.0000   144.5884     6.7599     7.0689
  248.5000   145.7817     7.2951     7.2282
  249.0000   145.8878     7.3491     7.3789
  249.5000   144.6257     7.4056     7.4995
  250.0000   142.3781     7.4625     7.5757
  250.5000   139.8133     7.5198     7.6489
  251.0000   138.9745     7.5776     7.7229
  251.5000   138.5943     7.6358     7.7975
  252.0000   137.8408     7.6944     7.8729
  252.5000   136.8901     7.7809     7.9256
  253.0000   136.4888     7.7534     7.8672
  253.5000   137.5878     7.7027     7.8152
  254.0000   138.7775     7.6525     7.7635
  254.5000   139.9483     7.6020     7.7122
  255.0000   139.6714     7.5640     7.6612
  255.5000   138.3545     7.5478     7.6389
  256.0000   136.9401     7.5321     7.6390
  256.5000   135.7038     7.5163     7.6389
  257.0000   136.8618     7.4996     7.6389
  257.5000   140.3075     7.4996     7.6389
  258.0000   143.3425     7.4992     7.6391
  258.5000   141.6100     7.4989     7.6406
  259.0000   138.8073     7.4995     7.6389
  259.5000   140.6843     7.3100     7.4314
  260.0000   143.2352     7.1042     7.2457
  260.5000   145.6786     6.9043     7.0647
  261.0000   147.2125     6.7100     6.8882
  261.5000   149.4448     6.5212     6.7160
  262.0000   151.9672     6.3376     6.5482
  262.5000   154.4748     6.2493     6.3839
  263.0000   153.9287     6.1895     6.3048
  263.5000   151.1102     6.1302     6.2378
  264.0000   146.7621     6.0678     6.3390
  264.5000   142.9492     5.9048     6.4125
  265.0000   142.6684     5.6926     5.8771
  265.5000   144.2227     5.4883     5.5122
  266.0000   145.7572     5.2331     5.1699
  266.5000   146.7895     5.2387     4.8489
  267.0000   147.2922     5.1408     4.7756
  267.5000   146.7049     5.0937     4.9457
  268.0000   145.1682     5.3058     5.0754
  268.5000   142.9649     5.5661     5.2681
  269.0000   141.3090     5.8406     5.5264
  269.5000   139.8905     6.1284     5.7995
  270.0000   140.4712     6.4311     6.0846
  270.5000   141.7661     6.7787     6.3843
  271.0000   140.9430     7.0284     6.6987
  271.5000   138.6984     7.1194     7.0963
  272.0000   136.4853     7.2282     7.0188
  272.5000   136.3033     7.0627     6.9029
