~VERSION INFORMATION
 VERS.                2.0:   CWLS LOG ASCII STANDARD - VERSION 2.0
 WRAP.                 NO:   ONE LINE PER DEPTH STEP
~WELL INFORMATION
#MNEM.UNIT      DATA TYPE    INFORMATION
#----------   ------------   ------------------------------
 STRT.F            0.0000:   START DEPTH
 STOP.F          484.0000:   STOP DEPTH
 STEP.F            0.5000:   STEP LENGTH
 NULL.          -999.2500:   NO VALUE
 COMP. LAWRENCE/ALLISON INC:   COMPANY
 WELL.  NPR 3 #68-63-SX-3:   WELL
 FLD .             TEAPOT:   FIELD
 LOC .       S3 T38N R78W:   LOCATION
 CNTY.            NATRONA:   COUNTY
 STAT.            WYOMING:   STATE
 CTRY. UNITED STATES OF AMERICA:   COUNTRY
 SRVC.           Gearhart:   SERVICE COMPANY
 DATE.        29-JUN-1988:   LOGDATE
 API .       490251122900:   API NUMBER
~CURVE INFORMATION
#MNEM.UNIT       API CODE    CURVE DESCRIPTION
#----------   ------------   ------------------------------
 DEPT.F                  :   
 GRR .GAPI   07 310 01 00:   GAMMA RAY FROM RES. LOG.
 ILD .OHMM   07 120 46 00:   INDUCTION LOG DEEP
 ILM .OHMM   07 120 44 00:   INDUCTION LOG MEDIUM
 CALI.IN     70 280 01 00:   CALIPER
~PARAMETER INFORMATION
#MNEM.UNIT          VALUE    DESCRIPTION
#----------   ------------   ------------------------------
 PD  .                 GL:   PERMANENT DATUM
 EPD .F              5158:   ELEVATION PERMANENT DATUM
 LMF .                 KB:   LOG MEASURED FROM
 DAPD.F                10:   FEET ABOVE PERMANENT DATUM
 DMF .                 KB:   DRILLING MEASURED FROM
 EKB .F              5168:   KELLING BUSHING
 EGL .F              5158:   GROUND LEVEL
 DATE.            6-29-88:   RUN DATE
 RUN .                  1:   RUN NUMBER
 DD  .F               490:   DEPTH DRILLER
 DL  .F             492.5:   DEPTH LOGGER
 BLI .F               484:   BOTTOM LOG INTERVAL
 TLI .F                49:   TOP LOG INTERVAL
 CS  .IN            9.625:   CASING SIZE
 CBD .F                49:   CASING BOTTOM DRILLER
 CBL .F                49:   CASING BOTTOM LOGGER
 BS  .IN             8.75:   BIT SIZE
 BSD .F               490:   BIT SIZE AT DEPTH
 DFT .                AIR:   DRILLING FLUID TYPE
 TLAB.HRS            1000:   TIME LOGGER AT BOTTOM
 MRT .F                70:   MAXIMUM RECORDED TEMPERATURE
 LUN .               7597:   LOGGING UNIT NUMBER
 LUL .           GILLETTE:   LOGGING UNIT LOCATION
 ENGI.          HUCKFELDT:   RECORDING ENGINEER
 WITN.              FIVAS:   WITNESSED BY
 CLNT.            A2DTECH:   CLIENT CODE
 ORIG.  2", 5", 10" PRINT:   ORIGIN OF DATA
 UWI .       490251122900:   UNIQUE WELL ID
 DICO. A2D Technologies, Inc.:   DIGITIZING COMPANY
~OTHER INFORMATION
~A    DEPT      GRR       ILD        ILM       CALI   
    0.0000    16.8357  -999.2500  -999.2500  -999.2500
    0.5000    16.6860  -999.2500  -999.2500  -999.2500
    1.0000    14.3377  -999.2500  -999.2500  -999.2500
    1.5000    10.9603  -999.2500  -999.2500  -999.2500
    2.0000     7.8041  -999.2500  -999.2500  -999.2500
    2.5000     7.1333  -999.2500  -999.2500  -999.2500
    3.0000     8.2983  -999.2500  -999.2500  -999.2500
    3.5000    11.0649  -999.2500  -999.2500  -999.2500
    4.0000    16.8627  -999.2500  -999.2500  -999.2500
    4.5000    21.0658  -999.2500  -999.2500  -999.2500
    5.0000    24.3923  -999.2500  -999.2500  -999.2500
    5.5000    27.4459  -999.2500  -999.2500  -999.2500
    6.0000    30.2080  -999.2500  -999.2500  -999.2500
    6.5000    31.8135  -999.2500  -999.2500  -999.2500
    7.0000    33.2047  -999.2500  -999.2500  -999.2500
    7.5000    34.5728  -999.2500  -999.2500  -999.2500
    8.0000    36.7667  -999.2500  -999.2500  -999.2500
    8.5000    39.6369  -999.2500  -999.2500  -999.2500
    9.0000    43.8601  -999.2500  -999.2500  -999.2500
    9.5000    48.0140  -999.2500  -999.2500    15.5463
   10.0000    52.2034  -999.2500  -999.2500    11.5317
   10.5000    54.0821  -999.2500  -999.2500     9.8415
   11.0000    52.9270  -999.2500  -999.2500    10.0690
   11.5000    51.7603  -999.2500  -999.2500    10.4164
   12.0000    52.1404  -999.2500  -999.2500    10.5819
   12.5000    53.0262  -999.2500  -999.2500    10.5218
   13.0000    54.1736  -999.2500  -999.2500    10.4398
   13.5000    56.4745  -999.2500  -999.2500    10.4098
   14.0000    60.9326  -999.2500  -999.2500    10.3475
   14.5000    62.8030  -999.2500  -999.2500    10.2559
   15.0000    63.0934  -999.2500  -999.2500    10.1770
   15.5000    63.1095  -999.2500  -999.2500    10.1525
   16.0000    61.1651  -999.2500  -999.2500    10.1343
   16.5000    61.8792  -999.2500  -999.2500    10.1258
   17.0000    62.7574  -999.2500  -999.2500    10.1400
   17.5000    63.7264  -999.2500  -999.2500    10.1833
   18.0000    65.1635  -999.2500  -999.2500    10.2311
   18.5000    66.5940  -999.2500  -999.2500    10.2788
   19.0000    67.5673  -999.2500  -999.2500    10.3268
   19.5000    67.5238  -999.2500  -999.2500    10.3961
   20.0000    66.3476  -999.2500  -999.2500    10.3864
   20.5000    65.0627  -999.2500  -999.2500    10.3616
   21.0000    63.7871  -999.2500  -999.2500    10.2816
   21.5000    62.6414  -999.2500  -999.2500    10.2143
   22.0000    63.5742  -999.2500  -999.2500    10.1869
   22.5000    65.2980  -999.2500  -999.2500    10.2157
   23.0000    67.0838  -999.2500  -999.2500    10.2984
   23.5000    68.2868  -999.2500  -999.2500    10.4051
   24.0000    66.4449  -999.2500  -999.2500    10.5152
   24.5000    65.9339  -999.2500  -999.2500    10.5699
   25.0000    65.9201  -999.2500  -999.2500    10.4665
   25.5000    65.9400  -999.2500  -999.2500    10.3504
   26.0000    65.2038  -999.2500  -999.2500    10.2769
   26.5000    65.1118  -999.2500  -999.2500    10.2029
   27.0000    65.1102  -999.2500  -999.2500    10.1268
   27.5000    65.1103  -999.2500  -999.2500    10.1040
   28.0000    65.1065  -999.2500  -999.2500    10.0838
   28.5000    65.1356  -999.2500  -999.2500    10.0826
   29.0000    65.7583  -999.2500  -999.2500    10.0833
   29.5000    68.5728  -999.2500  -999.2500    10.1184
   30.0000    69.9905  -999.2500  -999.2500    10.1977
   30.5000    69.5628  -999.2500  -999.2500    10.3685
   31.0000    67.7307  -999.2500  -999.2500    10.4142
   31.5000    66.4312  -999.2500  -999.2500    10.4182
   32.0000    65.9850  -999.2500  -999.2500    10.3669
   32.5000    65.8017  -999.2500  -999.2500    10.3384
   33.0000    65.6609  -999.2500  -999.2500    10.4412
   33.5000    65.4847  -999.2500  -999.2500    10.5417
   34.0000    64.3198  -999.2500  -999.2500    10.5949
   34.5000    62.4374  -999.2500  -999.2500    10.5502
   35.0000    60.5533  -999.2500  -999.2500    10.4582
   35.5000    59.8833  -999.2500  -999.2500    10.3661
   36.0000    60.8519  -999.2500  -999.2500    10.2739
   36.5000    61.8728  -999.2500  -999.2500    10.1789
   37.0000    62.8782  -999.2500  -999.2500    10.2257
   37.5000    63.4942  -999.2500  -999.2500    10.3041
   38.0000    63.4876  -999.2500  -999.2500    10.3828
   38.5000    63.6066  -999.2500  -999.2500    10.4473
   39.0000    64.2906  -999.2500  -999.2500    10.4043
   39.5000    64.9648  -999.2500  -999.2500    10.3368
   40.0000    65.6460  -999.2500  -999.2500    10.2407
   40.5000    65.9202  -999.2500  -999.2500    10.0201
   41.0000    65.6926  -999.2500  -999.2500     9.8843
   41.5000    64.2176  -999.2500  -999.2500     9.8282
   42.0000    62.7927  -999.2500  -999.2500     9.8665
   42.5000    61.8726  -999.2500  -999.2500     9.9360
   43.0000    63.0715  -999.2500  -999.2500    10.0066
   43.5000    65.1605  -999.2500  -999.2500    10.0777
   44.0000    67.3188  -999.2500  -999.2500    10.1410
   44.5000    68.9011  -999.2500  -999.2500    10.0850
   45.0000    69.1635  -999.2500  -999.2500     9.9061
   45.5000    68.7010  -999.2500  -999.2500     9.7339
   46.0000    68.4547  -999.2500  -999.2500     9.6868
   46.5000    69.3629  -999.2500  -999.2500     9.7891
   47.0000    70.7479  -999.2500  -999.2500     9.8882
   47.5000    72.3159  -999.2500  -999.2500     9.9382
   48.0000    75.5566  -999.2500  -999.2500     9.9005
   48.5000    84.6067  -999.2500  -999.2500     9.4515
   49.0000    94.2397    15.9397   238.1154     9.0551
   49.5000   104.2329     5.9289    48.7253     8.7703
   50.0000   110.8243     2.0000     9.5231     8.7464
   50.5000   115.6084     1.9424     9.7959     9.4241
   51.0000   118.5294     2.6900     2.9017    10.3356
   51.5000   120.0968     4.0955     2.8482    11.1546
   52.0000   121.3270     6.2352     4.0560    11.1992
   52.5000   119.6158     9.8161     4.9325    10.7390
   53.0000   117.8997    10.3796     6.1064    10.6821
   53.5000   116.4524     8.3026     7.5229    10.9004
   54.0000   115.6665     7.7558     8.9628    10.9365
   54.5000   115.4943     7.3568     9.7252    10.9612
   55.0000   116.0530     7.5449     9.1375    11.0788
   55.5000   116.6832     7.9048     8.5897    11.2119
   56.0000   119.1844     8.3638     8.0597    11.3286
   56.5000   121.7994     9.0332     7.6371    11.3239
   57.0000   124.2693     9.1972     7.6331    11.1530
   57.5000   123.9543     9.1972     7.8425    10.9572
   58.0000   121.9379     9.1196     8.0061    10.7526
   58.5000   121.2600     8.6580     8.1495    10.7050
   59.0000   120.6428     8.2237     8.0125    10.7446
   59.5000   120.0189     8.1243     7.9252    10.8601
   60.0000   119.3905     8.0789     7.8988    10.9314
   60.5000   119.1574     8.0366     7.8517    10.8986
   61.0000   121.5010     7.9953     7.8524    10.6719
   61.5000   123.9004     7.9252     7.7080    10.3542
   62.0000   124.9450     7.9252     7.5890    10.2000
   62.5000   122.2898     7.9252     7.4949    10.2956
   63.0000   118.7673     7.9583     7.5125    10.4862
   63.5000   117.0200     7.9996     7.5300    10.7008
   64.0000   118.1465     8.0414     7.5476    10.7855
   64.5000   119.3665     8.1003     7.5650    10.6551
   65.0000   118.2443     8.2232     7.6682    10.4958
   65.5000   117.1447     8.3480     7.8425    10.3316
   66.0000   116.2595     8.4747     8.0653    10.3418
   66.5000   116.8943     8.6034     8.1550    10.4774
   67.0000   118.5926     8.7340     8.1788    10.6125
   67.5000   120.1890     8.8612     8.2028    10.7422
   68.0000   118.9665     8.9735     8.2257    10.6974
   68.5000   117.8294     9.0828     8.3072    10.5425
   69.0000   117.8479     9.1936     8.3802    10.3897
   69.5000   117.7262     9.3058     8.5952    10.2477
   70.0000   115.9742     9.4186     8.8545    10.2458
   70.5000   112.6923     9.4589     8.9441    10.4199
   71.0000   113.8732     9.3553     8.8804    10.5885
   71.5000   117.9764     9.2752     8.8366    10.6633
   72.0000   119.4307     9.1957     8.7931    10.6277
   72.5000   120.2818     9.1170     8.7792    10.4867
