~VERSION INFORMATION
 VERS.                2.0:   CWLS LOG ASCII STANDARD - VERSION 2.0
 WRAP.                 NO:   ONE LINE PER DEPTH STEP
~WELL INFORMATION
#MNEM.UNIT      DATA TYPE    INFORMATION
#----------   ------------   ------------------------------
 STRT.F          100.0000:   START DEPTH
 STOP.F          874.0000:   STOP DEPTH
 STEP.F            0.5000:   STEP LENGTH
 NULL.          -999.2500:   NO VALUE
 COMP. U S NAVY-INTEX OIL:   COMPANY
 WELL.     NPR #3 #45-S-2:   WELL
 FLD .             TEAPOT:   FIELD
 LOC .       S2 T38N R78W:   LOCATION
 CNTY.            NATRONA:   COUNTY
 STAT.            WYOMING:   STATE
 CTRY. UNITED STATES OF AMERICA:   COUNTRY
 SRVC.       Schlumberger:   SERVICE COMPANY
 DATE.        15-JUL-1962:   LOGDATE
 API .       490250642400:   API NUMBER
~CURVE INFORMATION
#MNEM.UNIT       API CODE    CURVE DESCRIPTION
#----------   ------------   ------------------------------
 DEPT.F                  :   
 ASN .OHMM   05 041 16 00:   AMPLIFIED SHORT NORMAL 16"
 CILD.MMHO   05 110 46 00:   CONDUCTIVITY INDUCTION LOG DEEP
 ILD .OHMM   05 120 46 00:   INDUCTION LOG DEEP
 SPR .MV     05 010 01 00:   SPONTANEOUS POTENTIAL FROM RES.
 GR  .GAPI   30 310 01 00:   GAMMA RAY
~PARAMETER INFORMATION
#MNEM.UNIT          VALUE    DESCRIPTION
#----------   ------------   ------------------------------
 LMF .                 KB:   LOG MEASURED FROM
 DMF .                 KB:   DRILLING MEASURED FROM
 EKB .F              5149:   KELLING BUSHING
 EGL .F              5144:   GROUND LEVEL
 DATE.        15-JUL-1962:   RUN DATE
 RUN .                  1:   RUN NUMBER
 DD  .F               875:   DEPTH DRILLER
 DL  .F               875:   DEPTH LOGGER
 BLI .F               874:   BOTTOM LOG INTERVAL
 TLI .F               100:   TOP LOG INTERVAL
 BS  .IN             6.75:   BIT SIZE
 BSD .F               875:   BIT SIZE AT DEPTH
 DFT .           OIL EMUL:   DRILLING FLUID TYPE
 DFD .               10.2:   DRILLING FLUID DENSITY
 DFV .                 42:   DRILLING FLUID VISCOSITY
 DFL .                4.6:   DRILLING FLUID LOSS
 RMS .OHMM            6.0:   RESISTIVITY MUD SAMPLE
 MST .F                64:   MUD SAMPLE TEMPERATURE
 RMF .OHMM            5.8:   RESISTIVITY MUD FILTRATE SAMPLE
 MFST.F                64:   MUD FILTRATE SAMPLE TEMPERATURE
 RMC .OHMM            5.2:   RESISTIVITY MUD CAKE
 MCST.F                66:   MUD CAKE SAMPLE TEMPERATURE
 TCS .HRS             0.5:   TIME CURCULATED STOPPED
 LUN .               2503:   LOGGING UNIT NUMBER
 LUL .               CSPR:   LOGGING UNIT LOCATION
 ENGI.           ELLERMAN:   RECORDING ENGINEER
 WITN.          JORGENSON:   WITNESSED BY
 CLNT.            A2DTECH:   CLIENT CODE
 ORIG.           5" PRINT:   ORIGIN OF DATA
 UWI .       490250642400:   UNIQUE WELL ID
 DICO. A2D Technologies, Inc.:   DIGITIZING COMPANY
~OTHER INFORMATION
~A   DEPT        ASN      CILD       ILD        SPR         GR   
# ...
  283.0000     6.6213   157.3625     6.7350   -40.4115  -999.2500
  283.5000     6.5920   158.8188     6.7373   -40.4066  -999.2500
  284.0000     6.5929   158.7576     6.7399   -40.5508  -999.2500
  284.5000     6.5787   158.6864     6.7418   -40.5435  -999.2500
  285.0000     6.5643   157.1124     6.7443   -40.3886  -999.2500
  285.5000     6.5351   156.2960     6.7465   -40.3827  -999.2500
  286.0000     6.5059   155.4796     6.7486   -40.3765  -999.2500
  286.5000     6.5517   153.1480     6.8256   -40.3707  -999.2500
  287.0000     6.7770   150.8164     6.9027   -40.5143  -999.2500
  287.5000     6.9898   146.9697     7.0609   -40.8074  -999.2500
  288.0000     7.1828   142.9395     7.3567   -40.9511  -999.2500
  288.5000     7.2883   135.4737     7.5086   -40.9438  -999.2500
  289.0000     7.3639   129.3542     7.8102   -40.9379  -999.2500
  289.5000     7.4245   123.9923     8.0369   -41.0830  -999.2500
  290.0000     7.4701   120.9032     8.2637   -41.5242  -999.2500
  290.5000     7.5008   118.5716     8.4155   -42.5647  -999.2500
  291.0000     7.4865   117.7552     8.5674   -42.8580  -999.2500
  291.5000     7.4421   117.6667     8.5696   -42.4035  -999.2500
  292.0000     7.3174   119.2121     8.4221   -41.7897  -999.2500
  292.5000     7.0847   122.1094     8.1254   -41.3453  -999.2500
  293.0000     6.9657   125.8385     7.9030   -40.8898  -999.2500
  293.5000     6.8317   139.4160     7.5310   -40.5850  -999.2500
  294.0000     6.6378   163.5996     7.0092   -40.3956  -999.2500
  294.5000     6.3541   196.8741     6.4126   -40.2744  -999.2500
  295.0000     5.4716   236.9668     5.6663   -40.1191  -999.2500
  295.5000     4.9334   292.2109     4.5457   -40.1133  -999.2500
  296.0000     4.2385   344.6359     3.7894   -40.0429  -999.2500
  296.5000     3.7823   413.2421     3.2781   -39.9521  -999.2500
  297.0000     3.4388   448.0803     2.9061   -39.9462  -999.2500
  297.5000     3.2598   481.3548     2.6837   -39.7907  -999.2500
  298.0000     3.2007   494.9323     2.6110   -39.6342  -999.2500
  298.5000     3.2014   484.2674     2.7629   -39.6284  -999.2500
  299.0000     3.3069   461.4813     3.0645   -39.6225  -999.2500
  299.5000     3.6520   406.8770     3.5906   -39.6167  -999.2500
  300.0000     4.1325   339.3940     4.4162   -39.7618  -999.2500
  300.5000     4.6009   271.9216     5.0941   -40.6851  -999.2500
  301.0000     5.9077   192.3317     5.9959   -41.6877  -999.2500
  301.5000     7.4690   143.0449     7.9457   -42.2783  -999.2500
  302.0000     8.1786    95.8486    10.1200   -43.0185  -999.2500
  302.5000     9.1617    79.6715    11.8452   -43.4614  -999.2500
  303.0000     9.6834    69.4156    12.6722   -43.6037  -999.2500
  303.5000     9.9423    68.6248    12.8255   -43.2956  -999.2500
  304.0000     9.9168    79.1753    11.5838   -42.8399  -999.2500
  304.5000     9.7116    91.2521    10.4385   -42.3767  -999.2500
  305.0000     9.4614   104.0865     9.0200   -41.9615  -999.2500
  305.5000     9.0467   128.2845     7.7512   -41.4710  -999.2500
  306.0000     8.3175   158.5431     7.0064   -41.1648  -999.2500
  306.5000     7.5135   170.6199     6.2615   -40.8586  -999.2500
  307.0000     6.7355   178.1512     6.1146   -40.5524  -999.2500
  307.5000     6.3149   185.7323     6.1191   -40.3957  -999.2500
  308.0000     6.4200   188.6684     6.0479   -40.2389  -999.2500
  308.5000     6.4992   186.3402     5.9019   -40.8296  -999.2500
  309.0000     6.6982   176.4473     6.2807   -42.0478  -999.2500
  309.5000     7.7205   159.7362     7.1825   -43.5038  -999.2500
  310.0000     8.7429   143.7827     8.0844   -44.0963  -999.2500
  310.5000     9.3461   126.3140     8.9862   -43.7882  -999.2500
  311.0000     9.5750   103.5424     9.5887   -43.1831  -999.2500
  311.5000     9.8788    92.8919    10.0414   -42.7274  -999.2500
  312.0000    10.0644    87.5444    10.4942   -42.8714  -999.2500
  312.5000    10.1424    85.2273    10.7972   -43.0118  -999.2500
  313.0000    10.5210    83.5961    11.1033   -43.1590  -999.2500
  313.5000    10.9047    80.5819    11.4875   -43.5952  -999.2500
  314.0000    11.3633    78.2647    11.8570   -43.8851  -999.2500
  314.5000    11.7329    76.7052    12.0103   -44.0291  -999.2500
  315.0000    11.9618    74.3880    12.1637   -44.0200  -999.2500
  315.5000    12.0410    73.5860    12.2422   -43.8633  -999.2500
  316.0000    12.1203    72.7840    12.3207   -43.8560  -999.2500
  316.5000    12.2744    72.7396    12.3243   -43.9982  -999.2500
  317.0000    12.2787    72.6952    12.4027   -44.5889  -999.2500
  317.5000    12.4328    72.6508    12.4065   -45.0423  -999.2500
  318.0000    12.5120    72.6061    12.4102   -46.0673  -999.2500
  318.5000    12.5913    72.5606    12.4139   -46.3608  -999.2500
  319.0000    12.7455    71.7488    12.4932   -46.0528  -999.2500
  319.5000    12.8257    71.7044    12.4968   -45.4476  -999.2500
  320.0000    12.9049    70.9024    12.6502   -45.1414  -999.2500
  320.5000    12.9943    70.8580    12.8784   -44.8370  -999.2500
  321.0000    13.1386    70.0560    13.1066   -45.4258  -999.2500
  321.5000    13.2171    69.2540    13.2599   -46.0189  -999.2500
  322.0000    13.3713    68.4520    13.4461   -46.4576  -999.2500
  322.5000    13.5256    67.6500    13.5666   -46.2991  -999.2500
  323.0000    13.6797    66.0905    13.7201   -46.1423  -999.2500
  323.5000    13.8338    66.0050    13.8742   -45.9856  -999.2500
  324.0000    13.9556    65.9979    13.9527   -46.2773  -999.2500
  324.5000    14.1422    65.9535    14.1061   -46.8679  -999.2500
  325.0000    14.3089    65.9091    14.0343   -47.6081  -999.2500
  325.5000    14.4506    65.1061    14.2634   -48.1987  -999.2500
  326.0000    14.6802    65.0516    14.5664   -48.1814  -999.2500
  326.5000    14.8342    64.2496    14.7946   -47.7339  -999.2500
  327.0000    15.0632    62.6900    15.0977   -47.5772  -999.2500
  327.5000    15.2921    61.7172    15.3259   -47.7212  -999.2500
  328.0000    15.5210    60.3284    15.5541   -48.0129  -999.2500
  328.5000    15.8274    58.5253    16.0068   -48.3046  -999.2500
  329.0000    16.1487    57.2093    16.3099   -48.4450  -999.2500
  329.5000    16.5832    55.6497    16.6951   -48.5872  -999.2500
  330.0000    16.8121    54.0902    17.1414   -48.8789  -999.2500
  330.5000    17.1159    52.5102    17.4445   -49.3373  -999.2500
  331.0000    17.4945    51.6364    17.7475   -49.4623  -999.2500
  331.5000    17.7983    50.1579    17.9757   -47.9585  -999.2500
  332.0000    18.0272    49.3559    18.2788   -47.6522  -999.2500
  332.5000    18.3310    48.5539    18.5070   -48.2429  -999.2500
  333.0000    18.5600    48.5095    18.5855   -49.4314  -999.2500
  333.5000    18.5643    47.7075    18.3646   -50.1716  -999.2500
  334.0000    18.4190    47.6631    17.8403   -51.2106  -999.2500
  334.5000    18.2748    48.3874    17.4641   -52.5561  -999.2500
  335.0000    18.1295    49.0894    17.1031   -52.9898  -999.2500
  335.5000    18.1339    49.8030    16.9570   -53.1321  -999.2500
  336.0000    18.0623    51.2733    16.8858   -53.2743  -999.2500
  336.5000    17.9918    51.9865    16.7407   -53.5641  -999.2500
  337.0000    17.8465    52.6996    16.6686   -53.5569  -999.2500
  337.5000    17.7769    52.6441    16.5983   -53.4001  -999.2500
  338.0000    17.5570    52.5997    16.6019   -53.2434  -999.2500
  338.5000    17.4116    52.5553    16.6056   -52.6382  -999.2500
  339.0000    17.2465    52.5109    16.6093   -52.1525  -999.2500
  339.5000    16.9713    52.4664    16.6130   -50.9777  -999.2500
  340.0000    16.7522    52.4220    16.6174   -50.2230  -999.2500
  340.5000    16.6058    52.3776    16.3962   -49.4684  -999.2500
  341.0000    16.3867    52.3332    16.3999   -49.1621  -999.2500
  341.5000    16.1666    53.8039    16.1790   -49.0054  -999.2500
  342.0000    15.7967    54.6465    15.5818   -48.9981  -999.2500
  342.5000    15.4268    62.0373    14.5796   -48.5424  -999.2500
  343.0000    14.9073    71.8414    13.1220   -47.7778  -999.2500
  343.5000    13.7715    80.8879    12.2274   -46.5396  -999.2500
