~VERSION INFORMATION
 VERS.                2.0:   CWLS LOG ASCII STANDARD - VERSION 2.0
 WRAP.                 NO:   ONE LINE PER DEPTH STEP
~WELL INFORMATION
#MNEM.UNIT      DATA TYPE    INFORMATION
#----------   ------------   ------------------------------
 STRT.F          648.0000:   START DEPTH
 STOP.F         2443.0000:   STOP DEPTH
 STEP.F            0.5000:   STEP LENGTH
 NULL.          -999.2500:   NO VALUE
 COMP.    FENIX & SCISSON:   COMPANY
 WELL.  NPR #3 SHX-11 #22:   WELL
 FLD .             TEAPOT:   FIELD
 LOC .      S11 T38N R78W:   LOCATION
 CNTY.            NATRONA:   COUNTY
 STAT.            WYOMING:   STATE
 CTRY. UNITED STATES OF AMERICA:   COUNTRY
 SRVC.           BIRDWELL:   SERVICE COMPANY
 DATE.        23-APR-1978:   LOGDATE
 API .       490251061300:   API NUMBER
~CURVE INFORMATION
#MNEM.UNIT       API CODE    CURVE DESCRIPTION
#----------   ------------   ------------------------------
 DEPT.F                  :   
 CALD.IN     45 280 60 00:   CALIPER FROM DENSITY LOG
 CORR.G/C3   45 356 01 00:   DENSITY CORRECTION
 DPHI.DEC    45 890 12 00:   DENSITY POROSITY SANDSTONE
 GRD .GAPI   45 310 01 00:   GAMMA RAY FROM DENSITY LOG
 RHOB.G/C3   45 350 01 00:   BULK DENSITY
~PARAMETER INFORMATION
#MNEM.UNIT          VALUE    DESCRIPTION
#----------   ------------   ------------------------------
 PD  .                 GL:   PERMANENT DATUM
 EPD .F              5166:   ELEVATION PERMANENT DATUM
 LMF .                 KB:   LOG MEASURED FROM
 DMF .                 KB:   DRILLING MEASURED FROM
 EKB .F              5176:   KELLING BUSHING
 EGL .F              5166:   GROUND LEVEL
 DATE.        23-APR-1978:   RUN DATE
 RUN .                  1:   RUN NUMBER
 DD  .F              2450:   DEPTH DRILLER
 DL  .F              2450:   DEPTH LOGGER
 BLI .F              2443:   BOTTOM LOG INTERVAL
 TLI .F               670:   TOP LOG INTERVAL
 CS  .IN            9.625:   CASING SIZE
 CBD .F               660:   CASING BOTTOM DRILLER
 CBL .F               670:   CASING BOTTOM LOGGER
 BS  .IN             8.75:   BIT SIZE
 BSD .F              2450:   BIT SIZE AT DEPTH
 DFT .               MIST:   DRILLING FLUID TYPE
 LUN .               2958:   LOGGING UNIT NUMBER
 LUL .             CASPER:   LOGGING UNIT LOCATION
 ENGI.             MILLER:   RECORDING ENGINEER
 WITN.          MC GINLEY:   WITNESSED BY
 CLNT.            A2DTECH:   CLIENT CODE
 ORIG.           5" PRINT:   ORIGIN OF DATA
 UWI .       490251061300:   UNIQUE WELL ID
 DICO. A2D Technologies, Inc.:   DIGITIZING COMPANY
~OTHER INFORMATION
~A   DEPT     CALD       CORR       DPHI        GRD       RHOB   
  648.0000  -999.2500  -999.2500  -999.2500   114.1742  -999.2500
  648.5000  -999.2500  -999.2500  -999.2500   114.0155  -999.2500
  649.0000  -999.2500  -999.2500  -999.2500   114.0085  -999.2500
  649.5000  -999.2500  -999.2500  -999.2500   113.8513  -999.2500
  650.0000  -999.2500  -999.2500  -999.2500   113.8427  -999.2500
  650.5000  -999.2500  -999.2500  -999.2500   113.6855  -999.2500
  651.0000  -999.2500  -999.2500  -999.2500   113.5284  -999.2500
  651.5000  -999.2500  -999.2500  -999.2500   113.5197  -999.2500
  652.0000  -999.2500  -999.2500  -999.2500   113.5127  -999.2500
  652.5000  -999.2500  -999.2500  -999.2500   113.5057  -999.2500
  653.0000  -999.2500  -999.2500  -999.2500   113.4985  -999.2500
  653.5000  -999.2500  -999.2500  -999.2500   113.4910  -999.2500
  654.0000  -999.2500  -999.2500  -999.2500   113.4830  -999.2500
  654.5000  -999.2500  -999.2500  -999.2500   113.4760  -999.2500
  655.0000  -999.2500  -999.2500  -999.2500   113.4673  -999.2500
  655.5000  -999.2500  -999.2500  -999.2500   113.3102  -999.2500
  656.0000  -999.2500  -999.2500  -999.2500   113.1530  -999.2500
  656.5000  -999.2500  -999.2500  -999.2500   113.1443  -999.2500
  657.0000  -999.2500  -999.2500  -999.2500   112.9872  -999.2500
  657.5000  -999.2500  -999.2500  -999.2500   112.8300  -999.2500
  658.0000  -999.2500  -999.2500  -999.2500   112.8228  -999.2500
  658.5000  -999.2500  -999.2500  -999.2500   112.9662  -999.2500
  659.0000  -999.2500  -999.2500  -999.2500   112.9575  -999.2500
  659.5000  -999.2500  -999.2500  -999.2500   112.9504  -999.2500
  660.0000  -999.2500  -999.2500  -999.2500   112.9418  -999.2500
  660.5000  -999.2500  -999.2500  -999.2500   113.0867  -999.2500
  661.0000  -999.2500  -999.2500  -999.2500   113.0780  -999.2500
  661.5000  -999.2500  -999.2500  -999.2500   113.0692  -999.2500
  662.0000  -999.2500  -999.2500  -999.2500   112.9121  -999.2500
  662.5000  -999.2500  -999.2500  -999.2500   112.9051  -999.2500
  663.0000  -999.2500  -999.2500  -999.2500   113.0483  -999.2500
  663.5000  -999.2500  -999.2500  -999.2500   113.3416  -999.2500
  664.0000  -999.2500  -999.2500  -999.2500   113.3329  -999.2500
  664.5000  -999.2500  -999.2500  -999.2500   113.6262  -999.2500
  665.0000  -999.2500  -999.2500  -999.2500   113.6175  -999.2500
  665.5000  -999.2500  -999.2500  -999.2500   113.7606  -999.2500
  666.0000  -999.2500  -999.2500  -999.2500   113.7536  -999.2500
  666.5000  -999.2500  -999.2500  -999.2500   113.5948  -999.2500
  667.0000  -999.2500  -999.2500  -999.2500   113.5878  -999.2500
  667.5000  -999.2500  -999.2500  -999.2500   113.5808  -999.2500
  668.0000  -999.2500  -999.2500  -999.2500   113.5736  -999.2500
  668.5000  -999.2500  -999.2500  -999.2500   113.7170  -999.2500
  669.0000  -999.2500  -999.2500  -999.2500   114.4590  -999.2500
  669.5000  -999.2500  -999.2500  -999.2500   115.6581  -999.2500
  670.0000     5.6188    -0.1214     0.3002   116.2451     2.0521
  670.5000     6.3896    -0.0627     0.3005   116.5310     1.9500
  671.0000     7.7671     0.0923     0.3005   116.9736     1.9192
  671.5000     9.6386     0.3649     0.3011   117.7175     1.8786
  672.0000    10.4473     0.4498     0.3014   118.9112     1.8576
  672.5000    11.0464     0.4747     0.3005   131.0493     1.8734
  673.0000    11.3829     0.4792     0.2957   130.2638     1.9568
  673.5000    11.5111     0.4429     0.2306   128.6377     2.0034
  674.0000    11.5563     0.3691     0.2146   127.2826     2.0830
  674.5000    11.5716     0.3510     0.2321   125.4778     2.1281
  675.0000    11.5719     0.3479     0.2646   124.8723     2.1593
  675.5000    11.5722     0.3448     0.2415   129.2321     2.0883
  676.0000    11.5575     0.3207     0.1973   134.3047     2.1011
  676.5000    11.5428     0.2784     0.1748   135.6497     2.1657
  677.0000    11.5132     0.2767     0.1688   131.1448     2.2063
  677.5000    11.5135     0.2668     0.1535   119.5948     2.2407
  678.0000    11.4988     0.2240     0.1766   115.3912     2.2739
  678.5000    11.4991     0.2164     0.1962   114.9355     2.2694
  679.0000    11.4995     0.2149     0.2202   115.2284     2.2273
  679.5000    11.4997     0.2811     0.1962   117.3216     2.1838
  680.0000    11.5000     0.3096     0.1359   122.5632     2.1349
  680.5000    11.5003     0.2734     0.1215   125.4061     2.1169
  681.0000    11.5156     0.1890     0.1341   125.5503     2.1823
  681.5000    11.5237     0.1076     0.1350   122.3947     2.2416
  682.0000    11.5462     0.0940     0.1080   116.9916     2.3724
  682.5000    11.5614     0.0925     0.1218   117.5856     2.3153
  683.0000    11.5467     0.0924     0.1215   122.9772     2.3375
  683.5000    11.5470     0.0923     0.1218   127.1693     2.3544
  684.0000    11.5473     0.0923     0.1324   124.5947     2.3386
  684.5000    11.5476     0.0937     0.1339   124.3079     2.3326
  685.0000    11.5480     0.0952     0.1339   124.3021     2.3251
  685.5000    11.5482     0.0982     0.1327   124.1465     2.3146
  686.0000    11.5485     0.1101     0.1255   112.7464     2.3168
  686.5000    11.5488     0.1176     0.1147   113.5203     2.3266
  687.0000    11.5491     0.1221     0.1171   119.3302     2.3356
  687.5000    11.5494     0.1205     0.1003   119.3245     2.3439
  688.0000    11.5498     0.1114     0.0964   117.9694     2.3680
  688.5000    11.5500     0.1066     0.1051   112.1166     2.3779
  689.0000    11.5503     0.1037     0.0871   110.4617     2.3762
  689.5000    11.5656     0.1037     0.0904   108.4167     2.3657
  690.0000    11.5659     0.1036     0.0811   105.5013     2.3687
  690.5000    11.5662     0.1036     0.0691   105.1957     2.3935
  691.0000    11.5665     0.1035     0.0692   105.4913     2.4148
  691.5000    11.5518     0.0959     0.0677   106.0840     2.4281
  692.0000    11.5521     0.0913     0.0698   108.5570     2.4289
  692.5000    11.5524     0.0882     0.0725   111.4696     2.4289
  693.0000    11.5527     0.0867     0.0758   110.8628     2.4259
  693.5000    11.5530     0.0957     0.0866   110.5572     2.4169
  694.0000    11.5683     0.1065     0.0848   110.7014     2.4115
  694.5000    11.5686     0.1166     0.0770   110.8456     2.4079
  695.0000    11.5839     0.1166     0.1071   110.2387     2.4049
  695.5000    11.5692     0.1210     0.1065   109.3334     2.4011
  696.0000    11.5695     0.1345     0.1008   106.7789     2.3914
  696.5000    11.5548     0.0973     0.1414    99.2770     2.3823
  697.0000    11.5102     0.0516     0.1591    98.8066     2.3380
  697.5000    11.4655     0.0500     0.1873   100.2148     2.2787
  698.0000    11.4060     0.1268     0.0633   102.5567     2.3719
  698.5000    11.3464     0.0800     0.0522   103.9003     2.4538
  699.0000    11.3018     0.0634     0.0357   104.1958     2.4590
  699.5000    11.2523     0.0583     0.0339   103.1392     2.4598
  700.0000    11.1976     0.0542     0.0315    98.1859     2.4831
  700.5000    11.1679     0.0496     0.0270    98.7784     2.4921
  701.0000    11.1234     0.0481     0.0298    99.2239     2.4974
  701.5000    11.0787     0.0480     0.0331    98.6170     2.4981
  702.0000    11.0339     0.0464     0.0385   100.7103     2.4929
  702.5000    10.9745     0.0464     0.0319   102.8035     2.4876
  703.0000    10.9299     0.0463     0.0322   104.1768     2.4877
  703.5000    10.8704     0.0448     0.0392   105.3407     2.4982
  704.0000    10.8555     0.0462     0.0430   105.3336     2.4922
  704.5000    10.8324     0.0477     0.0440   105.7776     2.4802
  705.0000    10.8114     0.0536     0.0428   106.6714     2.4772
  705.5000    10.7967     0.0596     0.0299   108.6294     2.4772
  706.0000    10.7821     0.0535     0.0284   112.2057     2.4884
  706.5000    10.7824     0.0459     0.0260   111.3005     2.5020
  707.0000    10.7676     0.0353     0.0359   108.1463     2.5050
  707.5000    10.7530     0.0262     0.0371   103.2495     2.5012
  708.0000    10.7533     0.0291     0.0278   100.7885     2.4937
  708.5000    10.7386     0.0351     0.0275   100.0155     2.4876
