~VERSION INFORMATION
 VERS.                2.0:   CWLS LOG ASCII STANDARD - VERSION 2.0
 WRAP.                 NO:   ONE LINE PER DEPTH STEP
~WELL INFORMATION
#MNEM.UNIT      DATA TYPE    INFORMATION
#----------   ------------   ------------------------------
 STRT.F           44.0000:   START DEPTH
 STOP.F          666.0000:   STOP DEPTH
 STEP.F            0.5000:   STEP LENGTH
 NULL.          -999.2500:   NO VALUE
 COMP. FENIX & SCISSON INC:   COMPANY
 WELL.     NPR-3 #22SX-10:   WELL
 FLD .             TEAPOT:   FIELD
 LOC .      S10 T38N R78W:   LOCATION
 CNTY.            NATRONA:   COUNTY
 STAT.            WYOMING:   STATE
 CTRY. UNITED STATES OF AMERICA:   COUNTRY
 SRVC.            Unknown:   SERVICE COMPANY
 DATE.        11-JUL-1978:   LOGDATE
 API .       490251065600:   API NUMBER
~CURVE INFORMATION
#MNEM.UNIT       API CODE    CURVE DESCRIPTION
#----------   ------------   ------------------------------
 DEPT.F                  :   
 CALD.IN     45 280 60 00:   CALIPER FROM DENSITY LOG
 GRD .GAPI   45 310 01 00:   GAMMA RAY FROM DENSITY LOG
 CORR.G/C3   45 356 01 00:   DENSITY CORRECTION
 DPHI.DEC    45 890 12 00:   DENSITY POROSITY SANDSTONE
 RHOB.G/C3   45 350 01 00:   BULK DENSITY
 SPR .MV     05 010 01 00:   SPONTANEOUS POTENTIAL FROM RES.
 SN  .OHMM   05 040 16 00:   SHORT NORMAL 16"
 ILD .OHMM   05 120 46 00:   INDUCTION LOG DEEP
~PARAMETER INFORMATION
#MNEM.UNIT          VALUE    DESCRIPTION
#----------   ------------   ------------------------------
 PD  .                 GL:   PERMANENT DATUM
 EPD .F              5263:   ELEVATION PERMANENT DATUM
 LMF .                 KB:   LOG MEASURED FROM
 DAPD.F                 4:   FEET ABOVE PERMANENT DATUM
 DMF .                 KB:   DRILLING MEASURED FROM
 EKB .F              5267:   KELLING BUSHING
 EGL .F              5263:   GROUND LEVEL
 DATE.        11-JUL-1978:   RUN DATE
 RUN .                  1:   RUN NUMBER
 DD  .F               657:   DEPTH DRILLER
 DL  .F               666:   DEPTH LOGGER
 BLI .F               660:   BOTTOM LOG INTERVAL
 TLI .F                50:   TOP LOG INTERVAL
 CS  .IN            8.625:   CASING SIZE
 CBD .F                40:   CASING BOTTOM DRILLER
 BS  .IN            7.875:   BIT SIZE
 BSD .F               657:   BIT SIZE AT DEPTH
 DFT .                KCL:   DRILLING FLUID TYPE
 DFD .                8.6:   DRILLING FLUID DENSITY
 DFV .                 33:   DRILLING FLUID VISCOSITY
 DFPH.                9.0:   DRILLING FLUID PH
 DFL .                 14:   DRILLING FLUID LOSS
 MSS .           FLOWLINE:   MUD SAMPLE SOURCE
 RMS .OHMM            .16:   RESISTIVITY MUD SAMPLE
 MST .F                89:   MUD SAMPLE TEMPERATURE
 RMF .OHMM            .15:   RESISTIVITY MUD FILTRATE SAMPLE
 MFST.F                89:   MUD FILTRATE SAMPLE TEMPERATURE
 RMC .OHMM            .32:   RESISTIVITY MUD CAKE
 MCST.F                88:   MUD CAKE SAMPLE TEMPERATURE
 MFSS.               MEAS:   MUD FILTRATE SAMPLE SOURCE
 BHT .F                76:   BOTTOM HOLE TEMPERATURE
 TCS .HRS            0200:   TIME CURCULATED STOPPED
 MRT .F                76:   MAXIMUM RECORDED TEMPERATURE
 LUN .               2958:   LOGGING UNIT NUMBER
 LUL .               CASP:   LOGGING UNIT LOCATION
 ENGI.             MILLER:   RECORDING ENGINEER
 WITN.           MCGINLEY:   WITNESSED BY
 CLNT.            A2DTECH:   CLIENT CODE
 ORIG.           5" PRINT:   ORIGIN OF DATA
 UWI .       490251065600:   UNIQUE WELL ID
 DICO. A2D Technologies, Inc.:   DIGITIZING COMPANY
~OTHER INFORMATION
~A   DEPT     CALD         GRD      CORR       DPHI       RHOB        SPR         SN        ILD   
# ...
  570.5000     7.6528    59.6929    -0.0086     0.2168     2.3513   -50.7878    10.0094    12.4357
  571.0000     7.5928    60.8881    -0.0057     0.2132     2.3325   -50.7745    10.0839    12.5275
  571.5000     7.4877    61.4828     0.0003     0.2087     2.3137   -50.7611    10.0894    12.4474
  572.0000     7.3976    61.6284     0.0018     0.2093     2.3317   -50.7478    10.1645    12.3695
  572.5000     7.3376    61.9228     0.0002     0.2096     2.3325   -50.7344    10.1701    12.2892
  573.0000     7.2776    62.2156     0.0002     0.2093     2.3302   -50.7184    10.1756    12.1286
  573.5000     7.2326    62.6601     0.0001     0.2084     2.3310   -50.5568    10.1811    12.0513
  574.0000     7.2177    62.8042     0.0001     0.2000     2.3347   -50.5436    10.1866    12.0570
  574.5000     7.2029    63.2502     0.0000     0.1886     2.3535   -50.5303    10.2625    11.9787
  575.0000     7.1880    63.8433    -0.0003     0.1871     2.3655   -50.5171    10.4102    11.9858
  575.5000     7.1881    64.4395    -0.0016     0.1883     2.3648   -50.6522    10.5600    12.1575
  576.0000     7.1883    64.4320    -0.0016     0.1895     2.3632   -50.6390    10.7859    12.5023
  576.5000     7.1884    62.7744    -0.0001     0.1907     2.3602   -50.6257    11.0166    13.0349
  577.0000     7.2036    60.0657     0.0028     0.1832     2.3602   -50.7608    11.2548    13.6839
  577.5000     7.2038    56.0057     0.0118     0.1620     2.3888   -50.7476    11.4208    14.5641
  578.0000     7.2190    54.7985     0.0057     0.1458     2.4276   -50.8827    11.7497    15.8238
  578.5000     7.2341    55.3931    -0.0063     0.1390     2.4752   -51.0179    12.0880    16.6117
  579.0000     7.4448    56.1379    -0.0124     0.1403     2.4849   -51.1563    12.4174    16.7342
  579.5000     7.6104    56.5826    -0.0154     0.1586     2.4639   -51.2914    12.5098    16.7422
  580.0000     7.6406    56.5764    -0.0080     0.1870     2.4113   -51.4265    12.5166    16.4083
  580.5000     7.6558    56.4202     0.0070     0.1936     2.3707   -51.7067    12.4360    15.9709
  581.0000     7.6860    56.2641     0.0085     0.1947     2.3587   -51.8452    12.1904    15.5409
  581.5000     7.7012    56.2581     0.0084     0.1942     2.3526   -51.9770    11.9481    15.0208
  582.0000     7.7164    56.5525     0.0084     0.1872     2.3556   -51.9637    11.5507    14.5054
  582.5000     7.7466    58.6486     0.0083     0.1800     2.3631   -51.9505    11.2436    14.0282
  583.0000     7.7618    59.5435     0.0083     0.1794     2.3767   -52.0861    10.9446    14.1476
  583.5000     7.7770    59.5375     0.0067     0.1857     2.3805   -52.0724    10.8011    14.4493
  584.0000     7.7767    62.4082     0.0052     0.1884     2.3729   -52.2075    10.8069    14.4561
  584.5000     7.7472    65.0954     0.0037     0.1890     2.3661   -52.1943    10.8128    14.3622
  585.0000     7.7163    65.5256     0.0021     0.1920     2.3661   -52.3294    10.8187    14.2707
  585.5000     7.6861    63.0258     0.0021     0.2001     2.3639   -52.3161    10.8246    14.2781
  586.0000     7.6424    61.1591     0.0020     0.1944     2.3541   -52.4513    10.8304    14.2859
  586.5000     7.6426    61.1531     0.0020     0.1965     2.3556   -52.5864    10.8363    14.3913
  587.0000     7.6622    61.2975     0.0019     0.1992     2.3503   -52.7215    10.7679    14.3982
  587.5000     7.7506    62.7180     0.0020     0.1905     2.3488   -52.8566    10.8482    14.5044
  588.0000     7.7783    63.7157     0.0065     0.1821     2.3623   -52.8401    10.8540    14.5113
  588.5000     7.8387    64.2826     0.0153     0.1830     2.3728   -52.8268    10.7855    14.5182
  589.0000     7.8990    64.2751     0.0153     0.1882     2.3773   -52.8136    10.7928    14.5251
  589.5000     7.9292    63.0679     0.0152     0.1894     2.3720   -52.9520    10.7987    14.4308
  590.0000     7.9294    61.1100     0.0167     0.1858     2.3660   -52.9355    10.8045    14.4394
  590.5000     7.8994    60.3533     0.0166     0.1834     2.3645   -52.9222    10.7349    14.4462
  591.0000     7.8695    60.3473     0.0166     0.1822     2.3684   -52.9090    10.7422    14.3539
  591.5000     7.8245    60.6416     0.0165     0.1807     2.3730   -53.0474    10.7480    14.3609
  592.0000     7.7795    61.5366     0.0165     0.1648     2.3838   -53.1826    10.6788    14.2693
  592.5000     7.7797    63.0321     0.0119     0.1651     2.4032   -53.6111    10.6860    14.1768
  593.0000     7.7498    64.6778     0.0089     0.1666     2.4058   -53.8979    10.6918    13.8900
  593.5000     7.7199    65.8730     0.0089     0.1665     2.4042   -54.1781    10.6976    13.5158
  594.0000     7.6899    66.4676     0.0103     0.1687     2.3975   -54.4616    10.7034    13.0616
  594.5000     7.6299    66.6133     0.0088     0.1726     2.4006   -54.6000    10.6359    12.7097
  595.0000     7.5549    66.6058     0.0087     0.1841     2.3945   -54.8835    10.6417    12.4722
  595.5000     7.5249    66.1494     0.0087     0.1904     2.3727   -55.1670    10.5021    12.3927
  596.0000     7.5251    65.9933     0.0101     0.1913     2.3629   -55.4505    10.4357    12.3151
  596.5000     7.5403    65.9873     0.0101     0.1892     2.3584   -55.7307    10.3700    12.3210
  597.0000     7.5705    66.1329     0.0100     0.1857     2.3749   -55.8691    10.2316    12.4119
  597.5000     7.7211    66.5759     0.0100     0.1818     2.3689   -56.1498    10.0997    12.4178
  598.0000     7.7964    67.1706     0.0069     0.1770     2.3727   -56.2849    10.0360    12.5094
  598.5000     7.7815    62.9604     0.0039     0.1734     2.3945   -56.5683    10.0417    12.6016
  599.0000     7.7817    62.2036     0.0008     0.1707     2.3884   -56.7033    10.0482    12.6076
  599.5000     7.8119    62.6481    -0.0007     0.1686     2.3832   -56.8383    10.0537    12.7006
  600.0000     7.8270    63.7481    -0.0008     0.1651     2.3860   -56.9733    10.0578    12.7273
  600.5000     7.8271    64.0701    -0.0017     0.1597     2.4102   -57.1245    10.0280    12.8616
  601.0000     7.8271    64.4444    -0.0027     0.1582     2.4147   -57.2758    10.0015    12.8977
  601.5000     7.8271    64.8949    -0.0037     0.1558     2.4176   -57.3061    10.0781    12.6421
  602.0000     7.8421    65.4955    -0.0047     0.1525     2.4251   -57.5871    10.0136    12.3086
  602.5000     7.8421    65.3453    -0.0054     0.1499     2.4288   -57.5712    10.0212    12.0647
  603.0000     7.8421    64.7447    -0.0054     0.1502     2.4288   -57.8484     9.9571    11.9072
  603.5000     7.8421    62.9429    -0.0053     0.1502     2.4295   -58.1296     9.9646    11.8310
  604.0000     7.8421    64.1441    -0.0052     0.1490     2.4325   -58.2662     9.9024    11.8400
  604.5000     7.8421    66.6967    -0.0052     0.1467     2.4362   -58.3949     9.9084    11.8472
  605.0000     7.8421    66.6967    -0.0051     0.1443     2.4377   -58.5275     9.9144    11.8544
  605.5000     7.8271    66.5629    -0.0051     0.1404     2.4399   -58.8087     9.9204    11.8616
  606.0000     7.8271    66.7111    -0.0050     0.1422     2.4414   -58.9421     9.9269    11.8688
  606.5000     7.8271    66.7080    -0.0050     0.1449     2.4406   -59.2229     9.9325    11.8760
  607.0000     7.8421    63.1042    -0.0049     0.1453     2.4406   -59.5025     9.9387    11.9654
  607.5000     7.8421    60.7892    -0.0048     0.1453     2.4406   -59.6533     9.8763    11.8904
  608.0000     7.8421    62.4832    -0.0048     0.1402     2.4413   -59.9176     9.8161    11.8994
  608.5000     7.8421    62.9138    -0.0047     0.1306     2.4513   -60.0503     9.8212    11.9066
  609.0000     7.8421    62.9057    -0.0047     0.1333     2.4623   -60.1829     9.8272    11.9138
  609.5000     7.8571    61.8437    -0.0046     0.1400     2.4575   -60.3155     9.8345    11.9211
  610.0000     7.8571    63.3586    -0.0046     0.1394     2.4515   -60.2956     9.8394    11.9283
  610.5000     7.8722    65.4735    -0.0045     0.1391     2.4487   -60.4322     9.8459    11.9355
