~VERSION INFORMATION
 VERS.                2.0:   CWLS LOG ASCII STANDARD - VERSION 2.0
 WRAP.                 NO:   ONE LINE PER DEPTH STEP
~WELL INFORMATION
#MNEM.UNIT      DATA TYPE    INFORMATION
#----------   ------------   ------------------------------
 STRT.F           34.0000:   START DEPTH
 STOP.F          534.0000:   STOP DEPTH
 STEP.F            0.5000:   STEP LENGTH
 NULL.          -999.2500:   NO VALUE
 COMP.    FENIX & SCISSON:   COMPANY
 WELL.      33 SX 3 #33-3:   WELL
 FLD .             TEAPOT:   FIELD
 LOC .       S3 T38N R78W:   LOCATION
 CNTY.            NATRONA:   COUNTY
 STAT.            WYOMING:   STATE
 CTRY. UNITED STATES OF AMERICA:   COUNTRY
 SRVC.       Schlumberger:   SERVICE COMPANY
 DATE.        23-FEB-1977:   LOGDATE
 API .       490251028500:   API NUMBER
~CURVE INFORMATION
#MNEM.UNIT       API CODE    CURVE DESCRIPTION
#----------   ------------   ------------------------------
 DEPT.F                  :   
 SPR .MV     07 010 01 00:   SPONTANEOUS POTENTIAL
 LL8 .OHMM   07 220 08 00:   LATEROLOG-8 RES.
 ILD .OHMM   07 120 46 00:   INDUCTION LOG DEEP
 ILM .OHMM   07 120 44 00:   INDUCTION LOG MEDIUM
 CALD.IN     45 280 60 00:   CALIPER
 GRD .GAPI   45 310 01 00:   GAMMA RAY FROM DENSITY LOG
 RHOB.G/C3   45 350 01 00:   BULK DENSITY
 DPOR.DEC    45 890 12 00:   DENSITY POROSITY SANDSTONE
 CORR.G/C3   45 356 01 00:   DENSITY CORRECTION
~PARAMETER INFORMATION
#MNEM.UNIT          VALUE    DESCRIPTION
#----------   ------------   ------------------------------
 PD  .                 GL:   PERMANENT DATUM
 EPD .F              5170:   ELEVATION PERMANENT DATUM
 LMF .                 KB:   LOG MEASURED FROM
 DAPD.F                 5:   FEET ABOVE PERMANENT DATUM
 DMF .                 KB:   DRILLING MEASURED FROM
 EKB .F              5175:   KELLING BUSHING
 EGL .F              5170:   GROUND LEVEL
 DATE.            2-23-77:   RUN DATE
 RUN .                  1:   RUN NUMBER
 DD  .F               550:   DEPTH DRILLER
 DL  .F               535:   DEPTH LOGGER
 BLI .F               525:   BOTTOM LOG INTERVAL
 TLI .F                47:   TOP LOG INTERVAL
 CS  .IN            8.625:   CASING SIZE
 CBD .F                40:   CASING BOTTOM DRILLER
 CBL .F                47:   CASING BOTTOM LOGGER
 BS  .IN            7.875:   BIT SIZE
 BSD .F               550:   BIT SIZE AT DEPTH
 DFT .                KCL:   DRILLING FLUID TYPE
 DFD .                  9:   DRILLING FLUID DENSITY
 DFV .                 36:   DRILLING FLUID VISCOSITY
 MSS .            MUDTANK:   MUD SAMPLE SOURCE
 RMS .OHMM           .255:   RESISTIVITY MUD SAMPLE
 MST .F                74:   MUD SAMPLE TEMPERATURE
 RMF .OHMM           .246:   RESISTIVITY MUD FILTRATE SAMPLE
 MFST.F                74:   MUD FILTRATE SAMPLE TEMPERATURE
 RMC .OHMM            .38:   RESISTIVITY MUD CAKE
 MCST.F                74:   MUD CAKE SAMPLE TEMPERATURE
 MFSS.                  M:   MUD FILTRATE SAMPLE SOURCE
 MCSS.                  C:   MUD CAKE SAMPLE SOURCE
 RMB .OHMM            .34:   RESISTIVITY MUD AT BHT
 BHT .F                55:   BOTTOM HOLE TEMPERATURE
 TCS .HRS            0600:   TIME CURCULATED STOPPED
 TLAB.HRS            0730:   TIME LOGGER AT BOTTOM
 MRT .F                55:   MAXIMUM RECORDED TEMPERATURE
 LUN .               5642:   LOGGING UNIT NUMBER
 LUL .               CSPR:   LOGGING UNIT LOCATION
 ENGI.                FIX:   RECORDING ENGINEER
 WITN.         STUEBINGER:   WITNESSED BY
 CLNT.            A2DTECH:   CLIENT CODE
 ORIG.       2", 5" PRINT:   ORIGIN OF DATA
 UWI .       490251028500:   UNIQUE WELL ID
 DICO. A2D Technologies, Inc.:   DIGITIZING COMPANY
~OTHER INFORMATION
~A   DEPT      SPR        LL8        ILD        ILM       CALD         GRD      RHOB       DPOR       CORR   
# ...
  216.5000   -67.0292     5.1743     5.0530     5.4479     8.5547   120.6648     2.3968     0.1503     0.0204
  217.0000   -66.5822     5.5976     4.9057     5.1240     8.5547   119.3987     2.3852     0.1609     0.0260
  217.5000   -66.0883     6.4305     4.7626     5.1285     8.5547   114.9015     2.4023     0.1637     0.0141
  218.0000   -65.6891     6.9327     4.6786     5.0770     8.5547   111.0447     2.4234     0.1420     0.0329
  218.5000   -65.4694     6.1012     4.7182     5.2498     8.5547   109.1063     2.4141     0.1468     0.0191
  219.0000   -65.2613     6.4376     4.9159     5.4016     8.5547   107.9654     2.4019     0.1532     0.0051
  219.5000   -65.0639     7.0329     5.1221     5.5574     8.5547   108.0293     2.3999     0.1532     0.0003
  220.0000   -64.8637     7.5611     5.3370     5.7765     8.5547   109.2519     2.4205     0.1384     0.0101
  220.5000   -64.6631     7.2427     5.5610     6.0483     8.5547   110.2487     2.4426     0.1286     0.0269
  221.0000   -64.2635     7.0816     5.7945     6.3345     8.5547   110.5810     2.4369     0.1331     0.0147
  221.5000   -63.7298     7.8956     6.0374     6.6343     8.5547   110.9275     2.4298     0.1364    -0.0002
  222.0000   -63.1930     9.1758     6.2907     6.9482     8.5547   110.7232     2.4386     0.1312     0.0047
  222.5000   -62.6539     9.1655     6.5775     7.2770     8.5547   109.7839     2.4520     0.1244     0.0117
  223.0000   -62.1213     9.3967     6.8442     7.6213     8.5547   108.8581     2.4574     0.1211     0.0150
  223.5000   -61.6094     9.5921     7.0585     7.9842     8.5547   107.8957     2.4548     0.1200     0.0089
  224.0000   -61.1132     9.7904     7.2794     8.2084     8.5547   107.4219     2.4539     0.1240     0.0056
  224.5000   -60.6157     9.8740     7.5073     8.2845     8.5547   109.8571     2.4695     0.1187     0.0164
  225.0000   -60.1254     9.6789     7.6948     8.2845     8.5546   112.1246     2.4909     0.1092     0.0250
  225.5000   -59.6516     9.4901     7.4765     8.2845     8.5558   112.6264     2.4688     0.1207     0.0140
  226.0000   -59.1938     9.2547     7.2135     8.1624     8.5572   113.2832     2.4392     0.1324     0.0094
  226.5000   -58.6916     9.1292     7.1891     8.0129     8.5586   114.1667     2.4424     0.1260     0.0126
  227.0000   -58.0396     9.0059     7.1590     7.8660     8.5600   114.7596     2.4527     0.1224     0.0180
  227.5000   -57.6019     8.8842     7.0732     7.7219     8.5613   113.6977     2.4452     0.1268     0.0062
  228.0000   -57.5011     8.7561     6.8956     7.5804     8.5627   115.7429     2.4525     0.1296     0.0218
  228.5000   -57.3989     8.5670     6.7225     7.4415     8.5641   115.9212     2.4846     0.1144     0.0365
  229.0000   -57.2996     8.3841     6.5537     7.3051     8.5655   113.5728     2.4561     0.1204     0.0481
  229.5000   -57.0998     8.2084     6.3339     7.1712     8.5669   111.9683     2.4604     0.1192     0.0278
  230.0000   -56.7521     7.6744     6.0477     6.9741     8.5683   112.2097     2.4607     0.1225     0.0399
  230.5000   -56.4064     7.0816     5.7744     6.6743     8.5697   114.5018     2.4425     0.1294     0.0208
  231.0000   -56.0606     7.0512     5.5135     6.2914     8.5711   117.0773     2.4263     0.1362     0.0122
  231.5000   -55.7148     7.0216     5.2644     5.9304     8.5725   118.5939     2.4276     0.1384     0.0205
  232.0000   -55.3691     6.1661     5.1743     5.5902     8.5739   115.0444     2.4396     0.1337     0.0353
  232.5000   -55.0235     6.8073     5.1743     5.4689     8.5754   109.8698     2.4541     0.1253     0.0426
  233.0000   -54.6781     8.2084     5.2544     5.7357     8.5785   108.6041     2.4688     0.1181     0.0239
  233.5000   -54.3313     8.1382     5.3525     6.0071     8.5816   111.3435     2.4856     0.1128     0.0188
  234.0000   -53.9357     7.9109     5.5750     6.2914     8.5846   114.4646     2.4745     0.1212     0.0308
  234.5000   -53.3616     8.1681     5.8304     6.5891     8.5877   117.0145     2.4565     0.1213     0.0205
  235.0000   -52.7897     8.7885     6.0973     6.9009     8.5907   117.9046     2.4561     0.1208     0.0144
  235.5000   -52.2182     9.4271     6.3770     7.2275     8.5937   117.2203     2.4595     0.1280     0.0209
  236.0000   -51.6465     9.2453     6.6693     7.5541     8.5968   114.6814     2.4629     0.1192     0.0282
  236.5000   -51.0746     9.0340     6.9744     7.7662     8.5998   111.9197     2.4615     0.1200     0.0276
  237.0000   -50.5024     8.8373     7.2156     7.9421     8.6029   110.3133     2.4632     0.1220     0.0277
  237.5000   -49.9329     9.2760     7.2769     8.0125     8.6059   110.5545     2.4735     0.1188     0.0341
  238.0000   -49.4358     9.7150     7.3497     8.0825     8.6090   112.7307     2.4605     0.1241     0.0246
  238.5000   -49.1997     9.8723     7.3704     8.1528     8.6120   114.7770     2.4493     0.1312     0.0093
  239.0000   -48.9570     9.6917     7.3905     8.2870     8.6143   114.6690     2.4532     0.1254     0.0069
  239.5000   -48.7138     9.7088     7.4095     8.2823     8.6174   115.8659     2.4592     0.1224     0.0019
  240.0000   -48.4709     9.7463     7.4285     8.2839     8.6212   121.9316     2.4569     0.1248     0.0078
  240.5000   -48.2279     9.8723     7.4476     8.4379     8.6249   124.0829     2.4572     0.1244     0.0147
  241.0000   -47.9851     9.8042     7.4668     8.4029     8.6287   122.3699     2.4568     0.1236     0.0130
  241.5000   -47.7426     9.7035     7.5440     8.3471     8.6324   122.5689     2.4550     0.1250     0.0135
  242.0000   -47.4980     9.6018     7.4789     8.2918     8.6362   123.7564     2.4531     0.1268     0.0209
  242.5000   -47.2156     9.5019     7.3938     8.2371     8.6399   120.9683     2.4519     0.1258     0.0155
  243.0000   -46.7955     9.4033     7.3080     8.1829     8.6437   118.7593     2.4523     0.1244     0.0081
  243.5000   -46.3810     9.3058     7.2236     8.1290     8.6475   118.5287     2.4528     0.1232     0.0137
  244.0000   -45.9679     9.2547     7.1402     8.0755     8.6512   119.1597     2.4543     0.1256     0.0162
  244.5000   -45.5550     9.2677     7.0816     8.0223     8.6550   118.8047     2.4545     0.1234    -0.0002
  245.0000   -45.2593     9.3155     7.1657     7.9842     8.6587   118.2325     2.4517     0.1248     0.0025
  245.5000   -45.0926     9.3640     7.2323     8.0899     8.6625   117.9842     2.4513     0.1304     0.0073
  246.0000   -44.9248     9.4268     7.2804     8.1734     8.6662   117.7207     2.4600     0.1219     0.0000
  246.5000   -44.7622     9.3685     7.2120     8.2578     8.6700   117.5351     2.4624     0.1192     0.0046
  247.0000   -44.9218     9.2837     7.1354     8.2845     8.6738   119.1785     2.4641     0.1197     0.0246
  247.5000   -45.1256     9.1959     7.0165     8.0992     8.6753   121.2559     2.4609     0.1204     0.0180
  248.0000   -45.3300     9.0020     6.5846     7.7333     8.6767   118.9120     2.4669     0.1233     0.0123
  248.5000   -45.5339     9.1264     6.2117     7.4160     8.6781   116.3154     2.4564     0.1220     0.0199
  249.0000   -45.7378     9.2547     5.8599     6.8527     8.6794   115.5187     2.4418     0.1281     0.0131
  249.5000   -45.9427     8.2091     5.5280     6.3752     8.6808   118.4413     2.4271     0.1348     0.0033
  250.0000   -46.1495     6.0208     5.3196     5.9309     8.6822   121.6876     2.4117     0.1447     0.0202
  250.5000   -46.3111     4.5472     5.2223     5.8880     8.6836   124.9064     2.3932     0.1557     0.0364
  251.0000   -45.9129     5.8624     5.1743     5.9210     8.6850   126.0443     2.3796     0.1653     0.0253
  251.5000   -45.5248     8.2084     5.2393     6.0365     8.6864   125.3911     2.4108     0.1525     0.0235
  252.0000   -45.1414     8.0633     5.2998     6.1542     8.6878   123.1240     2.4474     0.1338     0.0240
  252.5000   -44.8986     7.9109     5.3605     6.2742     8.6892   120.2978     2.4586     0.1196     0.0252
