~VERSION INFORMATION
 VERS.                2.0:   CWLS LOG ASCII STANDARD - VERSION 2.0
 WRAP.                 NO:   ONE LINE PER DEPTH STEP
~WELL INFORMATION
#MNEM.UNIT      DATA TYPE    INFORMATION
#----------   ------------   ------------------------------
 STRT.F           20.0000:   START DEPTH
 STOP.F          610.0000:   STOP DEPTH
 STEP.F            0.5000:   STEP LENGTH
 NULL.          -999.2500:   NO VALUE
 COMP. LAWRENCE/ALLISON INC:   COMPANY
 WELL.    44-55 SX #10-10:   WELL
 FLD .             TEAPOT:   FIELD
 LOC .      S10 T38N R78W:   LOCATION
 CNTY.            NATRONA:   COUNTY
 STAT.            WYOMING:   STATE
 CTRY. UNITED STATES OF AMERICA:   COUNTRY
 SRVC.            Unknown:   SERVICE COMPANY
 DATE.        29-AUG-1984:   LOGDATE
 API .       490251098300:   API NUMBER
~CURVE INFORMATION
#MNEM.UNIT       API CODE    CURVE DESCRIPTION
#----------   ------------   ------------------------------
 DEPT.F                  :   
 AC  .US/F   60 520 00 00:   ACOUSTIC SONIC
 SPR .MV     07 010 01 00:   SPONTANEOUS POTENTIAL
 RILD.OHMM   07 120 46 00:   INDUCTION LOG DEEP RESISTIVITY
 RILM.OHMM   07 120 44 00:   INDUCTION LOG MEDIUM RESISTIVITY
 RFOC.OHMM   07 220 04 00:   RESISTIVITY FOCUSED LOG
 GRD .GAPI   45 310 01 00:   GAMMA RAY FROM DENSITY LOG
 CALD.IN     45 280 60 00:   CALIPER
 DEN .G/C3   45 350 01 00:   COMPENSATED BULK DENSTIY
 CNC .DEC    42 890 03 00:   NEUTRON POROSITY SANDSTONE
 PORD.DEC    45 890 12 00:   DENSITY POROSITY SANDSTONE
 CORR.G/C3   45 356 01 00:   DENSITY CORRECTION
~PARAMETER INFORMATION
#MNEM.UNIT          VALUE    DESCRIPTION
#----------   ------------   ------------------------------
 PD  .                 GL:   PERMANENT DATUM
 EPD .F              5247:   ELEVATION PERMANENT DATUM
 LMF .                 KB:   LOG MEASURED FROM
 DAPD.F                13:   FEET ABOVE PERMANENT DATUM
 DMF .                 KB:   DRILLING MEASURED FROM
 EKB .F              5260:   KELLING BUSHING
 EGL .F              5247:   GROUND LEVEL
 DATE.        29-AUG-1984:   RUN DATE
 RUN .                  1:   RUN NUMBER
 DD  .F               613:   DEPTH DRILLER
 DL  .F               607:   DEPTH LOGGER
 BLI .F               607:   BOTTOM LOG INTERVAL
 TLI .F                42:   TOP LOG INTERVAL
 CBL .F                42:   CASING BOTTOM LOGGER
 BS  .IN            7.875:   BIT SIZE
 BSD .F               613:   BIT SIZE AT DEPTH
 DFT .          KCL WATER:   DRILLING FLUID TYPE
 MSS .               TANK:   MUD SAMPLE SOURCE
 RMS .OHMM           .295:   RESISTIVITY MUD SAMPLE
 MST .F                75:   MUD SAMPLE TEMPERATURE
 TCS .HRS               3:   TIME CURCULATED STOPPED
 MRT .F               100:   MAXIMUM RECORDED TEMPERATURE
 LUN .               4082:   LOGGING UNIT NUMBER
 LUL .               ROOS:   LOGGING UNIT LOCATION
 ENGI.             MILLER:   RECORDING ENGINEER
 WITN.            JOHNSON:   WITNESSED BY
 CLNT.            A2DTECH:   CLIENT CODE
 ORIG.       2", 5" PRINT:   ORIGIN OF DATA
 UWI .       490251098300:   UNIQUE WELL ID
 DICO. A2D Technologies, Inc.:   DIGITIZING COMPANY
~OTHER INFORMATION
~A   DEPT       AC        SPR       RILD       RILM       RFOC         GRD      CALD        DEN        CNC       PORD       CORR   
# ...
   81.0000   104.8198     0.7249     8.4194     8.6214     8.9908    89.6464     8.1173     2.4748     0.3003     0.1233     0.0370
   81.5000   104.9958     1.7519     8.4517     8.6196     8.9833    90.2162     8.1173     2.4655     0.3005     0.1282     0.0294
   82.0000   105.0191     2.8644     8.4841     8.6179     8.9758    91.7729     8.1173     2.4634     0.3008     0.1286     0.0209
   82.5000   104.7580     3.8489     8.5167     8.6161     8.9683    91.2821     8.1173     2.4740     0.3035     0.1239     0.0085
   83.0000   104.5210     4.8389     8.5494     8.6144     8.9608    89.4156     8.1173     2.4829     0.3158     0.1184    -0.0036
   83.5000   104.8013     5.8314     8.5822     8.6126     8.9533    89.5170     8.1173     2.4825     0.3127     0.1180    -0.0088
   84.0000   105.0708     6.8392     8.6214     8.6109     8.9458    91.5544     8.1173     2.4830     0.3063     0.1199     0.0047
   84.5000   105.4431     7.6155     8.5994     8.6092     8.9383    94.6234     8.1173     2.4783     0.3002     0.1225     0.0179
   85.0000   105.5190     8.3482     8.5629     8.6074     8.9309    97.6880     8.1173     2.4729     0.3049     0.1250     0.0308
   85.5000   105.5190     9.0814     8.5265     8.6057     8.9234    98.1064     8.1173     2.4694     0.3083     0.1233     0.0316
   86.0000   105.5190     9.8183     8.4903     8.6039     8.9160    96.1129     8.1173     2.4803     0.3060     0.1183     0.0303
   86.5000   105.5190    10.1996     8.4542     8.6022     8.9085    94.1258     8.1173     2.4837     0.3047     0.1168     0.0291
   87.0000   105.3870    10.5682     8.4183     8.6004     8.9011    92.1176     8.1173     2.4775     0.3300     0.1231     0.0265
   87.5000   105.2152    10.9368     8.3826     8.5987     8.8936    90.1445     8.1173     2.4684     0.3516     0.1268     0.0223
   88.0000   105.0434    11.7400     8.3470     8.5970     8.8862    90.7569     8.1173     2.4736     0.3522     0.1226     0.0189
   88.5000   104.8716    12.6795     8.3115     8.5952     8.8788    93.1872     8.1173     2.4836     0.3298     0.1172     0.0293
   89.0000   104.7206    13.6213     8.2762     8.5935     8.8714    95.5058     8.1173     2.4812     0.3101     0.1180     0.0399
   89.5000   104.6638    14.5627     8.2411     8.5918     8.8640    97.8106     8.1173     2.4766     0.3006     0.1220     0.0505
   90.0000   104.6635    15.5038     8.2376     8.5900     8.8566    98.0581     8.1173     2.4716     0.3119     0.1184     0.0569
   90.5000   104.8037    16.4454     8.2376     8.5883     8.8492    95.0099     8.1173     2.4969     0.3200     0.1104     0.0404
   91.0000   104.9455    17.3911     8.2376     8.5865     8.8418    92.0422     8.1173     2.5029     0.3206     0.1104     0.0183
   91.5000   105.0871    18.3541     8.2376     8.5848     8.8344    90.0420     8.1173     2.4931     0.3138     0.1153     0.0020
   92.0000   105.2287    18.9499     8.2376     8.5831     8.8270    91.5460     8.1173     2.4845     0.3047     0.1172     0.0051
   92.5000   105.3693    19.5427     8.2376     8.5813     8.8196    93.1840     8.1173     2.4924     0.3002     0.1101     0.0329
   93.0000   105.3892    20.1592     8.2376     8.5796     8.8123    93.5266     8.1173     2.5062     0.3093     0.1036     0.0577
   93.5000   105.2657    20.8708     8.2376     8.5778     8.8049    95.3116     8.1173     2.5100     0.3142     0.1008     0.0641
   94.0000   105.1422    21.6131     8.2376     8.5761     8.7975    98.9348     8.1173     2.5088     0.3070     0.1038     0.0600
   94.5000   105.2720    22.3576     8.2376     8.5744     8.7902   102.6903     8.1173     2.5054     0.2980     0.1057     0.0488
   95.0000   105.5196    23.1019     8.2376     8.5726     8.7728   100.7023     8.1173     2.5021     0.2825     0.1068     0.0483
   95.5000   106.0137    23.8384     8.2376     8.5709     8.7320    97.7842     8.1173     2.4988     0.2698     0.1080     0.0472
   96.0000   106.5076    24.5003     8.2377     8.5692     8.6914    95.2681     8.1173     2.4914     0.2804     0.1152     0.0251
   96.5000   106.8370    24.9460     8.2224     8.5674     8.6510    96.4158     8.1173     2.4838     0.2900     0.1180     0.0050
   97.0000   106.8913    25.3986     8.2009     8.5657     8.6108   100.8492     8.1173     2.4850     0.2996     0.1152     0.0041
   97.5000   106.8061    25.8511     8.1794     8.5640     8.5707   105.2305     8.1173     2.4903     0.3093     0.1128     0.0182
   98.0000   106.6096    26.3219     8.1579     8.5622     8.5309   105.1611     8.1173     2.4936     0.3189     0.1122     0.0340
   98.5000   106.6297    26.8389     8.1366     8.5605     8.4912   102.5185     8.1173     2.4943     0.3336     0.1104     0.0498
   99.0000   106.8375    27.3827     8.1152     8.5588     8.4517   104.1791     8.1173     2.4991     0.3505     0.1080     0.0661
   99.5000   107.0454    27.9306     8.0939     8.5570     8.4124   106.3529     8.1173     2.5038     0.3691     0.1068     0.0643
  100.0000   107.2527    28.5024     8.0875     8.5553     8.3733   103.0220     8.1173     2.5070     0.3603     0.1095     0.0528
  100.5000   107.3154    29.1548     8.0875     8.5536     8.3344    98.1056     8.1173     2.5015     0.3408     0.1104     0.0412
  101.0000   107.0429    29.8454     8.0875     8.5518     8.2956    96.1198     8.1173     2.4953     0.3223     0.1108     0.0297
  101.5000   106.6045    30.5383     8.0875     8.5501     8.2571    97.7397     8.1165     2.4891     0.3142     0.1151     0.0252
  102.0000   106.1430    31.2250     8.0875     8.5484     8.2376   102.9490     8.1156     2.4853     0.3106     0.1172     0.0188
  102.5000   105.7186    31.9112     8.0875     8.5466     8.3484   105.3927     8.1147     2.4927     0.3040     0.1134     0.0149
  103.0000   105.2264    32.5586     8.1833     8.6169     8.4511   102.0248     8.1138     2.4999     0.2990     0.1081     0.0450
  103.5000   104.7708    33.2097     8.2921     8.7206     8.5551    97.5360     8.1129     2.5071     0.2982     0.1029     0.0771
  104.0000   104.3096    33.8599     8.4027     8.8256     8.6604    92.9770     8.1120     2.5134     0.3002     0.0984     0.1017
  104.5000   103.8458    34.5323     8.5147     8.9318     8.7670    92.4706     8.1111     2.5047     0.3033     0.1030     0.0743
  105.0000   103.3819    34.8415     8.6281     9.0393     8.8749    94.1799     8.1102     2.4931     0.3045     0.1117     0.0340
  105.5000   103.2672    35.0538     8.7430     9.1482     8.9841    94.2240     8.1093     2.4803     0.3031     0.1184     0.0002
  106.0000   103.3335    35.2632     8.8594     9.2583     9.0947    94.1249     8.1084     2.4877     0.3018     0.1155     0.0104
  106.5000   103.3997    35.4785     8.9774     9.3697     9.1982    96.4433     8.1075     2.5036     0.3080     0.1063     0.0308
  107.0000   103.4231    35.6114     9.0970     9.4825     9.3227    98.7927     8.1066     2.5196     0.3166     0.0971     0.0513
  107.5000   103.4231    35.7449     9.2182     9.5427     9.4554    99.1612     8.1057     2.5360     0.3206     0.0879     0.0703
  108.0000   103.4235    35.8765     9.2832     9.5427     9.3989    98.1917     8.1048     2.5407     0.3166     0.0832     0.0700
  108.5000   103.5491    35.7396     9.1049     9.5039     9.3152    98.0139     8.1039     2.5230     0.3158     0.0932     0.0425
  109.0000   103.8384    35.5795     8.9667     9.4459     9.2322    98.9122     8.1030     2.5083     0.3178     0.1030     0.0169
  109.5000   104.1210    35.4219     8.8307     9.3883     9.1500    99.6018     8.1021     2.5034     0.3250     0.1052    -0.0033
  110.0000   104.1439    35.3695     8.6967     9.3311     9.0684    98.8509     8.1012     2.5102     0.3327     0.1014     0.0838
  110.5000   104.1655    36.0091     8.5647     9.2742     8.9876    97.8681     8.1003     2.5171     0.3367     0.0976     0.1091
  111.0000   104.1871    36.6637     8.4348     9.2177     8.9075    96.5331     8.0994     2.5197     0.3418     0.0956     0.0696
