~VERSION INFORMATION
 VERS.                2.0:   CWLS LOG ASCII STANDARD - VERSION 2.0
 WRAP.                 NO:   ONE LINE PER DEPTH STEP
~WELL INFORMATION
#MNEM.UNIT      DATA TYPE    INFORMATION
#----------   ------------   ------------------------------
 STRT.F           44.0000:   START DEPTH
 STOP.F          485.0000:   STOP DEPTH
 STEP.F            0.5000:   STEP LENGTH
 NULL.          -999.2500:   NO VALUE
 COMP. LAWRENCE/ALLISON INC:   COMPANY
 WELL.      NPR 3 #55-51S:   WELL
 FLD .             TEAPOT:   FIELD
 LOC .       S3 T38N R78W:   LOCATION
 CNTY.            NATRONA:   COUNTY
 STAT.            WYOMING:   STATE
 CTRY. UNITED STATES OF AMERICA:   COUNTRY
 SRVC.      Dresser Atlas:   SERVICE COMPANY
 DATE.        12-DEC-1983:   LOGDATE
 API .       490251095400:   API NUMBER
~CURVE INFORMATION
#MNEM.UNIT       API CODE    CURVE DESCRIPTION
#----------   ------------   ------------------------------
 DEPT.F                  :   
 CALR.IN     10 280 01 00:   CALIPER FROM RESISTIVITY
 RATI.CMP    99 420 01 00:   RATIO
 RES .OHMM   10 220 00 00:   RESISTIVITY
 DEC .       99 000 00 00:   DEC
 P6  .G/C3   99 000 00 00:   P6
 PHAS.       99 000 00 00:   PHASE
 PORE.DEC    99 890 00 00:   PORE
~PARAMETER INFORMATION
#MNEM.UNIT          VALUE    DESCRIPTION
#----------   ------------   ------------------------------
 PD  .                 GL:   PERMANENT DATUM
 EPD .F              5161:   ELEVATION PERMANENT DATUM
 LMF .                 KB:   LOG MEASURED FROM
 DAPD.F                10:   FEET ABOVE PERMANENT DATUM
 DMF .                 KB:   DRILLING MEASURED FROM
 EKB .F              5171:   KELLING BUSHING
 EGL .F              5161:   GROUND LEVEL
 DATE.        12-DEC-1983:   RUN DATE
 RUN .                  1:   RUN NUMBER
 DD  .F               490:   DEPTH DRILLER
 DL  .F               489:   DEPTH LOGGER
 BLI .F               487:   BOTTOM LOG INTERVAL
 TLI .F                 0:   TOP LOG INTERVAL
 CS  .IN            10.75:   CASING SIZE
 CBD .F                52:   CASING BOTTOM DRILLER
 CBL .F                46:   CASING BOTTOM LOGGER
 BS  .IN             8.75:   BIT SIZE
 BSD .F               490:   BIT SIZE AT DEPTH
 DFT .           AIR FOAM:   DRILLING FLUID TYPE
 TCS .HRS               3:   TIME CURCULATED STOPPED
 MRT .F                72:   MAXIMUM RECORDED TEMPERATURE
 LUN .               6274:   LOGGING UNIT NUMBER
 LUL .               GLTE:   LOGGING UNIT LOCATION
 ENGI.             RAUTIO:   RECORDING ENGINEER
 WITN.             GROOMS:   WITNESSED BY
 CLNT.            A2DTECH:   CLIENT CODE
 ORIG.           5" PRINT:   ORIGIN OF DATA
 UWI .       490251095400:   UNIQUE WELL ID
 DICO. A2D Technologies, Inc.:   DIGITIZING COMPANY
~OTHER INFORMATION
~A   DEPT      CALR        RATI        RES       DEC          P6      PHAS        PORE 
# ...
  135.0000     9.2609     0.3787    10.4121    43.9983     2.4151    79.0376  -999.2500
  135.5000     9.2758     0.3743    10.1267    43.6211     2.4183    78.6767  -999.2500
  136.0000     9.2905     0.3714    10.0555    43.1686     2.4222    78.3158  -999.2500
  136.5000     9.2899     0.3714     9.9849    42.8666     2.4254    78.1353  -999.2500
  137.0000     9.2895     0.3700     9.9835    42.7906     2.4278    78.1353  -999.2500
  137.5000     9.2890     0.3686    10.0515    42.6392     2.4324    78.1353  -999.2500
  138.0000     9.2886     0.3672     9.9121    42.3373     2.4394    78.1353  -999.2500
  138.5000     9.2881     0.3658     9.7724    41.8848     2.4425    77.6826  -999.2500
  139.0000     9.2877     0.3659     9.7733    41.8800     2.4380    77.3267  -999.2500
  139.5000     9.2873     0.3690    10.0457    42.4164     2.4189    77.1500  -999.2500
  140.0000     9.2868     0.3755    10.5425    43.1928     2.4128    77.3368  -999.2500
  140.5000     9.2863     0.3842    10.8370    44.5172     2.4121    78.0636  -999.2500
  141.0000     9.2706     0.3918    10.5396    44.8178     2.4168    78.6100  -999.2500
  141.5000     9.2551     0.3874    10.1801    44.6663     2.4192    78.9760  -999.2500
  142.0000     9.2546     0.3783    10.5368    44.1385     2.4223    79.3419  -999.2500
  142.5000     9.2693     0.3878    11.0579    43.3094     2.4270    78.0838  -999.2500
  143.0000     9.2688     0.3801    10.8294    41.8780     2.4409    76.2406  -999.2500
  143.5000     9.2684     0.3667    10.2405    39.0911     2.4486    73.5437     0.5718
  144.0000     9.2680     0.3428     9.8184    28.6988     2.4435    67.0927     0.4527
  144.5000     9.2523     0.3293     9.4265    27.1880     2.4109    64.9310     0.4299
  145.0000     9.2519     0.3354     9.1050    29.2947     2.3746    73.0576     0.4661
  145.5000     9.2514     0.3370     8.7944    33.4797     2.3615    77.5739     0.5561
  146.0000     9.2358     0.3386     8.6127    39.4637     2.3738    77.9386     0.5899
  146.5000     9.2354     0.3342     8.7314    38.4088     2.3931    76.8622     0.5724
  147.0000     9.2348     0.3344     8.7911    37.9562     2.4031    76.1454     0.5678
  147.5000     9.2495     0.3391     8.7896    38.1061     2.4085    75.9699     0.5777
  148.0000     9.2491     0.3450     8.8494    39.6867     2.4170    76.5181     0.5921
  148.5000     9.2487     0.3496     8.9714    40.8155     2.4233    77.6228  -999.2500
  149.0000     9.2482     0.3572     9.1667    41.7936     2.4295    77.9714  -999.2500
  149.5000     9.2478     0.3618     9.5446    42.3200     2.4311    78.1569  -999.2500
  150.0000     9.2473     0.3679     9.8109    42.9970     2.4296    78.5228  -999.2500
  150.5000     9.2469     0.3725     9.9466    43.9350     2.4235    79.4301  -999.2500
  151.0000     9.2464     0.3771     9.8764    45.5556     2.4121    80.1569  -999.2500
  151.5000     9.2460     0.3786     9.8750    46.3833     2.3998    81.0642  -999.2500
  152.0000     9.2455     0.3787     9.8737    46.0059     2.3929    80.8876  -999.2500
  152.5000     9.2567     0.3758     9.8724    44.7251     2.3901    79.9916  -999.2500
  153.0000     9.2598     0.3744     9.9395    43.8960     2.4047    78.9139  -999.2500
  153.5000     9.2745     0.3715     9.9382    42.8410     2.4217    78.3776  -999.2500
  154.0000     9.2740     0.3686     9.9368    42.0873     2.4332    78.0218  -999.2500
  154.5000     9.2735     0.3642     9.7312    41.3336     2.4249    77.8463  -999.2500
  155.0000     9.2579     0.3612     9.5962    40.9563     2.4219    78.0331  -999.2500
  155.5000     9.2423     0.3583     9.2689    41.0329     2.4204    78.2186  -999.2500
  156.0000     9.2418     0.3569     8.9527    41.0211     2.4190    78.4041  -999.2500
  156.5000     9.2262     0.3510     8.6473    39.5232     2.4229    77.8678     0.5912
  157.0000     9.2106     0.3465     8.6461    38.8448     2.4283    77.1497     0.5776
  157.5000     9.2102     0.3422     8.6450    38.5430     2.4315    76.7939     0.5802
  158.0000     9.2097     0.3438     8.7038    40.2740     2.4331    77.1611     0.5883
  158.5000     9.2093     0.3454     8.8850    42.3817     2.4362    79.1511     0.6000
  159.0000     9.2088     0.3485     9.0007    42.6824     2.4417    79.8874     0.5999
  159.5000     9.1931     0.3531     9.1993    42.7569     2.4494    80.0636     0.5999
  160.0000     9.1926     0.3577     9.3979    42.4548     2.4487    79.3479     0.5989
  160.5000     9.1922     0.3608     9.6623    41.9269     2.4442    78.0898     0.5998
  161.0000     9.1917     0.3654     9.7962    41.7756     2.4381    77.5535     0.5997
  161.5000     9.2486     0.3684     9.9319    41.7748     2.4351    77.5585     0.5997
  162.0000     9.2478     0.3715     9.9313    41.6987     2.4360    77.5635     0.5996
  162.5000     9.2626     0.3716     9.8622    41.3593     2.4376    77.5686     0.5995
  163.0000     9.2618     0.3670     9.7935    40.3058     2.4384    77.3932     0.5986
  163.5000     9.2765     0.3613     9.6584    39.1770     2.4377    75.9546     0.5895
  164.0000     9.2606     0.3554     9.4594    37.8977     2.4370    74.3356     0.5732
  164.5000     9.2600     0.3510     9.2645    36.9948     2.4279    74.1602     0.5596
  165.0000     9.2595     0.3480     8.9490    36.6943     2.4241    74.7368     0.5542
  165.5000     9.2741     0.3421     8.6443    36.4691     2.4257    75.2542     0.5523
  166.0000     9.2583     0.3302     8.4080    36.0181     2.4289    75.4397     0.5495
  166.5000     9.2425     0.3198     8.1781    34.8652     2.4328    74.7229     0.5369
  167.0000     9.2419     0.3154     8.1775    33.3449     2.4328    73.6453     0.5124
  167.5000     9.2260     0.3170     8.3483    32.5566     2.4273    73.1077     0.4971
  168.0000     9.2102     0.3188     8.4057    32.1808     2.4198    72.7518     0.4970
  168.5000     9.2096     0.3202     8.2324    31.8051     2.4185    72.5764     0.4942
  169.0000     9.2090     0.3157     8.0073    30.8269     2.4232    72.2218     0.4852
  169.5000     9.2236     0.3038     7.6814    27.8909     2.4279    71.5046     0.4680
  170.0000     9.2079     0.2859     7.3180    25.7079     2.4333    70.7883     0.4327
  170.5000     9.2073     0.2815     7.0688    25.7086     2.4357    72.9600     0.4002
  171.0000     9.2218     0.2846     6.9232    26.6130     2.4327    75.1304     0.4101
  171.5000     9.2212     0.2877     6.8277    31.6710     2.4266    78.7445     0.4271
  172.0000     9.2206     0.2908     6.8746    40.3353     2.4159    81.2759     0.4515
  172.5000     9.2199     0.2970     7.3257    40.2449     2.4129    81.1004     0.5475
  173.0000     9.2209     0.3075     7.8930    39.4173     2.4176    79.8423     0.6000
  173.5000     9.2340     0.3151     8.1139    35.2012     2.4300    77.1406     0.5893
  174.0000     9.2334     0.3197     8.1697    36.5573     2.4415    75.1605     0.5433
  174.5000     9.2175     0.3227     8.1127    37.0852     2.4455    76.4289     0.5324
  175.0000     9.2169     0.3258     8.1121    37.4624     2.4470    76.9753     0.5621
  175.5000     9.2164     0.3259     8.1116    37.3878     2.4471    77.1820     0.5675
  176.0000     9.2158     0.3260     8.0552    35.3554     2.4457    75.5430     0.5674
  176.5000     9.2152     0.3261     7.9991    34.6032     2.4419    75.0067     0.5448
  177.0000     9.2146     0.3215     7.9986    33.5407     2.4374    74.4704     0.5258
  177.5000     9.1945     0.3173     8.0534    33.0133     2.4344    74.1145     0.5113
  178.0000     9.1830     0.3158     8.0529    32.6477     2.4299    73.7574     0.4985
  178.5000     9.1824     0.3144     8.0524    32.1967     2.4230    73.2223     0.4921
  179.0000     9.1817     0.3130     8.0518    31.4444     2.4193    73.0456     0.4868
  179.5000     9.1811     0.3101     8.0322    30.6921     2.4185    72.8713     0.4804
  180.0000     9.1851     0.3087     7.9732    29.3374     2.4232    72.5156     0.4740
