~VERSION INFORMATION
 VERS.                2.0:   CWLS LOG ASCII STANDARD - VERSION 2.0
 WRAP.                 NO:   ONE LINE PER DEPTH STEP
~WELL INFORMATION
#MNEM.UNIT      DATA TYPE    INFORMATION
#----------   ------------   ------------------------------
 STRT.F          100.0000:   START DEPTH
 STOP.F         1196.0000:   STOP DEPTH
 STEP.F            0.5000:   STEP LENGTH
 NULL.          -999.2500:   NO VALUE
 COMP. DEPARTMENT OF ENERGY:   COMPANY
 WELL.     NRP ##3 77S-11:   WELL
 FLD .             TEAPOT:   FIELD
 LOC .      S11 T38N R78W:   LOCATION
 CNTY.            NATRONA:   COUNTY
 STAT.            WYOMING:   STATE
 CTRY. UNITED STATES OF AMERICA:   COUNTRY
 SRVC.       Schlumberger:   SERVICE COMPANY
 DATE.        18-AUG-1959:   LOGDATE
 API .       490250632900:   API NUMBER
~CURVE INFORMATION
#MNEM.UNIT       API CODE    CURVE DESCRIPTION
#----------   ------------   ------------------------------
 DEPT.F                  :   
 SPR .MV     05 010 01 00:   SPONTANEOUS POTENTIAL FROM RES.
 ASN .OHMM   05 041 16 00:   AMPLIFIED SHORT NORMAL 16"
 ILD .OHMM   05 120 46 00:   INDUCTION LOG DEEP
 CILD.MMHO   05 110 46 00:   CONDUCTIVITY INDUCTION LOG DEEP
~PARAMETER INFORMATION
#MNEM.UNIT          VALUE    DESCRIPTION
#----------   ------------   ------------------------------
 PD  .                 GL:   PERMANENT DATUM
 EPD .F              5258:   ELEVATION PERMANENT DATUM
 LMF .                 KB:   LOG MEASURED FROM
 DAPD.F                 4:   FEET ABOVE PERMANENT DATUM
 DMF .                 KB:   DRILLING MEASURED FROM
 EKB .F              5262:   KELLING BUSHING
 EGL .F              5258:   GROUND LEVEL
 DATE.            8-18-59:   RUN DATE
 RUN .                  1:   RUN NUMBER
 DD  .F              1200:   DEPTH DRILLER
 DL  .F              1201:   DEPTH LOGGER
 BLI .F              1196:   BOTTOM LOG INTERVAL
 TLI .F               100:   TOP LOG INTERVAL
 CBD .F                17:   CASING BOTTOM DRILLER
 BS  .IN             6.75:   BIT SIZE
 BSD .F              1200:   BIT SIZE AT DEPTH
 DFT . GEL-OIL-PHDS-CAUSTIC:   DRILLING FLUID TYPE
 DFD .               10.8:   DRILLING FLUID DENSITY
 DFV .                 60:   DRILLING FLUID VISCOSITY
 DFPH.                  9:   DRILLING FLUID PH
 DFL .                  4:   DRILLING FLUID LOSS
 RMS .OHMM            1.8:   RESISTIVITY MUD SAMPLE
 MST .F                90:   MUD SAMPLE TEMPERATURE
 RMF .OHMM            1.5:   RESISTIVITY MUD FILTRATE SAMPLE
 MFST.F                90:   MUD FILTRATE SAMPLE TEMPERATURE
 RMC .OHMM              2:   RESISTIVITY MUD CAKE
 MCST.F                90:   MUD CAKE SAMPLE TEMPERATURE
 TCS .HRS               1:   TIME CURCULATED STOPPED
 LUN .               2523:   LOGGING UNIT NUMBER
 LUL .               CSPR:   LOGGING UNIT LOCATION
 ENGI.             KNOBEL:   RECORDING ENGINEER
 WITN.             MARTIN:   WITNESSED BY
 CLNT.            A2DTECH:   CLIENT CODE
 ORIG.     1", 2.5" PRINT:   ORIGIN OF DATA
 UWI .       490250632900:   UNIQUE WELL ID
 DICO. A2D Technologies, Inc.:   DIGITIZING COMPANY
~OTHER INFORMATION
~A   DEPT      SPR          ASN        ILD      CILD  
# ...
  246.0000   -30.7287     8.2013     7.2346   135.8511
  246.5000   -30.6173     8.0424     7.1138   137.5975
  247.0000   -30.6432     7.7504     6.9975   139.1844
  247.5000   -30.6790     7.4227     6.8988   142.7242
  248.0000   -30.6616     7.1961     6.7994   145.9676
  248.5000   -30.6332     7.1312     6.6939   149.2110
  249.0000   -30.6741     7.1701     6.5880   152.4544
  249.5000   -30.8457     7.2077     6.4800   155.6978
  250.0000   -31.1667     7.1773     6.3724   158.9412
  250.5000   -31.5733     7.0753     6.2855   162.2340
  251.0000   -31.9113     6.9478     6.2359   160.5142
  251.5000   -32.0375     6.8623     6.2120   158.7677
  252.0000   -31.9466     6.8596     6.1887   157.0213
  252.5000   -31.7662     6.9194     6.1573   155.1418
  253.0000   -31.6172     6.9821     6.1254   156.5248
  253.5000   -31.5105     7.0012     6.0975   158.0218
  254.0000   -31.3885     6.9725     6.0701   159.5187
  254.5000   -31.2324     6.9207     6.0406   161.0157
  255.0000   -31.0956     6.8698     6.0108   162.5127
  255.5000   -31.0432     6.8226     5.9820   164.0096
  256.0000   -31.0830     6.7696     5.9533   165.7801
  256.5000   -31.1651     6.7139     5.9242   165.7801
  257.0000   -31.2397     6.6743     5.8952   165.7801
  257.5000   -31.2986     6.6642     5.8662   165.7801
  258.0000   -31.3599     6.6794     5.8368   165.7801
  258.5000   -31.4301     6.7053     5.8077   166.9690
  259.0000   -31.4992     6.7239     5.7796   168.5408
  259.5000   -31.5614     6.7122     5.7506   170.1126
  260.0000   -31.6245     6.6462     5.7199   171.6844
  260.5000   -31.6949     6.5114     5.6908   173.2562
  261.0000   -31.7646     6.3179     5.6650   174.8280
  261.5000   -31.8242     6.1153     5.6361   176.3998
  262.0000   -31.8845     5.9804     5.5994   177.9716
  262.5000   -31.9625     5.9612     5.5679   179.5434
  263.0000   -32.0406     6.0395     5.5682   181.7376
  263.5000   -32.0632     6.1670     5.6157   179.6277
  264.0000   -31.9961     6.3203     5.7003   176.1348
  264.5000   -31.8680     6.4866     5.7962   172.6418
  265.0000   -31.7367     6.6206     5.8828   169.1489
  265.5000   -31.6261     6.6705     5.9604   165.6560
  266.0000   -31.5177     6.6469     6.0473   160.4610
  266.5000   -31.3943     6.6143     6.1496   161.2569
  267.0000   -31.2684     6.6106     6.2335   162.8093
  267.5000   -31.1587     6.6090     6.2454   164.3617
  268.0000   -31.0531     6.5704     6.1694   165.9141
  268.5000   -30.9226     6.4930     6.0515   167.4665
  269.0000   -30.7797     6.4013     5.9545   169.0189
  269.5000   -30.6939     6.3147     5.8892   170.5713
  270.0000   -30.7195     6.2479     5.8104   172.0026
  270.5000   -30.8310     6.2173     5.6934   173.8229
  271.0000   -30.9576     6.2317     5.5978   174.4781
  271.5000   -31.0640     6.2888     5.6177   170.2600
  272.0000   -31.1630     6.3868     5.7692   166.6322
  272.5000   -31.2703     6.5239     5.9731   163.6273
  273.0000   -31.3838     6.6919     6.1591   160.0568
  273.5000   -31.4963     6.8808     6.3304   156.9924
  274.0000   -31.6021     7.0800     6.4971   153.5033
  274.5000   -31.7020     7.2523     6.6136   150.3528
  275.0000   -31.8109     7.3314     6.6399   146.9324
  275.5000   -31.9368     7.2843     6.6192   144.5063
  276.0000   -32.0413     7.1648     6.6238   146.2284
  276.5000   -32.0612     7.0526     6.6440   151.5777
  277.0000   -31.9828     6.9509     6.5957   157.1504
  277.5000   -31.8627     6.7934     6.4404   161.6624
  278.0000   -31.7595     6.5541     6.2392   166.3032
  278.5000   -31.6761     6.2941     6.0640   170.8876
  279.0000   -31.5867     6.0923     5.9054   175.4721
  279.5000   -31.4867     5.9816     5.7176   180.0565
  280.0000   -31.3906     5.9611     5.5269   184.6410
  280.5000   -31.3016     6.0196     5.4270   188.8298
  281.0000   -31.2085     6.1276     5.4635   184.2224
  281.5000   -31.1096     6.2413     5.5774   179.9810
  282.0000   -31.0165     6.3380     5.6855   175.7396
  282.5000   -30.9301     6.4262     5.7688   171.4982
  283.0000   -30.8332     6.5176     5.8550   167.2568
  283.5000   -30.7264     6.6115     5.9537   163.0155
  284.0000   -30.6559     6.7077     6.0489   158.6879
  284.5000   -30.6828     6.8072     6.1374   156.4066
  285.0000   -30.8234     6.9072     6.2323   154.0780
  285.5000   -31.0319     7.0133     6.3300   151.7494
  286.0000   -31.2316     7.1378     6.4165   149.4208
  286.5000   -31.3542     7.2635     6.5015   147.0922
  287.0000   -31.3707     7.3354     6.6097   144.5036
  287.5000   -31.3064     7.3135     6.7204   144.5036
  288.0000   -31.2159     7.2207     6.7602   146.5366
  288.5000   -31.1338     7.1157     6.6761   148.8652
  289.0000   -31.0591     7.0321     6.4937   151.5957
  289.5000   -30.9841     6.9567     6.2842   162.2340
  290.0000   -30.9081     6.8475     6.0973   167.5532
  290.5000   -30.8260     6.6738     5.9290   172.8723
  291.0000   -30.7367     6.4594     5.7380   178.1915
  291.5000   -30.6681     6.2744     5.4998   181.7612
  292.0000   -30.6596     6.1625     5.2607   186.4184
  292.5000   -30.7149     6.1016     5.1204   192.3759
  293.0000   -30.7984     6.0647     5.1326   189.0714
  293.5000   -30.8803     6.0799     5.2477   184.4869
  294.0000   -30.9578     6.1833     5.3774   179.9025
  294.5000   -31.0336     6.3519     5.4885   175.3180
  295.0000   -31.1072     6.5379     5.6058   170.7336
  295.5000   -31.1880     6.7301     5.7471   166.1492
  296.0000   -31.2824     6.9305     5.8940   161.5647
  296.5000   -31.3626     7.1045     6.0227   155.1418
  297.0000   -31.3758     7.2136     6.1440   153.8342
  297.5000   -31.3004     7.2679     6.2896   151.6512
  298.0000   -31.1703     7.3014     6.4576   149.4681
  298.5000   -31.0359     7.3105     6.5870   146.2766
  299.0000   -30.9142     7.2664     6.6154   147.4014
  299.5000   -30.7897     7.1808     6.5567   149.4918
  300.0000   -30.6540     7.1194     6.4871   151.5822
  300.5000   -30.5233     7.1333     6.4498   153.6726
  301.0000   -30.4070     7.2022     6.4131   155.7630
  301.5000   -30.2823     7.2702     6.3424   156.9149
  302.0000   -30.1323     7.3219     6.2813   153.1383
  302.5000   -30.0040     7.3833     6.3133   150.5319
  303.0000   -29.9808     7.4539     6.4571   147.9255
  303.5000   -30.0846     7.5033     6.6440   146.2766
  304.0000   -30.2452     7.5496     6.8065   143.1087
  304.5000   -30.3853     7.6732     6.9479   140.7920
  305.0000   -30.4987     7.9110     7.1008   139.1844
  305.5000   -30.6214     8.2022     7.2626   132.3759
  306.0000   -30.7602     8.4728     7.4106   127.1631
  306.5000   -30.8897     8.7183     7.5529   121.9503
  307.0000   -31.0061     8.9590     7.7185   117.9078
  307.5000   -31.1364     9.1747     7.9170   114.7163
  308.0000   -31.2805     9.3357     8.1395   112.1099
  308.5000   -31.3756     9.4495     8.3733   109.5035
  309.0000   -31.3529     9.5166     8.5823   107.2695
  309.5000   -31.2180     9.4931     8.7038   109.0425
  310.0000   -31.0411     9.3511     8.7069   109.0425
  310.5000   -30.8757     9.1487     8.6347   111.3404
  311.0000   -30.7243     9.0087     8.5550   113.4255
  311.5000   -30.5751     9.0150     8.4887   115.5106
  312.0000   -30.4223     9.1268     8.4177   117.5957
  312.5000   -30.2565     9.2014     8.3353   119.6808
  313.0000   -30.0834     9.1786     8.2543   118.5225
  313.5000   -29.9569     9.2084     8.1797   117.3641
  314.0000   -29.9437     9.3943     8.1048   116.1348
  314.5000   -30.0428     9.4358     8.0267   117.7660
  315.0000   -30.1850     8.9173     7.9480   119.5035
  315.5000   -30.3144     8.0619     7.8706   121.2411
  316.0000   -30.4330     7.7024     7.7943   122.9787
  316.5000   -30.5573     8.2189     7.7186   124.7163
  317.0000   -30.6837     8.9732     7.6403   126.4539
  317.5000   -30.8080     9.1608     7.5602   128.5461
  318.0000   -30.9377     8.7938     7.4846   129.9291
  318.5000   -31.0665     8.4318     7.4137   132.0922
