~VERSION INFORMATION
 VERS.                2.0:   CWLS LOG ASCII STANDARD - VERSION 2.0
 WRAP.                 NO:   ONE LINE PER DEPTH STEP
~WELL INFORMATION
#MNEM.UNIT      DATA TYPE    INFORMATION
#----------   ------------   ------------------------------
 STRT.F           34.0000:   START DEPTH
 STOP.F          604.0000:   STOP DEPTH
 STEP.F            0.5000:   STEP LENGTH
 NULL.          -999.2500:   NO VALUE
 COMP. FENIX & SCISSON INC:   COMPANY
 WELL.       NPR #17 SX-2:   WELL
 FLD .             TEAPOT:   FIELD
 LOC .       S2 T38N R78W:   LOCATION
 CNTY.            NATRONA:   COUNTY
 STAT.            WYOMING:   STATE
 CTRY. UNITED STATES OF AMERICA:   COUNTRY
 SRVC.       Schlumberger:   SERVICE COMPANY
 DATE.        18-MAR-1977:   LOGDATE
 API .       490251032700:   API NUMBER
~CURVE INFORMATION
#MNEM.UNIT       API CODE    CURVE DESCRIPTION
#----------   ------------   ------------------------------
 DEPT.F                  :   
 SPR .MV     07 010 01 00:   SPONTANEOUS POTENTIAL
 ILD .OHMM   07 120 46 00:   INDUCTION LOG DEEP
 ILM .OHMM   07 120 44 00:   INDUCTION LOG MEDIUM
 LL8 .OHMM   07 220 08 00:   LATEROLOG-8 RES.
 CALD.IN     45 280 60 00:   CALIPER FROM DENSITY LOG
 GRD .GAPI   45 310 01 00:   GAMMA RAY FROM DENSITY LOG
 CORR.G/C3   45 356 01 00:   DENSITY CORRECTION
 DPHI.DEC    45 890 12 00:   DENSITY POROSITY SANDSTONE
 RHOB.G/C3   45 350 01 00:   BULK DENSITY
~PARAMETER INFORMATION
#MNEM.UNIT          VALUE    DESCRIPTION
#----------   ------------   ------------------------------
 PD  .                 GL:   PERMANENT DATUM
 EPD .F              5122:   ELEVATION PERMANENT DATUM
 LMF .                 KB:   LOG MEASURED FROM
 DAPD.F                 4:   FEET ABOVE PERMANENT DATUM
 DMF .                 KB:   DRILLING MEASURED FROM
 EKB .F              5126:   KELLING BUSHING
 EGL .F              5122:   GROUND LEVEL
 DATE.        18-MAR-1977:   RUN DATE
 RUN .                  1:   RUN NUMBER
 DD  .F               600:   DEPTH DRILLER
 DL  .F               605:   DEPTH LOGGER
 BLI .F               604:   BOTTOM LOG INTERVAL
 TLI .F                44:   TOP LOG INTERVAL
 CS  .IN            8.625:   CASING SIZE
 CBD .F                40:   CASING BOTTOM DRILLER
 CBL .F                44:   CASING BOTTOM LOGGER
 BS  .IN            7.875:   BIT SIZE
 BSD .F               600:   BIT SIZE AT DEPTH
 DFT .            KCL MUD:   DRILLING FLUID TYPE
 DFD .                8.9:   DRILLING FLUID DENSITY
 DFV .                 39:   DRILLING FLUID VISCOSITY
 DFPH.                8.5:   DRILLING FLUID PH
 DFL .                6.1:   DRILLING FLUID LOSS
 MSS .                PIT:   MUD SAMPLE SOURCE
 RMS .OHMM           0.26:   RESISTIVITY MUD SAMPLE
 MST .F                52:   MUD SAMPLE TEMPERATURE
 RMF .OHMM           0.24:   RESISTIVITY MUD FILTRATE SAMPLE
 MFST.F                52:   MUD FILTRATE SAMPLE TEMPERATURE
 MFSS.               MEAS:   MUD FILTRATE SAMPLE SOURCE
 TCS .HRS            0230:   TIME CURCULATED STOPPED
 LUN .               7711:   LOGGING UNIT NUMBER
 LUL .               CSPR:   LOGGING UNIT LOCATION
 ENGI.             SAYLER:   RECORDING ENGINEER
 WITN.         STUEBINGER:   WITNESSED BY
 CLNT.            A2DTECH:   CLIENT CODE
 ORIG.           5" PRINT:   ORIGIN OF DATA
 UWI .       490251032700:   UNIQUE WELL ID
 DICO. A2D Technologies, Inc.:   DIGITIZING COMPANY
~OTHER INFORMATION
~A   DEPT      SPR        ILD        ILM        LL8       CALD        GRD       CORR       DPHI       RHOB   
# ...
  253.0000   -27.0705    10.1124     9.1386     9.0827     8.0538   101.6271     0.0303     0.1344     2.4297
  253.5000   -27.3597    10.0445     9.0779     8.7749     8.0697   103.7129     0.0371     0.1335     2.4312
  254.0000   -27.6489     9.9094     9.2074     8.5366     7.9965   108.3172     0.0364     0.1353     2.4066
  254.5000   -27.9381     9.7755     9.4712     8.4789     7.9976   110.9957     0.0319     0.1550     2.3924
  255.0000   -28.2273     9.7105     9.6715     8.4220     8.0580   109.8222     0.0365     0.1603     2.3872
  255.5000   -29.2594     9.5793     9.4677     8.4242     8.1035   108.1946     0.0523     0.1543     2.4082
  256.0000   -29.9957     9.5820     8.8761     8.6031     8.0600   107.3077     0.0764     0.1444     2.4119
  256.5000   -30.5829     9.5846     8.5419     8.8469     7.9869   106.1245     0.0734     0.1465     2.4073
  257.0000   -30.8744     9.5872     8.7855     8.9723     7.9580   106.1857     0.0697     0.1561     2.3940
  257.5000   -31.1613     9.6567     9.0355     8.8501     7.8702   106.4988     0.0622     0.1585     2.3911
  258.0000   -31.7486     9.7357     9.2283     8.7907     7.7498   106.6364     0.0479     0.1470     2.4107
  258.5000   -32.4849     9.8779     9.4252     8.8542     7.9465   105.9074     0.0379     0.1453     2.4121
  259.0000   -33.0721    10.0065     9.4935     9.1051     8.0514   104.5859     0.0210     0.1439     2.4137
  259.5000   -33.5104    10.0790     9.5623     9.2985     8.1117   102.6717     0.0196     0.1391     2.4197
  260.0000   -33.9508    10.0818     9.6316     9.3004     8.1573    99.8686     0.0249     0.1380     2.4220
  260.5000   -34.2378    10.2255     9.6343     9.1108     8.1583   100.4730     0.0175     0.1392     2.4205
  261.0000   -34.0799    10.3713     9.7718     8.8020     8.1890   101.8181     0.0215     0.1350     2.4288
  261.5000   -34.0710    10.3741     9.7744     9.2513     8.2049   103.1631     0.0228     0.1356     2.4243
  262.0000   -34.0621    10.1631     9.7771     9.7793     8.2059   103.3231     0.0169     0.1391     2.4169
  262.5000   -34.0533     9.8876     9.7798     9.8412     8.1921   103.1867     0.0116     0.1424     2.4154
  263.0000   -34.1937     9.5529     9.5808     9.3124     8.1932   102.7510     0.0072     0.1373     2.4237
  263.5000   -34.3338     9.1024     9.2563     9.0590     8.1942   102.0250     0.0102     0.1367     2.4252
  264.0000   -34.3247     8.6131     8.8809     8.8747     8.1953   101.8856     0.0170     0.1388     2.4215
  264.5000   -34.3159     8.3216     8.4618     8.6337     8.1817   103.0855     0.0208     0.1453     2.4111
  265.0000   -34.1580     8.1523     8.2321     7.9458     8.1528   104.2825     0.0209     0.1546     2.3962
  265.5000   -34.1490     8.1546     7.9534     7.5709     8.1244   105.7757     0.0217     0.1614     2.3828
  266.0000   -34.2893     8.1568     7.7914     7.2638     8.0661   108.1578     0.0165     0.1662     2.3783
  266.5000   -34.2802     8.2159     7.8479     7.0665     7.9632   110.0955     0.0300     0.1608     2.3829
  267.0000   -34.4206     8.2754     7.9599     7.1171     7.9047   109.6628     0.0481     0.1491     2.4075
  267.5000   -34.4113     8.3354     8.0176     7.7364     7.9059   105.2301     0.0526     0.1321     2.4263
  268.0000   -34.8477     8.3957     8.0199     8.7063     7.9070   102.5752     0.0534     0.1279     2.4353
  268.5000   -35.4350     8.3981     8.0780     8.7682     7.8041   102.4237     0.0527     0.1264     2.4435
  269.0000   -35.5773     8.4009     8.2504     8.3548     7.8200   104.5246     0.0595     0.1246     2.4488
  269.5000   -35.8643     8.4617     8.4269     8.3566     7.9694   105.8697     0.0618     0.1198     2.4518
  270.0000   -36.3048     8.4640     8.4880     8.4750     8.0444   107.9556     0.0499     0.1194     2.4511
  270.5000   -36.2937     8.4072     8.5495     8.5358     8.0306   108.8563     0.0634     0.1167     2.4623
  271.0000   -36.4338     8.4101     8.5519     8.5375     8.0319   108.2558     0.0912     0.1029     2.4967
  271.5000   -36.8721     8.4710     8.5542     8.5393     7.9884   107.0725     0.0973     0.1005     2.4743
  272.0000   -37.4593     8.4733     8.5566     8.5411     7.9743   105.4449     0.1116     0.0993     2.4819
  272.5000   -38.1956     8.6539     8.6186     8.5428     7.9756   104.7551     0.1312     0.0969     2.4931
  273.0000   -38.4870     8.7166     8.6209     8.6041     7.9915   104.6187     0.1297     0.0945     2.4939
  273.5000   -38.4759     8.9025     8.7439     8.7872     7.9925   104.4823     0.1275     0.0936     2.4909
  274.0000   -38.4671     9.0294     8.9305     8.9117     7.9935   103.7562     0.1238     0.0996     2.4863
  274.5000   -38.3092     9.2219     9.1211     9.1643     7.9946   102.8791     0.1208     0.1049     2.4786
  275.0000   -38.3003     9.2887     9.2512     9.3589     7.9956   101.8538     0.1201     0.1100     2.4690
  275.5000   -38.1424     9.2912     9.3183     9.4260     7.9818   103.0508     0.1127     0.1145     2.4597
  276.0000   -38.1335     9.2937     9.2557     9.4935     7.9680   106.0255     0.1126     0.1142     2.4657
  276.5000   -38.1247     9.2963     9.1941     9.4294     7.9393   108.2594     0.1158     0.1117     2.4688
  277.0000   -38.1158     9.1707     9.0703     9.3019     7.9255   108.8638     0.1203     0.1120     2.4703
  277.5000   -38.4050     8.9790     9.0729     9.3038     7.9266   108.8755     0.1158     0.1075     2.4748
  278.0000   -38.5455     8.8546     9.0754     9.1770     7.9424   108.7362     0.1241     0.0997     2.4831
  278.5000   -38.5363     8.8038     9.1412     8.9904     7.9583   110.8250     0.1212     0.0994     2.4846
  279.0000   -38.3784     8.8069     8.9547     8.7462     7.9742   117.5034     0.1272     0.1003     2.4854
  279.5000   -38.2205     8.8093     9.4041     8.6271     7.9604   119.1418     0.1047     0.1131     2.4697
  280.0000   -38.0626     8.8117     9.4716     8.6293     7.9614   118.1185     0.1003     0.1170     2.4593
  280.5000   -37.9046     8.8141     9.0252     8.5714     7.9452   117.3797     0.0980     0.1173     2.4586
  281.0000   -37.7466     8.7555     8.8414     8.5732     7.9104   116.1965     0.0885     0.1199     2.4512
  281.5000   -37.4396     8.7579     8.7826     8.5749     7.6977   114.9985     0.0598     0.1313     2.4049
  282.0000   -37.2817     8.8214     8.8464     8.5767     7.6245   113.7017     0.0337     0.1525     2.3982
  282.5000   -37.4221     8.9471     8.9105     8.6983     7.5808   112.9432     0.0409     0.1504     2.4027
  283.0000   -37.5623     9.0119     9.0376     8.8265     7.7008   112.5594     0.0525     0.1405     2.4214
  283.5000   -37.7025     9.0772     9.2305     8.9546     7.7760   112.5741     0.0548     0.1399     2.4230
  284.0000   -37.8426     9.0162     9.2974     9.1367     7.8809   111.1044     0.0376     0.1396     2.4252
  284.5000   -38.1318     8.8944     9.2355     9.2666     8.0303   108.3013     0.0346     0.1330     2.4342
  285.0000   -38.2720     8.7747     9.0393     9.2685     8.1203   107.8657     0.0362     0.1237     2.4455
  285.5000   -38.4121     8.7772     8.7916     9.2059     8.1065   110.3989     0.0392     0.1189     2.4567
  286.0000   -38.4011     8.7188     8.6229     9.0186     8.0628   111.1514     0.0438     0.1213     2.4508
  286.5000   -38.3922     8.7212     8.6259     8.8962     8.0641   112.4965     0.0281     0.1219     2.4454
  287.0000   -38.3833     8.7237     8.5679     8.8981     8.0651   113.3971     0.0169     0.1203     2.4471
  287.5000   -38.6725     8.7261     8.5110     8.8379     8.0810   113.4089     0.0169     0.1173     2.4569
  288.0000   -38.9639     8.6680     8.3959     8.7786     8.0968   113.2695     0.0184     0.1170     2.4569
  288.5000   -39.6980     8.5996     8.2823     8.6001     8.1127   112.8398     0.0245     0.1188     2.4532
  289.0000   -40.1362     8.4359     8.2273     8.6019     8.1137   112.2590     0.0313     0.1179     2.4547
