~VERSION INFORMATION
 VERS.                2.0:   CWLS LOG ASCII STANDARD - VERSION 2.0
 WRAP.                 NO:   ONE LINE PER DEPTH STEP
~WELL INFORMATION
#MNEM.UNIT      DATA TYPE    INFORMATION
#----------   ------------   ------------------------------
 STRT.F           40.0000:   START DEPTH
 STOP.F          490.0000:   STOP DEPTH
 STEP.F            0.5000:   STEP LENGTH
 NULL.          -999.2500:   NO VALUE
 COMP.    FENIX & SCISSON:   COMPANY
 WELL. RES 3 TEAPOT DOM #76-10:   WELL
 FLD .        TEAPOT DOME:   FIELD
 LOC .      S10 T38N R78W:   LOCATION
 CNTY.            NATRONA:   COUNTY
 STAT.            WYOMING:   STATE
 CTRY. UNITED STATES OF AMERICA:   COUNTRY
 SRVC.           BIRDWELL:   SERVICE COMPANY
 DATE.        19-JUN-1978:   LOGDATE
 API .       490251065100:   API NUMBER
~CURVE INFORMATION
#MNEM.UNIT       API CODE    CURVE DESCRIPTION
#----------   ------------   ------------------------------
 DEPT.F                  :   
 CALD.IN     45 280 60 00:   CALIPER FROM DENSITY LOG
 CORR.G/C3   45 356 01 00:   DENSITY CORRECTION
 DPHI.DEC    45 890 12 00:   DENSITY POROSITY SANDSTONE
 GRD .GAPI   45 310 01 00:   GAMMA RAY FROM DENSITY LOG
 RHOB.G/C3   45 350 01 00:   BULK DENSITY
 ILD .OHMM   05 120 46 00:   INDUCTION LOG DEEP
 SN  .OHMM   05 040 16 00:   SHORT NORMAL 16"
 SPR .MV     05 010 01 00:   SPONTANEOUS POTENTIAL FROM RES.
~PARAMETER INFORMATION
#MNEM.UNIT          VALUE    DESCRIPTION
#----------   ------------   ------------------------------
 PD  .                 GL:   PERMANENT DATUM
 EPD .F              5185:   ELEVATION PERMANENT DATUM
 LMF .                 KB:   LOG MEASURED FROM
 DAPD.F                 4:   FEET ABOVE PERMANENT DATUM
 DMF .                 KB:   DRILLING MEASURED FROM
 EKB .F              5189:   KELLING BUSHING
 EGL .F              5185:   GROUND LEVEL
 DATE.        19-JUN-1978:   RUN DATE
 RUN .                  1:   RUN NUMBER
 DD  .F               485:   DEPTH DRILLER
 DL  .F               490:   DEPTH LOGGER
 BLI .F               490:   BOTTOM LOG INTERVAL
 TLI .F                50:   TOP LOG INTERVAL
 CS  .IN            8.625:   CASING SIZE
 CBD .F                30:   CASING BOTTOM DRILLER
 CBL .F                30:   CASING BOTTOM LOGGER
 BS  .IN            7.875:   BIT SIZE
 BSD .F               485:   BIT SIZE AT DEPTH
 DFT .                KCL:   DRILLING FLUID TYPE
 DFD .                8.7:   DRILLING FLUID DENSITY
 DFV .                 34:   DRILLING FLUID VISCOSITY
 DFPH.               10.5:   DRILLING FLUID PH
 MSS .           FLOWLINE:   MUD SAMPLE SOURCE
 RMS .OHMM           0.24:   RESISTIVITY MUD SAMPLE
 MST .F                70:   MUD SAMPLE TEMPERATURE
 RMF .OHMM           0.24:   RESISTIVITY MUD FILTRATE SAMPLE
 MFST.F                72:   MUD FILTRATE SAMPLE TEMPERATURE
 RMC .OHMM           0.28:   RESISTIVITY MUD CAKE
 MCST.F                78:   MUD CAKE SAMPLE TEMPERATURE
 MFSS.               MEAS:   MUD FILTRATE SAMPLE SOURCE
 MCSS.               MEAS:   MUD CAKE SAMPLE SOURCE
 RMB .OHMM           0.27:   RESISTIVITY MUD AT BHT
 BHT .F                74:   BOTTOM HOLE TEMPERATURE
 TCS .HRS               1:   TIME CURCULATED STOPPED
 MRT .F                74:   MAXIMUM RECORDED TEMPERATURE
 LUN .               2958:   LOGGING UNIT NUMBER
 LUL .               CASP:   LOGGING UNIT LOCATION
 ENGI.           REYNOLDS:   RECORDING ENGINEER
 WITN.           MCGINLEY:   WITNESSED BY
 CLNT.            A2DTECH:   CLIENT CODE
 ORIG.           5" PRINT:   ORIGIN OF DATA
 UWI .       490251065100:   UNIQUE WELL ID
 DICO. A2D Technologies, Inc.:   DIGITIZING COMPANY
~OTHER INFORMATION
~A   DEPT     CALD       CORR       DPHI        GRD       RHOB        ILD         SN        SPR   
   40.0000  -999.2500  -999.2500  -999.2500   116.8775  -999.2500  -999.2500  -999.2500  -999.2500
   40.5000  -999.2500  -999.2500  -999.2500   117.3528  -999.2500  -999.2500  -999.2500  -999.2500
   41.0000  -999.2500  -999.2500  -999.2500   119.3135  -999.2500  -999.2500  -999.2500  -999.2500
   41.5000  -999.2500  -999.2500  -999.2500   121.4247  -999.2500  -999.2500  -999.2500  -999.2500
   42.0000  -999.2500  -999.2500  -999.2500   120.9764  -999.2500  -999.2500  -999.2500  -999.2500
   42.5000  -999.2500  -999.2500  -999.2500   118.5696  -999.2500  -999.2500  -999.2500  -999.2500
   43.0000  -999.2500  -999.2500  -999.2500   116.6146  -999.2500  -999.2500  -999.2500  -999.2500
   43.5000  -999.2500  -999.2500  -999.2500   115.8644  -999.2500  -999.2500  -999.2500  -999.2500
   44.0000     7.2267  -999.2500  -999.2500   117.0728  -999.2500  -999.2500  -999.2500  -999.2500
   44.5000     7.2723  -999.2500  -999.2500   118.1298  -999.2500  -999.2500  -999.2500  -999.2500
   45.0000     7.3629  -999.2500  -999.2500   118.8856  -999.2500  -999.2500  -999.2500  -999.2500
   45.5000     7.3035  -999.2500  -999.2500   119.1903  -999.2500  -999.2500  -999.2500  -999.2500
   46.0000     7.1991  -999.2500  -999.2500   119.0425  -999.2500  -999.2500  -999.2500  -999.2500
   46.5000     7.1547  -999.2500  -999.2500   118.5929  -999.2500  -999.2500  -999.2500  -999.2500
   47.0000     7.1554  -999.2500  -999.2500   116.0291  -999.2500  -999.2500  -999.2500  -999.2500
   47.5000     7.2010  -999.2500  -999.2500   112.1240  -999.2500  -999.2500  -999.2500  -999.2500
   48.0000     7.2915  -999.2500  -999.2500   110.1690  -999.2500  -999.2500  -999.2500  -999.2500
   48.5000     7.3971  -999.2500  -999.2500   109.5687  -999.2500  -999.2500  -999.2500  -999.2500
   49.0000     7.4726  -999.2500  -999.2500   109.1204  -999.2500  -999.2500  -999.2500  -999.2500
   49.5000     7.5332  -999.2500  -999.2500   109.4251  -999.2500  -999.2500  -999.2500  -999.2500
   50.0000     7.5787     0.0157     0.1092   110.1810     2.4918     6.6443     7.0252  -999.2500
   50.5000     7.6094     0.0576     0.1170   111.5392     2.4790     6.6273     6.9677   -47.9622
   51.0000     7.6100     0.0876     0.1197   113.1993     2.4708     6.6832     7.0193   -47.9667
   51.5000     7.5356     0.1056     0.1035   114.8588     2.4903     6.5916     7.0670   -47.8197
   52.0000     7.4612     0.1146     0.0971   115.4640     2.5121     6.5464     7.1644   -47.6727
   52.5000     7.4768     0.0699     0.1059   115.4593     2.5205     6.3246     7.2629   -47.8294
   53.0000     7.4624     0.0460     0.1074   114.1149     2.5016     6.3246     7.3632   -47.8338
   53.5000     7.4330     0.0297     0.1074   113.2141     2.4889     6.3246     7.4811   -47.9894
   54.0000     7.3737     0.0223     0.1191   113.8194     2.4784     6.3683     7.5368   -48.1461
   54.5000     7.2843     0.0238     0.1230   115.4795     2.4710     6.4143     7.5663   -48.1504
   55.0000     7.2099     0.0239     0.1212   116.2353     2.4740     6.5014     7.5130   -48.1547
   55.5000     7.1955     0.0225     0.1206   116.5394     2.4763     6.5014     7.4603   -48.1588
   56.0000     7.2112     0.0211     0.1224   116.6928     2.4770     6.5014     7.4593   -48.2411
   56.5000     7.2267     0.0212     0.1199   116.2445     2.4763     6.5014     7.5103   -48.3192
   57.0000     7.2273     0.0212     0.1158   114.1389     2.4741     6.5014     7.5090   -48.4757
   57.5000     7.1814     0.0228     0.1182   110.0754     2.4741     6.5014     7.5080   -48.4804
   58.0000     7.1385     0.0274     0.1200   108.4076     2.4741     6.4364     7.4551   -48.3320
   58.5000     7.1090     0.0289     0.1190   108.2738     2.4749     6.4124     7.4028   -48.2235
   59.0000     7.1409     0.0305     0.1188   109.6328     2.4749     6.3683     7.3842   -48.1904
   59.5000     7.2154     0.0291     0.1194   110.3886     2.4757     6.3580     7.3499   -48.1958
   60.0000     7.2309     0.0292     0.1167   110.6926     2.4765     6.3246     7.3752   -48.1997
   60.5000     7.2015     0.0277     0.1143   110.0937     2.4765     6.3246     7.3988   -48.2042
   61.0000     7.1422     0.0278     0.1158   109.9453     2.4765     6.3683     7.4492   -48.2088
   61.5000     7.1277     0.0279     0.1154   111.3087     2.4765     6.3683     7.4588   -48.2133
   62.0000     7.1434     0.0280     0.1149   110.7053     2.4766     6.3683     7.4987   -48.2185
   62.5000     7.2039     0.0295     0.1176   109.6532     2.4766     6.3683     7.4976   -48.2224
   63.0000     7.2346     0.0296     0.1179   112.2170     2.4766     6.3246     7.4964   -48.2272
   63.5000     7.2351     0.0312     0.1173   113.8765     2.4774     6.3246     7.4859   -48.2319
   64.0000     7.2357     0.0342     0.1164   113.8799     2.4774     6.3246     7.3916   -48.2369
   64.5000     7.2663     0.0358     0.1152   112.9791     2.4774     6.3246     7.3397   -48.2405
   65.0000     7.3269     0.0359     0.1155   111.0241     2.4774     6.2811     7.2882   -48.2165
   65.5000     7.3423     0.0360     0.1179   110.2739     2.4775     6.3246     7.1872   -48.0983
   66.0000     7.3280     0.0360     0.1218   112.9883     2.4797     6.3246     7.1365   -48.1029
   66.5000     7.2838     0.0361     0.1185   114.3465     2.4835     6.3246     7.1356   -48.1076
   67.0000     7.2392     0.0347     0.1146   115.2751     2.4858     6.3246     7.0858   -48.2639
   67.5000     7.2098     0.0363     0.1116   116.1601     2.4850     6.3246     7.1338   -48.2678
   68.0000     7.2429     0.0423     0.1140   115.5605     2.4858     6.3246     7.1328   -48.2723
   68.5000     7.3311     0.0454     0.1161   113.7561     2.4873     6.3167     7.1318   -48.2769
   69.0000     7.4516     0.0454     0.1158   112.8553     2.4889     6.2731     7.1413   -48.2814
   69.5000     7.5571     0.0455     0.1130   114.3648     2.4874     6.2380     7.1993   -48.3533
   70.0000     7.6328     0.0456     0.1086   116.4761     2.4852     6.2103     7.2781   -48.4418
   70.5000     7.6334     0.0472     0.1137   116.1717     2.4814     6.1525     7.3276   -48.2953
   71.0000     7.5440     0.0518     0.1188   113.4704     2.4837     6.1525     7.3310   -48.2996
   71.5000     7.4995     0.0712     0.1104   113.9250     2.4942     6.1366     7.4273   -48.3041
   72.0000     7.5152     0.0803     0.0983   117.5423     2.5040     6.0683     7.5297   -48.4599
   72.5000     7.5758     0.0788     0.0911   119.8745     2.5160     6.0683     7.5288   -48.4650
   73.0000     7.6063     0.0580     0.0878   118.7534     2.5183     6.0683     7.5277   -48.4693
   73.5000     7.5770     0.0431     0.1131   117.0996     2.4973     6.0683     7.5267   -48.4735
   74.0000     7.5476     0.0342     0.1128   117.1024     2.4741     6.0683     7.5255   -48.3267
   74.5000     7.5180     0.0359     0.1158   116.9554     2.4749     6.0683     7.5245   -48.3321
   75.0000     7.4588     0.0434     0.1191   115.7534     2.4764     6.0683     7.4718   -48.3368
   75.5000     7.4895     0.0479     0.1218   116.0236     2.4757     6.0683     7.4193   -48.3404
   76.0000     7.5800     0.0480     0.1156   116.5201     2.4817     6.0953     7.4183   -48.3454
   76.5000     7.6405     0.0451     0.1104   117.2685     2.4899     6.1103     7.4171   -48.3495
   77.0000     7.6393     0.0436     0.1080   117.5726     2.4945     6.1103     7.5193   -48.3540
   77.5000     7.5818     0.0437     0.1058   117.4248     2.4967     6.1103     7.5184   -48.3585
   78.0000     7.5674     0.0438     0.1047   115.1693     2.4983     6.1103     7.5378   -48.2995
   78.5000     7.5679     0.0454     0.1035   113.0636     2.4990     6.1103     7.6209   -48.3678
   79.0000     7.5536     0.0439     0.1020   110.9573     2.5058     6.1103     7.7259   -48.3722
   79.5000     7.4942     0.0380     0.0989   112.7681     2.5133     6.1525     7.7784   -48.3767
   80.0000     7.4198     0.0322     0.1017   114.4282     2.5111     6.1525     7.8854   -48.3812
