~VERSION INFORMATION
 VERS.                2.0:   CWLS LOG ASCII STANDARD - VERSION 2.0
 WRAP.                 NO:   ONE LINE PER DEPTH STEP
~WELL INFORMATION
#MNEM.UNIT      DATA TYPE    INFORMATION
#----------   ------------   ------------------------------
 STRT.F           33.0000:   START DEPTH
 STOP.F          957.0000:   STOP DEPTH
 STEP.F            0.5000:   STEP LENGTH
 NULL.          -999.2500:   NO VALUE
 COMP. TESORO PETROLEUM CORP:   COMPANY
 WELL.  NPR #3 46-S-14 #3:   WELL
 FLD .             TEAPOT:   FIELD
 LOC .      S14 T38N R78W:   LOCATION
 CNTY.            NATRONA:   COUNTY
 STAT.            WYOMING:   STATE
 CTRY. UNITED STATES OF AMERICA:   COUNTRY
 SRVC.       Schlumberger:   SERVICE COMPANY
 DATE.        25-JUN-1970:   LOGDATE
 API .       490251023100:   API NUMBER
~CURVE INFORMATION
#MNEM.UNIT       API CODE    CURVE DESCRIPTION
#----------   ------------   ------------------------------
 DEPT.F                  :   
 SPR .MV     05 010 01 00:   SPONTANEOUS POTENTIAL FROM RES.
 ILD .OHMM   05 120 46 00:   INDUCTION LOG DEEP
 CILD.MMHO   05 110 46 00:   CONDUCTIVITY INDUCTION LOG DEEP
 ASN .OHMM   05 041 16 00:   AMPLIFIED SHORT NORMAL 16"
 GR  .GAPI   30 310 01 00:   GAMMA RAY
 CALD.IN     45 280 60 00:   CALIPER FROM DENSITY LOG
 CORR.G/C3   45 356 01 00:   DENSITY CORRECTION
 DPHI.DEC    45 890 12 00:   DENSITY POROSITY SANDSTONE
 RHOB.G/C3   45 350 01 00:   BULK DENSITY
~PARAMETER INFORMATION
#MNEM.UNIT          VALUE    DESCRIPTION
#----------   ------------   ------------------------------
 PD  .                 GL:   PERMANENT DATUM
 EPD .F              5271:   ELEVATION PERMANENT DATUM
 LMF .                 KB:   LOG MEASURED FROM
 DAPD.F                10:   FEET ABOVE PERMANENT DATUM
 DMF .                 KB:   DRILLING MEASURED FROM
 EKB .F              5281:   KELLING BUSHING
 EDF .F              5280:   DRILLING FLOOR
 EGL .F              5271:   GROUND LEVEL
 DATE.        25-JUN-1970:   RUN DATE
 RUN .                  1:   RUN NUMBER
 DD  .F               950:   DEPTH DRILLER
 DL  .F               958:   DEPTH LOGGER
 BLI .F               957:   BOTTOM LOG INTERVAL
 TLI .F                33:   TOP LOG INTERVAL
 CS  .IN            10.75:   CASING SIZE
 CBD .F                30:   CASING BOTTOM DRILLER
 CBL .F                33:   CASING BOTTOM LOGGER
 BS  .IN                9:   BIT SIZE
 BSD .F               950:   BIT SIZE AT DEPTH
 DFT .         MO-MAR MUD:   DRILLING FLUID TYPE
 DFD .                9.7:   DRILLING FLUID DENSITY
 DFV .                 62:   DRILLING FLUID VISCOSITY
 DFPH.                7.4:   DRILLING FLUID PH
 DFL .                5.6:   DRILLING FLUID LOSS
 MSS .           FLOWLINE:   MUD SAMPLE SOURCE
 RMS .OHMM           1.40:   RESISTIVITY MUD SAMPLE
 MST .F                85:   MUD SAMPLE TEMPERATURE
 RMF .OHMM           0.85:   RESISTIVITY MUD FILTRATE SAMPLE
 MFST.F                87:   MUD FILTRATE SAMPLE TEMPERATURE
 MFSS.               MEAS:   MUD FILTRATE SAMPLE SOURCE
 RMB .OHMM           1.06:   RESISTIVITY MUD AT BHT
 BHT .F               112:   BOTTOM HOLE TEMPERATURE
 TCS .HRS               1:   TIME CURCULATED STOPPED
 MRT .F               112:   MAXIMUM RECORDED TEMPERATURE
 LUN .               7037:   LOGGING UNIT NUMBER
 LUL .                GLT:   LOGGING UNIT LOCATION
 ENGI.           KNOSTMAN:   RECORDING ENGINEER
 WITN.                MAY:   WITNESSED BY
 CLNT.            A2DTECH:   CLIENT CODE
 ORIG.         2.5" PRINT:   ORIGIN OF DATA
 UWI .       490251023100:   UNIQUE WELL ID
 DICO. A2D Technologies, Inc.:   DIGITIZING COMPANY
~OTHER INFORMATION
~A   DEPT       SPR        ILD       CILD       ASN         GR       CALD       CORR       DPHI       RHOB   
# ...
  471.0000   -36.6903     7.1409   147.6596     7.5538  -999.2500     9.3428    -0.0096     0.1269     2.4530
  471.5000   -36.6915     7.1436   149.1489     7.4330  -999.2500     9.3429    -0.0003     0.1268     2.4526
  472.0000   -36.6931     6.9942   152.1556     7.2788  -999.2500     9.3430     0.0060     0.1256     2.4212
  472.5000   -36.6945     6.9962   153.6474     7.1853  -999.2500     9.3432     0.0116     0.1259     2.4306
  473.0000   -36.6788     6.8404   156.8187     7.1007  -999.2500     9.3433     0.0181     0.1292     2.4530
  473.5000   -36.4630     6.6975   158.5207     7.0708  -999.2500     9.3434     0.0162     0.1304     2.4485
  474.0000   -36.3951     6.5673   161.1605     7.0409  -999.2500     9.3436     0.0061     0.1261     2.4440
  474.5000   -36.3967     6.3992   163.0446     6.9807  -999.2500     9.3437     0.0038     0.1242     2.4591
  475.0000   -36.3982     6.3573   164.1337     6.9508  -999.2500     9.3439     0.0106     0.1203     2.4607
  475.5000   -36.3997     6.2160   164.1006     6.8576  -999.2500     9.3440     0.0209     0.1139     2.4425
  476.0000   -36.4012     6.1032   165.5919     6.7859  -999.2500     9.3441     0.0234     0.1061     2.4805
  476.5000   -36.2827     6.1053   167.0833     6.7094  -999.2500     9.3443     0.0134     0.0969     2.5046
  477.0000   -36.0501     6.1263   167.3961     6.7098  -999.2500     9.3444     0.0134     0.1094     2.4960
  477.5000   -35.7979     6.3005   168.5462     6.7406  -999.2500     9.3445     0.0134     0.1150     2.4577
  478.0000   -35.7994     6.4152   166.2209     6.7409  -999.2500     9.3447     0.0117     0.1135     2.4608
  478.5000   -35.8011     6.4975   160.8764     6.7413  -999.2500     9.3543     0.0059     0.1095     2.4690
  479.0000   -35.8025     6.7730   157.8085     6.8059  -999.2500     9.3450     0.0011     0.1120     2.4714
  479.5000   -35.8040     6.9975   153.2209     6.9180  -999.2500     9.3451     0.0107     0.1167     2.4657
  480.0000   -35.8055     7.2525   148.6322     7.1566  -999.2500     9.3453     0.0149     0.1210     2.4502
  480.5000   -35.8070     7.4975   146.7680     7.4173  -999.2500     9.3454     0.0165     0.1178     2.4629
  481.0000   -35.8085     7.6409   142.4924     7.6826  -999.2500     9.3455     0.0164     0.1136     2.4684
  481.5000   -35.8100     7.7947   139.4225     7.8042  -999.2500     9.3456     0.0164     0.1130     2.4681
  482.0000   -35.8116     7.9485   136.3473     7.8957  -999.2500     9.3458     0.0318     0.1160     2.4579
  482.5000   -35.8131     7.9512   134.7991     7.9564  -999.2500     9.3459     0.0349     0.1102     2.4654
  483.0000   -35.8146     7.9533   136.2918     7.9476  -999.2500     9.3461     0.0349     0.1039     2.4868
  483.5000   -35.8161     7.6524   141.0333     7.8692  -999.2500     9.3764     0.0379     0.0996     2.4957
  484.0000   -35.8176     7.5010   148.9564     7.7152  -999.2500     9.3766     0.0428     0.1049     2.4881
  484.5000   -35.8191     7.1798   154.9341     7.5641  -999.2500     9.3767     0.0178     0.1068     2.4791
  485.0000   -35.8207     6.9672   159.6757     7.4129  -999.2500     9.3768     0.0133     0.1121     2.4584
  485.5000   -35.8222     6.6889   163.4899     7.2288  -999.2500     9.3755     0.0170     0.1201     2.4504
  486.0000   -35.8237     6.4515   163.4614     7.0990  -999.2500     9.3469     0.0194     0.1240     2.4504
  486.5000   -35.8252     6.4541   163.4330     7.0098  -999.2500     9.3470     0.0117     0.1249     2.4504
  487.0000   -35.8267     6.3045   163.4043     6.9598  -999.2500     9.3472     0.0037     0.1249     2.4504
  487.5000   -35.7713     6.1553   163.1206     6.9299  -999.2500     9.3473    -0.0006     0.1261     2.4439
  488.0000   -35.5258     6.3091   161.3576     6.9303  -999.2500     9.3474    -0.0021     0.1285     2.4414
  488.5000   -35.5274     6.4629   160.2735     6.9610  -999.2500     9.3476    -0.0021     0.1305     2.4396
  489.0000   -35.5290     6.5168   158.7175     6.9941  -999.2500     9.3477    -0.0006     0.1320     2.4384
  489.5000   -35.5304     6.5999   158.6891     7.1036  -999.2500     9.3478     0.0055     0.1282     2.4387
  490.0000   -35.2280     6.7731   157.1410     7.2576  -999.2500     9.3480     0.0194     0.1229     2.4445
  490.5000   -35.2295     6.9268   155.5826     7.3881  -999.2500     9.3481     0.0178     0.1208     2.4536
  491.0000   -35.2903     7.0804   153.8198     7.4781  -999.2500     9.3483     0.0163     0.1168     2.4579
  491.5000   -35.5365     7.2341   152.0567     7.5390  -999.2500     9.3484     0.0159     0.1155     2.4612
  492.0000   -35.5382     7.2956   150.2939     7.5394  -999.2500     9.3485     0.0132     0.1137     2.4636
  492.5000   -35.8436     7.4102   148.5308     7.5432  -999.2500     9.3487     0.0101     0.1155     2.4672
  493.0000   -35.8450     7.5539   147.8378     7.5784  -999.2500     9.3488     0.0051     0.1220     2.4545
  493.5000   -35.8815     7.6982   146.2896     7.6260  -999.2500     9.3489     0.0018     0.1270     2.4444
  494.0000   -36.2310     7.7003   144.7415     7.7093  -999.2500     9.3491     0.0132     0.1176     2.4582
  494.5000   -36.4574     7.7024   142.9991     7.7838  -999.2500     9.3492     0.0197     0.1136     2.4643
  495.0000   -36.4590     7.7046   141.6413     7.8447  -999.2500     9.3494     0.0162     0.1112     2.4676
  495.5000   -36.4607     7.6889   141.6109     7.9057  -999.2500     9.3495     0.0116     0.1099     2.4704
  496.0000   -36.4620     7.5192   141.5806     7.8454  -999.2500     9.3496     0.0213     0.1073     2.4762
  496.5000   -36.4635     7.4079   143.0699     7.8065  -999.2500     9.3498     0.0162     0.1032     2.4855
  497.0000   -36.4650     7.4106   144.5593     7.7418  -999.2500     9.3499     0.0070     0.1001     2.4946
  497.5000   -36.4666     7.2364   146.0482     7.6951  -999.2500     9.3500     0.0116     0.0989     2.4825
  498.0000   -36.4681     7.1578   147.5395     7.6652  -999.2500     9.3502     0.0070     0.1119     2.4655
  498.5000   -36.4696     7.1144   149.4023     7.5443  -999.2500     9.3503     0.0008     0.1190     2.4539
  499.0000   -36.4713     6.9556   150.5222     7.4212  -999.2500     9.3505     0.0038     0.1208     2.4501
  499.5000   -36.4727     6.7554   152.0061     7.3273  -999.2500     9.3506     0.0131     0.1209     2.4571
  500.0000   -35.5614     6.6663   151.9710     7.2929  -999.2500     9.3587     0.0162     0.1179     2.4682
  500.5000   -35.5558     6.6691   153.4650     7.2568  -999.2500     9.3811     0.0110     0.1142     2.4651
  501.0000   -35.8541     6.6712   153.4346     7.2127  -999.2500     9.3812     0.0021     0.1251     2.4530
  501.5000   -35.5441     6.6735   153.4043     7.2130  -999.2500     9.3814    -0.0002     0.1264     2.4469
  502.0000   -35.5380     6.6758   153.3739     7.1830  -999.2500     9.3815     0.0167     0.1155     2.4578
  502.5000   -35.6839     6.6780   153.3435     7.1833  -999.2500     9.3816     0.0130     0.1101     2.4741
  503.0000   -35.8298     6.6806   153.3131     7.1669  -999.2500     9.3818     0.0163     0.1095     2.4740
  503.5000   -35.8232     6.6827   153.2827     7.1536  -999.2500     9.3819     0.0293     0.1046     2.4817
  504.0000   -35.5137     6.6848   153.2523     7.1842  -999.2500     9.3821     0.0345     0.0968     2.5058
  504.5000   -35.5076     6.6871   153.2159     7.2148  -999.2500     9.4124     0.0126     0.1005     2.5163
  505.0000   -35.5015     6.6894   153.1880     7.2758  -999.2500     9.4125     0.0052     0.1122     2.4890
  505.5000   -35.4954     6.7492   153.1600     7.3064  -999.2500     9.4127     0.0021     0.1221     2.4647
  506.0000   -35.4884     6.8458   152.9788     7.3370  -999.2500     9.4033     0.0021     0.1252     2.4452
  506.5000   -35.4828     6.8479   151.5805     7.3676  -999.2500     9.3827     0.0036     0.1181     2.4502
  507.0000   -35.4772     6.8500   151.5501     7.3679  -999.2500     9.3829     0.0098     0.1048     2.4771
