~VERSION INFORMATION
 VERS.                2.0:   CWLS LOG ASCII STANDARD - VERSION 2.0
 WRAP.                 NO:   ONE LINE PER DEPTH STEP
~WELL INFORMATION
#MNEM.UNIT      DATA TYPE    INFORMATION
#----------   ------------   ------------------------------
 STRT.F           22.0000:   START DEPTH
 STOP.F          564.0000:   STOP DEPTH
 STEP.F            0.5000:   STEP LENGTH
 NULL.          -999.2500:   NO VALUE
 COMP.    FENIX & SCISSON:   COMPANY
 WELL. NPR # #3 12 - SX 11:   WELL
 FLD .             TEAPOT:   FIELD
 LOC .      S11 T38N R78W:   LOCATION
 CNTY.            NATRONA:   COUNTY
 STAT.            WYOMING:   STATE
 CTRY. UNITED STATES OF AMERICA:   COUNTRY
 SRVC.           BIRDWELL:   SERVICE COMPANY
 DATE.        29-NOV-1978:   LOGDATE
 API .       490251075500:   API NUMBER
~CURVE INFORMATION
#MNEM.UNIT       API CODE    CURVE DESCRIPTION
#----------   ------------   ------------------------------
 DEPT.F                  :   
 ILD .OHMM   05 120 46 00:   INDUCTION LOG DEEP
 SN  .OHMM   05 040 00 00:   SHORT NORMAL
 SPR .MV     05 010 01 00:   SPONTANEOUS POTENTIAL FROM RES.
 CALD.IN     45 280 60 00:   CALIPER FROM DENSITY LOG
 CORR.G/C3   45 356 01 00:   DENSITY CORRECTION
 DPHI.DEC    45 890 12 00:   DENSITY POROSITY SANDSTONE
 GRD .GAPI   45 310 01 00:   GAMMA RAY FROM DENSITY LOG
 RHOB.G/C3   45 350 01 00:   BULK DENSITY
~PARAMETER INFORMATION
#MNEM.UNIT          VALUE    DESCRIPTION
#----------   ------------   ------------------------------
 PD  .                 GL:   PERMANENT DATUM
 EPD .F              5143:   ELEVATION PERMANENT DATUM
 LMF .                 KB:   LOG MEASURED FROM
 DAPD.F                 4:   FEET ABOVE PERMANENT DATUM
 DMF .                 KB:   DRILLING MEASURED FROM
 EKB .F              5147:   KELLING BUSHING
 EGL .F              5143:   GROUND LEVEL
 DATE.        29-NOV-1978:   RUN DATE
 RUN .                  1:   RUN NUMBER
 DD  .F               562:   DEPTH DRILLER
 DL  .F               564:   DEPTH LOGGER
 BLI .F               564:   BOTTOM LOG INTERVAL
 TLI .F                30:   TOP LOG INTERVAL
 CS  .IN            8.625:   CASING SIZE
 CBL .F                48:   CASING BOTTOM LOGGER
 BS  .IN            7.875:   BIT SIZE
 BSD .F               562:   BIT SIZE AT DEPTH
 DFT .                KCL:   DRILLING FLUID TYPE
 DFD .                8.7:   DRILLING FLUID DENSITY
 DFV .                 36:   DRILLING FLUID VISCOSITY
 DFPH.               10.9:   DRILLING FLUID PH
 DFL .                 12:   DRILLING FLUID LOSS
 MSS .           FLOWLINE:   MUD SAMPLE SOURCE
 RMS .OHMM           0.34:   RESISTIVITY MUD SAMPLE
 MST .F                56:   MUD SAMPLE TEMPERATURE
 RMF .OHMM           0.32:   RESISTIVITY MUD FILTRATE SAMPLE
 MFST.F                59:   MUD FILTRATE SAMPLE TEMPERATURE
 RMC .OHMM            0.4:   RESISTIVITY MUD CAKE
 MCST.F                59:   MUD CAKE SAMPLE TEMPERATURE
 MFSS.               MEAS:   MUD FILTRATE SAMPLE SOURCE
 MCSS.               MEAS:   MUD CAKE SAMPLE SOURCE
 RMB .OHMM           0.33:   RESISTIVITY MUD AT BHT
 BHT .F                59:   BOTTOM HOLE TEMPERATURE
 TCS .HRS               1:   TIME CURCULATED STOPPED
 MRT .F                59:   MAXIMUM RECORDED TEMPERATURE
 LUN .               2958:   LOGGING UNIT NUMBER
 LUL .               CASP:   LOGGING UNIT LOCATION
 ENGI.             MILLER:   RECORDING ENGINEER
 WITN.           DINSMORE:   WITNESSED BY
 CLNT.            A2DTECH:   CLIENT CODE
 ORIG.           5" PRINT:   ORIGIN OF DATA
 UWI .       490251075500:   UNIQUE WELL ID
 DICO. A2D Technologies, Inc.:   DIGITIZING COMPANY
~OTHER INFORMATION
~A   DEPT      ILD         SN        SPR       CALD       CORR       DPHI         GRD      RHOB   
# ...
  346.0000     8.9337     9.6605   -32.6390     8.1843     0.0059     0.1226   111.7058     2.4922
  346.5000     9.0538     9.6599   -32.6316     8.1846     0.0044     0.1247   112.0096     2.4826
  347.0000     9.1790     9.5925   -32.6242     8.1849     0.0014     0.1259   113.2155     2.4781
  347.5000     9.4354     9.5918   -32.6168     8.1852     0.0014     0.1268   112.6170     2.4759
  348.0000     9.5000     9.6581   -32.6094     8.1855     0.0014     0.1271   106.3042     2.4744
  348.5000     9.2387     9.6573   -32.6018     8.2160     0.0015     0.1267   102.9981     2.4737
  349.0000     8.6789     9.6566   -32.5943     8.2012     0.0015     0.1267   105.4079     2.4744
  349.5000     7.7133     9.5892   -32.5853     8.1714     0.0015     0.1288   106.3123     2.4737
  350.0000     7.1959     9.4565   -32.5794     8.1116     0.0000     0.1330   103.7585     2.4707
  350.5000     6.8547     9.2617   -32.5747     8.1275     0.0031     0.1508   105.8766     2.4535
  351.0000     6.6208     8.9959   -32.5701     8.1585     0.0046     0.1835   111.1501     2.4235
  351.5000     6.6203     8.2549   -32.2640     8.2197     0.0106     0.1961   119.5814     2.3935
  352.0000     6.7589     7.1160   -31.6552     8.2356     0.0212     0.1750   125.3060     2.3620
  352.5000     6.8528     6.8734   -31.8027     8.2214     0.0152     0.1543   128.9252     2.3951
  353.0000     6.9480     7.0180   -31.9491     8.2223     0.0033     0.1321   131.0408     2.4461
  353.5000     7.1491     7.4700   -31.9435     8.2232     0.0003     0.1158   127.2060     2.4897
  354.0000     8.0068     8.2890   -31.9391     8.2070    -0.0011     0.1107   106.8422     2.5017
  354.5000     8.9369     9.3911   -31.9346     8.1948    -0.0026     0.1164    97.9889     2.4928
  355.0000    10.0986    10.1356   -31.9301     8.1806    -0.0025     0.1203   101.6107     2.4853
  355.5000    10.5268    10.4932   -31.9257     8.1665    -0.0040     0.1227   107.0345     2.4823
  356.0000    10.8970    10.7139   -31.9216     8.1372    -0.0025     0.1209   108.3982     2.4823
  356.5000    11.0486    10.9391   -31.7659     8.1231    -0.0024     0.1185   109.1603     2.4839
  357.0000    11.1246    11.0919   -31.6106     8.0790     0.0022     0.1175   110.0729     2.4856
  357.5000    11.2012    11.2468   -31.3045     8.0648     0.0099     0.1142   109.9328     2.4907
  358.0000    11.4356    11.5632   -30.9984     8.0657     0.0127     0.1106   106.9355     2.4967
  358.5000    11.5946    11.8885   -30.5414     8.1117     0.0098     0.1073   105.7379     2.5020
  359.0000    12.0858    12.3936   -29.9306     8.1428     0.0038     0.1115   104.7910     2.4998
  359.5000    12.5111    13.0102   -29.3142     8.1589    -0.0066     0.1217   102.6080     2.4946
  360.0000    13.1321    13.6574   -28.5470     8.1598    -0.0111     0.1314   101.4127     2.4811
  360.5000    14.2700    14.6484   -27.6567     8.1607    -0.0096     0.1418   101.1248     2.4548
  361.0000    16.2772    16.0530   -26.8981     8.1615    -0.0065     0.1376    98.4283     2.4504
  361.5000    17.8105    17.8507   -26.2903     8.1775    -0.0020     0.1331    87.1603     2.4527
  362.0000    21.3665    19.7245   -25.6825     8.1784     0.0011     0.1303    74.9902     2.4610
  362.5000    26.4965    20.7057   -25.2256     8.2094     0.0056     0.1378    64.4741     2.4550
  363.0000    28.3572    21.7357   -25.0703     8.2263     0.0117     0.1591    60.1235     2.4355
  363.5000    28.5248    22.5027   -24.6134     8.1956     0.0222     0.1853    60.5950     2.3709
  364.0000    27.9355    22.8170   -24.3072     8.1649     0.0238     0.2054    61.4977     2.3387
  364.5000    27.9336    22.8170   -24.1519     8.1376     0.0073     0.2066    61.8110     2.3380
  365.0000    27.9317    23.1357   -24.1475     8.1234    -0.0017     0.2077    61.3701     2.3372
  365.5000    27.9298    23.2967   -24.1430     8.0942    -0.0015     0.2110    60.6285     2.3388
  366.0000    27.9278    23.2967   -23.9877     8.0649     0.0014     0.2163    61.2403     2.3268
  366.5000    27.7331    23.2967   -23.9833     8.0209    -0.0015     0.2173    64.4085     2.3156
  367.0000    27.7312    23.2967   -23.9788     7.9766    -0.0015     0.2173    66.0729     2.3231
  367.5000    27.9221    23.2967   -23.9743     7.9473    -0.0014     0.2173    69.3914     2.3254
  368.0000    28.1144    23.4589   -23.9698     7.9331     0.0001     0.2164    76.3190     2.3254
  368.5000    28.1125    23.4589   -23.9653     7.9190     0.0017     0.2158    80.2390     2.3254
  369.0000    28.9007    23.9521   -23.9608     7.9199     0.0062     0.2134    78.4751     2.3270
  369.5000    29.7110    24.2866   -23.9554     7.9210     0.0145     0.2032    66.8787     2.3340
  370.0000    30.3332    24.7972   -23.9517     7.9520     0.0136     0.1843    60.1194     2.3718
  370.5000    30.7544    25.3274   -23.9465     8.0131     0.0064     0.1794    61.0345     2.3856
  371.0000    30.9662    25.4948   -23.9420     8.0742    -0.0011     0.1878    60.1426     2.3811
  371.5000    30.3269    25.4948   -23.9375     8.1052    -0.0056     0.2049    59.5487     2.3669
  372.0000    30.1153    25.4948   -23.9331     8.0757    -0.0040     0.2148    59.2608     2.3272
  372.5000    29.9054    25.1436   -23.9286     8.0768     0.0050     0.2154    59.7222     2.3257
  373.0000    30.1113    25.1436   -23.9241     8.0777     0.0021     0.2100    60.1836     2.3347
  373.5000    30.3186    25.4948   -23.7689     8.0786     0.0006     0.2030    63.4069     2.3408
  374.0000    30.5274    25.4948   -23.7644     8.0795     0.0005     0.2090    68.9664     2.3325
  374.5000    30.9514    25.1436   -23.7599     8.0655    -0.0008     0.2282    67.5854     2.3164
  375.0000    31.3807    24.9698   -23.9065     8.0511    -0.0007     0.2485    67.7461     2.2935
  375.5000    31.8165    24.7972   -24.0527     8.0522    -0.0007     0.2573    68.5082     2.2568
  376.0000    32.0361    24.7972   -24.1991     8.0531     0.0008     0.2594    68.6689     2.2531
  376.5000    32.9338    24.7972   -24.4962     8.0691     0.0024     0.2573    68.3784     2.2523
  377.0000    33.1611    24.7972   -24.7934     8.0699     0.0039     0.2543    67.1856     2.2554
  377.5000    33.6211    24.7972   -24.7888     8.0558     0.0085     0.2489    66.2932     2.2629
  378.0000    33.1560    24.6259   -24.7843     8.0566     0.0116     0.2435    67.8077     2.2720
  378.5000    32.9248    24.4557   -24.7789     8.0425     0.0133     0.2399    70.5448     2.2795
  379.0000    32.4693    24.2866   -24.6236     8.0434     0.0206     0.2344    72.3800     2.2878
  379.5000    32.0180    24.1188   -24.4683     8.0444     0.0237     0.2292    73.4050     2.2964
  380.0000    31.5627    23.7865   -24.6158     8.0602     0.0252     0.2221    73.7160     2.3096
  380.5000    30.8990    23.4589   -24.7622     8.0460     0.0238     0.2116    74.4781     2.3262
  381.0000    30.0778    23.1357   -24.7566     8.0471     0.0238     0.2089    75.2403     2.3329
  381.5000    29.6613    22.9520   -25.0538     8.0480     0.0209     0.2158    76.1528     2.3330
  382.0000    29.2510    22.5027   -25.3510     8.0338     0.0194     0.2236    77.3635     2.3262
  382.5000    28.8464    22.3472   -25.3466     8.0347     0.0179     0.2298    76.0230     2.3053
  383.0000    28.4474    22.1927   -25.4940     8.0356     0.0180     0.2307    74.8302     2.3000
  383.5000    27.8602    22.0393   -25.4885     8.0515     0.0210     0.2253    73.6276     2.3023
  384.0000    27.0966    21.5855   -25.4840     8.0524     0.0301     0.2044    73.0463     2.3129
  384.5000    26.3540    20.9949   -25.6305     8.0685     0.0452     0.1782    74.4125     2.3504
  385.0000    25.9894    20.8498   -26.0784     8.0994     0.0467     0.1763    77.2799     2.3820
  385.5000    25.6300    20.5626   -26.6808     8.0837     0.0422     0.1796    79.0947     2.3895
  386.0000    25.4512    20.2794   -27.1253     8.0710     0.0408     0.1823    82.2629     2.3828
