~VERSION INFORMATION
 VERS.                2.0:   CWLS LOG ASCII STANDARD - VERSION 2.0
 WRAP.                 NO:   ONE LINE PER DEPTH STEP
~WELL INFORMATION
#MNEM.UNIT      DATA TYPE    INFORMATION
#----------   ------------   ------------------------------
 STRT.F            9.5000:   START DEPTH
 STOP.F          640.5000:   STOP DEPTH
 STEP.F            0.5000:   STEP LENGTH
 NULL.          -999.2500:   NO VALUE
 COMP. FENIX & SCISSON INC:   COMPANY
 WELL. 27-32 SX 11 WI #27-32 SX:   WELL
 FLD .            WILDCAT:   FIELD
 LOC .      S11 T38N R78W:   LOCATION
 CNTY.            NATRONA:   COUNTY
 STAT.            WYOMING:   STATE
 CTRY. UNITED STATES OF AMERICA:   COUNTRY
 SRVC.      Dresser Atlas:   SERVICE COMPANY
 DATE.        01-AUG-1980:   LOGDATE
 API .       490251083700:   API NUMBER
~CURVE INFORMATION
#MNEM.UNIT       API CODE    CURVE DESCRIPTION
#----------   ------------   ------------------------------
 DEPT.F                  :   
 SPR .MV     07 010 01 00:   SPONTANEOUS POTENTIAL
 SFL .OHMM   07 220 01 00:   SHALLOW FOCUSED LOG RESISTIVITY
 ILD .OHMM   07 120 46 00:   INDUCTION LOG DEEP
 ILM .OHMM   07 120 44 00:   INDUCTION LOG MEDIUM
 GRD .GAPI   45 310 01 00:   GAMMA RAY FROM DENSITY LOG
 CALD.IN     45 280 60 00:   CALIPER
 RHOB.G/C3   45 350 01 00:   BULK DENSITY
 CORR.G/C3   45 356 01 00:   DENSITY CORRECTION
 DPHI.DEC    45 890 12 00:   DENSITY POROSITY SANDSTONE
 NPHI.DEC    42 890 03 00:   NEUTRON POROSITY SANDSTONE
~PARAMETER INFORMATION
#MNEM.UNIT          VALUE    DESCRIPTION
#----------   ------------   ------------------------------
 PD  .                 GL:   PERMANENT DATUM
 EPD .F              5189:   ELEVATION PERMANENT DATUM
 LMF .                 KB:   LOG MEASURED FROM
 DAPD.F                 5:   FEET ABOVE PERMANENT DATUM
 DMF .                 KB:   DRILLING MEASURED FROM
 EKB .F              5194:   KELLING BUSHING
 EGL .F              5189:   GROUND LEVEL
 DATE.             8-1-80:   RUN DATE
 RUN .                  1:   RUN NUMBER
 DD  .F               625:   DEPTH DRILLER
 DL  .F               634:   DEPTH LOGGER
 BLI .F               632:   BOTTOM LOG INTERVAL
 TLI .F                12:   TOP LOG INTERVAL
 BS  .IN            7.875:   BIT SIZE
 BSD .F               625:   BIT SIZE AT DEPTH
 DFT .           CHEM GEL:   DRILLING FLUID TYPE
 DFD .                9.1:   DRILLING FLUID DENSITY
 DFV .                 44:   DRILLING FLUID VISCOSITY
 DFPH.                9.5:   DRILLING FLUID PH
 DFL .                7.6:   DRILLING FLUID LOSS
 MSS .           FLOWLINE:   MUD SAMPLE SOURCE
 RMS .OHMM            .27:   RESISTIVITY MUD SAMPLE
 MST .F                70:   MUD SAMPLE TEMPERATURE
 RMF .OHMM            .16:   RESISTIVITY MUD FILTRATE SAMPLE
 MFST.F                65:   MUD FILTRATE SAMPLE TEMPERATURE
 MFSS.               MEAS:   MUD FILTRATE SAMPLE SOURCE
 MCSS.               MEAS:   MUD CAKE SAMPLE SOURCE
 RMB .OHMM            .21:   RESISTIVITY MUD AT BHT
 BHT .F                94:   BOTTOM HOLE TEMPERATURE
 TCS .HRS            0040:   TIME CURCULATED STOPPED
 MRT .F                94:   MAXIMUM RECORDED TEMPERATURE
 LUN .               6145:   LOGGING UNIT NUMBER
 LUL .              GLTTE:   LOGGING UNIT LOCATION
 ENGI.              HENRY:   RECORDING ENGINEER
 WITN.              AMEND:   WITNESSED BY
 CLNT.            A2DTECH:   CLIENT CODE
 ORIG.     1", 2.5" PRINT:   ORIGIN OF DATA
 UWI .       490251083700:   UNIQUE WELL ID
 DICO. A2D Technologies, Inc.:   DIGITIZING COMPANY
~OTHER INFORMATION
~A    DEPT     SPR         SFL         ILD        ILM      GRD       CALD       RHOB       CORR       DPHI       NPHI   
# ...
  277.5000   -52.2543    13.4123    10.3044    10.7815    80.9816     8.0363     2.4976     0.0049     0.1111     0.2651
  278.0000   -52.3713    13.3010    10.1209    10.6465    82.0969     8.0363     2.4903     0.0037     0.1152     0.2651
  278.5000   -52.4868    13.1906     9.9400    10.5126    83.4947     8.0359     2.4818     0.0024     0.1184     0.2672
  279.0000   -52.6141    13.0092     9.9210    10.4908    85.2571     8.0401     2.4859     0.0012     0.1159     0.2693
  279.5000   -52.5766    12.7845     9.9020    10.4688    84.3856     8.0499     2.4922    -0.0001     0.1136     0.2700
  280.0000   -52.4555    12.5637     9.8831    10.4467    82.2879     8.0594     2.4883    -0.0014     0.1161     0.2672
  280.5000   -52.3278    12.2027     9.8642    10.4247    82.2991     8.0688     2.4833    -0.0026     0.1190     0.2645
  281.0000   -52.2123    12.2986     9.8453    10.4030    84.1434     8.0783     2.4779    -0.0039     0.1218     0.2617
  281.5000   -51.8165    12.6335     9.8264    10.3813    85.2807     8.0877     2.4727    -0.0051     0.1246     0.2613
  282.0000   -51.4309    12.5731     9.8076    10.3597    83.2688     8.0974     2.4700    -0.0064     0.1265     0.2615
  282.5000   -50.5191    12.4323     9.7888    10.3382    79.9303     8.1065     2.4741    -0.0077     0.1243     0.2618
  283.0000   -49.7265    12.5816     9.7701    10.3166    76.7279     8.1163     2.4781    -0.0073     0.1217     0.2615
  283.5000   -49.5296    12.9308     9.7528    10.2952    75.3748     8.1141     2.4826    -0.0060     0.1191     0.2603
  284.0000   -49.3112    13.3949     9.7395    10.2738    77.3467     8.1113     2.4848    -0.0048     0.1184     0.2601
  284.5000   -49.0853    13.2803     9.7261    10.2523    78.9535     8.1080     2.4833    -0.0035     0.1182     0.2618
  285.0000   -49.0121    12.9314     9.7128    10.2310    80.6463     8.1050     2.4822    -0.0025     0.1179     0.2635
  285.5000   -49.1280    12.5917     9.6995    10.2097    82.4202     8.1019     2.4809    -0.0009     0.1177     0.2643
  286.0000   -49.2283    12.2027     9.6863    10.1885    83.9809     8.0989     2.4837     0.0006     0.1176     0.2665
  286.5000   -49.3286    12.2027     9.6730    10.1673    85.6383     8.0958     2.4904     0.0118     0.1136     0.2710
  287.0000   -49.4328    12.1267     9.6599    10.1460    83.8333     8.0927     2.4871     0.0204     0.1158     0.2747
  287.5000   -49.5338    12.0543     9.6468    10.1268    84.0117     8.0897     2.4833     0.0243     0.1181     0.2756
  288.0000   -49.6356    11.9773     9.6334    10.1130    82.7928     8.0866     2.4789     0.0198     0.1204     0.2718
  288.5000   -49.7374    12.3018     9.6202    10.1004    80.7840     8.0835     2.4766     0.0157     0.1216     0.2680
  289.0000   -49.8396    12.6663     9.6070    10.0876    80.2767     8.0805     2.4785     0.0114     0.1206     0.2643
  289.5000   -49.9403    12.5178     9.5939    10.0749    80.5442     8.0774     2.4811     0.0071     0.1197     0.2605
  290.0000   -50.0418    12.3687     9.5808    10.0622    79.9796     8.0745     2.4842     0.0029     0.1188     0.2599
  290.5000   -50.1481    12.2215     9.5184    10.0495    79.1122     8.0717     2.4841    -0.0014     0.1179     0.2605
  291.0000   -50.2262    12.0759     9.4301    10.0368    77.8096     8.0688     2.4818    -0.0056     0.1177     0.2610
  291.5000   -50.2672    11.9321     9.3427    10.0240    76.1818     8.0660     2.4625    -0.0102     0.1308     0.2616
  292.0000   -50.3134    11.7900     9.2560    10.0108    74.8085     8.0631     2.4426    -0.0121     0.1417     0.2621
  292.5000   -50.3598    11.6497     9.1702     9.9995    77.8337     8.0603     2.4471    -0.0116     0.1391     0.2627
  293.0000   -50.4045    11.5109     9.0851     9.9846    80.6122     8.0575     2.4621     0.0002     0.1306     0.2640
  293.5000   -50.4516    11.3739     9.0009     9.9720    82.0999     8.0546     2.4768     0.0132     0.1222     0.2654
  294.0000   -50.4959    11.2384     8.9174     9.9444    83.0754     8.0518     2.4916     0.0264     0.1137     0.2668
  294.5000   -50.5409    11.1046     8.8347     9.9651    82.3092     8.0489     2.5067     0.0402     0.1053     0.2681
  295.0000   -50.5945    10.9112     8.7528     9.7456    79.3818     8.0461     2.5152     0.0408     0.1001     0.2689
  295.5000   -50.5522    10.9951     8.6716     9.7622    76.4785     8.0432     2.5084     0.0335     0.1037     0.2679
  296.0000   -50.4125    11.1543     8.5912     9.6179    76.5969     8.0404     2.5019     0.0273     0.1072     0.2670
  296.5000   -50.2806    11.3158     8.5115     9.4984    79.2089     8.0375     2.4948     0.0211     0.1107     0.2661
  297.0000   -50.1525    11.5349     8.4326     9.3804    81.7181     8.0347     2.4907     0.0138     0.1129     0.2651
  297.5000   -50.0186    11.3324     8.3468     9.2639    82.2488     8.0318     2.4927     0.0181     0.1102     0.2687
  298.0000   -49.8811    10.9088     8.2577     9.1488    82.7221     8.0290     2.4950     0.0244     0.1123     0.2722
  298.5000   -49.8607    10.9133     8.1696     9.0352    83.2820     8.0262     2.4901     0.0194     0.1164     0.2757
  299.0000   -50.0880    10.9115     8.0825     8.9229    83.1802     8.0233     2.4815     0.0151     0.1206     0.2788
  299.5000   -50.3072    10.9143     7.9962     8.8121    82.1977     8.0205     2.4735     0.0109     0.1247     0.2849
  300.0000   -50.5366    10.9088     7.9110     8.7238    85.0006     8.0176     2.4651     0.0062     0.1289     0.2903
  300.5000   -50.7517    10.9149     7.8265     8.5278    88.1955     8.0148     2.4604     0.0037     0.1313     0.2956
  301.0000   -50.9995    10.5819     7.7430     8.3671    87.2087     8.0119     2.4611     0.0033     0.1313     0.2949
  301.5000   -51.0409    10.2716     7.6603     8.2095    85.9606     8.0091     2.4579     0.0025     0.1333     0.2943
  302.0000   -51.0802     9.9699     7.5786     8.0548    84.8664     8.0062     2.4510     0.0017     0.1374     0.2936
  302.5000   -51.1078     9.6769     7.4977     7.9030    83.8195     8.0034     2.4441     0.0011     0.1393     0.2930
  303.0000   -51.1414     9.3929     7.4178     7.8005    83.5386     8.0006     2.4470    -0.0001     0.1401     0.2964
  303.5000   -51.1740     8.8916     7.3389     7.7155    87.9707     7.9975     2.4598     0.0036     0.1343     0.3058
  304.0000   -51.2060     9.0844     7.2603     7.6564    88.2856     7.9962     2.4723     0.0109     0.1250     0.3050
  304.5000   -51.2387     9.7378     7.1828     7.6564    87.2660     7.9976     2.4850     0.0178     0.1158     0.2994
  305.0000   -51.2710     9.7046     7.1062     7.7281    86.5948     7.9987     2.4971     0.0245     0.1065     0.2950
  305.5000   -51.3046     9.6408     7.1062     7.8005    88.2744     7.9998     2.5102     0.0287     0.1008     0.2882
  306.0000   -51.3354     9.5725     7.1062     7.8531    87.7837     8.0009     2.5084     0.0256     0.1011     0.2807
  306.5000   -51.3692     9.5792     7.2449     7.9173    86.5954     8.0021     2.5075     0.0202     0.1016     0.2731
  307.0000   -51.4072     9.7774     7.3810     7.9821    87.5733     8.0032     2.5087     0.0152     0.1022     0.2697
  307.5000   -51.3459    10.0125     7.5196     8.0474    88.7988     8.0043     2.5038     0.0099     0.1048     0.2681
  308.0000   -51.0716    10.1788     7.6610     8.1132    87.3091     8.0055     2.4969     0.0048     0.1093     0.2666
  308.5000   -50.8039    10.2735     7.8045     8.1797    86.6835     8.0066     2.4901     0.0001     0.1138     0.2690
  309.0000   -50.5323    10.3176     7.9507     8.2466    88.3525     8.0077     2.4835     0.0006     0.1184     0.2742
  309.5000   -50.2606    10.3543     8.0997     8.3141    89.7064     8.0089     2.4765     0.0015     0.1218     0.2777
  310.0000   -49.9880    10.4532     8.2516     8.3822    88.3142     8.0100     2.4748     0.0025     0.1224     0.2768
  310.5000   -49.7205    10.5118     8.4034     8.4507    87.0396     8.0112     2.4755     0.0034     0.1230     0.2759
