~VERSION INFORMATION
 VERS.                2.0:   CWLS LOG ASCII STANDARD - VERSION 2.0
 WRAP.                 NO:   ONE LINE PER DEPTH STEP
~WELL INFORMATION
#MNEM.UNIT      DATA TYPE    INFORMATION
#----------   ------------   ------------------------------
 STRT.F           40.0000:   START DEPTH
 STOP.F          468.0000:   STOP DEPTH
 STEP.F            0.5000:   STEP LENGTH
 NULL.          -999.2500:   NO VALUE
 COMP. BROWN JOHN E&C INC:   COMPANY
 WELL. NAVAL PETROLEUM RESERVE 3 SX-1 #73-2-10:   WELL
 FLD .             TEAPOT:   FIELD
 LOC .      S10 T38N R78W:   LOCATION
 CNTY.            NATRONA:   COUNTY
 STAT.            WYOMING:   STATE
 CTRY. UNITED STATES OF AMERICA:   COUNTRY
 SRVC.     Atlas Wireline:   SERVICE COMPANY
 DATE.        05-MAY-1991:   LOGDATE
 API .       490251134000:   API NUMBER
~CURVE INFORMATION
#MNEM.UNIT       API CODE    CURVE DESCRIPTION
#----------   ------------   ------------------------------
 DEPT.F                  :   
 RILD.OHMM   07 120 46 00:   INDUCTION LOG DEEP RESISTIVITY
 RILM.OHMM   07 120 44 00:   INDUCTION LOG MEDIUM RESISTIVITY
 GRD .GAPI   45 310 01 00:   GAMMA RAY FROM DENSITY LOG
 CALD.IN     45 280 60 00:   CALIPER FROM DENSITY LOG
 CORR.G/C3   45 356 01 00:   DENSITY CORRECTION
 PORD.DEC    45 890 12 00:   POROSITY DENSITY SANDSTONE
 DEN .G/C3   45 350 01 00:   COMPENSATED BULK DENSTIY
~PARAMETER INFORMATION
#MNEM.UNIT          VALUE    DESCRIPTION
#----------   ------------   ------------------------------
 PD  .                 GL:   PERMANENT DATUM
 EPD .F              5178:   ELEVATION PERMANENT DATUM
 LMF .                 KB:   LOG MEASURED FROM
 DAPD.F                 5:   FEET ABOVE PERMANENT DATUM
 DMF .                 KB:   DRILLING MEASURED FROM
 EKB .F              5183:   KELLING BUSHING
 EGL .F              5178:   GROUND LEVEL
 DATE.        05-MAY-1991:   RUN DATE
 RUN .                  1:   RUN NUMBER
 DD  .F               470:   DEPTH DRILLER
 DL  .F               470:   DEPTH LOGGER
 BLI .F               468:   BOTTOM LOG INTERVAL
 TLI .F                 0:   TOP LOG INTERVAL
 CS  .IN            8.625:   CASING SIZE
 CBD .F                45:   CASING BOTTOM DRILLER
 CBL .F                45:   CASING BOTTOM LOGGER
 BS  .IN            7.875:   BIT SIZE
 BSD .F               470:   BIT SIZE AT DEPTH
 DFT .                AIR:   DRILLING FLUID TYPE
 LUN .            HL-6272:   LOGGING UNIT NUMBER
 LUL .             CASPER:   LOGGING UNIT LOCATION
 ENGI.            KINNETT:   RECORDING ENGINEER
 WITN.             STRONG:   WITNESSED BY
 CLNT.            A2DTECH:   CLIENT CODE
 ORIG.           5" PRINT:   ORIGIN OF DATA
 UWI .       490251134000:   UNIQUE WELL ID
 DICO. A2D Technologies, Inc.:   DIGITIZING COMPANY
~OTHER INFORMATION
~A   DEPT     RILD       RILM          GRD     CALD       CORR       PORD        DEN   
# ...
  313.0000    21.3613    23.7498    23.3250     8.3680     0.0229     0.1610     2.3874
  313.5000    21.6692    24.5960    24.9202     8.3831     0.0260     0.1586     2.3912
  314.0000    22.3015    26.0148    22.8846     8.3982     0.0290     0.1565     2.3957
  314.5000    23.2085    27.9265    20.1682     8.3982     0.0320     0.1526     2.4084
  315.0000    23.8591    30.5955    17.2249     8.3982     0.0410     0.1414     2.4273
  315.5000    24.1896    32.4532    15.4162     8.3831     0.0395     0.1198     2.5131
  316.0000    24.0180    32.6772    12.4728     8.3982     0.0349     0.0768     2.5439
  316.5000    23.6834    29.8533     9.7564     8.3982     0.0272     0.0663     2.5575
  317.0000    23.0313    26.8976     8.1747     8.3982     0.0182     0.0684     2.5326
  317.5000    22.0881    23.4073     9.3161     8.3982     0.0154     0.0987     2.4859
  318.0000    21.0369    20.9438    12.9537     8.3982     0.0220     0.1432     2.3827
  318.5000    19.4868    19.4019    14.5489     8.3982     0.0380     0.1672     2.3782
  319.0000    18.0509    17.9735    16.3408     8.3982     0.0350     0.1591     2.3910
  319.5000    16.8373    16.8831    18.7030     8.3982     0.0290     0.1432     2.4121
  320.0000    16.0360    16.5338    21.3776     8.3982     0.0229     0.1372     2.4301
  320.5000    15.7032    16.4182    23.6536     8.3982     0.0154     0.1368     2.4256
  321.0000    15.3772    16.3035    21.8450     8.4133     0.0124     0.1402     2.4165
  321.5000    15.1630    16.1895    18.9016     8.4133     0.0154     0.1435     2.4135
  322.0000    14.9517    16.0763    19.5892     8.4284     0.0139     0.1438     2.4127
  322.5000    14.8462    15.8535    21.8652     8.4284     0.0139     0.1447     2.4105
  323.0000    14.8442    15.6337    23.6874     8.4284     0.0139     0.1492     2.4059
  323.5000    14.8421    15.4169    23.9194     8.4434     0.0139     0.1525     2.4022
  324.0000    14.8401    15.3092    21.4316     8.4434     0.0139     0.1531     2.4014
  324.5000    14.7353    15.0969    20.5289     8.4434     0.0154     0.1509     2.4029
  325.0000    14.6313    14.8876    21.2181     8.4434     0.0169     0.1476     2.4066
  325.5000    14.5240    14.6810    23.0403     8.4434     0.0169     0.1428     2.4164
  326.0000    14.4175    14.5784    25.0894     8.4434     0.0169     0.1383     2.4269
  326.5000    14.1143    14.4765    27.3655     8.4434     0.0184     0.1350     2.4299
  327.0000    13.8328    14.4755    28.7338     8.4434     0.0199     0.1344     2.4277
  327.5000    13.6397    14.4745    28.5099     8.4434     0.0199     0.1368     2.4231
  328.0000    13.3566    14.3733    27.6126     8.4434     0.0184     0.1402     2.4193
  328.5000    13.2623    14.1741    28.7952     8.4434     0.0184     0.1413     2.4208
  329.0000    13.1687    14.0750    30.6339     8.4434     0.0184     0.1406     2.4254
  329.5000    13.1669    14.0740    32.4357     8.4434     0.0184     0.1388     2.4322
  330.0000    13.2573    14.0730    32.6320     8.4434     0.0169     0.1301     2.4428
  330.5000    13.2550    14.0721    31.9580     8.4434     0.0139     0.1223     2.4511
  331.0000    13.3455    14.1694    31.0587     8.4434     0.0109     0.1187     2.4562
  331.5000    13.4372    14.1682    30.3830     8.4434     0.0139     0.1181     2.4569
  332.0000    13.6233    14.1672    30.6183     8.4434     0.0184     0.1220     2.4521
  332.5000    13.7163    14.3645    30.3982     8.4434     0.0229     0.1262     2.4454
  333.0000    13.9063    14.4636    29.2703     8.4434     0.0275     0.1307     2.4395
  333.5000    14.0984    14.6666    24.2846     8.4434     0.0276     0.1322     2.4365
  334.0000    14.1947    14.8759    19.2989     8.4284     0.0245     0.1322     2.4357
  334.5000    14.1928    15.1811    20.4403     8.4284     0.0184     0.1313     2.4357
  335.0000    14.1908    14.9533    22.9432     8.4284     0.0139     0.1301     2.4364
  335.5000    13.9931    14.6279    22.2692     8.4133     0.0094     0.1334     2.4349
  336.0000    13.7027    14.2579    19.7797     8.4133     0.0034     0.1364     2.4296
  336.5000    13.3254    14.0603    20.2403     8.4133    -0.0026     0.1382     2.4236
  337.0000    13.0488    13.6740    23.1972     8.4133    -0.0010     0.1391     2.4243
  337.5000    12.8670    13.2984    26.1540     8.4284     0.0020     0.1367     2.4281
  338.0000    12.5964    13.0233    29.7916     8.4284     0.0081     0.1312     2.4356
  338.5000    12.5040    12.9323    30.9330     8.4284     0.0109     0.1270     2.4431
  339.0000    12.3366    12.8419    32.3013     8.4302     0.0124     0.1240     2.4469
  339.5000    12.3349    12.8410    35.0312     8.4434     0.0124     0.1243     2.4431
  340.0000    12.3328    12.8401    39.5765     8.4434     0.0154     0.1255     2.4401
  340.5000    12.5041    13.0188    41.3987     8.4434     0.0169     0.1237     2.4453
  341.0000    12.9437    13.5719    41.4054     8.4434     0.0184     0.1213     2.4513
  341.5000    13.5868    14.2472    38.9160     8.4284     0.0184     0.1177     2.4573
  342.0000    14.3872    15.4845    39.3948     8.4133     0.0169     0.1150     2.4641
  342.5000    15.6309    16.9466    38.9031     8.4133     0.0139     0.1147     2.4648
  343.0000    16.8746    19.8809    37.9591     8.4133     0.0094     0.1150     2.4633
  343.5000    19.8973    23.8313    35.7779     8.4133     0.0004     0.1171     2.4580
  344.0000    24.1657    29.6086    26.4703     8.4133    -0.0087     0.1307     2.3541
  344.5000    27.9569    34.1580    19.8961     8.4133    -0.0102     0.1602     2.2931
  345.0000    32.1189    38.3173    13.7758     8.4133     0.0004     0.2118     2.2863
  345.5000    35.8894    41.4990     6.7477     8.4133     0.0245     0.2228     2.2893
  346.0000    39.0109    42.6660     3.5758     8.4133     0.0305     0.1863     2.3623
  346.5000    40.6730    43.2599     5.8535     8.4133     0.0124     0.1328     2.4346
  347.0000    41.2210    43.2562     5.8602     8.4133    -0.0177     0.1224     2.4394
  347.5000    40.5718    42.0680     6.7747     8.4133    -0.0598     0.1507     2.4180
  348.0000    38.9352    39.7914     7.0084     8.4121    -0.0508     0.2090     2.3713
  348.5000    36.8688    37.9004     6.3343     8.3971    -0.0147     0.2576     2.2305
  349.0000    35.1143    36.0992     6.7949     8.3821     0.0245     0.2838     2.1973
  349.5000    33.9110    35.1076     8.1633     8.3823     0.0395     0.2784     2.1830
  350.0000    33.1358    34.3058    10.2118     8.3824     0.0455     0.2558     2.1931
  350.5000    32.2576    33.8439    13.8449     8.3674     0.0392     0.2510     2.2500
  351.0000    31.3795    33.2030    16.1165     8.3827     0.0333     0.2339     2.2733
  351.5000    30.1240    32.2910    17.4803     8.3829     0.0167     0.2213     2.2891
  352.0000    29.5007    31.6229    15.4402     8.3830     0.0048     0.2174     2.2944
  352.5000    29.0918    31.1845    14.5348     8.3832     0.0035     0.2174     2.2876
  353.0000    28.6885    30.5393    14.7640     8.3833     0.0084     0.2195     2.2823
  353.5000    28.2907    30.0689    13.8585     8.3835     0.0202     0.2225     2.2816
  354.0000    27.7054    29.8271     9.0953     8.3836     0.0247     0.2207     2.2898
  354.5000    27.1322    29.5854     6.6014     8.3838     0.0217     0.2159     2.2989
  355.0000    26.7561    29.3437    10.0076     8.3839     0.0202     0.2119     2.3072
  355.5000    26.3852    28.8653    13.1868     8.3841     0.0188     0.2068     2.3132
  356.0000    26.0194    28.4783    15.6853     8.3994     0.0203     0.2044     2.3124
  356.5000    25.8375    28.2788    17.7300     8.3844     0.0218     0.2050     2.3079
  357.0000    25.8357    28.0812    18.8669     8.3693     0.0264     0.2068     2.3064
  357.5000    25.6551    28.0793    15.2383     8.3695     0.0294     0.2077     2.3071
  358.0000    25.6534    28.0773    12.0635     8.3697     0.0279     0.2059     2.3079
