~VERSION INFORMATION
 VERS.                2.0:   CWLS LOG ASCII STANDARD - VERSION 2.0
 WRAP.                 NO:   ONE LINE PER DEPTH STEP
~WELL INFORMATION
#MNEM.UNIT      DATA TYPE    INFORMATION
#----------   ------------   ------------------------------
 STRT.F           30.0000:   START DEPTH
 STOP.F          526.0000:   STOP DEPTH
 STEP.F            0.5000:   STEP LENGTH
 NULL.          -999.2500:   NO VALUE
 COMP. FENIX & SCISSON INC:   COMPANY
 WELL.       NPR #37-SX-3:   WELL
 FLD .             TEAPOT:   FIELD
 LOC .       S3 T38N R78W:   LOCATION
 CNTY.            NATRONA:   COUNTY
 STAT.            WYOMING:   STATE
 CTRY. UNITED STATES OF AMERICA:   COUNTRY
 SRVC.              Welex:   SERVICE COMPANY
 DATE.        10-MAR-1977:   LOGDATE
 API .       490251028600:   API NUMBER
~CURVE INFORMATION
#MNEM.UNIT       API CODE    CURVE DESCRIPTION
#----------   ------------   ------------------------------
 DEPT.F                  :   
 ILD .OHMM   07 120 46 00:   INDUCTION LOG DEEP
 ILM .OHMM   07 120 44 00:   INDUCTION LOG MEDIUM
 SPR .MV     07 010 01 00:   SPONTANEOUS POTENTIAL
 SGRD.OHMM   07 220 05 00:   SHALLOW RESISTIVITY
 GRD .GAPI   45 310 01 00:   GAMMA RAY FROM DENSITY LOG
 CALD.IN     45 280 60 00:   CALIPER
 CORR.G/C3   45 356 01 00:   DENSITY CORRECTION
 RHOB.G/C3   45 350 01 00:   BULK DENSITY
 DPOR.DEC    45 890 12 00:   DENSITY POROSITY SANDSTONE
~PARAMETER INFORMATION
#MNEM.UNIT          VALUE    DESCRIPTION
#----------   ------------   ------------------------------
 PD  .                 GL:   PERMANENT DATUM
 EPD .F              5232:   ELEVATION PERMANENT DATUM
 LMF .                 GL:   LOG MEASURED FROM
 DMF .                 GL:   DRILLING MEASURED FROM
 EGL .F              5232:   GROUND LEVEL
 DATE.            3-10-77:   RUN DATE
 RUN .                  1:   RUN NUMBER
 DD  .F               530:   DEPTH DRILLER
 DL  .F               528:   DEPTH LOGGER
 BLI .F               526:   BOTTOM LOG INTERVAL
 TLI .F                35:   TOP LOG INTERVAL
 CS  .IN            8.625:   CASING SIZE
 CBD .F                40:   CASING BOTTOM DRILLER
 CBL .F                42:   CASING BOTTOM LOGGER
 BS  .IN            7.875:   BIT SIZE
 BSD .F               530:   BIT SIZE AT DEPTH
 DFT .            KCL MUD:   DRILLING FLUID TYPE
 DFD .                8.8:   DRILLING FLUID DENSITY
 DFV .                 32:   DRILLING FLUID VISCOSITY
 DFPH.                  8:   DRILLING FLUID PH
 DFL .                7.7:   DRILLING FLUID LOSS
 MSS .            MUD PIT:   MUD SAMPLE SOURCE
 RMS .OHMM            .48:   RESISTIVITY MUD SAMPLE
 MST .F                47:   MUD SAMPLE TEMPERATURE
 RMF .OHMM            .43:   RESISTIVITY MUD FILTRATE SAMPLE
 MFST.F                47:   MUD FILTRATE SAMPLE TEMPERATURE
 RMC .OHMM            .52:   RESISTIVITY MUD CAKE
 MCST.F                47:   MUD CAKE SAMPLE TEMPERATURE
 MFSS.           FANN KIT:   MUD FILTRATE SAMPLE SOURCE
 MCSS.           FANN KIT:   MUD CAKE SAMPLE SOURCE
 RMB .OHMM            .41:   RESISTIVITY MUD AT BHT
 BHT .F                55:   BOTTOM HOLE TEMPERATURE
 TCS .HRS             1.5:   TIME CURCULATED STOPPED
 MRT .F                55:   MAXIMUM RECORDED TEMPERATURE
 LUN .               8611:   LOGGING UNIT NUMBER
 LUL .           GILLETTE:   LOGGING UNIT LOCATION
 ENGI.               DOAK:   RECORDING ENGINEER
 WITN.              BURKE:   WITNESSED BY
 CLNT.            A2DTECH:   CLIENT CODE
 ORIG.       2", 5" PRINT:   ORIGIN OF DATA
 UWI .       490251028600:   UNIQUE WELL ID
 DICO. A2D Technologies, Inc.:   DIGITIZING COMPANY
~OTHER INFORMATION
~A   DEPT      ILD        ILM        SPR       SGRD         GRD        CALD      CORR        RHOB     DPOR   
   30.0000  -999.2500  -999.2500  -999.2500  -999.2500    74.4024     8.0219    -0.3948     1.7060  -999.2500
   30.5000  -999.2500  -999.2500  -999.2500  -999.2500    73.7998     8.0232    -0.3948     1.7060  -999.2500
   31.0000  -999.2500  -999.2500  -999.2500  -999.2500    74.9054     8.0249    -0.3908     1.7060  -999.2500
   31.5000  -999.2500  -999.2500  -999.2500  -999.2500    75.8128     8.0267    -0.3848     1.7098  -999.2500
   32.0000  -999.2500  -999.2500  -999.2500  -999.2500    74.2230     8.0280    -0.3789     1.7130  -999.2500
   32.5000  -999.2500  -999.2500  -999.2500  -999.2500    72.8662     8.0297    -0.3708     1.7131  -999.2500
   33.0000  -999.2500  -999.2500  -999.2500  -999.2500    74.6022     8.0314    -0.3627     1.7132  -999.2500
   33.5000  -999.2500  -999.2500  -999.2500  -999.2500    77.5667     8.0331    -0.3544     1.7102  -999.2500
   34.0000  -999.2500  -999.2500  -999.2500  -999.2500    82.1563     8.0349    -0.3442     1.7048  -999.2500
   34.5000  -999.2500  -999.2500  -999.2500  -999.2500    87.2567     8.0366    -0.3273     1.6746  -999.2500
   35.0000  -999.2500  -999.2500  -999.2500  -999.2500    92.5243     8.0383    -0.3141     1.6466  -999.2500
   35.5000  -999.2500  -999.2500  -999.2500  -999.2500    97.7617     8.0401    -0.3005     1.5956  -999.2500
   36.0000  -999.2500  -999.2500  -999.2500  -999.2500   105.0403     8.0417    -0.2870     1.5563  -999.2500
   36.5000  -999.2500  -999.2500  -999.2500  -999.2500   112.8494     8.0379    -0.2582     1.5438  -999.2500
   37.0000  -999.2500  -999.2500  -999.2500  -999.2500   119.2067     8.0337    -0.2151     1.6171  -999.2500
   37.5000  -999.2500  -999.2500  -999.2500  -999.2500   126.5133     8.0295    -0.1432     1.6951  -999.2500
   38.0000  -999.2500  -999.2500  -999.2500  -999.2500   134.3891     8.0253    -0.0729     1.8383  -999.2500
   38.5000  -999.2500  -999.2500  -999.2500  -999.2500   139.6889     8.0222    -0.0034     1.9724  -999.2500
   39.0000  -999.2500  -999.2500  -999.2500  -999.2500   143.8902     8.0249     0.0356     2.4044     0.8338
   39.5000  -999.2500  -999.2500  -999.2500  -999.2500   146.4926     8.0274     0.0340     2.3990     0.8182
   40.0000     0.3603     5.0388  -999.2500  -999.2500   147.9194     8.0299     0.0274     2.3936     0.8062
   40.5000     0.3155     6.3273  -999.2500  -999.2500   147.3479     8.0324     0.0209     2.3887     0.8033
   41.0000     0.2672     7.1110  -999.2500  -999.2500   150.9389     8.0349     0.0144     2.3943     0.8111
   41.5000     0.2720     7.1252  -999.2500  -999.2500   152.7966     8.0374     0.0176     2.3992     0.8183
   42.0000     0.4538     6.9814  -999.2500  -999.2500   154.8460     8.0399     0.0274     2.4187     0.8531
   42.5000     0.6501     7.3773  -999.2500  -999.2500   156.2020     8.0424     0.0419     2.4557     0.9257
   43.0000     1.2166     7.9147  -999.2500  -999.2500   154.5718     8.0449     0.0539     2.4470     0.9127
   43.5000     2.5150     8.4913  -999.2500  -999.2500   153.0105     8.0474     0.0555     2.4278     0.8836
   44.0000     5.2243     8.8137  -999.2500  -999.2500   151.4326     8.0499     0.0450     2.4079     0.8583
   44.5000     6.0272     8.8775  -999.2500  -999.2500   151.3009     8.0524     0.0345     2.4083     0.8416
   45.0000     6.1842     8.9448  -999.2500  -999.2500   151.9105     8.0549     0.0308     2.4099     0.8405
   45.5000     6.2514     8.9190  -999.2500  -999.2500   152.4786     8.0574     0.0273     2.4039     0.8261
   46.0000     6.3100     8.8869  -999.2500  -999.2500   151.6214     8.0599     0.0239     2.3968     0.8098
   46.5000     7.2993     8.8549  -999.2500  -999.2500   150.6449     8.0617     0.0263     2.3913     0.8062
   47.0000     8.5288     8.8230  -999.2500  -999.2500   153.8781     8.0588     0.0346     2.4034     0.8348
   47.5000     9.6321     8.7913  -999.2500   651.8262   157.4470     8.0560     0.0429     2.4217     0.8758
   48.0000     9.8844     8.7520  -999.2500   888.1842   158.6753     8.0533     0.0513     2.4427     0.9170
   48.5000    10.1886     8.7047  -999.2500   889.6659   153.6703     8.0505     0.0598     2.4643     0.9500
   49.0000    10.0055     8.8662  -999.2500   870.4675   154.8836     8.0477     0.0647     2.4711     0.9621
   49.5000     9.4990     9.2888  -999.2500  1193.3245   155.5902     8.0450     0.0682     2.4730     0.9749
   50.0000     8.9584     9.7065  -999.2500  1146.8669   153.6852     8.0422     0.0699     2.4747     0.9767
   50.5000     8.4485    10.0838  -999.2500  1234.3809   151.7811     8.0394     0.0715     2.4744     0.9780
   51.0000     7.8693    10.0295  -999.2500  1008.3813   151.8611     8.0367     0.0732     2.4734     0.9760
   51.5000     8.0149     9.9817  -999.2500  1157.4575   152.9209     8.0339     0.0748     2.4724     0.9729
   52.0000     8.0143     9.9342  -999.2500  1146.8669   154.0130     8.0311     0.0758     2.4697     0.9698
   52.5000     7.9402     9.8967  -999.2500  1936.6803   153.9530     8.0284     0.0736     2.4666     0.9641
   53.0000     8.0106    10.0228  -999.2500   862.5029   152.8242     8.0256     0.0713     2.4634     0.9561
   53.5000     8.0900    10.1397  -999.2500   919.8238   151.7036     8.0228     0.0691     2.4602     0.9483
   54.0000     8.1702    10.2525  -999.2500   711.0959   151.0630     8.0201     0.0668     2.4584     0.9426
   54.5000     8.2512    10.3673  -999.2500  1726.7294   151.0299     8.0173     0.0646     2.4581     0.9435
   55.0000     8.3336    10.4833  -999.2500  1981.4979   151.9818     8.0145     0.0623     2.4665     0.9614
   55.5000     8.4377    10.6006  -999.2500  1990.8291   152.9059     8.0118     0.0602     2.4754     0.9791
   56.0000     8.5940    10.7499  -999.2500  1990.8291   152.8521     8.0090     0.0622     2.4841     0.9970
   56.5000     8.7531    10.9282  -999.2500  1017.6931   151.2056     8.0062     0.0644     2.4893     1.0051
   57.0000     8.9152    11.1095  -999.2500  1805.0078   149.8311     8.0035     0.0665     2.4892     1.0079
   57.5000     9.0803    11.2937  -999.2500  1982.4974   148.9161     8.0007     0.0687     2.4924     1.0151
   58.0000     9.1982    11.4810  -999.2500  1990.8291   149.7663     7.9979     0.0708     2.4961     1.0221
   58.5000     9.3025    11.6715  -999.2500   936.8901   148.9474     7.9952     0.0729     2.4993     1.0263
   59.0000     9.4183    11.8651  -999.2500  1990.8291   148.1641     7.9924     0.0750     2.4961     1.0209
   59.5000     9.5355    12.0618  -999.2500  1990.8291   147.3597     7.9896     0.0762     2.4929     1.0129
   60.0000     9.6539    12.2619  -999.2500  1163.8586   147.6163     7.9868     0.0762     2.4894     1.0044
   60.5000     9.7743    12.4653  -999.2500   994.6647   143.9378     7.9841     0.0762     2.4831     0.9953
   61.0000     9.8130    12.6721  -999.2500   963.0853   139.5705     7.9821     0.0757     2.4750     0.9767
   61.5000     9.8390    12.8061  -999.2500  1965.4790   135.5045     7.9851     0.0723     2.4664     0.9566
   62.0000     9.8651    12.8061  -999.2500  1960.2404   134.8445     7.9880     0.0687     2.4576     0.9398
   62.5000     9.8913    12.8061  -999.2500  1444.2117   138.4403     7.9909     0.0652     2.4490     0.9294
   63.0000     9.9001    12.8061  -999.2500  2004.6122   141.3663     7.9938     0.0617     2.4534     0.9329
   63.5000     9.8538    12.6870  -999.2500  1978.8676   142.9223     7.9966     0.0583     2.4589     0.9423
   64.0000     9.8177    12.5549  -999.2500  1962.9761   144.0665     7.9995     0.0603     2.4688     0.9605
   64.5000     9.7818    12.4241  -999.2500  1947.3641   145.1668     8.0024     0.0627     2.4771     0.9792
   65.0000     9.7458    12.2947  -999.2500  1748.8258   146.2964     8.0052     0.0650     2.4804     0.9866
   65.5000     9.7192    12.1666  -999.2500  1124.8635   147.5865     8.0081     0.0673     2.4808     0.9874
   66.0000     9.6268    12.0398  -999.2500   980.9543   148.8692     8.0110     0.0696     2.4812     0.9913
