~VERSION INFORMATION
 VERS.                2.0:   CWLS LOG ASCII STANDARD - VERSION 2.0
 WRAP.                 NO:   ONE LINE PER DEPTH STEP
~WELL INFORMATION
#MNEM.UNIT      DATA TYPE    INFORMATION
#----------   ------------   ------------------------------
 STRT.F           20.0000:   START DEPTH
 STOP.F          805.5000:   STOP DEPTH
 STEP.F            0.5000:   STEP LENGTH
 NULL.          -999.2500:   NO VALUE
 COMP. FENIX & SCISSON INC:   COMPANY
 WELL.    16-SX-14 #16-14:   WELL
 FLD .             TEAPOT:   FIELD
 LOC .      S14 T38N R78W:   LOCATION
 CNTY.            NATRONA:   COUNTY
 STAT.            WYOMING:   STATE
 CTRY. UNITED STATES OF AMERICA:   COUNTRY
 SRVC.            Unknown:   SERVICE COMPANY
 DATE.        23-MAY-1978:   LOGDATE
 API .       490251063200:   API NUMBER
~CURVE INFORMATION
#MNEM.UNIT       API CODE    CURVE DESCRIPTION
#----------   ------------   ------------------------------
 DEPT.F                  :   
 SN  .OHMM   05 040 16 00:   SHORT NORMAL 16"
 ILD .OHMM   05 120 46 00:   INDUCTION LOG DEEP
 SPR .MV     05 010 01 00:   SPONTANEOUS POTENTIAL FROM RES.
 RHOB.G/C3   45 350 01 00:   BULK DENSITY
 DPOR.DEC    45 890 12 00:   DENSITY POROSITY SANDSTONE
 CORR.G/C3   45 356 01 00:   DENSITY CORRECTION
 GRD .GAPI   45 310 01 00:   GAMMA RAY FROM DENSITY LOG
 CALD.IN     45 280 60 00:   CALIPER FROM DENSITY LOG
~PARAMETER INFORMATION
#MNEM.UNIT          VALUE    DESCRIPTION
#----------   ------------   ------------------------------
 PD  .                 GL:   PERMANENT DATUM
 EPD .F              5246:   ELEVATION PERMANENT DATUM
 LMF .                 KB:   LOG MEASURED FROM
 DAPD.F                 4:   FEET ABOVE PERMANENT DATUM
 DMF .                 KB:   DRILLING MEASURED FROM
 EKB .F              5250:   KELLING BUSHING
 EGL .F              5246:   GROUND LEVEL
 DATE.          5-23-1978:   RUN DATE
 RUN .                  1:   RUN NUMBER
 DD  .F               825:   DEPTH DRILLER
 DL  .F               812:   DEPTH LOGGER
 BLI .F               805:   BOTTOM LOG INTERVAL
 TLI .F                40:   TOP LOG INTERVAL
 CS  .IN            8.625:   CASING SIZE
 CBD .F                40:   CASING BOTTOM DRILLER
 BS  .IN            7.875:   BIT SIZE
 BSD .F               825:   BIT SIZE AT DEPTH
 DFT .                KCL:   DRILLING FLUID TYPE
 DFD .                8.6:   DRILLING FLUID DENSITY
 DFV .                 30:   DRILLING FLUID VISCOSITY
 DFPH.                 11:   DRILLING FLUID PH
 DFL .                 14:   DRILLING FLUID LOSS
 MSS .            MUD PIT:   MUD SAMPLE SOURCE
 RMS .OHMM            .32:   RESISTIVITY MUD SAMPLE
 MST .F                72:   MUD SAMPLE TEMPERATURE
 RMF .OHMM            .28:   RESISTIVITY MUD FILTRATE SAMPLE
 MFST.F                72:   MUD FILTRATE SAMPLE TEMPERATURE
 RMC .OHMM            .50:   RESISTIVITY MUD CAKE
 MCST.F                82:   MUD CAKE SAMPLE TEMPERATURE
 MFSS.               MEAS:   MUD FILTRATE SAMPLE SOURCE
 RMB .OHMM            .31:   RESISTIVITY MUD AT BHT
 BHT .F                75:   BOTTOM HOLE TEMPERATURE
 TCS .HRS               2:   TIME CURCULATED STOPPED
 MRT .F                75:   MAXIMUM RECORDED TEMPERATURE
 LUN .               2958:   LOGGING UNIT NUMBER
 LUL .              CSPR.:   LOGGING UNIT LOCATION
 ENGI.             MILLER:   RECORDING ENGINEER
 WITN.            RHOADES:   WITNESSED BY
 CLNT.            A2DTECH:   CLIENT CODE
 ORIG.    1" , 2.5" PRINT:   ORIGIN OF DATA
 UWI .       490251063200:   UNIQUE WELL ID
 DICO. A2D Technologies, Inc.:   DIGITIZING COMPANY
~OTHER INFORMATION
~A   DEPT       SN        ILD        SPR       RHOB       DPOR       CORR         GRD      CALD   
# ...
  384.5000     8.0582     7.1947   -28.6795     2.4781     0.1244     0.0382    88.6174     6.9052
  385.0000     7.9995     7.1546   -28.7188     2.4777     0.1226     0.0466    86.4192     6.9262
  385.5000     7.9412     7.1148   -28.7162     2.4795     0.1207     0.0550    84.3230     6.9315
  386.0000     7.8892     7.0679   -28.5142     2.4811     0.1188     0.0653    83.3255     6.8970
  386.5000     7.9409     7.0771   -28.2424     2.4826     0.1169     0.0659    81.9946     6.8622
  387.0000     7.9882     7.0971   -27.9700     2.4843     0.1148     0.0662    80.7309     6.8276
  387.5000     8.0358     7.1173   -27.7003     2.4859     0.1121     0.0659    79.8462     6.7578
  388.0000     8.0837     7.1375   -27.4295     2.4891     0.1090     0.0676    82.2856     6.6752
  388.5000     8.1319     7.1574   -27.1597     2.4955     0.1059     0.0729    87.1326     6.5956
  389.0000     8.1852     7.1771   -26.8848     2.5019     0.1028     0.0780    87.4141     6.5140
  389.5000     8.0982     7.1940   -26.6213     2.5083     0.0998     0.0816    85.5470     6.4249
  390.0000     8.0026     7.1860   -26.3497     2.5149     0.0980     0.0803    84.7786     6.4036
  390.5000     7.9003     7.1792   -26.0482     2.5165     0.1009     0.0784    84.1940     6.4918
  391.0000     7.9191     7.1718   -26.0415     2.5135     0.1055     0.0806    84.4243     6.5732
  391.5000     7.9569     7.1642   -26.5550     2.5108     0.1061     0.0876    86.3285     6.6620
  392.0000     7.9948     7.1569   -27.0216     2.5081     0.1052     0.0885    88.3386     6.6595
  392.5000     8.0358     7.1496   -27.5016     2.5052     0.1079     0.0845    88.7293     6.5472
  393.0000     7.9856     7.1422   -28.0211     2.5029     0.1153     0.0842    86.8992     6.4348
  393.5000     7.9047     7.1349   -28.3755     2.4961     0.1252     0.0947    85.2869     6.4074
  394.0000     7.9088     7.1275   -28.4462     2.4785     0.1202     0.1045    82.9809     6.5081
  394.5000     8.0033     7.1201   -28.5545     2.4827     0.1125     0.1135    84.5660     6.5960
  395.0000     8.0990     7.1128   -28.6701     2.4990     0.1048     0.1100    87.8083     6.6939
  395.5000     8.1852     7.1054   -28.7048     2.5057     0.1018     0.1077    89.0394     6.7379
  396.0000     8.1346     7.0981   -28.6633     2.5069     0.1028     0.1045    89.1992     6.7846
  396.5000     8.0893     7.0908   -28.6277     2.5086     0.1028     0.1017    89.5359     6.8269
  397.0000     8.0442     7.0834   -28.5922     2.5104     0.0987     0.1000    89.0343     6.8717
  397.5000     7.9993     7.0761   -28.5554     2.5125     0.0946     0.0885    89.1017     6.9190
  398.0000     7.9547     7.0688   -28.5198     2.5093     0.0904     0.0717    89.7628     6.9351
  398.5000     7.8902     7.0615   -28.4839     2.4993     0.0868     0.0546    90.2995     6.9188
  399.0000     7.9295     7.0540   -28.4481     2.4926     0.0941     0.0480    90.7275     6.9041
  399.5000     8.0106     7.0466   -28.4120     2.4855     0.1079     0.0406    88.8945     6.9219
  400.0000     8.0926     7.0392   -28.3766     2.4786     0.1216     0.0362    88.8933     6.9844
  400.5000     8.1753     7.0318   -28.3413     2.4714     0.1239     0.0334    90.1986     7.0711
  401.0000     8.2590     7.0244   -28.2931     2.4688     0.1246     0.0301    87.7777     7.1529
  401.5000     8.3365     7.0170   -28.2095     2.4690     0.1285     0.0300    84.1596     7.2356
  402.0000     8.2941     7.0096   -28.1268     2.4674     0.1325     0.0298    77.9474     7.2737
  402.5000     8.2556     7.0023   -28.0432     2.4623     0.1364     0.0301    78.8244     7.2898
  403.0000     8.2166     6.9949   -27.9597     2.4568     0.1404     0.0307    79.4345     7.3066
  403.5000     8.1778     6.9875   -27.8764     2.4524     0.1361     0.0419    79.2887     7.3245
  404.0000     8.1392     6.9802   -27.7930     2.4483     0.1284     0.0532    78.8823     7.3415
  404.5000     8.1008     6.9729   -27.7094     2.4682     0.1208     0.0509    78.5081     7.3577
  405.0000     8.0625     6.9656   -27.6259     2.4885     0.1132     0.0482    81.2166     7.3753
  405.5000     8.0244     6.9584   -27.5419     2.4943     0.1108     0.0451    84.1372     7.3481
  406.0000     7.9865     6.9512   -27.4589     2.4918     0.1120     0.0422    83.0510     7.3016
  406.5000     7.9490     6.9440   -27.3751     2.4897     0.1132     0.0391    81.2563     7.2536
  407.0000     7.9115     6.9367   -27.2900     2.4885     0.1145     0.0393    80.0242     7.2132
  407.5000     7.8493     6.9085   -27.2106     2.4871     0.1157     0.0421    80.3351     7.1836
  408.0000     7.7520     6.8433   -27.1276     2.4861     0.1172     0.0447    85.9909     7.2786
  408.5000     7.6561     6.7787   -27.2518     2.4854     0.1131     0.0471    91.3501     7.4246
  409.0000     7.5614     6.7145   -27.4406     2.4914     0.1082     0.0496    93.6756     7.1951
  409.5000     7.4681     6.6512   -27.6299     2.4971     0.1033     0.0454    94.6693     6.8412
  410.0000     7.3751     6.5886   -27.8159     2.5031     0.0985     0.0403    95.4047     6.9008
  410.5000     7.2838     6.5265   -28.0039     2.5089     0.0916     0.0348    94.1938     6.9598
  411.0000     7.1950     6.4650   -28.1903     2.5149     0.0831     0.0385    92.0456     7.0177
  411.5000     7.2618     6.4040   -28.3795     2.5208     0.0750     0.0404    91.2443     7.0195
  412.0000     7.3282     6.3246   -28.5668     2.5264     0.0672     0.0170    92.1650     7.0195
  412.5000     7.3952     6.3669   -28.7116     2.5333     0.0848     0.0067    92.3429     7.0199
  413.0000     7.4629     6.4296   -28.6893     2.5236     0.1013     0.0219    88.2961     7.0213
  413.5000     7.5311     6.4928   -28.6731     2.5019     0.1123     0.0367    84.0622     7.0580
  414.0000     7.6000     6.5567   -28.6511     2.4962     0.1137     0.0306    81.5414     7.1040
  414.5000     7.6695     6.6213   -28.6307     2.4908     0.1155     0.0238    83.2151     7.1543
  415.0000     7.7397     6.6865   -28.6108     2.4878     0.1173     0.0187    84.7766     7.1700
  415.5000     7.8105     6.7523   -28.5902     2.4855     0.1191     0.0224    87.2136     7.1290
  416.0000     7.8892     6.8187   -28.5699     2.4855     0.1195     0.0256    89.7747     7.0910
  416.5000     7.8990     6.8858   -28.5497     2.4867     0.1163     0.0290    92.2980     7.0553
  417.0000     7.9100     6.9536   -28.5295     2.4894     0.1131     0.0329    94.8687     7.0237
  417.5000     7.9211     7.0221   -28.5093     2.4929     0.1099     0.0317    95.2579     7.0585
  418.0000     7.9321     7.0673   -28.4892     2.4965     0.1068     0.0268    93.4670     7.0904
  418.5000     7.9431     7.0767   -28.4690     2.4979     0.1090     0.0223    91.5256     7.1287
  419.0000     7.9542     7.0860   -28.4493     2.4932     0.1125     0.0179    89.6208     7.1228
  419.5000     7.9653     7.0953   -28.4293     2.4886     0.1160     0.0203    87.8680     7.0853
  420.0000     7.9764     7.1046   -28.4094     2.4840     0.1196     0.0227    86.2937     7.0507
  420.5000     7.9875     7.1140   -28.3905     2.4793     0.1179     0.0315    84.7312     7.0174
  421.0000     7.9986     7.1234   -28.3681     2.4792     0.1144     0.0377    84.9163     6.9838
  421.5000     8.0098     7.1327   -28.3500     2.4850     0.1109     0.0388    86.3650     7.0091
  422.0000     8.0209     7.1420   -28.3334     2.4900     0.1150     0.0395    86.0766     7.0229
  422.5000     8.0358     7.1514   -28.2114     2.4861     0.1191     0.0402    87.0612     7.0505
  423.0000     8.0039     7.1608   -27.8354     2.4825     0.1199     0.0409    91.5512     6.6547
  423.5000     7.8910     7.1701   -27.4567     2.4793     0.1183     0.0415    92.9971     6.4902
  424.0000     7.7798     7.1795   -27.0961     2.4814     0.1167     0.0422    88.7711     6.4755
  424.5000     7.6038     7.1892   -26.7328     2.4833     0.1150     0.0429    87.6861     6.1904
