~VERSION INFORMATION
 VERS.                2.0:   CWLS LOG ASCII STANDARD - VERSION 2.0
 WRAP.                 NO:   ONE LINE PER DEPTH STEP
~WELL INFORMATION
#MNEM.UNIT      DATA TYPE    INFORMATION
#----------   ------------   ------------------------------
 STRT.F          520.5000:   START DEPTH
 STOP.F         2062.0000:   STOP DEPTH
 STEP.F            0.5000:   STEP LENGTH
 NULL.          -999.2500:   NO VALUE
 COMP. LAWRENCE-ALLISON &AS:   COMPANY
 WELL.     NPR 3 #18-X-28:   WELL
 FLD .             TEAPOT:   FIELD
 LOC .      S28 T39N R78W:   LOCATION
 CNTY.            NATRONA:   COUNTY
 STAT.            WYOMING:   STATE
 CTRY. UNITED STATES OF AMERICA:   COUNTRY
 SRVC.            Unknown:   SERVICE COMPANY
 DATE.        08-DEC-1987:   LOGDATE
 API .       490251119700:   API NUMBER
~CURVE INFORMATION
#MNEM.UNIT       API CODE    CURVE DESCRIPTION
#----------   ------------   ------------------------------
 DEPT.F                  :   
 ROP .MIN/FT 91 810 01 00:   RAT OF DRILLING PENETRATION
 TGAS.UNITS  91 830 01 00:   TOTAL GAS FROM HOTWIRE
~PARAMETER INFORMATION
#MNEM.UNIT          VALUE    DESCRIPTION
#----------   ------------   ------------------------------
 EKB .F              5090:   KELLING BUSHING
 EGL .F              5080:   GROUND LEVEL
 DATE.            12-8-87:   RUN DATE
 DD  .F              2062:   DEPTH DRILLER
 CS  .IN                7:   CASING SIZE
 CBD .F               513:   CASING BOTTOM DRILLER
 TCS .HRS            1000:   TIME CURCULATED STOPPED
 TLAB.HRS            0432:   TIME LOGGER AT BOTTOM
 ENGI.              TOWER:   RECORDING ENGINEER
 WITN.               HUSK:   WITNESSED BY
 CLNT.            A2DTECH:   CLIENT CODE
 ORIG.           5" PRINT:   ORIGIN OF DATA
 UWI .       490251119700:   UNIQUE WELL ID
 DICO. A2D Technologies, Inc.:   DIGITIZING COMPANY
~OTHER INFORMATION
~A   DEPT      ROP         TGAS 
# ...
 1735.5000     0.4152     2.3259
 1736.0000     0.4155     2.7648
 1736.5000     0.4157     2.3615
 1737.0000     0.4160     2.3869
 1737.5000     0.4163     2.4073
 1738.0000     0.4270     2.4279
 1738.5000     0.4272     2.4488
 1739.0000     0.4275     2.4735
 1739.5000     0.4382     2.0701
 1740.0000     0.4384     2.0956
 1740.5000     0.4387     1.6922
 1741.0000     0.4389     1.7177
 1741.5000     0.4392     1.7380
 1742.0000     0.4395     1.7584
 1742.5000     0.4397     1.7791
 1743.0000     0.4505     1.3805
 1743.5000     0.4507     1.4060
 1744.0000     0.4510     1.0026
 1744.5000     0.4512     0.6044
 1745.0000     0.4515     0.2061
 1745.5000     0.4622     0.2316
 1746.0000     0.4519     0.0004
 1746.5000     0.4523     0.0004
 1747.0000     0.4525     0.0004
 1747.5000     0.4528     0.0004
 1748.0000     0.4426     0.0004
 1748.5000     0.4533     0.0004
 1749.0000     0.4431     0.0004
 1749.5000     0.4538     0.0004
 1750.0000     0.4541     0.0004
 1750.5000     0.4544     0.0004
 1751.0000     0.4546     0.0004
 1751.5000     0.4653     0.0004
 1752.0000     0.4656     0.0004
 1752.5000     0.4658     0.0004
 1753.0000     0.4765     0.0004
 1753.5000     0.4768     0.0004
 1754.0000     0.4771     0.0004
 1754.5000     0.4878     0.0004
 1755.0000     0.4880     0.0004
 1755.5000     0.4883     0.0004
 1756.0000     0.4885     0.0004
 1756.5000     0.4888     0.0004
 1757.0000     0.4891     0.0004
 1757.5000     0.4893     0.0004
 1758.0000     0.4896     0.0004
 1758.5000     0.4794     0.0004
 1759.0000     0.4796     0.0004
 1759.5000     0.4695     0.0004
 1760.0000     0.4698     0.0034
 1760.5000     0.4483     0.0004
 1761.0000     0.4478     0.0004
 1761.5000     0.4473     0.1261
 1762.0000     0.4572     0.1674
 1762.5000     0.4566     0.2093
 1763.0000     0.4561     0.2589
 1763.5000     0.4556     0.7082
 1764.0000     0.4551     0.3305
 1764.5000     0.4545     0.3816
 1765.0000     0.4436     0.4224
 1765.5000     0.4431     0.4633
 1766.0000     0.4426     0.5042
 1766.5000     0.4421     0.5451
 1767.0000     0.4415     0.5861
 1767.5000     0.4409     0.6279
 1768.0000     0.4404     0.6779
 1768.5000     0.4399     0.7188
 1769.0000     0.4394     0.7597
 1769.5000     0.4389     0.8006
 1770.0000     0.4384     0.8415
 1770.5000     0.4379     0.8823
 1771.0000     0.4374     0.9232
 1771.5000     0.4368     0.9641
 1772.0000     0.4468     1.0050
 1772.5000     0.4461     1.0465
 1773.0000     0.4562     1.0884
 1773.5000     0.4556     1.1379
 1774.0000     0.4656     1.1787
 1774.5000     0.4650     1.2196
 1775.0000     0.4645     1.2605
 1775.5000     0.4640     1.3014
 1776.0000     0.4739     0.9134
 1776.5000     0.4745     0.9645
 1777.0000     0.4936     0.5860
 1777.5000     0.5037     0.6279
 1778.0000     0.5031     0.6698
 1778.5000     0.5025     0.7197
 1779.0000     0.5020     0.7606
 1779.5000     0.5015     0.8014
 1780.0000     0.4801     0.8423
 1780.5000     0.4274     0.8832
 1781.0000     0.3847     0.9241
 1781.5000     0.3742     0.5464
 1782.0000     0.3842     0.5872
 1782.5000     0.3835     0.6315
 1783.0000     0.3830     0.6698
 1783.5000     0.3825     0.2913
 1784.0000     0.3820     0.3424
 1784.5000     0.3815     0.3833
 1785.0000     0.3810     0.4241
 1785.5000     0.3909     0.0362
 1786.0000     0.3904     0.0873
 1786.5000     0.4003     0.1282
 1787.0000     0.4103     0.0004
 1787.5000     0.4201     0.0004
 1788.0000     0.4196     0.0004
 1788.5000     0.4191     0.0004
 1789.0000     0.4185     0.0004
 1789.5000     0.4180     0.0004
 1790.0000     0.4071     0.0060
 1790.5000     0.4066     0.0468
 1791.0000     0.4061     0.0877
 1791.5000     0.4054     0.1286
 1792.0000     0.4049     0.1695
 1792.5000     0.4044     0.2104
 1793.0000     0.4039     0.2512
 1793.5000     0.4034     0.2930
 1794.0000     0.4029     0.3432
 1794.5000     0.4024     0.3841
 1795.0000     0.4019     0.4250
 1795.5000     0.4014     0.0473
 1796.0000     0.3904     0.5068
 1796.5000     0.3898     0.5476
 1797.0000     0.3788     0.1597
 1797.5000     0.3783     0.2108
 1798.0000     0.3778     0.6703
 1798.5000     0.3669     0.2926
 1799.0000     0.3664     0.3349
 1799.5000     0.3659     0.3845
 1800.0000     0.3653     0.0004
 1800.5000     0.3653     0.0004
 1801.0000     0.3653     0.0004
 1801.5000     0.3549     0.0004
 1802.0000     0.3549     0.0004
 1802.5000     0.3543     0.0004
 1803.0000     0.3445     0.0004
 1803.5000     0.3445     0.0004
 1804.0000     0.3549     0.0004
 1804.5000     0.3549     0.0004
 1805.0000     0.3653     0.0004
 1805.5000     0.3653     0.0004
 1806.0000     0.3862     0.0004
 1806.5000     0.3967     0.0004
 1807.0000     0.3967     0.0004
 1807.5000     0.4071     0.0004
 1808.0000     0.4071     0.0004
 1808.5000     0.4071     0.0004
 1809.0000     0.4071     0.0004
 1809.5000     0.4071     0.0004
 1810.0000     0.4175     0.0004
 1810.5000     0.4175     0.0210
 1811.0000     0.4175     0.4605
 1811.5000     0.4175     0.4814
 1812.0000     0.4175     0.5023
 1812.5000     0.4175     0.1035
 1813.0000     0.4175     0.1292
 1813.5000     0.4175     0.1498
 1814.0000     0.4175     0.1704
 1814.5000     0.4175     0.6097
 1815.0000     0.4175     0.2065
 1815.5000     0.4175     0.2323
 1816.0000     0.4175     0.2529
 1816.5000     0.4175     0.2735
 1817.0000     0.4175     0.2941
 1817.5000     0.4175     0.7350
 1818.0000     0.4175     0.7539
 1818.5000     0.4175     0.7745
 1819.0000     0.4175     0.7953
 1819.5000     0.4175     0.8175
 1820.0000     0.4175     0.8372
 1820.5000     0.4071     0.8621
 1821.0000     0.4071     0.8827
 1821.5000     0.4071     0.9033
 1822.0000     0.4071     0.5002
 1822.5000     0.4071     0.9445
 1823.0000     0.4071     0.9652
 1823.5000     0.3967     0.9858
 1824.0000     0.3967     1.0064
 1824.5000     0.3967     1.0287
 1825.0000     0.3967     1.0476
 1825.5000     0.3967     1.0682
 1826.0000     0.3967     1.0888
 1826.5000     0.3967     1.1111
 1827.0000     0.3967     1.1302
 1827.5000     0.3967     1.1512
 1828.0000     0.3967     1.1747
 1828.5000     0.3967     1.1936
 1829.0000     0.3967     1.2176
 1829.5000     0.3862     1.2382
 1830.0000     0.3862     1.2558
 1830.5000     0.3862     1.2794
 1831.0000     0.3758     1.3000
 1831.5000     0.3758     1.3206
 1832.0000     0.3758     1.3413
 1832.5000     0.3758     1.3619
 1833.0000     0.3758     1.3825
 1833.5000     0.3653     1.4031
 1834.0000     0.3653     1.4237
 1834.5000     0.3653     1.4443
 1835.0000     0.3653     1.0463
 1835.5000     0.3653     1.0674
 1836.0000     0.3653     1.0186
 1836.5000     0.3653     0.6895
 1837.0000     0.3653     0.7153
 1837.5000     0.3653     0.3121
 1838.0000     0.3653     0.3379
 1838.5000     0.3653     0.3585
 1839.0000     0.3653     0.3791
 1839.5000     0.3758     0.0004
 1840.0000     0.3862     0.0017
 1840.5000     0.4181     0.0172
 1841.0000     0.4371     0.0004
 1841.5000     0.4572     0.0004
 1842.0000     0.4775     0.0004
 1842.5000     0.4874     0.0004
 1843.0000     0.4866     0.8309
 1843.5000     0.4966     4.2457
 1844.0000     0.4854     7.2419
 1844.5000     0.4322    10.3447
 1845.0000     0.3458    13.2507
 1845.5000     0.3373    14.5725
 1846.0000     0.4200    15.4757
 1846.5000     0.4820    15.9602
 1847.0000     0.5232    16.0262
 1847.5000     0.5538    16.0922
 1848.0000     0.5532    16.1581
 1848.5000     0.5526    15.8055
 1849.0000     0.5519    15.8880
 1849.5000     0.5617    15.9539
 1850.0000     0.5609    16.4385
 1850.5000     0.5603    16.5044
 1851.0000     0.5597    16.5704
 1851.5000     0.5590    16.6364
 1852.0000     0.5584    16.7023
 1852.5000     0.5578    16.7703
 1853.0000     0.5571    17.2693
 1853.5000     0.5461    17.3353
 1854.0000     0.5454    17.4013
 1854.5000     0.5342    17.4672
 1855.0000     0.5231    17.9518
 1855.5000     0.5121    17.5992
 1856.0000     0.5114    18.0837
 1856.5000     0.5108    18.1517
