~VERSION INFORMATION
 VERS.                2.0:   CWLS LOG ASCII STANDARD - VERSION 2.0
 WRAP.                 NO:   ONE LINE PER DEPTH STEP
~WELL INFORMATION
#MNEM.UNIT      DATA TYPE    INFORMATION
#----------   ------------   ------------------------------
 STRT.F           30.0000:   START DEPTH
 STOP.F          458.0000:   STOP DEPTH
 STEP.F            0.5000:   STEP LENGTH
 NULL.          -999.2500:   NO VALUE
 COMP. FENIX & SCISSON INC:   COMPANY
 WELL. NPR 3 #53 SX 10-10:   WELL
 FLD .             TEAPOT:   FIELD
 LOC .      S10 T38N R78W:   LOCATION
 CNTY.            NATRONA:   COUNTY
 STAT.            WYOMING:   STATE
 CTRY. UNITED STATES OF AMERICA:   COUNTRY
 SRVC.              Welex:   SERVICE COMPANY
 DATE.        16-APR-1977:   LOGDATE
 API .       490251033200:   API NUMBER
~CURVE INFORMATION
#MNEM.UNIT       API CODE    CURVE DESCRIPTION
#----------   ------------   ------------------------------
 DEPT.F                  :   
 SPR .MV     07 010 01 00:   SPONTANEOUS POTENTIAL FROM RES.
 ILD .OHMM   07 120 46 00:   INDUCTION LOG DEEP
 ILM .OHMM   07 120 44 00:   INDUCTION LOG MEDIUM
 SGRD.OHMM   07 220 05 00:   SHALLOW GUARD RESISTIVITY
 GRD .GAPI   45 310 01 00:   GAMMA RAY FROM DENSITY LOG
 CALD.IN     45 280 60 00:   CALIPER FROM DENSITY LOG
 CORR.G/C3   45 356 01 00:   DENSITY CORRECTION
 RHOB.G/C3   45 350 01 00:   BULK DENSITY
 DPHI.DEC    45 890 12 00:   DENSITY POROSITY SANDSTONE
~PARAMETER INFORMATION
#MNEM.UNIT          VALUE    DESCRIPTION
#----------   ------------   ------------------------------
 PD  .                 GL:   PERMANENT DATUM
 EPD .F              5180:   ELEVATION PERMANENT DATUM
 LMF .                 GL:   LOG MEASURED FROM
 DMF .                 GL:   DRILLING MEASURED FROM
 EGL .F              5180:   GROUND LEVEL
 DATE.        16-APR-1977:   RUN DATE
 RUN .                  1:   RUN NUMBER
 DD  .F               455:   DEPTH DRILLER
 DL  .F               461:   DEPTH LOGGER
 BLI .F               459:   BOTTOM LOG INTERVAL
 TLI .F                30:   TOP LOG INTERVAL
 CS  .IN            8.625:   CASING SIZE
 BS  .IN            7.875:   BIT SIZE
 BSD .F               455:   BIT SIZE AT DEPTH
 DFT .            KCL MUD:   DRILLING FLUID TYPE
 DFD .                8.9:   DRILLING FLUID DENSITY
 TCS .HRS            0600:   TIME CURCULATED STOPPED
 MRT .F                66:   MAXIMUM RECORDED TEMPERATURE
 ENGI.               DOAK:   RECORDING ENGINEER
 WITN.      B. HARRINGTON:   WITNESSED BY
 CLNT.            A2DTECH:   CLIENT CODE
 ORIG.           5" PRINT:   ORIGIN OF DATA
 UWI .       490251033200:   UNIQUE WELL ID
 DICO. A2D Technologies, Inc.:   DIGITIZING COMPANY
~OTHER INFORMATION
~A   DEPT      SPR        ILD        ILM       SGRD         GRD        CALD      CORR        RHOB     DPHI   
# ...
  176.0000   -47.9619     4.9537     6.0149     9.4103   117.7979     7.8225     0.0018     2.4146     0.1371
  176.5000   -47.7973     5.0955     6.3149    10.1359   120.7731     7.8246     0.0035     2.4252     0.1290
  177.0000   -47.6327     5.3511     6.5462     9.3776   125.7950     7.8118     0.0066     2.4403     0.1254
  177.5000   -47.4682     5.6196     6.9243     8.6303   127.7331     7.8139     0.0068     2.4426     0.1229
  178.0000   -47.4520     5.9837     7.2656     8.3638   124.5220     7.8160     0.0084     2.4465     0.1205
  178.5000   -47.2874     6.2840     7.5359    10.5540   122.3670     7.8180     0.0116     2.4541     0.1190
  179.0000   -47.2712     6.5992     7.9044    11.0402   120.5448     7.8052     0.0133     2.4519     0.1189
  179.5000   -47.2549     6.9303     8.0753    11.5134   118.0361     7.8073     0.0134     2.4460     0.1225
  180.0000   -47.2387     7.0948     8.1854    12.0069   118.4734     7.8094     0.0151     2.4491     0.1216
  180.5000   -47.0742     7.1326     8.2552    12.0960   121.1673     7.8115     0.0182     2.4582     0.1177
  181.0000   -47.0579     7.1365     8.4243    12.1018   123.1182     7.8135     0.0199     2.4650     0.1145
  181.5000   -47.0417     7.1900     8.4290    12.1076   123.7319     7.8156     0.0200     2.4674     0.1131
  182.0000   -47.0255     7.1940     8.4336    11.7830   123.5978     7.8326     0.0202     2.4637     0.1148
  182.5000   -47.0093     7.1979     8.4392    11.4671   123.1713     7.8496     0.0203     2.4586     0.1177
  183.0000   -46.9931     7.1513     8.4439    11.3150   123.0420     7.8666     0.0205     2.4526     0.1195
  183.5000   -47.1293     7.1562     8.3892    11.1636   122.0260     7.8687     0.0221     2.4497     0.1212
  184.0000   -47.1090     7.1098     8.3950    10.8656   120.1137     7.8708     0.0223     2.4461     0.1221
  184.5000   -47.0928     7.0170     8.2271    10.5743   117.7507     7.8728     0.0255     2.4507     0.1199
  185.0000   -47.0766     6.8768     7.9519    10.5063   121.3410     7.8749     0.0271     2.4590     0.1179
  185.5000   -47.0604     6.6929     7.7393    10.2248   123.8863     7.8621     0.0273     2.4651     0.1149
  186.0000   -47.0442     6.5139     7.4804     9.9506   126.2830     7.8642     0.0289     2.4682     0.1128
  186.5000   -47.1763     6.2526     7.1804     9.7510   129.4227     7.8514     0.0291     2.4608     0.1166
  187.0000   -47.3085     5.9194     6.9402     9.4896   130.3287     7.8385     0.0307     2.4519     0.1204
  187.5000   -47.5890     5.5270     6.6159     9.2352   128.5697     7.8406     0.0279     2.4384     0.1227
  188.0000   -47.5727     5.3045     6.3946     9.1743   123.9812     7.8427     0.0265     2.4273     0.1294
  188.5000   -47.7050     5.1278     6.1807     8.9919   121.6231     7.8448     0.0267     2.4146     0.1375
  189.0000   -47.8371     5.0246     5.9328     8.6072   123.4254     7.8469     0.0223     2.4057     0.1454
  189.5000   -47.9693     4.9928     5.6166     7.4680   124.6334     7.8341     0.0164     2.3960     0.1544
  190.0000   -47.9531     4.9611     5.5418     5.8655   122.1267     7.8361     0.0119     2.3848     0.1581
  190.5000   -47.9362     4.9302     5.5841     4.8625   118.7285     7.8382     0.0092     2.3909     0.1548
  191.0000   -47.8922     5.0017     5.6650     8.4700   116.9599     7.8254     0.0123     2.4023     0.1447
  191.5000   -47.4553     5.1805     6.0320    10.3557   118.7671     7.8126     0.0170     2.4301     0.1277
  192.0000   -47.1423     5.3287     6.5575    10.8745   120.7181     7.8147     0.0187     2.4452     0.1221
  192.5000   -47.2785     5.5961     6.9343    11.1849   122.3718     7.8167     0.0190     2.4483     0.1197
  193.0000   -47.1099     5.7962     7.3836    11.2679   123.4264     7.8486     0.0235     2.4544     0.1164
  193.5000   -47.0937     6.1292     7.8079    11.2733   121.3703     7.8507     0.0236     2.4605     0.1128
  194.0000   -46.9291     6.4814     8.0313    11.2000   121.6868     7.8379     0.0253     2.4636     0.1102
  194.5000   -46.9129     6.6668     8.2610    10.6769   123.0434     7.8251     0.0255     2.4682     0.1082
  195.0000   -46.7483     6.9052     8.3229    10.6084   124.2466     7.8272     0.0256     2.4706     0.1069
  195.5000   -46.7321     7.0538     8.3853    10.7968   122.3342     7.8143     0.0242     2.4729     0.1071
  196.0000   -46.7159     7.2556     8.3899    11.9433   124.4386     7.8164     0.0199     2.4692     0.1094
  196.5000   -46.6997     7.4118     8.4528    11.8548   126.5333     7.8185     0.0170     2.4641     0.1127
  197.0000   -46.6835     7.5191     8.4575    11.6149   126.1068     7.8206     0.0127     2.4612     0.1154
  197.5000   -46.5189     7.6281     8.5209    11.8794   127.3197     7.8227     0.0098     2.4575     0.1168
  198.0000   -46.5027     7.6323     8.5256    11.9676   129.1220     7.8248     0.0084     2.4546     0.1183
  198.5000   -46.4865     7.5839     8.5894    11.8089   127.9526     7.8268     0.0071     2.4517     0.1189
  199.0000   -46.4702     7.4838     8.6538    11.6509   125.5945     7.8289     0.0073     2.4510     0.1191
  199.5000   -46.4540     7.4880     8.7792    11.4978   122.9392     7.8138     0.0089     2.4526     0.1188
  200.0000   -46.4419     7.4405     8.7828    11.3440   118.9418     7.7987     0.0121     2.4587     0.1167
  200.5000   -46.5209     7.2918     8.7294    11.3499   123.8743     7.8050     0.0168     2.4670     0.1117
  201.0000   -46.4104     7.3991     8.7348    11.3546   119.1415     7.8221     0.0200     2.4754     0.1047
  201.5000   -46.2488     7.4550     8.5607    11.6778   116.9348     7.8166     0.0232     2.4822     0.1017
  202.0000   -46.0871     7.5114     8.3323    12.9580   116.0599     7.7962     0.0234     2.4860     0.0996
  202.5000   -46.0738     7.5160     8.3953    11.2902   116.6819     7.7980     0.0236     2.4831     0.0986
  203.0000   -46.0606     7.4677     8.4588    11.0618   117.4470     7.7999     0.0238     2.4712     0.1052
  203.5000   -46.0473     7.3200     8.4044    11.3779   118.6578     7.8391     0.0240     2.4682     0.1112
  204.0000   -46.0340     7.3245     8.5872    11.7018   119.8686     7.8935     0.0242     2.4653     0.1123
  204.5000   -46.0207     7.3291     8.3581    11.7066   121.6738     7.8954     0.0228     2.4616     0.1138
  205.0000   -46.1592     7.2819     8.3628    11.5506   123.2053     7.8824     0.0201     2.4587     0.1159
  205.5000   -46.2942     7.1875     8.3680    11.3954   125.2823     7.8545     0.0188     2.4558     0.1173
  206.0000   -46.4293     6.9475     8.3155    11.4013   129.4809     7.8564     0.0189     2.4536     0.1197
  206.5000   -46.4127     6.8563     8.6134    11.1718   131.2701     7.8584     0.0191     2.4514     0.1206
  207.0000   -46.6962     6.6734     8.4368    11.0993   129.1867     7.8603     0.0193     2.4500     0.1217
  207.5000   -46.9830     6.4061     8.0908    11.6546   130.1783     7.8622     0.0195     2.4448     0.1235
  208.0000   -47.2631     6.1923     7.5294    11.4200   131.9308     7.8641     0.0197     2.4299     0.1295
  208.5000   -47.5499     6.0271     6.2164     8.6465   128.9559     7.8660     0.0184     2.4195     0.1363
  209.0000   -47.3849     5.9069     6.0724     5.1905   130.1976     7.8531     0.0155     2.4146     0.1414
  209.5000   -47.3717     5.7893     6.0771     7.5180   131.9972     7.8550     0.0142     2.4128     0.1396
  210.0000   -47.3584     5.7133     6.3384    10.1704   129.6474     7.8271     0.0145     2.4227     0.1329
  210.5000   -47.1967     5.5969     7.0355    10.2575   129.8181     7.8290     0.0147     2.4306     0.1290
  211.0000   -47.3323     5.4076     7.1368    10.5377   131.3262     7.8309     0.0149     2.4243     0.1325
  211.5000   -47.4674     5.2645     6.7579    10.7630   130.3082     7.8329     0.0151     2.4124     0.1373
  212.0000   -47.4537     5.1585     6.3982    10.1880   128.9930     7.8348     0.0138     2.3854     0.1505
