~VERSION INFORMATION
 VERS.                2.0:   CWLS LOG ASCII STANDARD - VERSION 2.0
 WRAP.                 NO:   ONE LINE PER DEPTH STEP
~WELL INFORMATION
#MNEM.UNIT      DATA TYPE    INFORMATION
#----------   ------------   ------------------------------
 STRT.F            4.0000:   START DEPTH
 STOP.F          510.0000:   STOP DEPTH
 STEP.F            0.5000:   STEP LENGTH
 NULL.          -999.2500:   NO VALUE
 COMP. LAWRENCE/ALLISON INC:   COMPANY
 WELL.     68-46 SX #68-3:   WELL
 FLD .             TEAPOT:   FIELD
 LOC .       S3 T38N R78W:   LOCATION
 CNTY.            NATRONA:   COUNTY
 STAT.            WYOMING:   STATE
 CTRY. UNITED STATES OF AMERICA:   COUNTRY
 SRVC.           Gearhart:   SERVICE COMPANY
 DATE.        15-SEP-1987:   LOGDATE
 API .       490251116400:   API NUMBER
~CURVE INFORMATION
#MNEM.UNIT       API CODE    CURVE DESCRIPTION
#----------   ------------   ------------------------------
 DEPT.F                  :   
 GRR .GAPI   07 310 01 00:   GAMMA RAY
 RILD.OHMM   07 120 46 00:   INDUCTION LOG DEEP RESISTIVITY
 RILM.OHMM   07 120 44 00:   INDUCTION LOG MEDIUM RESISTIVITY
 RLL .OHMM   07 220 00 00:   LATEROLOG RESISTIVITY
 SPR .MV     07 010 01 00:   SPONTANEOUS POTENTIAL
~PARAMETER INFORMATION
#MNEM.UNIT          VALUE    DESCRIPTION
#----------   ------------   ------------------------------
 ENGI.           JOHNSTON:   RECORDING ENGINEER
 WITN.         MR. STRONG:   WITNESSED BY
 PD  .                 GL:   PERMANENT DATUM
 EPD .F              5162:   ELEVATION PERMANENT DATUM
 LMF .                 KB:   LOG MEASURED FROM
 DAPD.F                 8:   FEET ABOVE PERMANENT DATUM
 DMF .                 KB:   DRILLING MEASURED FROM
 EKB .F              5170:   KELLING BUSHING
 EDF .F              5169:   DRILLING FLOOR
 EGL .F              5162:   GROUND LEVEL
 DATE.        15-SEP-1987:   RUN DATE
 RUN .                  1:   RUN NUMBER
 DD  .F               519:   DEPTH DRILLER
 DL  .F               512:   DEPTH LOGGER
 BLI .F               500:   BOTTOM LOG INTERVAL
 TLI .F                50:   TOP LOG INTERVAL
 CS  .IN            8.625:   CASING SIZE
 CBD .F                50:   CASING BOTTOM DRILLER
 CBL .F                50:   CASING BOTTOM LOGGER
 BS  .IN             7.87:   BIT SIZE
 BSD .F               519:   BIT SIZE AT DEPTH
 DFT .                MUD:   DRILLING FLUID TYPE
 RMS .OHMM           0.64:   RESISTIVITY MUD SAMPLE
 MST .F                71:   MUD SAMPLE TEMPERATURE
 RMF .OHMM           0.48:   RESISTIVITY MUD FILTRATE SAMPLE
 MFST.F                71:   MUD FILTRATE SAMPLE TEMPERATURE
 RMC .OHMM           0.76:   RESISTIVITY MUD CAKE
 MCST.F                71:   MUD CAKE SAMPLE TEMPERATURE
 MFSS.              CHART:   MUD FILTRATE SAMPLE SOURCE
 MCSS.              CHART:   MUD CAKE SAMPLE SOURCE
 TCS .HRS            1100:   TIME CURCULATED STOPPED
 TLAB.HRS            1638:   TIME LOGGER AT BOTTOM
 LUN .               7650:   LOGGING UNIT NUMBER
 LUL .           GILLETTE:   LOGGING UNIT LOCATION
 CLNT.            A2DTECH:   CLIENT CODE
 ORIG.           5" PRINT:   ORIGIN OF DATA
 UWI .       490251116400:   UNIQUE WELL ID
 DICO. A2D Technologies, Inc.:   DIGITIZING COMPANY
~OTHER INFORMATION
~A    DEPT       GRR     RILD       RILM        RLL        SPR   
# ...
   65.0000   108.7062     8.3045     6.9782     8.3389   -62.2410
   65.5000   113.3333     8.3023     6.9773     8.2194   -62.6998
   66.0000   117.2098     8.3000     6.9275     8.1586   -62.8537
   66.5000   115.9832     8.2977     6.8782     8.0983   -63.0076
   67.0000   112.6258     8.2954     6.8772     7.9823   -63.3143
   67.5000   112.0103     8.3103     6.8282     8.0917   -63.4682
   68.0000   115.0433     8.3577     6.8754     8.3760   -63.1649
   68.5000   117.4697     8.4056     6.9228     8.4916   -63.1663
   69.0000   119.6388     8.5217     6.9245     8.4873   -63.1678
   69.5000   116.2343     8.5794     7.0345     8.3657   -63.0165
   70.0000   113.4450     8.6824     7.2680     8.4220   -62.5610
   70.5000   110.6291     8.8811     7.4738     8.4768   -62.2576
   71.0000   107.6818     9.0676     7.6320     8.5931   -61.9542
   71.5000   105.8465     9.2927     7.8478     8.7720   -61.6508
   72.0000   104.0111     9.5308     8.0136     8.9589   -61.0426
   72.5000   105.5243     9.8077     8.1832     9.2162   -60.7392
   73.0000   107.0374    10.1337     8.3558     9.3973   -60.4361
   73.5000   107.9422    10.4928     8.4135     9.0057   -60.1327
   74.0000   107.6285    10.7132     8.5312     9.1933   -59.9814
   74.5000   106.6890    11.0153     8.6505     9.3848   -59.8308
   75.0000   104.5155    11.3259     8.7715     9.6477   -59.6799
   75.5000   104.2533    11.6453     8.9566     9.8487   -59.5289
   76.0000   105.7665    11.8946     9.0187     9.9838   -59.3783
   76.5000   106.9730    12.1537     9.1449    10.1916   -59.0749
   77.0000   107.2708    12.3694     9.3377    10.4087   -58.6187
   77.5000   106.6508    12.5664     9.6021    10.7077   -58.1633
   78.0000   105.7287    12.7398     9.8740    10.7662   -57.7074
   78.5000   103.5889    12.9172    10.1536    10.7607   -57.4037
   79.0000   103.2756    13.0047     9.8020    10.8330   -56.9482
   79.5000   106.1492    13.0002     9.8007    10.8275   -56.3369
   80.0000   108.7373    12.9058     9.7993    10.8230   -55.7114
   80.5000   101.7246    12.7223     9.7980    11.0485   -54.9713
   81.0000    99.2804    12.5414     9.7285    11.2786   -54.3630
   81.5000    98.9694    12.4827     9.7956    11.3534   -54.0596
   82.0000   103.2200    12.2726     9.7255    11.3486   -53.6038
   82.5000   104.4310    12.1310     9.6562    11.2515   -53.1480
   83.0000   102.5934    12.0103     9.0642    11.0247   -52.8446
   83.5000    99.8447    11.9230     8.9275    10.7155   -52.6936
   84.0000   101.7067    11.8364     8.8727    10.2700   -52.5366
   84.5000   103.7822    11.6682     8.9971    10.0521   -52.0868
   85.0000   105.5998    11.6228     9.0592    10.0480   -52.0887
   85.5000   103.4600    11.5801     9.0577    10.0439   -52.2426
   86.0000   100.7114    11.5763     9.1205    10.1105   -52.5490
   86.5000    97.3540    11.4922     9.1190    10.1063   -52.0931
   87.0000    95.2164    11.4890     9.1819     9.9614   -51.3324
   87.5000   100.3803    11.4862     9.2453     9.9689   -50.8766
   88.0000   104.6575    11.4830     9.3091    10.2363   -50.7256
   88.5000   105.5376    11.4796     9.3733    10.3766   -50.8796
   89.0000   100.6559    11.4765     9.3717    10.5187   -51.2124
   89.5000    96.9940    11.3930     9.3704    10.5884   -51.9500
   90.0000    94.8542    11.3102     9.1099    10.5090   -51.9514
   90.5000    94.2387    11.3006     8.9818    10.3585   -51.6480
   91.0000    96.3607    11.1457     8.8554    10.0680   -50.7349
   91.5000    98.7849    11.0673     8.8542     9.9237   -50.1266
   92.0000    99.9937    10.8859     8.8530     9.7815   -49.8232
   92.5000   101.8113    10.8282     8.7899     9.7093   -49.5198
   93.0000    99.2511    10.7495     8.7273    10.7802   -49.5213
   93.5000    95.7030    10.6714     8.6648    11.0059   -49.2179
   94.0000    94.4765    10.8193     8.6636    10.9234   -48.9145
   94.5000    93.8588    10.8163     8.4821    10.6917   -48.6111
   95.0000    95.0675    10.8127     8.3628    10.1756   -48.1557
   95.5000    95.3653    10.6590     8.3616     9.6168   -47.8519
   96.0000    94.4409    10.5076     8.3605     9.4128   -47.5489
   96.5000    95.6497    10.2138     8.3593     9.0849   -46.7881
   97.0000    96.8585    10.0687     8.2417     9.0811   -46.0274
   97.5000    96.8493     9.9256     8.1107     9.0139   -46.9741
   98.0000    95.6208     9.9229     7.8444     9.0094   -47.2499
   98.5000    96.8296     9.9201     7.7885     8.9428   -46.3371
   99.0000    98.9516     9.9872     7.7874     8.7531   -46.4911
   99.5000   101.3780     9.9839     7.7864     8.6893   -48.1694
  100.0000   101.0647     9.9812     7.9735     8.7968   -47.4087
  100.5000   100.4492     9.9784     7.9164     8.8635   -46.0382
  101.0000   103.8052     9.9757     7.9153     9.1724   -45.5822
  101.5000   104.1096     9.9032     7.9700     9.3663   -45.8889
  102.0000   101.0655     9.8739     8.0250     9.3650   -46.0429
  102.5000    98.6301     9.8286     8.1373     9.2982   -46.3492
  103.0000    99.2390     9.7571     8.2031     8.9763   -46.3507
  103.5000    99.8793     9.7474     8.3082     8.7880   -46.3522
  104.0000    99.8478     9.6152     8.3656     8.7868   -46.3537
  104.5000    98.3257     9.3262     8.3642     9.0358   -46.3555
  105.0000    99.2390     9.1955     8.2464     9.0982   -46.3570
  105.5000    99.5434     9.0665     8.1303     9.0333   -46.2056
  106.0000    99.8478     8.9394     7.9041     8.8143   -46.3599
  106.5000   101.9787     8.7524     7.5771     8.2429   -46.3614
  107.0000   107.1537     8.5093     7.3663     7.9018   -46.2104
  107.5000   107.1588     8.4491     7.1613     7.6820   -46.0595
  108.0000   103.3587     8.3307     7.1102     7.5209   -45.9085
  108.5000    98.0213     8.2138     7.0595     7.5198   -45.7575
  109.0000    95.5860     8.0986     7.0585     7.5188   -45.1496
  109.5000    95.2816     8.2705     7.1071     7.6241   -44.3889
  110.0000    96.8036     8.5056     7.1561     7.7853   -43.7802
  110.5000    96.8036     8.5652     7.2563     7.9532   -43.1723
  111.0000    96.7773     8.6856     7.3579     8.1180   -42.4116
  111.5000    94.6728     8.6850     7.4612     8.0598   -42.0981
  112.0000    93.7595     8.7457     7.5124     7.8907   -41.9572
  112.5000    96.8036     8.7450     7.6176     7.7252   -41.9591
  113.0000    99.5434     8.8061     7.6928     7.7242   -41.9606
  113.5000   101.0655     8.8053     7.7776     7.8326   -41.9620
  114.0000   101.6743     8.8670     7.8313     8.1110   -41.9635
  114.5000   101.6743     8.9917     7.8854     8.2828   -41.9650
  115.0000   101.3699     8.9911     7.9167     8.5172   -41.9665
  115.5000   100.7377     8.9275     7.9387     8.6364   -41.9883
  116.0000    98.9345     8.9900     7.9936     8.7798   -42.8844
  116.5000   101.0655     8.9892     8.0488     8.8858   -42.8859
  117.0000   103.5008     9.0520     8.1044     9.0043   -42.7346
  117.5000   104.7184     9.1794     8.1604     9.0027   -42.5836
  118.0000   104.1096     9.1788     8.1019     8.9385   -42.4326
  118.5000   105.0228     9.0500     7.9319     8.8127   -41.9771
  119.0000   105.9361     8.9860     7.8754     8.7089   -41.9787
  119.5000   106.8625     8.9225     7.7645     8.5663   -41.8277
  120.0000   103.1355     8.9848     7.7634     8.3867   -41.6771
  120.5000   100.7073     8.9212     7.7624     8.2686   -41.2212
  121.0000   101.9787     8.9206     7.7613     8.2674   -40.3081
  121.5000   104.7184     8.9200     7.8149     8.2663   -39.5474
  122.0000   105.9361     9.0456     7.8689     8.3234   -38.9390
  122.5000   102.8919     9.0450     7.8675     8.3911   -38.4832
  123.0000   100.4566     9.1081     7.9220     8.5070   -38.3323
  123.5000   100.7610     9.1717     7.9768     8.6169   -38.1813
  124.0000   101.9787     9.1067     7.9755     8.6490   -38.1831
  124.5000   103.2136     9.1705     7.9744     8.7367   -38.1846
  125.0000   104.4647     9.1697     7.9733     8.7352   -38.1861
  125.5000   107.1537     9.0411     7.9722     8.7340   -38.0348
