~VERSION INFORMATION
 VERS.                2.0:   CWLS LOG ASCII STANDARD - VERSION 2.0
 WRAP.                 NO:   ONE LINE PER DEPTH STEP
~WELL INFORMATION
#MNEM.UNIT      DATA TYPE    INFORMATION
#----------   ------------   ------------------------------
 STRT.F            0.0000:   START DEPTH
 STOP.F          533.0000:   STOP DEPTH
 STEP.F            0.5000:   STEP LENGTH
 NULL.          -999.2500:   NO VALUE
 COMP. LAWRENCE/ALLISON INC:   COMPANY
 WELL. NAVAL PETROLEUM RESERVE 3 SX-1 #56-66-SX-10:   WELL
 FLD .             TEAPOT:   FIELD
 LOC .      S10 T38N R78W:   LOCATION
 CNTY.            NATRONA:   COUNTY
 STAT.            WYOMING:   STATE
 CTRY. UNITED STATES OF AMERICA:   COUNTRY
 SRVC.           Gearhart:   SERVICE COMPANY
 DATE.        28-JUN-1987:   LOGDATE
 API .       490251114300:   API NUMBER
~CURVE INFORMATION
#MNEM.UNIT       API CODE    CURVE DESCRIPTION
#----------   ------------   ------------------------------
 DEPT.F                  :   
 RLL .OHMM   07 220 00 00:   LATEROLOG RESISTIVITY
 RILM.OHMM   07 120 44 00:   INDUCTION LOG MEDIUM RESISTIVITY
 RILD.OHMM   07 120 46 00:   INDUCTION LOG DEEP RESISTIVITY
 GRR .GAPI   07 310 01 00:   GAMMA RAY FROM RES. LOG.
 SPR .MV     07 010 01 00:   SPONTANEOUS POTENTIAL
~PARAMETER INFORMATION
#MNEM.UNIT          VALUE    DESCRIPTION
#----------   ------------   ------------------------------
 PD  .                 GL:   PERMANENT DATUM
 EPD .F              5198:   ELEVATION PERMANENT DATUM
 LMF .                 KB:   LOG MEASURED FROM
 DAPD.F                 8:   FEET ABOVE PERMANENT DATUM
 DMF .                 KB:   DRILLING MEASURED FROM
 EKB .F              5206:   KELLING BUSHING
 EDF .F              5204:   DRILLING FLOOR
 EGL .F              5198:   GROUND LEVEL
 DATE.            6-28-87:   RUN DATE
 RUN .                  1:   RUN NUMBER
 DD  .F               535:   DEPTH DRILLER
 DL  .F               536:   DEPTH LOGGER
 BLI .F               533:   BOTTOM LOG INTERVAL
 BS  .IN             7.87:   BIT SIZE
 BSD .F               535:   BIT SIZE AT DEPTH
 DFT .                MUD:   DRILLING FLUID TYPE
 RMS .OHMM            .84:   RESISTIVITY MUD SAMPLE
 MST .F                57:   MUD SAMPLE TEMPERATURE
 RMF .OHMM            .63:   RESISTIVITY MUD FILTRATE SAMPLE
 MFST.F                57:   MUD FILTRATE SAMPLE TEMPERATURE
 RMC .OHMM           1.05:   RESISTIVITY MUD CAKE
 MCST.F                57:   MUD CAKE SAMPLE TEMPERATURE
 MFSS.               CALC:   MUD FILTRATE SAMPLE SOURCE
 MCSS.               CALC:   MUD CAKE SAMPLE SOURCE
 RMB .OHMM            .59:   RESISTIVITY MUD AT BHT
 BHT .F                80:   BOTTOM HOLE TEMPERATURE
 TCS .HRS            1200:   TIME CURCULATED STOPPED
 TLAB.HRS            1322:   TIME LOGGER AT BOTTOM
 MRT .F                80:   MAXIMUM RECORDED TEMPERATURE
 LUN .               7650:   LOGGING UNIT NUMBER
 LUL .           GILLETTE:   LOGGING UNIT LOCATION
 ENGI. JOHNSTON/HUCKFELDT:   RECORDING ENGINEER
 WITN.             STRONG:   WITNESSED BY
 CLNT.            A2DTECH:   CLIENT CODE
 ORIG.       2", 5" PRINT:   ORIGIN OF DATA
 UWI .       490251114300:   UNIQUE WELL ID
 DICO. A2D Technologies, Inc.:   DIGITIZING COMPANY
~OTHER INFORMATION
~A    DEPT     RLL         RILM       RILD       GRR       SPR   
# ...
  183.0000     6.0240     6.3474     6.4510    93.2408   -49.1461
  183.5000     6.3534     6.5324     6.7498    94.1236   -48.9410
  184.0000     6.4495     6.6878     7.0611    94.1216   -48.7353
  184.5000     6.5198     6.8398     7.4378    95.2991   -48.6022
  185.0000     6.5895     6.8379     7.3687    96.6964   -49.0761
  185.5000     6.6603     6.9475     7.5085    98.0983   -49.5489
  186.0000     6.7319     7.0234     7.5942    99.3819   -49.7994
  186.5000     6.8042     7.1001     7.6809    98.9780   -49.7962
  187.0000     6.8773     7.1776     7.7686    99.5028   -49.7618
  187.5000     6.9513     7.2559     7.8661    99.7943   -49.7273
  188.0000     7.0328     7.3348     7.9394    99.4636   -49.6933
  188.5000     7.1150     7.4157     8.0215    99.0804   -49.6595
  189.0000     7.2324     7.5095     8.1044    99.1190   -49.6266
  189.5000     7.3517     7.6116     8.1882    99.5258   -49.5922
  190.0000     7.4729     7.7148     8.2729    99.5775   -49.3735
  190.5000     7.5779     7.8184     8.3585    97.8887   -49.1334
  191.0000     7.5884     7.8661     8.4391    96.1979   -48.8934
  191.5000     7.6182     7.8661     8.5158    94.4410   -48.6537
  192.0000     7.6481     7.8661     8.5932    95.5416   -48.4135
  192.5000     7.6782     7.8661     8.6712    97.4090   -48.1744
  193.0000     7.7083     7.9125     8.7500    97.7207   -47.9827
  193.5000     7.7621     7.9927     8.7982    97.5887   -48.0352
  194.0000     7.8326     8.0736     8.7402    97.4520   -48.0833
  194.5000     7.9038     8.1556     8.6920    97.3548   -48.1307
  195.0000     7.9756     8.2388     8.6440    98.3672   -48.1781
  195.5000     8.0480     8.3186     8.5725    99.9582   -48.2254
  196.0000     8.0895     8.2120     8.4723   101.5935   -48.2727
  196.5000     7.9463     8.1076     8.3733   100.7509   -48.3203
  197.0000     7.8321     8.0050     8.2754    99.2980   -48.3666
  197.5000     7.7194     7.9039     8.1786    97.8227   -48.4709
  198.0000     7.6073     7.8040     8.1118    96.3715   -48.6011
  198.5000     7.5135     7.7055     8.0501    95.7419   -48.7325
  199.0000     7.3687     7.6082     7.9889    96.6868   -48.8641
  199.5000     7.3346     7.5658     7.9282    98.0366   -48.9951
  200.0000     7.3033     7.5240     7.8679    99.4814   -49.1267
  200.5000     7.2721     7.4828     7.8081    98.7155   -49.1742
  201.0000     7.2411     7.4385     7.7487    97.2995   -49.1181
  201.5000     7.0609     7.2108     7.5212    96.9569   -49.0616
  202.0000     6.7733     6.9721     7.1551    98.1551   -49.0049
  202.5000     6.4974     6.6966     6.8068   100.2824   -48.9484
  203.0000     6.2328     6.1907     6.4365    98.9669   -48.8918
  203.5000     5.8663     5.6700     5.8936    97.2880   -48.8352
  204.0000     5.4887     5.1099     5.3966    96.8529   -48.7787
  204.5000     5.1354     4.6053     4.9415    98.6891   -48.7224
  205.0000     4.8350     4.1503     4.5248   100.4414   -48.6651
  205.5000     4.3684     3.7405     4.1329    99.7670   -48.6126
  206.0000     3.9467     3.3703     3.7689    98.3255   -48.2174
  206.5000     3.5654     3.0565     3.4369    97.3771   -47.6027
  207.0000     3.2205     2.7816     3.1342    98.0240   -46.9844
  207.5000     2.9242     2.5314     2.8712    96.5541   -46.3646
  208.0000     2.9235     2.4962     2.8446    92.6111   -45.7413
  208.5000     3.0701     2.5447     2.8735    88.8903   -45.1419
  209.0000     3.3021     2.6196     2.9367    89.0483   -46.1991
  209.5000     3.5317     2.6897     3.0013    91.3235   -45.5408
  210.0000     3.7548     2.8638     3.2926    93.5909   -44.6395
  210.5000     4.0475     3.1036     3.6437    95.8326   -44.3493
  211.0000     4.4224     3.5414     4.0323    97.2645   -45.3007
  211.5000     4.8321     4.0409     4.4937    98.5378   -46.2177
  212.0000     5.2798     4.5189     4.7875    99.8141   -47.1377
  212.5000     5.7689     4.8566     5.1248   101.1013   -47.9426
  213.0000     6.0271     5.2196     5.4858   102.5683   -47.9846
  213.5000     6.0586     5.6217     5.7379   103.1706   -47.9812
  214.0000     6.2285     5.8311     5.8007   104.1961   -47.9798
  214.5000     6.1990     6.0574     5.8625   105.6582   -47.9798
  215.0000     6.1446     6.0574     5.9254   107.1631   -47.9799
  215.5000     6.1131     5.9454     5.9891   107.4895   -47.9799
  216.0000     6.3467     5.6899     6.0011   107.4844   -47.9796
  216.5000     6.0719     5.4477     5.6892   108.7304   -47.9445
  217.0000     5.7508     5.2158     5.4787   110.9346   -47.8395
  217.5000     5.4431     4.9938     5.2760   113.0793   -47.6024
  218.0000     5.1688     4.7812     5.1208   112.9453   -47.1195
  218.5000     5.0732     4.7083     5.0995   109.6961   -46.6366
  219.0000     5.0520     4.7072     5.0796   105.8352   -45.9335
  219.5000     5.0322     4.8948     5.0732   101.9502   -46.1106
  220.0000     5.0261     5.2319     5.4269    98.2788   -46.3365
  220.5000     5.2975     5.5145     5.6789    97.7760   -46.5054
  221.0000     5.5168     5.7338     5.9425   101.3570   -46.5648
  221.5000     5.7451     5.9619     6.2184   105.2317   -46.5659
  222.0000     5.9828     6.1990     6.5016   109.0817   -46.5658
  222.5000     6.2304     6.4455     6.7620   111.9397   -46.5653
  223.0000     6.4882     6.7122     7.0328   109.5532   -46.5637
  223.5000     6.7567     6.9226     7.3145   106.6810   -46.5773
  224.0000     7.0363     7.1486     7.6075   103.6818   -46.8263
  224.5000     7.1774     7.3820     7.7931   101.7695   -47.0727
  225.0000     7.3139     7.6231     7.8320   103.6479   -47.3181
  225.5000     7.4531     7.7207     7.8813   105.5093   -47.5626
  226.0000     7.5075     7.7207     7.9310   105.1665   -47.7838
  226.5000     7.3477     7.6272     7.9399   104.8251   -47.7377
  227.0000     7.2368     7.4770     7.7199   104.4868   -47.6024
  227.5000     7.1277     7.3306     7.5452   103.7372   -47.4695
  228.0000     7.0201     7.1871     7.3744    99.8866   -47.3364
  228.5000     6.9142     7.0465     7.2076    98.0356   -47.1997
  229.0000     6.7743     6.9086     7.0444    99.8562   -47.1718
  229.5000     6.5470     6.7687     6.8850   102.6505   -47.1713
  230.0000     6.3274     6.5306     6.6920   105.4877   -47.1717
  230.5000     6.1151     6.3008     6.4194   108.1665   -47.1720
  231.0000     5.9099     6.0794     6.1570   106.7683   -47.1741
  231.5000     5.7116     5.8647     5.8917   105.3298   -47.0790
  232.0000     5.4034     5.6193     5.6980   105.8104   -46.9628
  232.5000     5.0261     5.3048     5.5016   106.9997   -46.8462
  233.0000     4.7524     5.0117     5.4157   108.2122   -46.7298
  233.5000     4.7083     4.8886     5.5073   109.4257   -46.6134
  234.0000     4.8453     4.8842     5.6295   110.6382   -46.4970
  234.5000     5.1003     5.2796     5.7542   111.5749   -46.3822
  235.0000     5.3896     5.5926     5.9668   110.4510   -46.2795
  235.5000     5.7856     5.9242     6.2095   108.8985   -46.1811
  236.0000     6.2092     6.2754     6.4608   107.5242   -46.0825
  236.5000     6.7153     6.6475     6.7173   108.3305   -45.9839
  237.0000     6.6661     6.7671     6.9839   109.8878   -45.8854
  237.5000     6.5881     6.8546     7.2611   110.3538   -45.7823
  238.0000     6.7152     6.9028     7.5494   109.6846   -45.8604
  238.5000     6.8676     7.0622     7.6684   108.9747   -46.0636
  239.0000     7.0238     7.2700     7.6978   108.2587   -46.2669
  239.5000     7.1808     7.4839     7.7272   107.5564   -46.4716
  240.0000     7.3070     7.5163     7.7568   107.4045   -46.5640
  240.5000     7.3103     7.5262     7.7865   109.8734   -46.5658
  241.0000     7.3243     7.5360     7.8163   112.3232   -46.5661
  241.5000     7.3347     7.5459     7.8465   114.4325   -46.5669
  242.0000     7.3453     7.5557     7.8661   113.6213   -46.5611
  242.5000     7.3557     7.5656     7.8361   112.7627   -46.3638
  243.0000     7.3686     7.5757     7.8097   113.3481   -46.1540
  243.5000     7.3114     7.5780     7.7835   114.9740   -45.9449
