~VERSION INFORMATION
 VERS.                2.0:   CWLS LOG ASCII STANDARD - VERSION 2.0
 WRAP.                 NO:   ONE LINE PER DEPTH STEP
~WELL INFORMATION
#MNEM.UNIT      DATA TYPE    INFORMATION
#----------   ------------   ------------------------------
 STRT.F           80.5000:   START DEPTH
 STOP.F          768.0000:   STOP DEPTH
 STEP.F            0.5000:   STEP LENGTH
 NULL.          -999.2500:   NO VALUE
 COMP. U S NAVY/INTEX OIL CO:   COMPANY
 WELL. N.P.R. #3 #84-S-34:   WELL
 FLD .             TEAPOT:   FIELD
 LOC .      S34 T39N R78W:   LOCATION
 CNTY.            NATRONA:   COUNTY
 STAT.            WYOMING:   STATE
 CTRY. UNITED STATES OF AMERICA:   COUNTRY
 SRVC. Schlumberger Well Surveying Corp:   SERVICE COMPANY
 DATE.        17-FEB-1961:   LOGDATE
 API .       490250654000:   API NUMBER
~CURVE INFORMATION
#MNEM.UNIT       API CODE    CURVE DESCRIPTION
#----------   ------------   ------------------------------
 DEPT.F                  :   
 SPR .MV     05 010 01 00:   SPONTANEOUS POTENTIAL
 ASN .OHMM   05 041 16 00:   AMPLIFIED SHORT NORMAL 16"
 ILD .OHMM   05 120 46 00:   INDUCTION LOG DEEP
 CILD.MMHO   05 110 46 00:   CONDUCTIVITY INDUCTION LOG DEEP
 GR  .GAPI   30 310 01 00:   GAMMA RAY
~PARAMETER INFORMATION
#MNEM.UNIT          VALUE    DESCRIPTION
#----------   ------------   ------------------------------
 PD  .                 GL:   PERMANENT DATUM
 EPD .F              5083:   ELEVATION PERMANENT DATUM
 LMF .                 KB:   LOG MEASURED FROM
 DAPD.F                 4:   FEET ABOVE PERMANENT DATUM
 DMF .                 KB:   DRILLING MEASURED FROM
 EKB .F              5087:   KELLING BUSHING
 EGL .F              5083:   GROUND LEVEL
 DATE.            2-17-61:   RUN DATE
 RUN .                  1:   RUN NUMBER
 DD  .F               770:   DEPTH DRILLER
 DL  .F               769:   DEPTH LOGGER
 BLI .F               768:   BOTTOM LOG INTERVAL
 TLI .F                80:   TOP LOG INTERVAL
 CBD .F                12:   CASING BOTTOM DRILLER
 BS  .IN            7.875:   BIT SIZE
 BSD .F               770:   BIT SIZE AT DEPTH
 DFT .       GEL/OIL EMUL:   DRILLING FLUID TYPE
 DFD .                9.5:   DRILLING FLUID DENSITY
 DFV .                 50:   DRILLING FLUID VISCOSITY
 DFPH.                  8:   DRILLING FLUID PH
 DFL .                1.8:   DRILLING FLUID LOSS
 MSS .           FLOWLINE:   MUD SAMPLE SOURCE
 RMS .OHMM             .9:   RESISTIVITY MUD SAMPLE
 MST .F                69:   MUD SAMPLE TEMPERATURE
 RMF .OHMM            .54:   RESISTIVITY MUD FILTRATE SAMPLE
 MFST.F                69:   MUD FILTRATE SAMPLE TEMPERATURE
 RMC .OHMM           1.64:   RESISTIVITY MUD CAKE
 MCST.F                69:   MUD CAKE SAMPLE TEMPERATURE
 MFSS.                  M:   MUD FILTRATE SAMPLE SOURCE
 MCSS.                  M:   MUD CAKE SAMPLE SOURCE
 RMB .OHMM             .8:   RESISTIVITY MUD AT BHT
 BHT .F                78:   BOTTOM HOLE TEMPERATURE
 TCS .HRS               1:   TIME CURCULATED STOPPED
 MRT .F                78:   MAXIMUM RECORDED TEMPERATURE
 LUN .               2523:   LOGGING UNIT NUMBER
 LUL .               CSPR:   LOGGING UNIT LOCATION
 ENGI.             KNOBEL:   RECORDING ENGINEER
 WITN.          JORGENSEN:   WITNESSED BY
 CLNT.            A2DTECH:   CLIENT CODE
 ORIG.       2", 5" PRINT:   ORIGIN OF DATA
 UWI .       490250654000:   UNIQUE WELL ID
 DICO. A2D Technologies, Inc.:   DIGITIZING COMPANY
~OTHER INFORMATION
~A   DEPT      SPR        ASN        ILD       CILD         GR   
# ...
  507.5000   -21.3251     9.2234     7.1377   139.4984  -999.2500
  508.0000   -21.4160     9.3616     7.0737   141.6687  -999.2500
  508.5000   -21.5068     9.4347     6.8910   145.6475  -999.2500
  509.0000   -21.5977     9.3025     6.6724   149.9478  -999.2500
  509.5000   -21.6891     9.1328     6.4528   156.2870  -999.2500
  510.0000   -21.7817     8.7829     6.2331   163.1836  -999.2500
  510.5000   -21.8520     8.3634     6.0135   170.0801  -999.2500
  511.0000   -21.6266     7.9449     5.7944   176.9767  -999.2500
  511.5000   -21.4056     7.6006     5.5884   179.8423  -999.2500
  512.0000   -21.1889     7.4872     5.4707   180.7827  -999.2500
  512.5000   -21.0317     7.4988     5.3619   182.3407  -999.2500
  513.0000   -21.0867     7.5415     5.3268   182.3407  -999.2500
  513.5000   -21.1365     7.8047     5.5704   181.0531  -999.2500
  514.0000   -21.1865     8.0695     5.8073   175.5113  -999.2500
  514.5000   -21.2304     8.3244     6.0434   169.9694  -999.2500
  515.0000   -21.1342     8.4170     6.2803   164.4262  -999.2500
  515.5000   -21.0331     8.5030     6.5176   158.8739  -999.2500
  516.0000   -20.9326     8.5898     6.7522   153.3160  -999.2500
  516.5000   -20.8326     8.6772     6.9478   149.2500  -999.2500
  517.0000   -20.7321     8.7645     6.8915   146.9139  -999.2500
  517.5000   -20.6259     8.7885     6.8416   147.7928  -999.2500
  518.0000   -20.7411     8.8100     6.7927   148.6692  -999.2500
  518.5000   -20.9179     8.8317     6.7433   149.7678  -999.2500
  519.0000   -21.0970     8.8405     6.6941   150.9452  -999.2500
  519.5000   -21.2759     8.7584     6.6448   152.1207  -999.2500
  520.0000   -21.4552     8.6657     6.5956   153.2963  -999.2500
  520.5000   -21.6320     8.4958     6.5498   155.8591  -999.2500
  521.0000   -21.6191     8.3248     6.2976   161.7358  -999.2500
  521.5000   -21.5807     8.1547     5.9607   167.6511  -999.2500
  522.0000   -21.5421     7.9903     5.6221   175.1367  -999.2500
  522.5000   -21.5042     7.8236     5.2846   185.6276  -999.2500
  523.0000   -21.4651     7.6515     4.9488   197.5549  -999.2500
  523.5000   -21.4027     7.4456     4.6814   209.4514  -999.2500
  524.0000   -21.2075     7.1395     4.5080   221.3480  -999.2500
  524.5000   -21.0152     6.7785     4.3340   230.4598  -999.2500
  525.0000   -20.8239     6.3995     4.1551   234.4711  -999.2500
  525.5000   -20.6315     6.0679     4.2727   236.7700  -999.2500
  526.0000   -20.4322     6.0163     4.4519   235.1968  -999.2500
  526.5000   -20.5450     6.1408     4.6336   230.8864  -999.2500
  527.0000   -20.7313     6.5528     4.8119   225.0729  -999.2500
  527.5000   -20.9206     7.1315     5.0880   211.4613  -999.2500
  528.0000   -21.1078     7.6137     5.3887   197.8496  -999.2500
  528.5000   -21.2235     7.9297     5.6910   184.2380  -999.2500
  529.0000   -21.1741     8.1572     5.9952   172.2396  -999.2500
  529.5000   -21.1293     8.3137     6.3104   164.1170  -999.2500
  530.0000   -21.0844     8.4690     6.4758   159.9791  -999.2500
  530.5000   -21.0364     8.6243     6.6407   155.8412  -999.2500
  531.0000   -21.0850     8.7841     6.8072   152.0376  -999.2500
  531.5000   -21.1705     8.9491     6.9741   149.1209  -999.2500
  532.0000   -21.2567     9.0780     7.1409   146.4222  -999.2500
  532.5000   -21.3437     9.1644     7.3093   143.7297  -999.2500
  533.0000   -21.4346     9.2494     7.3862   141.0388  -999.2500
  533.5000   -21.3190     9.3464     7.4176   139.1283  -999.2500
  534.0000   -21.1724     9.4418     7.4484   138.2379  -999.2500
  534.5000   -21.0236     9.5370     7.4791   137.3487  -999.2500
  535.0000   -20.8748     9.6324     7.5098   136.4656  -999.2500
  535.5000   -20.7283     9.7260     7.5406   135.5825  -999.2500
  536.0000   -20.6173     9.7564     7.5714   134.6994  -999.2500
  536.5000   -20.7083     9.9391     7.6022   133.8163  -999.2500
  537.0000   -20.7951    10.1526     7.6330   132.9332  -999.2500
  537.5000   -20.8812    10.2996     7.6638   132.2761  -999.2500
  538.0000   -20.9676    10.3728     7.6946   132.8846  -999.2500
  538.5000   -21.0541    10.2809     7.7253   133.4931  -999.2500
  539.0000   -21.1421    10.1905     7.7561   134.1017  -999.2500
  539.5000   -21.2288    10.0603     7.7870   133.9148  -999.2500
  540.0000   -21.0332     9.8936     7.8177   133.4142  -999.2500
  540.5000   -20.8081     9.7639     7.8485   132.9137  -999.2500
  541.0000   -20.6195     9.6157     7.8827   132.4131  -999.2500
  541.5000   -20.8828     9.4615     7.7808   131.9126  -999.2500
  542.0000   -21.1459     9.3069     7.6228   131.4120  -999.2500
  542.5000   -21.4082     9.1437     7.4637   132.8489  -999.2500
  543.0000   -21.6380     8.9817     7.3043   136.6106  -999.2500
  543.5000   -21.3337     8.8195     7.1449   141.6443  -999.2500
  544.0000   -21.0187     8.5884     6.8474   150.8807  -999.2500
  544.5000   -20.7041     8.2317     6.3535   160.1172  -999.2500
  545.0000   -20.4126     7.7871     5.8622   170.6053  -999.2500
  545.5000   -20.6698     7.3400     5.3706   182.9395  -999.2500
  546.0000   -20.9489     6.8932     4.8587   195.2737  -999.2500
  546.5000   -21.2307     6.4507     4.3125   232.1355  -999.2500
  547.0000   -20.9705     5.9385     3.7662   276.0052  -999.2500
  547.5000   -20.6773     5.4138     3.2150   319.8750  -999.2500
  548.0000   -20.4794     4.8863     2.8378   363.7447  -999.2500
  548.5000   -20.2862     4.3616     2.5073   407.6145  -999.2500
  549.0000   -20.0944     3.8032     2.3621   446.3801  -999.2500
  549.5000   -19.9051     3.6333     2.3800   477.0115  -999.2500
  550.0000   -19.8106     3.4820     2.3978   486.5092    64.1000
  550.5000   -19.9807     3.5118     2.4164   496.2383    61.7925
  551.0000   -20.1427     3.6236     2.4334   487.4608    59.4408
  551.5000   -20.3048     3.7408     2.4599   449.1954    60.6250
  552.0000   -20.4665     3.9467     2.8768   385.9051    55.6170
  552.5000   -20.5788     4.4117     3.3350   341.7903    56.4895
  553.0000   -20.3692     4.8624     3.7930   306.3118    55.3231
  553.5000   -20.1589     5.4152     4.2505   259.1569    58.3435
  554.0000   -20.0300     6.1776     4.7081   232.9342    60.0028
  554.5000   -20.3769     6.9313     5.1653   205.3291    62.6249
  555.0000   -20.4977     7.2108     5.6220   183.9951    65.9642
  555.5000   -20.1670     7.3371     5.9988   169.5994    68.4104
  556.0000   -19.8388     7.4319     6.2344   162.6306    67.6823
  556.5000   -19.9140     7.4788     6.4197   159.3521    64.2713
  557.0000   -20.1553     7.5118     6.3427   160.2334    60.6747
  557.5000   -20.3839     7.4971     6.2713   161.1111    61.1685
  558.0000   -20.1407     7.4810     6.1743   163.4732    66.5715
  558.5000   -19.8719     7.5036     5.9738   166.7333    74.6465
  559.0000   -19.8562     7.5792     5.7749   169.9935    73.0234
  559.5000   -19.9949     7.6580     5.5762   173.2537    73.1165
  560.0000   -20.1342     7.6692     5.3775   180.1332    71.1318
  560.5000   -20.3266     7.6120     5.1787   191.3244    68.9135
  561.0000   -20.5470     7.4085     4.9800   202.5157    74.9593
  561.5000   -20.7706     7.0747     4.7812   213.7069    73.1093
  562.0000   -21.0121     6.6721     4.5827   224.8981    70.2664
  562.5000   -20.4242     6.2591     4.3839   233.9111    66.6047
  563.0000   -19.7961     6.1080     4.1797   241.9657    70.0669
  563.5000   -20.1332     5.9272     4.1046   250.0203    69.0545
  564.0000   -20.5037     5.9028     4.0714   254.8920    71.9887
  564.5000   -20.5585     5.9405     4.0393   250.0644    70.1359
  565.0000   -20.4946     6.0654     4.1867   245.2368    72.4540
  565.5000   -20.4259     6.1899     4.4858   235.2345    76.0475
  566.0000   -20.3575     6.3243     4.7857   223.3649    77.1997
  566.5000   -20.2896     6.7077     5.0869   211.5038    69.2041
  567.0000   -20.2217     7.1145     5.3880   199.6492    67.8848
  567.5000   -20.1569     7.5228     5.6889   187.8004    70.5159
  568.0000   -20.0950     7.9266     5.9899   175.9509    67.8514
