~VERSION INFORMATION
 VERS.                2.0:   CWLS LOG ASCII STANDARD - VERSION 2.0
 WRAP.                 NO:   ONE LINE PER DEPTH STEP
~WELL INFORMATION
#MNEM.UNIT      DATA TYPE    INFORMATION
#----------   ------------   ------------------------------
 STRT.F           15.0000:   START DEPTH
 STOP.F         5640.0000:   STOP DEPTH
 STEP.F            0.5000:   STEP LENGTH
 NULL.          -999.2500:   NO VALUE
 COMP.       F D SERV INC:   COMPANY
 WELL. NAVAL PETROLEUM RESERVE 3 SX-1 #43-10:   WELL
 FLD .         N.P.R. #.3:   FIELD
 LOC .      S10 T38N R78W:   LOCATION
 CNTY.            NATRONA:   COUNTY
 STAT.            WYOMING:   STATE
 CTRY. UNITED STATES OF AMERICA:   COUNTRY
 SRVC.      Dresser Atlas:   SERVICE COMPANY
 DATE.        05-JUL-1986:   LOGDATE
 API .       490251101800:   API NUMBER
~CURVE INFORMATION
#MNEM.UNIT       API CODE    CURVE DESCRIPTION
#----------   ------------   ------------------------------
 DEPT.F                  :   
 GRR .GAPI   07 310 01 00:   GAMMA RAY
 ILD .OHMM   07 120 46 00:   INDUCTION LOG DEEP
 ILM .OHMM   07 120 44 00:   INDUCTION LOG MEDIUM
 CALS.IN     60 280 50 00:   CALIPER FROM SONIC LOG
 GRS .GAPI   60 310 01 00:   GAMMA RAY FROM SONIC LOG
 AC  .US/F   60 520 00 00:   ACCOUSTIC
~PARAMETER INFORMATION
#MNEM.UNIT          VALUE    DESCRIPTION
#----------   ------------   ------------------------------
 PD  .                 GL:   PERMANENT DATUM
 EPD .F              5205:   ELEVATION PERMANENT DATUM
 LMF .                 KB:   LOG MEASURED FROM
 DAPD.F                 5:   FEET ABOVE PERMANENT DATUM
 DMF .                 KB:   DRILLING MEASURED FROM
 EKB .F              5210:   KELLING BUSHING
 EGL .F              5205:   GROUND LEVEL
 DATE.        05-JUL-1986:   RUN DATE
 RUN .                  1:   RUN NUMBER
 DD  .F               560:   DEPTH DRILLER
 DL  .F               560:   DEPTH LOGGER
 BLI .F               550:   BOTTOM LOG INTERVAL
 TLI .F                15:   TOP LOG INTERVAL
 CS  .IN            8.625:   CASING SIZE
 CBD .F                47:   CASING BOTTOM DRILLER
 CBL .F                47:   CASING BOTTOM LOGGER
 BS  .IN            7.875:   BIT SIZE
 BSD .F               560:   BIT SIZE AT DEPTH
 DFT .                AIR:   DRILLING FLUID TYPE
 BHT .F                83:   BOTTOM HOLE TEMPERATURE
 TCS .HRS            2100:   TIME CURCULATED STOPPED
 TLAB.HRS            2230:   TIME LOGGER AT BOTTOM
 MRT .F                83:   MAXIMUM RECORDED TEMPERATURE
 LUN .               7609:   LOGGING UNIT NUMBER
 LUL .           GILLETTE:   LOGGING UNIT LOCATION
 ENGI.              BAURT:   RECORDING ENGINEER
 CLNT.            A2DTECH:   CLIENT CODE
 ORIG. 1" 2" 2.5", 5" PRINT:   ORIGIN OF DATA
 UWI .       490251101800:   UNIQUE WELL ID
 DICO. A2D Technologies, Inc.:   DIGITIZING COMPANY
 R2  . HEADER NOT CLEARLY VISIBLE:   REMARKS 2
~OTHER INFORMATION
~A   DEPT       GRR       ILD        ILM       CALS        GRS         AC   
# ...
   67.0000   109.4551     7.8785     8.1723  -999.2500  -999.2500  -999.2500
   67.5000   111.2917     7.9914     8.1733  -999.2500  -999.2500  -999.2500
   68.0000   118.0363     7.9923     8.2902  -999.2500  -999.2500  -999.2500
   68.5000   118.8266     8.0602     8.2911  -999.2500  -999.2500  -999.2500
   69.0000   115.5745     8.1076     8.2921  -999.2500  -999.2500  -999.2500
   69.5000   112.5032     8.2237     8.2931  -999.2500  -999.2500  -999.2500
   70.0000   109.4318     8.2246     8.4117  -999.2500  -999.2500  -999.2500
   70.5000   110.6557     8.1104     8.4127  -999.2500  -999.2500  -999.2500
   71.0000   112.8425     8.1114     9.0155  -999.2500  -999.2500  -999.2500
   71.5000   114.6626     8.1594    15.6448  -999.2500  -999.2500  -999.2500
   72.0000   115.5522     8.2727    30.6293  -999.2500  -999.2500  -999.2500
   72.5000   113.4075     8.3876    57.1403  -999.2500  -999.2500  -999.2500
   73.0000   112.1932     8.4660   132.6222  -999.2500  -999.2500  -999.2500
   73.5000   110.3655     8.3482   154.1623  -999.2500  -999.2500  -999.2500
   74.0000   109.4018     8.2323    79.1412  -999.2500  -999.2500  -999.2500
   74.5000   110.4792     8.0925    42.4602  -999.2500  -999.2500  -999.2500
   75.0000   112.0655     7.9835    21.2934  -999.2500  -999.2500  -999.2500
   75.5000   113.0720     7.8940    14.6907  -999.2500  -999.2500  -999.2500
   76.0000   111.6565     7.8951    13.0104  -999.2500  -999.2500  -999.2500
   76.5000   111.2232     8.0082    12.6632  -999.2500  -999.2500  -999.2500
   77.0000   112.5971     8.0172    11.8137  -999.2500  -999.2500  -999.2500
   77.5000   113.8036     8.1286    10.7059  -999.2500  -999.2500  -999.2500
   78.0000   115.8590     8.2402     8.7912  -999.2500  -999.2500  -999.2500
   78.5000   119.8978     8.1257     8.1945  -999.2500  -999.2500  -999.2500
   79.0000   121.7179     8.0129     8.1954  -999.2500  -999.2500  -999.2500
   79.5000   122.2433     8.0138     8.3127  -999.2500  -999.2500  -999.2500
   80.0000   120.9612     8.2441     8.3137  -999.2500  -999.2500  -999.2500
   80.5000   119.0988     8.2675     8.3147  -999.2500  -999.2500  -999.2500
   81.0000   115.4473     8.3822     8.4336  -999.2500  -999.2500  -999.2500
   81.5000   113.0253     8.4829     8.5542  -999.2500  -999.2500  -999.2500
   82.0000   113.0214     8.4838     8.5552  -999.2500  -999.2500  -999.2500
   82.5000   113.6310     8.6054     8.6774  -999.2500  -999.2500  -999.2500
   83.0000   114.2406     8.7287     8.8015  -999.2500  -999.2500  -999.2500
   83.5000   115.4638     8.8537     8.8681  -999.2500  -999.2500  -999.2500
   84.0000   116.0734     8.8548     8.9904  -999.2500  -999.2500  -999.2500
   84.5000   116.6830     8.8558     9.1846  -999.2500  -999.2500  -999.2500
   85.0000   117.2930     8.8569     9.0572  -999.2500  -999.2500  -999.2500
   85.5000   119.1292     8.8579     9.0582  -999.2500  -999.2500  -999.2500
   86.0000   117.8983     8.8590     9.0593  -999.2500  -999.2500  -999.2500
   86.5000   112.9864     8.8600     8.9335  -999.2500  -999.2500  -999.2500
   87.0000   111.1421     8.8611     8.8096  -999.2500  -999.2500  -999.2500
   87.5000   110.5247     8.8622     8.8403  -999.2500  -999.2500  -999.2500
   88.0000   111.1350     8.8632     8.9879  -999.2500  -999.2500  -999.2500
   88.5000   111.3625     8.8643     9.3895  -999.2500  -999.2500  -999.2500
   89.0000   109.1691     8.6187    10.0601  -999.2500  -999.2500  -999.2500
   89.5000   104.4711     8.3800    10.9168  -999.2500  -999.2500  -999.2500
   90.0000   101.3037     8.3810    11.6932  -999.2500  -999.2500  -999.2500
   90.5000   102.5447     8.1972    12.1897  -999.2500  -999.2500  -999.2500
   91.0000   109.8230     8.0868    11.6868  -999.2500  -999.2500  -999.2500
   91.5000   117.0978     8.0365    10.7412  -999.2500  -999.2500  -999.2500
   92.0000   120.0409     8.1515     9.5979  -999.2500  -999.2500  -999.2500
   92.5000   116.8518     8.1525     8.4563  -999.2500  -999.2500  -999.2500
   93.0000   114.1641     8.1534     7.9941  -999.2500  -999.2500  -999.2500
   93.5000   114.3763     8.1544     8.1084  -999.2500  -999.2500  -999.2500
   94.0000   114.9694     8.1978     8.8244  -999.2500  -999.2500  -999.2500
   94.5000   114.5833     8.2722     9.6036  -999.2500  -999.2500  -999.2500
   95.0000   113.3692     8.3907    10.5998  -999.2500  -999.2500  -999.2500
   95.5000   112.9179     8.3916    11.6994  -999.2500  -999.2500  -999.2500
   96.0000   113.5280     8.5414    12.2058  -999.2500  -999.2500  -999.2500
   96.5000   113.5237     8.6338    12.2786  -999.2500  -999.2500  -999.2500
   97.0000   113.4202     8.6573    11.8538  -999.2500  -999.2500  -999.2500
   97.5000   112.9026     8.7585    10.8284  -999.2500  -999.2500  -999.2500
   98.0000   110.8587     8.6368     9.6273  -999.2500  -999.2500  -999.2500
   98.5000   106.1464     8.7605     8.9035  -999.2500  -999.2500  -999.2500
   99.0000   107.4691     8.7615     8.7845  -999.2500  -999.2500  -999.2500
   99.5000   111.7270     8.8870     8.7119  -999.2500  -999.2500  -999.2500
  100.0000   119.6309     8.8881     8.8369  -999.2500  -999.2500  -999.2500
  100.5000   118.3977     8.8881     8.8382  -999.2500  -999.2500  -999.2500
  101.0000   116.5510     8.9251     8.8394  -999.2500  -999.2500  -999.2500
  101.5000   112.8638     9.0144     8.8407  -999.2500  -999.2500  -999.2500
  102.0000   109.9389     9.0144     8.8417  -999.2500  -999.2500  -999.2500
  102.5000   107.9447     9.0144     8.8429  -999.2500  -999.2500  -999.2500
  103.0000   109.5580     9.0144     8.8442  -999.2500  -999.2500  -999.2500
  103.5000   112.2598     9.0144     8.8454  -999.2500  -999.2500  -999.2500
  104.0000   113.7587     9.0144     8.7839  -999.2500  -999.2500  -999.2500
  104.5000   112.8282     8.8881     8.7242  -999.2500  -999.2500  -999.2500
  105.0000   112.8221     8.8881     8.7254  -999.2500  -999.2500  -999.2500
  105.5000   112.8159     8.9024     8.7267  -999.2500  -999.2500  -999.2500
  106.0000   113.0714     9.0144     8.7279  -999.2500  -999.2500  -999.2500
  106.5000   113.4171     9.0144     8.7291  -999.2500  -999.2500  -999.2500
  107.0000   113.4110     9.0144     8.7782  -999.2500  -999.2500  -999.2500
  107.5000   113.4049     8.8881     8.8554  -999.2500  -999.2500  -999.2500
  108.0000   112.7853     9.0144     8.8566  -999.2500  -999.2500  -999.2500
  108.5000   111.1513     9.0144     8.8579  -999.2500  -999.2500  -999.2500
  109.0000   108.7159     9.1424     8.8591  -999.2500  -999.2500  -999.2500
  109.5000   104.7012     9.2723     8.9861  -999.2500  -999.2500  -999.2500
  110.0000   100.4908     9.2723     9.1148  -999.2500  -999.2500  -999.2500
  110.5000   100.6360     9.4040     9.2777  -999.2500  -999.2500  -999.2500
  111.0000   102.4580     9.5376     9.3778  -999.2500  -999.2500  -999.2500
  111.5000   104.8937     9.8104     9.5400  -999.2500  -999.2500  -999.2500
  112.0000   107.3292    10.0911     9.9503  -999.2500  -999.2500  -999.2500
  112.5000   107.8226    10.6768    10.3782  -999.2500  -999.2500  -999.2500
  113.0000   107.6361    11.1383    10.8473  -999.2500  -999.2500  -999.2500
  113.5000   105.2003    11.4570    11.2901  -999.2500  -999.2500  -999.2500
  114.0000   102.0861    11.7848    11.6109  -999.2500  -999.2500  -999.2500
  114.5000    99.7689    12.1219    11.7739  -999.2500  -999.2500  -999.2500
  115.0000    99.2027    12.2941    12.1085  -999.2500  -999.2500  -999.2500
  115.5000   100.4235    12.2941    12.2786  -999.2500  -999.2500  -999.2500
  116.0000   101.0470    12.4688    12.4462  -999.2500  -999.2500  -999.2500
  116.5000   102.2516    12.4688    12.6245  -999.2500  -999.2500  -999.2500
  117.0000    99.7914    12.6459    12.6263  -999.2500  -999.2500  -999.2500
  117.5000    96.7177    12.6459    12.6281  -999.2500  -999.2500  -999.2500
  118.0000    95.4845    12.6459    12.6299  -999.2500  -999.2500  -999.2500
  118.5000    96.7053    12.6459    12.6317  -999.2500  -999.2500  -999.2500
