~VERSION INFORMATION
 VERS.                2.0:   CWLS LOG ASCII STANDARD - VERSION 2.0
 WRAP.                 NO:   ONE LINE PER DEPTH STEP
~WELL INFORMATION
#MNEM.UNIT      DATA TYPE    INFORMATION
#----------   ------------   ------------------------------
 STRT.F           32.0000:   START DEPTH
 STOP.F          662.0000:   STOP DEPTH
 STEP.F            0.5000:   STEP LENGTH
 NULL.          -999.2500:   NO VALUE
 COMP.    FENIX & SCISSON:   COMPANY
 WELL.   NPR 67SX34 #3-34:   WELL
 FLD .             TEAPOT:   FIELD
 LOC .      S34 T39N R78W:   LOCATION
 CNTY.            NATRONA:   COUNTY
 STAT.            WYOMING:   STATE
 CTRY. UNITED STATES OF AMERICA:   COUNTRY
 SRVC.            Unknown:   SERVICE COMPANY
 DATE.        03-SEP-1978:   LOGDATE
 API .       490251070500:   API NUMBER
~CURVE INFORMATION
#MNEM.UNIT       API CODE    CURVE DESCRIPTION
#----------   ------------   ------------------------------
 DEPT.F                  :   
 ILD .OHMM   05 120 46 00:   INDUCTION LOG DEEP
 SN  .OHMM   05 040 00 00:   SHORT NORMAL
 SPR .MV     05 010 01 00:   SPONTANEOUS POTENTIAL FROM RES.
 CALD.IN     45 280 60 00:   CALIPER FROM DENSITY LOG
 DEN .G/C3   45 350 01 00:   COMPENSATED BULK DENSTIY
 DPHI.DEC    45 890 12 00:   DENSITY POROSITY SANDSTONE
 DRHO.G/C3   45 356 01 00:   DENSITY CORRECTION
 GRD .GAPI   45 310 01 00:   GAMMA RAY FROM DENSITY LOG
~PARAMETER INFORMATION
#MNEM.UNIT          VALUE    DESCRIPTION
#----------   ------------   ------------------------------
 PD  .                 GL:   PERMANENT DATUM
 EPD .F              5076:   ELEVATION PERMANENT DATUM
 LMF .                 KB:   LOG MEASURED FROM
 DAPD.F                 4:   FEET ABOVE PERMANENT DATUM
 DMF .                 KB:   DRILLING MEASURED FROM
 EKB .F              5080:   KELLING BUSHING
 EGL .F              5076:   GROUND LEVEL
 DATE.        03-SEP-1978:   RUN DATE
 RUN .                  1:   RUN NUMBER
 DD  .F               660:   DEPTH DRILLER
 DL  .F               662:   DEPTH LOGGER
 BLI .F               662:   BOTTOM LOG INTERVAL
 TLI .F                40:   TOP LOG INTERVAL
 CS  .IN            8.625:   CASING SIZE
 CBD .F                40:   CASING BOTTOM DRILLER
 BS  .IN            7.875:   BIT SIZE
 BSD .F               660:   BIT SIZE AT DEPTH
 DFT .                KCL:   DRILLING FLUID TYPE
 DFD .                9.0:   DRILLING FLUID DENSITY
 DFV .                 34:   DRILLING FLUID VISCOSITY
 MSS .           FLOWLINE:   MUD SAMPLE SOURCE
 RMS .OHMM            1.4:   RESISTIVITY MUD SAMPLE
 MST .F                65:   MUD SAMPLE TEMPERATURE
 RMF .OHMM            3.2:   RESISTIVITY MUD FILTRATE SAMPLE
 MFST.F                77:   MUD FILTRATE SAMPLE TEMPERATURE
 RMC .OHMM            2.1:   RESISTIVITY MUD CAKE
 MCST.F                78:   MUD CAKE SAMPLE TEMPERATURE
 MFSS.               MEAS:   MUD FILTRATE SAMPLE SOURCE
 TCS .HRS               1:   TIME CURCULATED STOPPED
 LUN .               3006:   LOGGING UNIT NUMBER
 LUL .               CASP:   LOGGING UNIT LOCATION
 ENGI.             MILLER:   RECORDING ENGINEER
 WITN.           MCGINLEY:   WITNESSED BY
 CLNT.            A2DTECH:   CLIENT CODE
 ORIG.        2" 5" PRINT:   ORIGIN OF DATA
 UWI .       490251070500:   UNIQUE WELL ID
 DICO. A2D Technologies, Inc.:   DIGITIZING COMPANY
~OTHER INFORMATION
~A   DEPT      ILD         SN        SPR       CALD        DEN       DPHI       DRHO         GRD  
# ...
  518.0000    10.7072    10.8238    -4.7579     7.6579     2.4569     0.1576     0.0074    67.7976
  518.5000    10.7065    10.8231    -4.6058     7.6584     2.4374     0.1621     0.0028    67.3526
  519.0000    10.7058    10.8224    -4.6043     7.6589     2.4314     0.1690     0.0013    67.9523
  519.5000    10.7049    10.8215    -4.6029     7.6443     2.4254     0.1774    -0.0003    69.0090
  520.0000    10.7042    10.8208    -4.6015     7.6298     2.4156     0.1801    -0.0003    69.2994
  520.5000    10.7035    10.7456    -4.7505     7.6303     2.4027     0.1762    -0.0003    68.8559
  521.0000    10.7028    10.7449    -4.7487     7.6457     2.4105     0.1729    -0.0004    68.1137
  521.5000    10.7021    10.7440    -4.8976     7.6312     2.4163     0.1693     0.0011    67.0733
  522.0000    10.7012    10.7433    -4.8962     7.6019     2.4193     0.1708     0.0025    66.3303
  522.5000    10.7005    10.7426    -4.8944     7.5873     2.4186     0.1675     0.0040    66.9301
  523.0000    10.6998    10.6680    -4.8930     7.5580     2.4208     0.1636     0.0099    67.8271
  523.5000    10.7734    10.5938    -5.0423     7.5284     2.4246     0.1594     0.0159    68.6244
  524.0000    10.7725    10.5930    -5.3413     7.5140     2.4306     0.1567     0.0174    69.9193
  524.5000    10.8467    10.5922    -5.3398     7.4846     2.4358     0.1543     0.0158    68.1346
  525.0000    10.9212    10.6650    -5.4888     7.4552     2.4404     0.1510     0.0128    67.6904
  525.5000    10.9961    10.6666    -5.3368     7.4109     2.4478     0.1444     0.0112    67.9913
  526.0000    10.9954    10.7375    -5.3554     7.3964     2.4553     0.1514     0.0097    70.2297
  526.5000    11.0710    10.8113    -5.4843     7.3819     2.4486     0.1525     0.0081    71.1268
  527.0000    11.2242    10.8853    -5.1818     7.3974     2.4478     0.1519     0.0081    70.2296
  527.5000    11.3014    10.7353    -4.7293     7.4127     2.4470     0.1522     0.0095    69.1951
  528.0000    11.3790    10.6605    -4.5774     7.4579     2.4478     0.1486     0.0110    70.5400
  528.5000    11.6166    10.6598    -4.7264     7.5181     2.4486     0.1471     0.0124    72.4803
  529.0000    11.8593    10.7331    -4.5743     7.5494     2.4515     0.1486     0.0139    73.2284
  529.5000    12.1911    10.8067    -4.2721     7.6086     2.4530     0.1492     0.0123    73.3803
  530.0000    12.5322    11.0323    -3.6692     7.6240     2.4492     0.1539     0.0078    73.5322
  530.5000    13.2439    11.4983    -3.2163     7.6393     2.4402     0.1670     0.0048    73.8331
  531.0000    13.7089    12.2353    -2.3126     7.6397     2.4282     0.1832     0.0032    74.2921
  531.5000    14.2887    13.2006    -1.5593     7.6402     2.4147     0.2036     0.0017    74.7338
  532.0000    14.7903    14.0571    -0.6556     7.6406     2.3951     0.2420    -0.0061    71.0109
  532.5000    15.4229    14.9466     0.0980     7.6410     2.3419     0.2996    -0.0270    69.9706
  533.0000    16.0676    15.7950     0.7010     7.6415     2.2908     0.3011    -0.0255    68.1851
  533.5000    16.4033    16.8074     1.1535     7.6569     2.2705     0.3011    -0.0120    64.9093
  534.0000    16.7460    18.0085     1.1549     7.6574     2.2555     0.2775    -0.0031    52.3936
  534.5000    16.7449    18.5120     1.1414     7.6727     2.2592     0.2699    -0.0016    51.3443
  535.0000    16.8600    18.6391     0.8570     7.6582     2.2637     0.2678    -0.0032    52.8763
  535.5000    16.8586    18.7671     0.7081     7.6288     2.2660     0.2666    -0.0031    54.9365
  536.0000    16.8575    18.7656     0.7098     7.5994     2.2667     0.2684    -0.0002    57.4729
  536.5000    16.9734    18.6351     0.7113     7.5849     2.2660     0.2762     0.0012    59.4132
  537.0000    16.9722    18.6336     0.7130     7.5855     2.2645     0.2969     0.0042    57.9258
  537.5000    16.9709    18.6325     0.7145     7.5859     2.2630     0.2994     0.0056    57.1828
  538.0000    16.9698    18.5029     0.7158     7.6013     2.2727     0.2797     0.0071    57.1864
  538.5000    16.8517    18.2478     0.7173     7.6017     2.2659     0.2673     0.0070    56.8897
  539.0000    16.7329    18.1207     0.7191     7.6469     2.2577     0.2630     0.0087    56.1282
  539.5000    16.5033    17.8708     0.7205     7.7070     2.2639     0.2597     0.0129    54.5132
  540.0000    16.3885    17.6244     0.7219     7.7075     2.2712     0.2480     0.0174    52.8767
  540.5000    16.1624    17.1428     0.7233     7.7059     2.2862     0.2411     0.0174    52.1337
  541.0000    16.0500    16.6742     0.8100     7.6637     2.3079     0.2342     0.0188    52.5844
  541.5000    15.9221    16.4443     0.8769     7.6491     2.3132     0.2228     0.0203    54.3757
  542.0000    15.8070    16.2175     0.8783     7.6346     2.3259     0.2156     0.0202    56.4650
  542.5000    15.7171    15.8838     0.7294     7.6201     2.3425     0.2174     0.0202    56.9226
  543.0000    16.0453    15.7610     0.7308     7.6355     2.3455     0.2216     0.0217    57.5147
  543.5000    16.0443    15.5556     0.7326     7.6509     2.3349     0.2225     0.0246    58.1138
  544.0000    16.0432    15.5546     0.7340     7.6513     2.3387     0.2177     0.0291    59.0108
  544.5000    16.0422    15.5536     0.7354     7.6519     2.3424     0.2153     0.0320    60.3550
  545.0000    16.1524    15.4455     0.7368     7.6523     2.3439     0.2165     0.0365    61.4011
  545.5000    16.0398    15.3379     0.7386     7.6527     2.3469     0.2112     0.0439    61.5530
  546.0000    16.0388    15.3369     0.7400     7.6233     2.3484     0.2160     0.0422    60.9598
  546.5000    16.0377    15.2303     0.7415     7.6087     2.3514     0.2223     0.0363    58.3485
  547.0000    16.0367    15.1244     0.5925     7.5943     2.3356     0.2292     0.0333    57.0915
  547.5000    15.9249    14.8130     0.5943     7.5948     2.3274     0.2273     0.0348    57.2434
  548.0000    15.9238    14.6087     0.5957     7.5783     2.3311     0.2220     0.0377    58.1405
  548.5000    15.9228    14.5072     0.5971     7.5360     2.3356     0.2247     0.0347    59.3356
  549.0000    15.8120    14.5062     0.5985     7.5066     2.3333     0.2184     0.0346    60.3817
  549.5000    15.8109    14.4054     0.6000     7.4324     2.3325     0.2157     0.0421    61.4278
  550.0000    15.9196    14.2954     0.7516     7.3582     2.3498     0.2223     0.0526    61.8778
  550.5000    16.0300    14.2067     0.3034     7.3733     2.3491     0.2211     0.0589    62.1790
  551.0000    16.0300    14.2067     0.3070     7.4033     2.3423     0.2172     0.0750    61.5857
  551.5000    16.0300    14.2067     0.3098     7.3885     2.3386     0.2042     0.0960    60.8306
  552.0000    15.9196    14.2067     0.4852     7.3588     2.3566     0.1824     0.1215    62.3374
  552.5000    15.9196    14.2067     0.6170     7.3441     2.3821     0.1761     0.1410    61.5951
  553.0000    16.0300    14.2067     0.7702     7.2994     2.4001     0.1716     0.1665    60.2567
  553.5000    16.1412    14.2067     0.7731     7.3145     2.4121     0.1701     0.1830    59.0673
  554.0000    16.1412    14.2067     0.3248     7.3594     2.4159     0.1677     0.2044    58.7714
  554.5000    16.2532    14.2067    -0.4235     7.3745     2.4211     0.1653     0.2265    60.8615
  555.0000    16.2532    14.1089    -1.1725     7.3905     2.4241     0.1497     0.2429    62.6726
  555.5000    16.2532    14.1089    -1.9215     7.4196     2.4583     0.1174     0.2504    63.1034
  556.0000    16.1412    14.1089    -2.6705     7.4197     2.4962     0.0918     0.2459    63.8514
  556.5000    15.8099    14.1089    -3.4195     7.4348     2.5510     0.1185     0.2083    61.7679
  557.0000    15.0628    14.1089    -3.7174     7.4349     2.5202     0.1239     0.1317    60.1314
  557.5000    14.0565    14.1089    -3.8649     7.4201     2.4751     0.1092     0.1272    58.1969
  558.0000    13.4729    14.0117    -3.7110     7.4054     2.5179     0.1026     0.1226    56.5604
