~VERSION INFORMATION
 VERS.                2.0:   CWLS LOG ASCII STANDARD - VERSION 2.0
 WRAP.                 NO:   ONE LINE PER DEPTH STEP
~WELL INFORMATION
#MNEM.UNIT      DATA TYPE    INFORMATION
#----------   ------------   ------------------------------
 STRT.F            2.0000:   START DEPTH
 STOP.F          595.0000:   STOP DEPTH
 STEP.F            0.5000:   STEP LENGTH
 NULL.          -999.2500:   NO VALUE
 COMP.       F D SERV INC:   COMPANY
 WELL.    73-5 SX-3 #73-3:   WELL
 FLD .             TEAPOT:   FIELD
 LOC .       S3 T38N R78W:   LOCATION
 CNTY.            NATRONA:   COUNTY
 STAT.            WYOMING:   STATE
 CTRY. UNITED STATES OF AMERICA:   COUNTRY
 SRVC.     Atlas Wireline:   SERVICE COMPANY
 DATE.        01-MAY-1992:   LOGDATE
 API .       490252252200:   API NUMBER
~CURVE INFORMATION
#MNEM.UNIT       API CODE    CURVE DESCRIPTION
#----------   ------------   ------------------------------
 DEPT.F                  :   
 CALD.IN     45 280 60 00:   CALIPER FROM DENSITY
 CORR.G/C3   45 356 01 00:   DENSITY CORRECTION
 DEN .G/C3   45 350 01 00:   COMPENSATED BULK DENSTIY
 GRD .GAPI   45 310 01 00:   GAMMA RAY FROM DENSITY LOG
 RILD.OHMM   07 120 46 00:   INDUCTION LOG DEEP RESISTIVITY
 RILM.OHMM   07 120 44 00:   INDUCTION LOG MEDIUM RESISTIVITY
 PORD.DEC    45 890 12 00:   POROSITY DENSITY SANDSTONE
~PARAMETER INFORMATION
#MNEM.UNIT          VALUE    DESCRIPTION
#----------   ------------   ------------------------------
 PD  .                 GL:   PERMANENT DATUM
 EPD .F              5147:   ELEVATION PERMANENT DATUM
 LMF .                 KB:   LOG MEASURED FROM
 DAPD.F                 5:   FEET ABOVE PERMANENT DATUM
 DMF .                 KB:   DRILLING MEASURED FROM
 EKB .F              5152:   KELLING BUSHING
 EGL .F              5147:   GROUND LEVEL
 DATE.        01-MAY-1992:   RUN DATE
 RUN .                  1:   RUN NUMBER
 DD  .F               600:   DEPTH DRILLER
 DL  .F               603:   DEPTH LOGGER
 BLI .F               601:   BOTTOM LOG INTERVAL
 TLI .F                 2:   TOP LOG INTERVAL
 CS  .IN            8.625:   CASING SIZE
 CBD .F                46:   CASING BOTTOM DRILLER
 CBL .F                53:   CASING BOTTOM LOGGER
 BS  .IN            7.875:   BIT SIZE
 BSD .F               600:   BIT SIZE AT DEPTH
 DFT .                AIR:   DRILLING FLUID TYPE
 TCS .HRS               1:   TIME CURCULATED STOPPED
 LUN .            HL-6274:   LOGGING UNIT NUMBER
 LUL .             CASPER:   LOGGING UNIT LOCATION
 ENGI.             ZIEGER:   RECORDING ENGINEER
 WITN.             STRONG:   WITNESSED BY
 CLNT.            A2DTECH:   CLIENT CODE
 ORIG.           5" PRINT:   ORIGIN OF DATA
 UWI .       490252252200:   UNIQUE WELL ID
 DICO. A2D Technologies, Inc.:   DIGITIZING COMPANY
~OTHER INFORMATION
~A    DEPT    CALD       CORR        DEN         GRD      RILD       RILM       PORD   
# ...
  320.5000     8.1413    -0.0218     2.5446   162.5295     7.7945     7.7940     0.0670
  321.0000     8.1410    -0.0250     2.5460   165.8408     7.8464     7.7913     0.0649
  321.5000     8.1406    -0.0252     2.5490   167.0468     7.8430     7.7886     0.0634
  322.0000     8.1403    -0.0224     2.5443   164.3430     7.8403     7.7859     0.0638
  322.5000     8.1400    -0.0195     2.5336   161.6392     7.7831     7.7833     0.0707
  323.0000     8.1397    -0.0197     2.5199   163.7474     7.7264     7.7806     0.0792
  323.5000     8.1394    -0.0164     2.5139   171.8912     7.6166     7.7779     0.0832
  324.0000     8.1542    -0.0110     2.5168   177.9888     7.5611     7.7752     0.0832
  324.5000     8.1690    -0.0112     2.5227   179.9969     7.5059     7.7185     0.0814
  325.0000     8.1686    -0.0083     2.5211   175.2881     7.4512     7.6622     0.0802
  325.5000     8.1683    -0.0085     2.5165   173.3863     7.3454     7.5534     0.0796
  326.0000     8.1530    -0.0087     2.5134   176.9990     7.2918     7.4461     0.0809
  326.5000     8.1376    -0.0149     2.5148   176.4005     7.0886     7.2387     0.0818
  327.0000     8.1373    -0.0212     2.5147   172.7944     6.8911     6.9395     0.0827
  327.5000     8.1521    -0.0244     2.5086   172.4959     6.6063     6.5605     0.0839
  328.0000     8.1668    -0.0155     2.4949   175.2064     6.3333     6.2456     0.0897
  328.5000     8.1816    -0.0036     2.4707   177.6154     5.9457     6.0293     0.1088
  329.0000     8.1964     0.0023     2.4509   176.1146     5.5431     5.8614     0.1278
  329.5000     8.1961     0.0021     2.4418   171.6063     5.3512     5.6574     0.1245
  330.0000     8.1807    -0.0071     2.4930   169.2025     5.3493     5.6172     0.1004
  330.5000     8.1503    -0.0103     2.5171   171.3115     5.4226     5.8189     0.0847
  331.0000     8.1349    -0.0073     2.5216   171.6145     5.4595     5.9415     0.0817
  331.5000     8.1196    -0.0016     2.5152   169.8137     5.4951     6.0169     0.0820
  332.0000     8.1193    -0.0023     2.5103   168.2726     5.4549     6.0143     0.0872
  332.5000     8.1039    -0.0111     2.4986   172.2256     5.4151     5.7657     0.0944
  333.0000     8.1036    -0.0082     2.4834   174.6346     5.3752     5.4889     0.1057
  333.5000     8.1033    -0.0053     2.4456   172.4980     5.3360     5.3360     0.1255
  334.0000     8.1030    -0.0025     2.4198   162.2097     5.3719     5.3342     0.1411
  334.5000     8.1027    -0.0027     2.4454   158.9694     5.4077     5.4073     0.1332
  335.0000     8.1175    -0.0059     2.4831   158.4059     5.4813     5.4437     0.1057
  335.5000     8.1171    -0.0091     2.5192   162.9209     5.5183     5.5954     0.0807
  336.0000     8.1168    -0.0123     2.5433   167.1344     5.6720     5.7118     0.0692
  336.5000     8.1165    -0.0186     2.5463   164.4306     5.8714     5.9956     0.0668
  337.0000     8.1314    -0.0218     2.5446   162.6290     6.1631     6.2063     0.0662
  337.5000     8.1310    -0.0219     2.5446   162.3305     6.3797     6.4694     0.0662
  338.0000     8.1307    -0.0221     2.5445   166.8455     6.6040     6.6502     0.0675
  338.5000     8.1304    -0.0193     2.5398   170.7583     6.7885     6.7886     0.0720
  339.0000     8.1452    -0.0164     2.5247   171.6635     6.8821     6.8816     0.0790
  339.5000     8.1298    -0.0136     2.5170   168.0574     6.8792     6.6434     0.0817
  340.0000     8.1446    -0.0168     2.5217   163.8499     6.6875     6.4134     0.0763
  340.5000     8.1292    -0.0231     2.5259   162.0476     6.5012     6.1483     0.0769
  341.0000     8.1289    -0.0263     2.5228   167.7656     6.2325     5.8532     0.0812
  341.5000     8.1286    -0.0204     2.5000   173.7836     5.8104     5.5722     0.0895
  342.0000     8.1283    -0.0145     2.4576   179.2001     5.4549     5.2659     0.1122
  342.5000     8.1130    -0.0056     2.4455   181.0327     5.2661     5.0502     0.1255
  343.0000     8.1127    -0.0027     2.4680   178.6045     5.1913     5.0875     0.1163
  343.5000     8.1139     0.0001     2.4981   171.3748     5.1932     5.2732     0.1021
  344.0000     8.1422    -0.0031     2.5177   168.0442     5.3399     5.4998     0.0822
  344.5000     8.1569    -0.0063     2.5297   166.2476     5.5293     5.8385     0.0726
  345.0000     8.1717    -0.0126     2.5356   165.0826     5.8774     6.1716     0.0705
  345.5000     8.1865    -0.0188     2.5401   162.6803     6.2999     6.5693     0.0708
  346.0000     8.1710    -0.0220     2.5370   160.2772     6.8478     7.0416     0.0702
  346.5000     8.1707    -0.0222     2.5414   159.0765     7.3401     7.4433     0.0687
  347.0000     8.1554    -0.0193     2.5459   158.4779     7.7049     7.7588     0.0663
  347.5000     8.1400    -0.0135     2.5473   159.0831     7.9757     7.9764     0.0636
  348.0000     8.1247    -0.0076     2.5487   162.0936     8.0294     8.0850     0.0619
  348.5000     8.1244    -0.0047     2.5516   166.0064     8.0829     8.1388     0.0607
  349.0000     8.1391    -0.0019     2.5515   165.4078     8.1929     8.1360     0.0601
  349.5000     8.1388     0.0010     2.5499   162.4033     8.3052     8.1331     0.0636
  350.0000     8.1557     0.0008     2.5499   159.7851     8.3612     8.1958     0.0635
  350.5000     8.1678     0.0006     2.5498   160.2973     8.3584     8.2434     0.0628
  351.0000     8.1800     0.0004     2.5497   160.5958     8.3557     8.2976     0.0619
  351.5000     8.1673    -0.0028     2.5497   161.4943     8.2953     8.2376     0.0613
  352.0000     8.1669    -0.0060     2.5481   163.5966     8.1781     8.0648     0.0610
  352.5000     8.1663    -0.0183     2.5465   166.6012     8.1190     7.9508     0.0610
  353.0000     8.1508    -0.0215     2.5465   169.3050     8.0603     7.8934     0.0619
  353.5000     8.1353    -0.0126     2.5464   172.0088     7.9464     7.8912     0.0626
  354.0000     8.1349    -0.0037     2.5448   174.7126     7.9998     7.8890     0.0656
  354.5000     8.1194     0.0021     2.5417   171.7021     7.9976     7.9426     0.0674
  355.0000     8.1490     0.0020     2.5402   168.0901     8.1078     8.1078     0.0687
  355.5000     8.1636    -0.0043     2.5401   167.4856     8.2770     8.3934     0.0699
  356.0000     8.1783    -0.0109     2.5446   166.2796     8.4498     8.6285     0.0681
  356.5000     8.1778    -0.0168     2.5460   158.1563     8.5066     8.7474     0.0651
  357.0000     8.1774    -0.0169     2.5505   155.4466     8.1556     8.8062     0.0621
  357.5000     8.1769    -0.0171     2.5474   155.4436     7.7054     8.3696     0.0618
  358.0000     8.1614    -0.0203     2.5427   157.2611     7.1810     7.5211     0.0639
  358.5000     8.1459    -0.0296     2.5297   160.9357     6.7789     6.6772     0.0718
  359.0000     8.1153    -0.0298     2.4778   170.5463     6.1622     5.9926     0.1020
  359.5000     8.1149    -0.0238     2.3976   183.9382     5.0672     5.8260     0.1572
  360.0000     8.1144    -0.0059     2.3583   188.5114     5.0309     5.7437     0.1771
  360.5000     8.1140     0.0121     2.3749   183.3949     5.3926     5.7026     0.1820
  361.0000     8.1135     0.0180     2.4171   174.0686     5.8212     6.1554     0.1491
  361.5000     8.1131     0.0057     2.5001   161.1333     6.1537     6.6911     0.1126
  362.0000     8.1127    -0.0097     2.5514   158.4236     6.6892     7.2229     0.0677
  362.5000     8.1122    -0.0219     2.5604   154.8116     7.3736     7.7970     0.0590
  363.0000     8.1118    -0.0191     2.5573   153.3049     7.9043     8.5947     0.0572
  363.5000     8.1113    -0.0162     2.5527   151.7981     8.2977     9.0856     0.0587
  364.0000     8.1108    -0.0134     2.5497   149.6899     9.0199     9.5378     0.0599
  364.5000     8.1255    -0.0076     2.5496   148.4839     9.6018     9.8050     0.0603
  365.0000     8.1249    -0.0077     2.5480   152.9922     9.7347     9.9401     0.0606
  365.5000     8.1245    -0.0049     2.5433   157.8013     9.8002     9.8682     0.0643
