~VERSION INFORMATION
 VERS.                2.0:   CWLS LOG ASCII STANDARD - VERSION 2.0
 WRAP.                 NO:   ONE LINE PER DEPTH STEP
~WELL INFORMATION
#MNEM.UNIT      DATA TYPE    INFORMATION
#----------   ------------   ------------------------------
 STRT.F           98.5000:   START DEPTH
 STOP.F          716.5000:   STOP DEPTH
 STEP.F            0.5000:   STEP LENGTH
 NULL.          -999.2500:   NO VALUE
 COMP. U S NAVY-INTEX OIL:   COMPANY
 WELL. RES 3 TEAPOT DOM #32S-11:   WELL
 FLD .             TEAPOT:   FIELD
 LOC .      S11 T38N R78W:   LOCATION
 CNTY.            NATRONA:   COUNTY
 STAT.            WYOMING:   STATE
 CTRY. UNITED STATES OF AMERICA:   COUNTRY
 SRVC.       Schlumberger:   SERVICE COMPANY
 DATE.        13-JUL-1962:   LOGDATE
 API .       490250636500:   API NUMBER
~CURVE INFORMATION
#MNEM.UNIT       API CODE    CURVE DESCRIPTION
#----------   ------------   ------------------------------
 DEPT.F                  :   
 SPR .MV     05 010 01 00:   SPONTANEOUS POTENTIAL FROM RES.
 CILD.MMHO   05 110 46 00:   CONDUCTIVITY INDUCTION LOG DEEP
 ASN .OHMM   05 040 16 00:   AMPLIFIED SHORT NORMAL 16"
 ILD .OHMM   05 120 46 00:   INDUCTION LOG DEEP
 GR  .GAPI   30 310 01 00:   GAMMA RAY
~PARAMETER INFORMATION
#MNEM.UNIT          VALUE    DESCRIPTION
#----------   ------------   ------------------------------
 PD  .                 GL:   PERMANENT DATUM
 EPD .F              5161:   ELEVATION PERMANENT DATUM
 LMF .                 KB:   LOG MEASURED FROM
 DAPD.F                 5:   FEET ABOVE PERMANENT DATUM
 DMF .                 KB:   DRILLING MEASURED FROM
 EKB .F              5166:   KELLING BUSHING
 EGL .F              5161:   GROUND LEVEL
 DATE.            7-13-62:   RUN DATE
 RUN .                  1:   RUN NUMBER
 DD  .F               716:   DEPTH DRILLER
 DL  .F               717:   DEPTH LOGGER
 BLI .F               716:   BOTTOM LOG INTERVAL
 TLI .F               100:   TOP LOG INTERVAL
 CBD .F                10:   CASING BOTTOM DRILLER
 BS  .IN             6.75:   BIT SIZE
 BSD .F               716:   BIT SIZE AT DEPTH
 DFT .           OIL EMUL:   DRILLING FLUID TYPE
 DFD .               10.2:   DRILLING FLUID DENSITY
 DFV .                 43:   DRILLING FLUID VISCOSITY
 RMS .OHMM              5:   RESISTIVITY MUD SAMPLE
 MST .F                70:   MUD SAMPLE TEMPERATURE
 RMF .OHMM            5.5:   RESISTIVITY MUD FILTRATE SAMPLE
 MFST.F                70:   MUD FILTRATE SAMPLE TEMPERATURE
 RMC .OHMM              6:   RESISTIVITY MUD CAKE
 MCST.F                70:   MUD CAKE SAMPLE TEMPERATURE
 TCS .HRS              .5:   TIME CURCULATED STOPPED
 LUN .               2503:   LOGGING UNIT NUMBER
 LUL .               CSPR:   LOGGING UNIT LOCATION
 ENGI.           ELLERMAN:   RECORDING ENGINEER
 WITN.          JORGENSON:   WITNESSED BY
 CLNT.            A2DTECH:   CLIENT CODE
 ORIG.       2", 5" PRINT:   ORIGIN OF DATA
 UWI .       490250636500:   UNIQUE WELL ID
 DICO. A2D Technologies, Inc.:   DIGITIZING COMPANY
~OTHER INFORMATION
~A   DEPT      SPR       CILD        ASN        ILD         GR   
# ...
  464.5000   -45.6302   124.4960     8.3766     7.8806    84.2549
  465.0000   -45.4412   126.1377     8.3962     7.8636    80.1291
  465.5000   -45.3087   127.6469     8.3981     7.8382    76.5457
  466.0000   -45.7729   128.3731     8.3210     7.8142    74.0173
  466.5000   -46.0752   127.6841     8.1976     7.7903    81.8001
  467.0000   -46.0694   126.9951     8.0739     7.7663    92.3219
  467.5000   -46.0695   126.3061     7.9631     7.7425   119.0778
  468.0000   -46.0653   125.6171     7.8790     7.7196   105.9154
  468.5000   -45.8770   125.9946     7.7942     7.6893    93.5499
  469.0000   -45.4538   126.7621     7.6658     7.5234    95.7788
  469.5000   -45.0297   129.3374     7.4935     7.3608    93.8636
  470.0000   -44.8614   134.2675     7.3213     7.1186   101.3383
  470.5000   -44.8581   139.1976     7.1546     6.8241   110.2191
  471.0000   -44.8586   145.8266     6.9250     6.5288   106.8932
  471.5000   -44.8595   157.0524     6.5730     6.2338   115.6542
  472.0000   -44.8650   171.8427     6.1729     5.9444   120.8285
  472.5000   -44.8233   188.4895     5.7725     5.4910   108.7274
  473.0000   -44.2365   213.0031     5.3720     5.0096   110.6311
  473.5000   -43.7337   249.6768     4.9717     4.5277    73.5565
  474.0000   -43.2600   292.1945     4.5715     4.0455    80.5277
  474.5000   -43.1947   345.8297     4.1691     3.5971    83.4315
  475.0000   -43.1379   399.4649     3.8263     3.1896    99.0960
  475.5000   -43.0844   438.6962     3.5445     2.7800    90.5856
  476.0000   -43.2889   472.2782     3.2895     2.6206    95.5100
  476.5000   -43.9577   489.4153     3.1719     2.4721    87.7524
  477.0000   -44.6105   490.4234     3.1553     2.3627    87.6453
  477.5000   -45.0550   475.1512     3.1772     2.4529   100.9747
  478.0000   -44.2991   443.6180     3.2256     2.7397   101.8319
  478.5000   -42.7713   409.5235     3.2755     3.0152   103.6971
  479.0000   -42.4524   360.0233     3.4677     3.4698   113.5680
  479.5000   -42.7758   302.3247     4.1462     3.9471   106.7781
  480.0000   -43.1603   247.2782     4.6038     4.4253   101.8808
  480.5000   -44.0683   206.1492     4.8833     4.9005   112.6634
  481.0000   -44.9631   187.8453     5.4026     5.2253   104.4891
  481.5000   -45.8659   174.0265     5.7307     5.5184   127.8834
  482.0000   -46.2898   165.5376     5.8882     5.8087   122.4525
  482.5000   -45.1714   163.7769     5.9320     5.9781   117.4559
  483.0000   -43.8269   162.0161     5.9240     5.9522   128.0392
  483.5000   -42.8831   161.3064     5.9419     5.9293   125.1587
  484.0000   -42.7378   166.8120     6.0267     5.9049   132.5805
  484.5000   -42.6389   177.6506     6.0744     5.8372   134.4836
  485.0000   -42.5342   188.8987     6.0636     5.5688   122.7252
  485.5000   -42.4393   201.1089     5.9528     5.3049   116.3806
  486.0000   -42.3592   219.2540     5.6470     5.0366   127.7042
  486.5000   -42.2743   226.0627     5.2713     4.8566   132.2611
  487.0000   -42.1278   233.4339     5.0386     4.6959   122.7601
  487.5000   -41.8381   240.6020     4.9903     4.5354   111.6767
  488.0000   -41.0023   247.1522     4.9702     4.3758   108.6616
  488.5000   -40.6906   252.5202     4.8290     4.2776   110.4294
  489.0000   -41.1908   252.5202     4.7459     4.3874    96.9559
  489.5000   -41.9290   248.0242     4.9876     4.4974    98.6572
  490.0000   -42.9840   239.4463     5.2562     4.6018   103.7556
  490.5000   -43.8265   224.0059     5.2942     4.8245   102.6187
  491.0000   -44.6433   208.5654     5.2643     5.0904    99.4119
  491.5000   -44.6773   197.2379     5.5869     5.3459    95.4911
  492.0000   -44.2491   185.9879     5.9697     5.6083   106.9191
  492.5000   -43.8124   178.5786     6.2716     5.8629   113.9121
  493.0000   -43.6734   170.1336     6.4275     6.1178   105.4996
  493.5000   -44.3103   161.7238     6.6884     6.3725   113.6862
  494.0000   -44.9662   153.8004     6.9505     6.6248   109.6459
  494.5000   -45.5218   147.5233     7.2157     6.8233   103.3764
  495.0000   -46.0047   141.8347     7.3627     6.9095   116.3229
  495.5000   -46.2648   137.2324     7.4396     6.9979   110.3038
  496.0000   -45.8873   135.7918     7.4602     7.0857   129.9252
  496.5000   -45.1133   134.5766     7.4557     7.1776   121.2549
  497.0000   -44.3335   136.0869     7.4293     7.1191   109.0801
  497.5000   -44.0339   139.9285     7.3825     7.0236   113.4637
  498.0000   -43.9789   143.7702     7.2567     6.9273   120.6494
  498.5000   -43.9302   147.6118     7.1342     6.8318   110.0858
  499.0000   -43.8754   151.3185     7.0121     6.6829   128.5360
  499.5000   -43.6039   154.5262     6.8711     6.4964   119.9847
  500.0000   -43.0357   159.2528     6.7204     6.3097   118.9088
  500.5000   -42.6191   168.4962     6.5690     6.1235   126.1462
  501.0000   -42.4921   181.1358     6.4049     5.9361   110.6893
  501.5000   -42.3569   195.0067     6.1818     5.6913   106.0272
  502.0000   -42.2239   210.3159     5.9586     5.2287   116.2739
  502.5000   -42.0906   226.3441     5.6554     5.0101   118.6874
  503.0000   -41.9566   237.3992     5.3107     4.7877   122.8324
  503.5000   -41.8226   237.3992     5.0414     4.7079   132.6727
  504.0000   -41.6932   236.3985     5.0511     4.7600   126.9815
  504.5000   -41.8894   229.7782     5.2936     4.8144   133.7352
  505.0000   -42.5878   223.2863     5.3051     4.8637   117.5792
  505.5000   -43.2822   214.6976     5.3760     5.1234   126.0698
  506.0000   -43.9667   199.6976     5.8891     5.4201   106.8911
  506.5000   -44.3039   182.3589     6.4573     5.7449   104.6890
  507.0000   -44.6139   165.0202     6.6592     6.1937   121.2772
  507.5000   -44.4250   153.4148     6.8488     6.5507   140.4025
  508.0000   -43.6429   144.8639     6.9721     6.7107   145.9681
  508.5000   -42.8590   142.6411     7.0524     6.8733   154.4278
  509.0000   -42.6968   142.6411     7.1320     7.0057   146.6041
  509.5000   -42.6288   141.7820     7.2629     7.0538   155.3119
  510.0000   -43.2637   140.9817     7.3906     7.1024   137.9485
  510.5000   -44.1293   140.1815     7.5183     7.1510   125.3656
  511.0000   -44.9989   139.3812     7.5851     7.1998   125.5921
  511.5000   -45.6790   138.6089     7.6120     7.2487   119.3181
  512.0000   -45.5541   139.1557     7.6379     7.2924   126.3118
  512.5000   -44.0229   139.8060     7.6643     7.2518   118.4623
  513.0000   -43.6729   140.4561     7.6898     7.1647   129.5547
  513.5000   -44.3063   141.1064     7.6374     7.0912   140.4793
  514.0000   -44.3217   141.6331     7.5784     7.1259   127.9933
  514.5000   -43.5568   141.6331     7.5195     7.1632   120.8153
  515.0000   -42.7496   141.6331     7.4946     7.1683   118.8983
  515.5000   -42.7586   141.7936     7.4764     7.1103   118.0237
  516.0000   -43.0651   141.9794     7.4580     7.1294   128.8327
  516.5000   -43.9302   142.1652     7.4699     7.1528   130.6260
  517.0000   -44.8746   142.3510     7.5069     7.1754   126.2538
  517.5000   -45.6153   142.5367     7.5464     7.1943   109.6232
  518.0000   -46.0616   143.2921     7.4865     7.1426   120.1925
  518.5000   -46.3707   144.6573     7.4015     7.0641   113.1131
  519.0000   -46.6787   153.4926     7.2824     6.9476   110.9067
  519.5000   -46.9875   164.0839     7.1329     6.5760   126.6802
  520.0000   -47.2948   175.9454     6.9424     6.2002   128.8691
  520.5000   -47.4117   186.0378     6.5695     5.8233   136.1617
  521.0000   -47.1067   191.0950     6.1867     5.5922   138.7419
  521.5000   -46.2743   191.9062     6.0098     5.4414   145.1460
  522.0000   -44.4627   195.3145     6.0567     5.2890   163.7020
  522.5000   -44.7324   197.7419     5.8000     5.3052   143.1782
  523.0000   -46.1795   200.1694     5.6452     5.3852   145.1425
  523.5000   -47.2299   202.1169     5.9195     5.4633   125.9654
  524.0000   -46.8011   200.6628     6.2330     5.5399   120.7781
  524.5000   -45.6454   198.7122     6.2559     5.5344   117.4521
  525.0000   -44.8879   198.0847     6.1105     5.4244   108.2831
