~VERSION INFORMATION
 VERS.                2.0:   CWLS LOG ASCII STANDARD - VERSION 2.0
 WRAP.                 NO:   ONE LINE PER DEPTH STEP
~WELL INFORMATION
#MNEM.UNIT      DATA TYPE    INFORMATION
#----------   ------------   ------------------------------
 STRT.F           95.0000:   START DEPTH
 STOP.F          862.0000:   STOP DEPTH
 STEP.F            0.5000:   STEP LENGTH
 NULL.          -999.2500:   NO VALUE
 COMP. U S NAVY INTEX OIL:   COMPANY
 WELL. RES 3 TEAMPT DOME #13-S-35:   WELL
 FLD .        TEAPOT DOME:   FIELD
 LOC .      S35 T39N R78W:   LOCATION
 CNTY.            NATRONA:   COUNTY
 STAT.            WYOMING:   STATE
 CTRY. UNITED STATES OF AMERICA:   COUNTRY
 SRVC.       Schlumberger:   SERVICE COMPANY
 DATE.        27-JUL-1963:   LOGDATE
 API .       490250655000:   API NUMBER
~CURVE INFORMATION
#MNEM.UNIT       API CODE    CURVE DESCRIPTION
#----------   ------------   ------------------------------
 DEPT.F                  :   
 SPR .MV     05 010 01 00:   SPONTANEOUS POTENTIAL FROM RES.
 ILD .OHMM   05 120 46 00:   INDUCTION LOG DEEP
 ASN .OHMM   05 041 18 00:   AMPLIFIED SHORT NORMAL 18"
 CILD.MMHO   05 110 46 00:   CONDUCTIVITY INDUCTION LOG DEEP
 GR  .GAPI   30 310 01 00:   GAMMA RAY
~PARAMETER INFORMATION
#MNEM.UNIT          VALUE    DESCRIPTION
#----------   ------------   ------------------------------
 PD  .                 GL:   PERMANENT DATUM
 EPD .F              5100:   ELEVATION PERMANENT DATUM
 LMF .                 KB:   LOG MEASURED FROM
 DAPD.F               5.0:   FEET ABOVE PERMANENT DATUM
 DMF .                 KB:   DRILLING MEASURED FROM
 EKB .F              5105:   KELLING BUSHING
 EGL .F              5100:   GROUND LEVEL
 DATE.        27-JUL-1963:   RUN DATE
 RUN .                  1:   RUN NUMBER
 DD  .F               862:   DEPTH DRILLER
 DL  .F               863:   DEPTH LOGGER
 BLI .F               862:   BOTTOM LOG INTERVAL
 TLI .F               100:   TOP LOG INTERVAL
 CS  .IN            8.625:   CASING SIZE
 CBD .F                10:   CASING BOTTOM DRILLER
 BS  .IN             6.75:   BIT SIZE
 BSD .F               862:   BIT SIZE AT DEPTH
 DFT . NATURAL- GEL ADDED:   DRILLING FLUID TYPE
 DFD .                9.0:   DRILLING FLUID DENSITY
 DFV .                 38:   DRILLING FLUID VISCOSITY
 DFPH.                8.5:   DRILLING FLUID PH
 DFL .                5.6:   DRILLING FLUID LOSS
 MSS .           FLOWLINE:   MUD SAMPLE SOURCE
 RMS .OHMM            4.6:   RESISTIVITY MUD SAMPLE
 MST .F                83:   MUD SAMPLE TEMPERATURE
 RMF .OHMM            3.8:   RESISTIVITY MUD FILTRATE SAMPLE
 MFST.F                83:   MUD FILTRATE SAMPLE TEMPERATURE
 RMC .OHMM            4.8:   RESISTIVITY MUD CAKE
 MCST.F                83:   MUD CAKE SAMPLE TEMPERATURE
 MFSS.                 FP:   MUD FILTRATE SAMPLE SOURCE
 MCSS.                 FP:   MUD CAKE SAMPLE SOURCE
 TCS .HRS               1:   TIME CURCULATED STOPPED
 LUN .               2523:   LOGGING UNIT NUMBER
 LUL .               CSPR:   LOGGING UNIT LOCATION
 ENGI.            GIFFORD:   RECORDING ENGINEER
 WITN.          JORGENSON:   WITNESSED BY
 CLNT.            A2DTECH:   CLIENT CODE
 ORIG.           5" PRINT:   ORIGIN OF DATA
 UWI .       490250655000:   UNIQUE WELL ID
 DICO. A2D Technologies, Inc.:   DIGITIZING COMPANY
~OTHER INFORMATION
~A   DEPT      SPR        ILD        ASN       CILD         GR   
# ...
  766.0000   -45.6865    20.7078    21.4927    50.0592    52.2741
  766.5000   -45.9848    20.6325    22.0145    50.0519    48.7087
  767.0000   -47.3372    20.6325    22.6113    50.0446    47.6729
  767.5000   -48.6897    20.5572    22.9831    50.0372    46.6357
  768.0000   -50.3434    20.4066    23.2808    50.0299    49.4706
  768.5000   -51.0934    20.1807    23.5028    50.0225    50.5182
  769.0000   -50.1142    19.8795    21.7750    50.0150    50.2250
  769.5000   -48.5265    19.8795    20.4227    50.0061    51.4229
  770.0000   -46.7163    19.8795    20.8696    49.9988    52.9170
  770.5000   -45.6591    19.8042    20.9416    50.7440    52.9810
  771.0000   -45.5056    19.5030    20.0384    51.4856    49.6550
  771.5000   -46.4062    18.8224    19.6607    52.2309    49.5119
  772.0000   -47.4575    18.0723    19.5078    53.7232    50.1134
  772.5000   -48.6594    18.0723    19.5806    54.4670    51.7562
  773.0000   -50.1624    18.2229    19.6526    54.4593    52.9526
  773.5000   -51.0631    18.2982    19.9488    54.4519    53.1074
  774.0000   -51.5119    18.2229    19.6460    53.6937    53.1134
  774.5000   -50.9066    17.9217    19.1933    53.6848    53.2681
  775.0000   -49.6988    17.4699    18.9655    53.6775    53.5717
  775.5000   -48.3073    17.0181    19.1350    53.6701    57.2979
  776.0000   -46.4638    16.6416    19.4094    53.6628    60.7264
  776.5000   -46.0755    16.3404    18.1314    55.9077    61.6252
  777.0000   -47.1267    15.9609    17.6787    58.9034    62.0776
  777.5000   -46.3700    15.6627    17.8265    63.4006    60.8931
  778.0000   -45.7646    15.5120    17.8985    64.8949    58.5179
  778.5000   -45.7617    15.4367    17.8199    65.6382    61.8189
  779.0000   -45.9101    15.6627    17.8169    65.6306    60.9107
  779.5000   -46.5088    16.1898    17.5142    64.8710    56.6014
  780.0000   -48.6143    16.6416    17.5862    63.3621    56.2497
  780.5000   -48.0089    17.0934    18.4228    60.3518    57.5061
  781.0000   -46.3493    17.3193    19.2288    57.3415    61.6788
  781.5000   -43.9367    17.4699    19.7506    55.0819    63.4704
  782.0000   -41.0606    17.5452    20.1975    55.0746    61.8395
  782.5000   -39.6836    17.4699    20.3452    55.8183    60.1736
  783.0000   -39.1086    17.3705    19.8168    56.5615    60.5121
  783.5000   -41.2133    16.5663    18.9893    58.8064    57.9883
  784.0000   -43.3188    15.8886    18.2367    61.1507    52.6211
  784.5000   -44.2194    15.0602    17.1843    64.7959    53.8335
  785.0000   -44.8189    14.4578    16.3568    67.7916    55.0299
  785.5000   -44.8159    14.0060    15.6717    70.0383    55.0214
  786.0000   -44.6624    13.8554    15.3757    71.5325    57.4228
  786.5000   -45.2618    13.8554    15.3728    72.2759    59.8097
  787.0000   -46.1625    13.8554    15.3699    72.2668    60.4108
  787.5000   -46.7619    13.7801    15.2920    72.2595    59.5239
  788.0000   -46.7731    13.7801    15.2141    73.0030    62.3573
  788.5000   -46.3042    13.7801    15.0612    72.9955    62.8437
  789.0000   -46.1506    13.7048    14.9084    73.7390    59.2442
  789.5000   -45.8464    13.7048    14.7555    72.9791    57.6132
  790.0000   -45.5416    13.6295    14.6777    72.9717    58.8096
  790.5000   -45.3880    13.6295    14.5997    72.9644    60.7501
  791.0000   -45.2345    13.5542    14.5961    73.7097    61.7977
  791.5000   -45.0809    13.4789    14.6689    73.7005    61.9608
  792.0000   -45.0779    13.2530    14.6652    73.6932    61.8015
  792.5000   -45.0750    13.2530    14.5873    74.4369    60.4763
  793.0000   -45.2234    13.2530    14.5844    75.9309    61.0774
  793.5000   -46.2739    13.1777    14.5065    75.9486    62.5715
  794.0000   -47.1753    13.1024    14.3537    76.6669    64.0655
  794.5000   -46.7198    12.9518    14.2008    77.4085    64.3745
  795.0000   -45.9638    12.9518    14.1229    76.6504    63.4822
  795.5000   -45.2078    12.8765    13.9700    76.6431    63.0417
  796.0000   -44.7410    12.8765    13.9664    76.6358    62.7500
  796.5000   -44.7501    12.8765    13.8885    76.6285    61.2644
  797.0000   -45.4994    12.8765    13.8856    76.6211    61.8750
  797.5000   -45.9483    12.9518    13.8827    75.8631    60.9822
  798.0000   -45.9453    12.9518    13.8048    75.8557    63.0714
  798.5000   -45.7918    12.9558    13.8019    75.8478    66.9464
  799.0000   -45.3370    13.0271    13.7990    75.8409    65.9107
  799.5000   -44.8822    13.0271    13.7960    75.8319    65.4702
  800.0000   -44.1456    13.1024    13.7931    75.8258    61.0119
  800.5000   -43.8227    13.0238    13.8648    75.8258    62.8070
  801.0000   -43.9704    13.0969    13.9356    75.8258    64.3044
  801.5000   -43.8162    13.0180    13.9311    75.8258    62.2304
  802.0000   -44.2750    12.9397    13.9275    75.8258    61.1880
  802.5000   -45.1651    12.7856    13.9240    75.8258    63.5884
  803.0000   -45.7647    12.7075    13.9204    75.8258    65.6810
  803.5000   -46.0637    12.7046    13.8418    75.8258    65.9880
  804.0000   -46.3620    12.7017    13.8374    76.5766    66.8902
  804.5000   -46.3584    12.6987    13.7588    76.5766    68.5585
  805.0000   -46.2042    12.7706    13.7553    77.3273    65.1232
  805.5000   -46.2013    12.7677    13.7517    78.0781    64.3881
  806.0000   -46.0479    12.9907    13.7481    77.3273    64.8442
  806.5000   -45.5932    13.5150    13.7436    76.5060    65.8952
  807.0000   -45.1385    14.0422    13.8150    74.3243    66.2022
  807.5000   -45.1480    14.6380    14.2612    72.8228    65.9139
  808.0000   -45.4339    15.0869    14.7824    70.5706    65.4768
  808.5000   -45.4303    15.5359    15.3036    67.5676    65.6350
  809.0000   -45.4274    15.8349    15.8466    63.0431    66.2372
  809.5000   -44.5210    16.0577    16.4200    60.0601    63.1239
  810.0000   -42.4096    16.2050    16.7912    59.3093    63.7285
  810.5000   -41.2012    16.1261    17.1633    59.3093    62.1009
  811.0000   -41.8015    15.7467    16.5591    60.0601    61.9591
  811.5000   -42.4003    15.0661    15.9303    63.0631    61.3755
  812.0000   -42.5487    14.5361    14.9019    66.9269    63.7658
  812.5000   -42.9969    13.6289    14.2987    71.3213    62.7312
  813.0000   -42.9788    12.6471    13.6204    74.3243    67.3559
  813.5000   -42.3880    11.9665    13.1671    77.3273    68.2581
  814.0000   -41.7827    11.4366    12.8575    80.3303    65.1425
  814.5000   -41.3281    11.1325    12.4844    83.3935    65.0006
  815.0000   -41.0240    11.0542    12.4058    86.3363    63.6730
  815.5000   -40.8705    11.0507    12.4022    87.0871    63.0848
  816.0000   -40.8669    11.0478    12.3987    86.3363    65.9239
  816.5000   -40.8640    11.0450    12.3201    86.3363    67.1237
  817.0000   -40.8611    11.0421    12.3157    86.3363    70.7044
  817.5000   -40.8583    11.0391    12.3121    85.5856    71.6066
  818.0000   -40.8554    11.0356    12.3085    85.5856    74.1457
  818.5000   -41.0206    11.0328    12.3049    85.6163    74.7480
  819.0000   -41.6019    11.0299    12.3014    85.8408    71.7835
  819.5000   -41.5990    11.0270    12.2219    86.0653    70.0071
  820.0000   -41.7475    11.0994    12.2184    86.2898    64.8081
  820.5000   -41.7439    11.1719    12.2897    86.3363    67.7936
  821.0000   -41.8967    11.2443    12.2112    86.3363    70.1839
  821.5000   -42.3405    11.2407    12.2076    86.3363    68.1076
  822.0000   -42.7887    11.2378    12.2032    86.3363    68.4169
  822.5000   -43.6895    11.2350    12.1996    86.3363    68.4262
  823.0000   -45.3432    11.2314    12.1960    86.3363    69.0308
  823.5000   -46.0933    11.2285    12.1175    86.3363    68.8913
  824.0000   -45.9197    11.2256    12.0389    86.3363    65.8631
  824.5000   -44.5808    11.0722    12.0353    86.3363    65.1606
  825.0000   -43.6743    10.9940    12.0309    86.3363    64.6015
  825.5000   -44.2739    10.8398    12.0273    87.0871    64.9534
  826.0000   -45.1746    10.8369    12.0237    88.5886    67.0808
  826.5000   -45.7816    10.7587    12.0202    88.5886    67.6061
