~VERSION INFORMATION
 VERS.                2.0:   CWLS LOG ASCII STANDARD - VERSION 2.0
 WRAP.                 NO:   ONE LINE PER DEPTH STEP
~WELL INFORMATION
#MNEM.UNIT      DATA TYPE    INFORMATION
#----------   ------------   ------------------------------
 STRT.F            0.0000:   START DEPTH
 STOP.F          814.0000:   STOP DEPTH
 STEP.F            0.5000:   STEP LENGTH
 NULL.          -999.2500:   NO VALUE
 COMP.   FLUOR DANIEL INC:   COMPANY
 WELL. NAVAL PETROLEUM RESERVE 3 SHX- #1-34:   WELL
 FLD .          N.P.R. #3:   FIELD
 LOC .      S34 T39N R78W:   LOCATION
 CNTY.            NATRONA:   COUNTY
 STAT.            WYOMING:   STATE
 CTRY. UNITED STATES OF AMERICA:   COUNTRY
 SRVC.      Western Atlas:   SERVICE COMPANY
 DATE.        24-JAN-1995:   LOGDATE
 API .       490252269400:   API NUMBER
~CURVE INFORMATION
#MNEM.UNIT       API CODE    CURVE DESCRIPTION
#----------   ------------   ------------------------------
 DEPT.F                  :   
 GRR .GAPI   07 310 01 00:   GAMMA RAY FROM RES. LOG.
 RILD.OHMM   07 120 46 00:   INDUCTION LOG DEEP RESISTIVITY
 RILM.OHMM   07 120 44 00:   INDUCTION LOG MEDIUM RESISTIVITY
~PARAMETER INFORMATION
#MNEM.UNIT          VALUE    DESCRIPTION
#----------   ------------   ------------------------------
 PD  .                 GL:   PERMANENT DATUM
 EPD .F              5089:   ELEVATION PERMANENT DATUM
 LMF .                 KB:   LOG MEASURED FROM
 DAPD.F                10:   FEET ABOVE PERMANENT DATUM
 DMF .                 KB:   DRILLING MEASURED FROM
 EKB .F              5099:   KELLING BUSHING
 EDF .F              5098:   DRILLING FLOOR
 EGL .F              5089:   GROUND LEVEL
 DATE.        24-JAN-1995:   RUN DATE
 RUN .                  1:   RUN NUMBER
 DD  .F               826:   DEPTH DRILLER
 DL  .F               824:   DEPTH LOGGER
 BLI .F               817:   BOTTOM LOG INTERVAL
 CS  .IN            9.625:   CASING SIZE
 CBD .F                95:   CASING BOTTOM DRILLER
 CBL .F                94:   CASING BOTTOM LOGGER
 BS  .IN             8.75:   BIT SIZE
 BSD .F               826:   BIT SIZE AT DEPTH
 DFT .                AIR:   DRILLING FLUID TYPE
 MRT .F                90:   MAXIMUM RECORDED TEMPERATURE
 LUN .            HL 6321:   LOGGING UNIT NUMBER
 LUL .         FT. MORGAN:   LOGGING UNIT LOCATION
 ENGI.  MARSHALL BENFIELD:   RECORDING ENGINEER
 WITN.        GARY STRONG:   WITNESSED BY
 CLNT.            A2DTECH:   CLIENT CODE
 ORIG.           5" PRINT:   ORIGIN OF DATA
 UWI .       490252269400:   UNIQUE WELL ID
 DICO. A2D Technologies, Inc.:   DIGITIZING COMPANY
~OTHER INFORMATION
~A    DEPT      GRR      RILD       RILM   
# ...
  728.0000    94.7937    12.4274    12.9561
  728.5000    96.1363    12.2387    12.7361
  729.0000    97.5020    12.0529    12.5102
  729.5000    95.7569    11.8701    12.2885
  730.0000    93.6702    11.6900    12.0707
  730.5000    91.6188    11.5126    11.8567
  731.0000    91.8788    11.3380    11.6466
  731.5000    93.9800    11.1660    11.4401
  732.0000    96.0771    10.9966    11.2374
  732.5000    96.4975    10.8297    11.0382
  733.0000    94.2234    10.6654    10.8425
  733.5000    91.7035    10.5730    10.7702
  734.0000    89.4772    10.5845    10.7868
  734.5000    90.8327    10.6096    10.8124
  735.0000    94.1659    10.6348    10.8381
  735.5000    97.5289    10.6600    10.8638
  736.0000    98.7822    10.6853    10.8896
  736.5000    98.7991    10.7106    10.9154
  737.0000    98.3501    10.7360    10.9412
  737.5000    96.3674    10.7615    10.9674
  738.0000    94.4474    10.7703    10.9711
  738.5000    93.5695    10.7702    10.9711
  739.0000    93.8455    10.7702    10.9709
  739.5000    94.2319    10.7704    10.9709
  740.0000    94.5863    10.7704    10.9776
  740.5000    93.6244    10.7512    11.0183
  741.0000    94.5459    10.6573    11.0709
  741.5000    97.3156    10.5642    11.0436
  742.0000    98.3084    10.4718    10.9982
  742.5000    96.8268    10.3799    10.9530
  743.0000    95.5482    10.2832    10.9053
  743.5000    97.9185    10.2840    10.7749
  744.0000   103.0368    10.2625    10.7220
  744.5000   105.0132    10.2344    10.6645
  745.0000   102.5084    10.2065    10.6053
  745.5000   101.1255    10.1786    10.5463
  746.0000   100.9482    10.1508    10.4876
  746.5000   100.8070    10.1231    10.4293
  747.0000   101.5891    10.0955    10.3714
  747.5000   103.9563    10.0679    10.3137
  748.0000   105.5131    10.0403    10.2563
  748.5000   106.0421    10.0022    10.1895
  749.0000   106.6181    10.0404    10.2429
  749.5000   107.9373    10.1262    10.3282
  750.0000   108.8601    10.2129    10.4141
  750.5000   106.6960    10.3004    10.5008
  751.0000   104.3060    10.3886    10.5730
  751.5000   102.2066    10.4758    10.5094
  752.0000   103.7764    10.3234    10.4554
  752.5000   106.4914    10.2560    10.4019
  753.0000   109.2538    10.1890    10.3486
  753.5000   111.6962    10.1225    10.2798
  754.0000   111.5878    10.0958    10.2886
  754.5000   108.4994    10.0029    10.1933
  755.0000   105.2234     9.9931    10.1764
  755.5000   103.1753     9.9786    10.1618
  756.0000   102.8199     9.9641    10.1470
  756.5000   103.5534     9.9495    10.1324
  757.0000   105.4414     9.9352    10.1174
  757.5000   106.6779     9.9207    10.0967
  758.0000   107.6325     9.8198    10.1003
  758.5000   108.0461     9.6268     9.7824
  759.0000   108.0881     9.4262     9.5920
  759.5000   106.6142     9.2296     9.4053
  760.0000   104.8607     9.0371     9.2223
  760.5000   104.0546     8.8487     9.0428
  761.0000   105.0878     8.6642     8.8669
  761.5000   106.2118     8.4836     8.6943
  762.0000   108.1541     8.3067     8.5251
  762.5000   111.2452     8.1335     8.3243
  763.0000   114.8429     7.9640     8.1118
  763.5000   115.0137     7.7948     7.9401
  764.0000   114.6292     7.3415     7.5724
  764.5000   115.1729     6.7433     7.1026
  765.0000   118.4033     6.1939     6.6159
  765.5000   121.5534     5.6892     6.0582
  766.0000   122.9210     5.2257     5.5381
  766.5000   122.9018     5.0494     5.3867
  767.0000   126.9843     5.0962     5.3867
  767.5000   133.2592     5.0962     5.4550
  768.0000   139.6631     5.1435     5.5381
  768.5000   141.6780     5.2881     5.6413
  769.0000   126.1093     5.3867     6.0577
  769.5000   114.0066     5.9292     6.5531
  770.0000   110.9001     6.5146     7.0890
  770.5000   111.3050     7.1578     7.6688
  771.0000   108.6877     7.8645     8.1922
  771.5000   107.0932     8.4705     8.5182
  772.0000   111.3477     8.5920     8.6375
  772.5000   115.5264     8.6897     8.7585
  773.0000   116.5061     8.7884     8.8811
  773.5000   115.4345     8.8883     9.0055
  774.0000   113.5077     8.9894     9.1316
  774.5000   111.7660     9.0918     9.2594
  775.0000   113.2272     9.2037     9.3765
  775.5000   114.6229     9.3903     9.6056
  776.0000   114.5567     9.5990     9.8194
  776.5000   113.6208     9.8126    10.0380
  777.0000   112.6483    10.0311    10.2615
  777.5000   110.9087    10.2043    10.4240
  778.0000   109.5874    10.2561    10.5171
  778.5000   112.0838    10.3081    10.6111
  779.0000   115.2935    10.3603    10.7059
  779.5000   117.8573    10.3795    10.8016
  780.0000   114.4035    10.2248    10.8701
  780.5000   110.5519    10.0947    10.9132
  781.0000   107.9430    10.2677    10.9610
  781.5000   111.3439    10.5031    11.0090
  782.0000   115.5078    10.7440    11.0728
  782.5000   116.9668    10.8701    11.0623
  783.0000   112.6106    10.8468    11.0460
  783.5000   107.0603    10.8310    11.0299
  784.0000   106.9524    10.8152    11.0138
  784.5000   108.4674    10.7995    10.9978
  785.0000   110.0764    10.7837    10.9818
  785.5000   110.7604    10.7603    10.9465
  786.0000   111.1808    10.6867    10.8716
  786.5000   111.5706    10.6136    10.7972
  787.0000   113.0125    10.5410    10.7234
  787.5000   114.5148    10.4689    10.6501
  788.0000   114.0133    10.3973    10.5730
  788.5000   112.3469    10.2840    10.4758
  789.0000   110.6662    10.1917    10.3516
  789.5000   109.3764    10.0388    10.1963
  790.0000   110.0528     9.8881    10.0432
  790.5000   111.3584     9.7397     9.8925
  791.0000   113.6791     9.5935     9.7440
  791.5000   118.4607     9.4495     9.5978
  792.0000   122.9915     9.3077     9.4537
  792.5000   121.7937     9.1679     9.3118
  793.0000   119.5514     9.0304     9.1720
  793.5000   118.0950     8.8948     9.0344
  794.0000   118.9176     8.7894     8.9533
  794.5000   120.2522     8.7086     8.8710
  795.0000   121.6785     8.5953     8.7422
  795.5000   124.0778     8.5268     8.6724
  796.0000   126.5013     8.4585     8.6033
  796.5000   123.0067     8.3927     8.5491
  797.0000   118.9761     8.3924     8.5491
  797.5000   117.3098     8.3926     8.5491
  798.0000   120.8634     8.3927     8.5492
  798.5000   122.3516     8.3928     8.5489
  799.0000   123.2061     8.3945     8.5499
  799.5000   124.0312     8.3267     8.4323
  800.0000   124.5206     8.2482     8.3192
  800.5000  -999.2500     8.1699     8.2076
  801.0000  -999.2500     8.0897     8.0975
  801.5000  -999.2500     8.0177     7.9889
  802.0000  -999.2500     7.9430     7.8817
  802.5000  -999.2500     7.8223     7.7760
  803.0000  -999.2500     7.7040     7.6717
  803.5000  -999.2500     7.5875     7.5688
  804.0000  -999.2500     7.4727     7.4672
  804.5000  -999.2500     7.3597     7.3671
  805.0000  -999.2500     7.2474     7.2683
  805.5000  -999.2500     7.1729     7.2120
  806.0000  -999.2500     7.1729     7.1586
  806.5000  -999.2500     7.0909     7.1055
  807.0000  -999.2500     6.9095     7.0529
  807.5000  -999.2500     6.9172     6.8175
  808.0000  -999.2500     6.5065     6.5809
  808.5000  -999.2500     6.2794     6.3524
  809.0000  -999.2500     6.0740     6.1873
  809.5000  -999.2500     6.0740     6.2447
  810.0000  -999.2500     6.2052     6.3443
  810.5000  -999.2500     6.3158     6.4548
  811.0000  -999.2500     6.4284     6.5721
  811.5000  -999.2500     6.5930     6.8238
  812.0000  -999.2500     6.9242     7.2500
  812.5000  -999.2500     7.2766     7.7027
  813.0000  -999.2500     7.6455     8.1837
  813.5000  -999.2500     7.9401     8.7086
  814.0000  -999.2500     7.8798  -999.2500
