~VERSION INFORMATION
 VERS.                2.0:   CWLS LOG ASCII STANDARD - VERSION 2.0
 WRAP.                 NO:   ONE LINE PER DEPTH STEP
~WELL INFORMATION
#MNEM.UNIT      DATA TYPE    INFORMATION
#----------   ------------   ------------------------------
 STRT.F            8.0000:   START DEPTH
 STOP.F         2320.0000:   STOP DEPTH
 STEP.F            0.5000:   STEP LENGTH
 NULL.          -999.2500:   NO VALUE
 COMP.    FENIX & SCISSON:   COMPANY
 WELL. N.P.R #3 #77-SHX-10:   WELL
 FLD .             TEAPOT:   FIELD
 LOC .      S10 T38N R78W:   LOCATION
 CNTY.            NATRONA:   COUNTY
 STAT.            WYOMING:   STATE
 CTRY. UNITED STATES OF AMERICA:   COUNTRY
 SRVC.              Welex:   SERVICE COMPANY
 DATE.        05-JUN-1980:   LOGDATE
 API .       490251064900:   API NUMBER
~CURVE INFORMATION
#MNEM.UNIT       API CODE    CURVE DESCRIPTION
#----------   ------------   ------------------------------
 DEPT.F                  :   
 GRD .GAPI   45 310 01 00:   GAMMA RAY FROM DENSITY LOG
 CALD.IN     45 280 60 00:   CALIPER FROM DENSITY LOG
 RHOB.G/C3   45 350 01 00:   BULK DENSITY
 DPHI.DEC    45 890 12 00:   DENSITY POROSITY SANDSTONE
 ILD .OHMM   05 120 46 00:   INDUCTION LOG DEEP
 CORR.G/C3   45 356 01 00:   DENSITY CORRECTION
~PARAMETER INFORMATION
#MNEM.UNIT          VALUE    DESCRIPTION
#----------   ------------   ------------------------------
 PD  .                 GL:   PERMANENT DATUM
 EPD .F              5210:   ELEVATION PERMANENT DATUM
 LMF .                 KB:   LOG MEASURED FROM
 DAPD.F                10:   FEET ABOVE PERMANENT DATUM
 DMF .                 KB:   DRILLING MEASURED FROM
 EKB .F              5220:   KELLING BUSHING
 EGL .F              5210:   GROUND LEVEL
 DATE.        05-JUN-1980:   RUN DATE
 RUN .                  1:   RUN NUMBER
 DD  .F              2358:   DEPTH DRILLER
 DL  .F              2322:   DEPTH LOGGER
 BLI .F              2320:   BOTTOM LOG INTERVAL
 TLI .F               900:   TOP LOG INTERVAL
 CS  .IN                7:   CASING SIZE
 BS  .IN             6.25:   BIT SIZE
 BSD .F              2358:   BIT SIZE AT DEPTH
 DFT .        AIR DRILLED:   DRILLING FLUID TYPE
 MRT .F               107:   MAXIMUM RECORDED TEMPERATURE
 ENGI.               REIN:   RECORDING ENGINEER
 WITN.              AMEND:   WITNESSED BY
 CLNT.            A2DTECH:   CLIENT CODE
 ORIG.           5" PRINT:   ORIGIN OF DATA
 UWI .       490251064900:   UNIQUE WELL ID
 DICO. A2D Technologies, Inc.:   DIGITIZING COMPANY
~OTHER INFORMATION
~A    DEPT      GRD      CALD       RHOB       DPHI        ILD       CORR   
# ...
  892.0000    92.8987     8.4481     2.4902     0.0429     8.2795    -0.0049
  892.5000    96.0374     8.4057     2.4880     0.0440     8.3998    -0.0018
  893.0000    97.6901     8.4675     2.4865     0.0443     8.5811     0.0013
  893.5000    96.9655     8.4992     2.4866     0.0410     8.7711     0.0044
  894.0000    87.3106     8.5308     2.4904     0.0376     8.9665     0.0090
  894.5000  -999.2500     8.5353     2.4972     0.0348     9.1500     0.0137
  895.0000  -999.2500     8.4756     2.5025     0.0310     9.1544     0.0198
  895.5000  -999.2500     8.4480     2.5033     0.0301  -999.2500     0.0199
  896.0000  -999.2500     8.4649     2.5033     0.0270  -999.2500     0.0185
  896.5000  -999.2500     8.4970     2.5104     0.0204  -999.2500     0.0156
  897.0000  -999.2500     8.5434     2.5207     0.0249  -999.2500     0.0127
  897.5000  -999.2500     8.5899     2.5155     0.0261  -999.2500     0.0099
  898.0000  -999.2500     8.5475     2.5118     0.0287  -999.2500     0.0160
  898.5000  -999.2500     8.4458     2.5103     0.0320  -999.2500     0.0221
  899.0000  -999.2500     8.3441     2.5081     0.0269  -999.2500     0.0237
  899.5000  -999.2500     8.3609     2.5059     0.0200  -999.2500     0.0208
  900.0000  -999.2500     8.5407     2.5187     0.0235  -999.2500     0.0165
  900.5000  -999.2500     8.3783     2.5203     0.0330  -999.2500     0.0120
  901.0000  -999.2500     8.1893     2.4972     0.0494  -999.2500     0.0092
  901.5000  -999.2500     7.2924     2.4616     0.0691  -999.2500     0.0584
  902.0000  -999.2500     6.4663     2.4232     0.0880  -999.2500     0.1076
  902.5000    95.7846     7.4598     2.3964     0.1013  -999.2500     0.0950
  903.0000    96.2253     7.5189     2.3769     0.1085  -999.2500     0.0738
  903.5000    96.3657     7.5779     2.3702     0.1179  -999.2500     0.0615
  904.0000    96.5077     7.5772     2.3559     0.1248  -999.2500     0.0526
  904.5000    96.7973     7.5766     2.3514     0.1236  -999.2500     0.0632
  905.0000    96.9412     7.5761     2.3498     0.1224  -999.2500     0.0767
  905.5000    96.9323     7.6055     2.3528     0.1249  -999.2500     0.0948
  906.0000    96.9252     7.6346     2.3708     0.1255  -999.2500     0.1194
  906.5000    96.9179     7.6490     2.3948     0.1096  -999.2500     0.1522
  907.0000    96.3121     7.6633     2.4183     0.0841  -999.2500     0.1808
  907.5000    95.8573     7.6626     2.4449     0.0721  -999.2500     0.1899
  908.0000    96.1486     7.6620     2.4322     0.0685  -999.2500     0.1778
  908.5000    96.7385     7.6615     2.4599     0.0553  -999.2500     0.1596
  909.0000    97.4816     7.6609     2.4719     0.0535  -999.2500     0.1581
  909.5000    98.0675     7.6303     2.4681     0.0551  -999.2500     0.1399
  910.0000    98.5373     7.5999     2.4481     0.0674  -999.2500     0.1082
  910.5000    99.0963     7.4949     2.4268     0.0797  -999.2500     0.0930
  911.0000    99.5369     7.4794     2.4200     0.0866  -999.2500     0.0930
  911.5000    99.9000     7.4788     2.4170     0.0812  -999.2500     0.0839
  912.0000   100.1413     7.5229     2.4305     0.0912  -999.2500     0.0899
  912.5000   100.2618     7.5671     2.4033     0.0945  -999.2500     0.0823
  913.0000    99.6559     7.5964     2.3915     0.1014  -999.2500     0.0627
  913.5000    98.9025     7.6109     2.3735     0.1138  -999.2500     0.0549
  914.0000    98.2983     7.6251     2.3832     0.1087  -999.2500     0.0611
  914.5000    97.9925     7.6544     2.4229     0.0916  -999.2500     0.0792
  915.0000    97.6853     7.6387     2.4425     0.0757  -999.2500     0.0958
  915.5000    97.3796     7.6381     2.4558     0.0622  -999.2500     0.1093
  916.0000    97.3725     7.6376     2.4528     0.0631  -999.2500     0.1153
  916.5000    97.3657     7.6370     2.4340     0.0713  -999.2500     0.1002
  917.0000    97.3582     7.6364     2.4258     0.0785  -999.2500     0.0851
  917.5000    97.3493     7.6506     2.4377     0.0716  -999.2500     0.0775
  918.0000    97.1929     7.6501     2.4175     0.0821  -999.2500     0.0760
  918.5000    97.0366     7.6646     2.4272     0.0789  -999.2500     0.0683
  919.0000    96.8802     7.6639     2.4152     0.0843  -999.2500     0.0578
  919.5000    96.5745     7.6633     2.4032     0.0949  -999.2500     0.0517
  920.0000    96.1194     7.6776     2.3912     0.0981  -999.2500     0.0456
  920.5000    95.8122     7.6620     2.3866     0.1003  -999.2500     0.0486
  921.0000    95.5066     7.6614     2.3986     0.0940  -999.2500     0.0547
  921.5000    95.2010     7.6310     2.4076     0.0952  -999.2500     0.0637
  922.0000    94.5968     7.6155     2.4143     0.0877  -999.2500     0.0666
  922.5000    94.1319     7.6297     2.4083     0.0979  -999.2500     0.0545
  923.0000    94.5808     7.6142     2.3848     0.1061  -999.2500     0.0394
  923.5000    94.2751     7.6287     2.3760     0.1100  -999.2500     0.0333
  924.0000    95.6113     7.6281     2.3940     0.1058  -999.2500     0.0484
  924.5000    96.6489     7.6275     2.4074     0.0956  -999.2500     0.0680
  925.0000    97.1642     7.6418     2.4179     0.0866  -999.2500     0.0846
  925.5000    97.2317     7.6411     2.4262     0.0783  -999.2500     0.0921
  926.0000    97.2228     7.6405     2.4306     0.0837  -999.2500     0.0936
  926.5000    96.9171     7.6550     2.4268     0.0807  -999.2500     0.0905
  927.0000    96.3130     7.6543     2.4223     0.0858  -999.2500     0.0860
  927.5000    96.0073     7.6687     2.4073     0.0898  -999.2500     0.0809
  928.0000    96.1672     7.6829     2.3953     0.0940  -999.2500     0.0784
  928.5000    96.7376     7.6823     2.4043     0.0958  -999.2500     0.0752
  929.0000    96.8806     7.6817     2.4072     0.0922  -999.2500     0.0692
  929.5000    97.1060     7.6812     2.3952     0.0991  -999.2500     0.0692
  930.0000    97.1642     7.6806     2.3802     0.1037  -999.2500     0.0722
  930.5000    96.8503     7.6650     2.3907     0.1034  -999.2500     0.0586
  931.0000    95.9539     7.6944     2.3889     0.1043  -999.2500     0.0601
  931.5000    95.3497     7.7237     2.3786     0.1073  -999.2500     0.0585
  932.0000    95.0459     7.7230     2.3906     0.1091  -999.2500     0.0600
  932.5000    96.5295     7.7224     2.4056     0.0941  -999.2500     0.0766
  933.0000    97.1194     7.7217     2.4176     0.0912  -999.2500     0.0977
  933.5000    97.4090     7.7062     2.4295     0.0804  -999.2500     0.1294
  934.0000    97.7003     7.6758     2.4288     0.0786  -999.2500     0.1248
  934.5000    97.6940     7.6453     2.4100     0.0879  -999.2500     0.1203
  935.0000    97.8371     7.6000     2.3920     0.1021  -999.2500     0.0961
  935.5000    97.9776     7.5994     2.3717     0.0970  -999.2500     0.0794
  936.0000    97.9701     7.6586     2.3747     0.1117  -999.2500     0.0734
  936.5000    97.8122     7.6729     2.3784     0.1105  -999.2500     0.0839
  937.0000    97.6558     7.6872     2.3844     0.1082  -999.2500     0.0944
  937.5000    97.4994     7.7015     2.4031     0.0971  -999.2500     0.1140
  938.0000    97.0445     7.7009     2.4406     0.0763  -999.2500     0.1367
  938.5000    96.8820     7.7153     2.4728     0.0458  -999.2500     0.1629
  939.0000    95.9837     7.7146     2.4900     0.0410  -999.2500     0.1895
  939.5000    95.2303     7.7140     2.4802     0.0398  -999.2500     0.1910
  940.0000    94.9247     7.6985     2.4922     0.0395  -999.2500     0.1758
  940.5000    93.8745     7.6672     2.4974     0.0332  -999.2500     0.1788
  941.0000    94.9104     7.6375     2.4944     0.0393  -999.2500     0.1833
  941.5000    95.8224     7.5922     2.4731     0.0471  -999.2500     0.1501
  942.0000    96.5361     7.5916     2.4434     0.0603  -999.2500     0.1259
  942.5000    96.8293     7.5910     2.4344     0.0748  -999.2500     0.1092
  943.0000    96.9714     7.5904     2.4403     0.0664  -999.2500     0.1016
  943.5000    96.6640     7.5897     2.4350     0.0658  -999.2500     0.1062
