~VERSION INFORMATION
 VERS.                2.0:   CWLS LOG ASCII STANDARD - VERSION 2.0
 WRAP.                 NO:   ONE LINE PER DEPTH STEP
~WELL INFORMATION
#MNEM.UNIT      DATA TYPE    INFORMATION
#----------   ------------   ------------------------------
 STRT.F            4.0000:   START DEPTH
 STOP.F          578.0000:   STOP DEPTH
 STEP.F            0.5000:   STEP LENGTH
 NULL.          -999.2500:   NO VALUE
 COMP.              FENIX:   COMPANY
 WELL.   NPR-3 #14SX11-11:   WELL
 FLD .             TEAPOT:   FIELD
 LOC .      S11 T38N R78W:   LOCATION
 CNTY.            NATRONA:   COUNTY
 STAT.            WYOMING:   STATE
 CTRY. UNITED STATES OF AMERICA:   COUNTRY
 SRVC.           BIRDWELL:   SERVICE COMPANY
 DATE.        14-FEB-1978:   LOGDATE
 API .       490251057100:   API NUMBER
~CURVE INFORMATION
#MNEM.UNIT       API CODE    CURVE DESCRIPTION
#----------   ------------   ------------------------------
 DEPT.F                  :   
 ILD .OHMM   05 120 46 00:   INDUCTION LOG DEEP
 SN  .OHMM   05 040 16 00:   SHORT NORMAL 16"
 SPR .MV     05 010 01 00:   SPONTANEOUS POTENTIAL FROM RES.
 CALD.IN     45 280 60 00:   CALIPER FROM DENSITY LOG
 CORR.G/C3   45 356 01 00:   DENSITY CORRECTION
 DPHI.DEC    45 890 12 00:   DENSITY POROSITY SANDSTONE
 GRD .GAPI   45 310 01 00:   GAMMA RAY FROM DENSITY LOG
 RHOB.G/C3   45 350 01 00:   BULK DENSITY
~PARAMETER INFORMATION
#MNEM.UNIT          VALUE    DESCRIPTION
#----------   ------------   ------------------------------
 PD  .                 GL:   PERMANENT DATUM
 EPD .F              5183:   ELEVATION PERMANENT DATUM
 LMF .                 KB:   LOG MEASURED FROM
 DAPD.F                 4:   FEET ABOVE PERMANENT DATUM
 DMF .                 KB:   DRILLING MEASURED FROM
 EKB .F              5187:   KELLING BUSHING
 EGL .F              5183:   GROUND LEVEL
 DATE.        14-FEB-1978:   RUN DATE
 RUN .                  1:   RUN NUMBER
 DD  .F               580:   DEPTH DRILLER
 DL  .F               580:   DEPTH LOGGER
 BLI .F               578:   BOTTOM LOG INTERVAL
 TLI .F                20:   TOP LOG INTERVAL
 CS  .IN            8.625:   CASING SIZE
 CBD .F                15:   CASING BOTTOM DRILLER
 CBL .F                39:   CASING BOTTOM LOGGER
 BS  .IN            7.875:   BIT SIZE
 BSD .F               580:   BIT SIZE AT DEPTH
 DFT .         LIGNO-SULF:   DRILLING FLUID TYPE
 DFD .                8.6:   DRILLING FLUID DENSITY
 DFV .                 33:   DRILLING FLUID VISCOSITY
 DFPH.                 11:   DRILLING FLUID PH
 DFL .                  4:   DRILLING FLUID LOSS
 MSS .           FLOWLINE:   MUD SAMPLE SOURCE
 RMS .OHMM            1.3:   RESISTIVITY MUD SAMPLE
 MST .F                62:   MUD SAMPLE TEMPERATURE
 RMF .OHMM            1.2:   RESISTIVITY MUD FILTRATE SAMPLE
 MFST.F                64:   MUD FILTRATE SAMPLE TEMPERATURE
 RMC .OHMM            1.6:   RESISTIVITY MUD CAKE
 MCST.F                62:   MUD CAKE SAMPLE TEMPERATURE
 MFSS.               MEAS:   MUD FILTRATE SAMPLE SOURCE
 BHT .F                70:   BOTTOM HOLE TEMPERATURE
 TCS .HRS               3:   TIME CURCULATED STOPPED
 MRT .F                70:   MAXIMUM RECORDED TEMPERATURE
 LUN .               2958:   LOGGING UNIT NUMBER
 LUL .               CASP:   LOGGING UNIT LOCATION
 ENGI.            POINTER:   RECORDING ENGINEER
 WITN.           MCGINLEY:   WITNESSED BY
 CLNT.            A2DTECH:   CLIENT CODE
 ORIG.           5" PRINT:   ORIGIN OF DATA
 UWI .       490251057100:   UNIQUE WELL ID
 DICO. A2D Technologies, Inc.:   DIGITIZING COMPANY
~OTHER INFORMATION
~A    DEPT     ILD         SN        SPR       CALD       CORR       DPHI         GRD      RHOB   
# ...
  206.5000     7.3404     8.1153   -39.6452     7.7217     0.0919     0.0899    90.1845     2.4973
  207.0000     7.3384     8.0560   -39.6525     7.6750     0.0933     0.0834    90.3277     2.4987
  207.5000     7.2858     8.0533   -39.6598     7.5372     0.0887     0.0794    90.9268     2.5124
  208.0000     7.2838     8.0507   -39.8186     7.4754     0.0870     0.0782    91.5299     2.5212
  208.5000     7.3321     8.0480   -39.8259     7.5957     0.0944     0.0755    92.4529     2.5242
  209.0000     7.3816     8.2143   -40.1505     7.7922     0.0928     0.0767    93.1778     2.5271
  209.5000     7.5343     8.3262   -40.5999     7.8066     0.0881     0.0803    93.0170     2.5286
  210.0000     7.6375     8.4976   -41.0617     7.8208     0.0818     0.0839    92.2484     2.5188
  210.5000     7.7960     8.6732   -41.0690     7.8350     0.0789     0.0841    92.5435     2.5150
  211.0000     7.9049     8.7921   -40.0157     7.8337     0.0847     0.0803    90.7110     2.5142
  211.5000     8.1229     8.9738    -5.3260     7.8326     0.0966     0.0813    89.4620     2.5180
  212.0000     8.1772     9.2222    -5.1818     7.8222     0.1010     0.0758    84.7642     2.5249
  212.5000     8.2319     9.3532    -5.1894     7.8116     0.0963     0.0695    85.0593     2.5329
  213.0000     8.2292     9.5402    -5.1982     7.7804     0.0737     0.0732    88.0900     2.5366
  213.5000     8.2270     9.5370    -5.5085     7.7798     0.0646     0.0783    91.7287     2.5253
  214.0000     8.2248     9.5339    -5.5158     7.7793     0.0629     0.0822    90.6560     2.5192
  214.5000     8.2225     9.5307    -5.6746     7.7787     0.0477     0.0866    87.0761     2.5170
  215.0000     8.2199     9.5275    -5.9622     7.7933     0.0462     0.0882    84.4074     2.5101
  215.5000     8.2177     9.5243    -6.2591     7.8231     0.0460     0.0864    87.1320     2.5064
  216.0000     8.1971     9.5204    -6.2848     7.8377     0.0459     0.0847    88.1892     2.5101
  216.5000     8.1732     9.4515    -6.7169     7.8522     0.0473     0.0832    88.0263     2.5138
  217.0000     8.1544     9.4483    -7.0214     7.8669     0.0497     0.0838    87.7135     2.5138
  217.5000     8.1521     9.4452    -7.0229     7.8662     0.0496     0.0871    87.7047     2.5122
  218.0000     8.1494     9.4420    -7.0244     7.8656     0.0496     0.0899    88.3038     2.5084
  218.5000     8.1472     9.4389    -7.0258     7.8650     0.0495     0.0937    90.7831     2.5009
  219.0000     8.1450     9.5006    -7.0273     7.8644     0.0509     0.0964    91.6297     2.4956
  219.5000     8.0866     9.4974    -7.0394     7.8637     0.0509     0.0995    89.9470     2.4985
  220.0000     8.0844     9.4943    -7.1821     7.8785     0.0508     0.0983    86.4427     2.5030
  220.5000     8.0269     9.4911    -7.6381     7.9233     0.0508     0.0959    85.9780     2.4953
  221.0000     8.0801     9.4880    -7.7911     7.9531     0.0507     0.0941    85.6653     2.4939
  221.5000     8.1350     9.4848    -7.9441     7.9677     0.0476     0.0929    85.6565     2.4984
  222.0000     8.3606     9.4808    -7.9456     7.9520     0.0446     0.0947    86.7477     2.5013
  222.5000     8.5335     9.5444    -7.9470     7.9514     0.0430     0.0998    88.0705     2.4976
  223.0000     8.7106     9.6076    -8.1000     7.9658     0.0445     0.0977    86.6917     2.4923
  223.5000     8.8913     9.6712    -7.9500     7.9805     0.0459     0.0941    85.4671     2.4952
  224.0000     9.0131     9.7345    -7.8003     7.9799     0.0474     0.0899    83.6346     2.4997
  224.5000     9.0740     9.8669    -7.8017     7.9641     0.0488     0.0878    81.9541     2.5057
  225.0000     9.1976     9.9436    -7.8032     7.9635     0.0502     0.0918    80.8815     2.5071
  225.5000     9.3236    10.1367    -7.9562     7.9629     0.0502     0.0893    79.9382     2.4988
  226.0000     9.4513    10.2748    -8.1092     7.9471     0.0548     0.0845    78.7340     2.5010
  226.5000     9.5807    10.4588    -8.1106     7.9616     0.0650     0.0803    79.4851     2.5115
  227.0000     9.7119    10.6365    -8.2636     7.9458     0.0680     0.0773    81.1480     2.5217
  227.5000     9.9127    10.7898    -8.4167     7.9452     0.0679     0.0746    80.5313     2.5271
  228.0000    10.1184    11.0155    -8.7215     7.9446     0.0828     0.0608    77.7870     2.5314
  228.5000    10.2570    11.3244    -9.0260     7.9441     0.0858     0.0515    74.5826     2.5554
  229.0000    10.4698    11.5616    -9.4820     7.9131     0.0737     0.0473    76.2474     2.5682
  229.5000    10.6133    11.8053    -9.9380     7.8516     0.0571     0.0602    77.1527     2.5704
  230.0000    10.7585    11.9676   -10.2425     7.8206     0.0526     0.0774    76.9897     2.5448
  230.5000    10.9818    12.1338   -10.5470     7.7896     0.0511     0.0841    76.5250     2.5237
  231.0000    11.2089    12.2173   -10.5485     7.7890     0.0525     0.0885    76.6704     2.5115
  231.5000    11.2058    12.2163   -10.5503     7.8038     0.0524     0.0882    76.9635     2.5034
  232.0000    11.0485    12.2155   -10.5518     7.8030     0.0524     0.0882    76.1783     2.5003
  232.5000    10.8934    12.0465   -10.2502     7.8176     0.0508     0.0889    75.7299     2.4995
  233.0000    10.8152    11.8799   -10.0998     7.8323     0.0493     0.0910    76.7828     2.4995
  233.5000    10.7375    11.7971    -9.9497     7.8315     0.0490     0.0952    78.9016     2.5002
  234.0000    10.5868    11.6339    -9.8000     7.8157     0.0461     0.0970    80.5646     2.4987
  234.5000    10.4345    11.5405    -9.8015     7.8000     0.0446     0.0991    81.1659     2.4957
  235.0000    10.2796    11.3928    -9.8030     7.7690     0.0445     0.1003    80.5470     2.4860
  235.5000    10.0762    11.3134    -9.8048     7.7076     0.0445     0.1015    78.0942     2.4723
  236.0000    10.0039    11.2345    -9.9578     7.6290     0.0459     0.1019    77.9436     2.4753
  236.5000    10.0012    11.1561   -10.2623     7.6000     0.0458     0.1001    78.9986     2.4828
  237.0000     9.9985    11.0018   -10.4153     7.6299     0.0413     0.0992    80.3576     2.4865
  237.5000     9.9958    10.9251   -10.7198     7.6595     0.0382     0.1016    80.8069     2.4872
  238.0000     9.9931    10.9244   -11.0243     7.7045     0.0367     0.1019    79.7321     2.4752
  238.5000    10.0600    10.8482   -11.1773     7.7531     0.0366     0.1016    77.8996     2.4706
  239.0000    10.0572    10.7596   -11.1788     7.6420     0.0380     0.1064    77.1145     2.4723
  239.5000    10.1245    10.6972   -11.1806     7.5962     0.0395     0.1079    75.9041     2.4766
  240.0000    10.1211    10.6965   -11.3336     7.6716     0.0454     0.1049    75.4416     2.4810
  240.5000    10.1184    10.6958   -11.1831     7.7470     0.0514     0.0962    78.1662     2.4885
  241.0000    10.1867    10.6951   -11.1850     7.7920     0.0483     0.0881    80.7410     2.4975
  241.5000    10.1833    10.6944   -11.1864     7.6091     0.0437     0.0899    81.0608     2.5065
  242.0000    10.0403    10.6936   -11.3394     7.5163     0.0392     0.0920    77.8358     2.5081
  242.5000     9.9682    10.6929   -11.6515     7.5940     0.0361     0.0984    75.5066     2.4981
  243.0000     9.8282    10.5450   -12.1003     7.6984     0.0346     0.1017    75.0827     2.4891
  243.5000     9.8255    10.3272   -12.5563     7.7434     0.0375     0.1029    77.1993     2.4801
  244.0000     9.8223    10.2552   -12.7093     7.8036     0.0435     0.1044    79.6222     2.4710
  244.5000     9.8197    10.2545   -12.8623     7.8487     0.0496     0.1093    79.0055     2.4642
  245.0000     9.8170    10.1830   -12.8637     7.7872     0.0613     0.1104    77.3249     2.4620
  245.5000     9.8144    10.1119   -13.0167     7.8018     0.0673     0.0951    75.6403     2.4725
  246.0000     9.7439    10.0414   -13.0182     7.8944     0.0447     0.1017    76.3100     2.4799
  246.5000     9.7413    10.0408   -13.0197     7.9222     0.0312     0.1090    80.9438     2.4704
