~VERSION INFORMATION
 VERS.                2.0:   CWLS LOG ASCII STANDARD - VERSION 2.0
 WRAP.                 NO:   ONE LINE PER DEPTH STEP
~WELL INFORMATION
#MNEM.UNIT      DATA TYPE    INFORMATION
#----------   ------------   ------------------------------
 STRT.F           37.5000:   START DEPTH
 STOP.F          525.5000:   STOP DEPTH
 STEP.F            0.5000:   STEP LENGTH
 NULL.          -999.2500:   NO VALUE
 COMP. LAWRENCE/ALLISON INC:   COMPANY
 WELL.    74-11 SX #10-10:   WELL
 FLD .             TEAPOT:   FIELD
 LOC .      S10 T38N R78W:   LOCATION
 CNTY.            NATRONA:   COUNTY
 STAT.            WYOMING:   STATE
 CTRY. UNITED STATES OF AMERICA:   COUNTRY
 SRVC.            Unknown:   SERVICE COMPANY
 DATE.        08-AUG-1984:   LOGDATE
 API .       490251097800:   API NUMBER
~CURVE INFORMATION
#MNEM.UNIT       API CODE    CURVE DESCRIPTION
#----------   ------------   ------------------------------
 DEPT.F                  :   
 CNC .DEC    42 890 03 00:   NEUTRON POROSITY SANDSTONE
 AC  .US/F   60 520 00 00:   ACCOUSTIC
 GRD .GAPI   45 310 01 00:   GAMMA RAY FROM DENSITY LOG
 CALD.IN     45 280 60 00:   CALIPER FROM DENSITY LOG
 CORR.G/C3   45 356 01 00:   DENSITY CORRECTION
 DPHI.DEC    45 890 12 00:   DENSITY POROSITY SANDSTONE
 DEN .G/C3   45 350 01 00:   COMPENSATED BULK DENSTIY
 RILD.OHMM   07 120 46 00:   RESISTIVITY INDUCTION LOG DEEP
 RILM.OHMM   07 120 44 00:   RESISTIVITY INDUCTION LOG MEDIUM
 RFOC.OHMM   07 220 04 00:   RESISTIVITY FOCUSED LOG
 SPR .MV     07 010 01 00:   SPONTANEOUS POTENTIAL FROM RES.
~PARAMETER INFORMATION
#MNEM.UNIT          VALUE    DESCRIPTION
#----------   ------------   ------------------------------
 PD  .                 GL:   PERMANENT DATUM
 EPD .F              5180:   ELEVATION PERMANENT DATUM
 LMF .                 GL:   LOG MEASURED FROM
 DMF .                 GL:   DRILLING MEASURED FROM
 EGL .F              5180:   GROUND LEVEL
 DATE.             8-8-84:   RUN DATE
 RUN .                  1:   RUN NUMBER
 DD  .F               525:   DEPTH DRILLER
 DL  .F               526:   DEPTH LOGGER
 BLI .F               525:   BOTTOM LOG INTERVAL
 TLI .F                42:   TOP LOG INTERVAL
 CS  .IN            9.625:   CASING SIZE
 CBD .F                42:   CASING BOTTOM DRILLER
 CBL .F                42:   CASING BOTTOM LOGGER
 BS  .IN            7.875:   BIT SIZE
 BSD .F               525:   BIT SIZE AT DEPTH
 DFT .          KCL WATER:   DRILLING FLUID TYPE
 MSS .           FLOWLINE:   MUD SAMPLE SOURCE
 RMS .OHMM           .141:   RESISTIVITY MUD SAMPLE
 MST .F                78:   MUD SAMPLE TEMPERATURE
 RMF .OHMM            .12:   RESISTIVITY MUD FILTRATE SAMPLE
 MFST.F                78:   MUD FILTRATE SAMPLE TEMPERATURE
 RMC .OHMM             .2:   RESISTIVITY MUD CAKE
 MCST.F                78:   MUD CAKE SAMPLE TEMPERATURE
 MFSS.               MEAS:   MUD FILTRATE SAMPLE SOURCE
 MCSS.               MEAS:   MUD CAKE SAMPLE SOURCE
 RMB .OHMM            .13:   RESISTIVITY MUD AT BHT
 BHT .F                89:   BOTTOM HOLE TEMPERATURE
 MRT .F                89:   MAXIMUM RECORDED TEMPERATURE
 LUN .               6307:   LOGGING UNIT NUMBER
 LUL .               GLTE:   LOGGING UNIT LOCATION
 ENGI.            JOHNSON:   RECORDING ENGINEER
 WITN.              FIVAS:   WITNESSED BY
 CLNT.            A2DTECH:   CLIENT CODE
 ORIG.           5" PRINT:   ORIGIN OF DATA
 UWI .       490251097800:   UNIQUE WELL ID
 DICO. A2D Technologies, Inc.:   DIGITIZING COMPANY
~OTHER INFORMATION
~A   DEPT      CNC         AC        GRD       CALD       CORR       DPHI        DEN       RILD       RILM       RFOC        SPR   
# ...
  159.5000     0.0543   101.1960   120.7260     8.0770     0.0470     0.1340     2.4540     8.0730     8.3040    23.0143   -65.0800
  160.0000     0.0552   100.9410   116.2710     8.0730     0.0390     0.1310     2.4600     8.0020     8.0150    21.5139   -64.9760
  160.5000     0.0675   100.6860   113.1340     8.0680     0.0370     0.1280     2.4650     7.9260     7.7260    24.4165   -64.8710
  161.0000     0.0883   100.9330   113.4000     8.0640     0.0380     0.1250     2.4700     8.0920     7.4990    26.0862   -64.7720
  161.5000     0.1220   101.3300   111.3060     8.0600     0.0420     0.1230     2.4740     8.4550     7.5330    27.4519   -64.5320
  162.0000     0.1805   101.7260   105.4790     8.0550     0.0540     0.1200     2.4790     8.8190     7.5690    29.3173   -64.2760
  162.5000     0.2641   102.0450   100.0580     8.0510     0.1230     0.1170     2.4840     9.1830     7.3130    30.1631   -64.0200
  163.0000     0.3006   102.0450    99.1880     8.0470     0.1040     0.1140     2.4890     9.5290     6.9670    29.6620   -63.7650
  163.5000     0.3050   102.0450    98.2270     8.0430     0.0870     0.1130     2.4920     9.6170     7.1540    29.8410   -63.6400
  164.0000     0.3176   102.0450    95.3020     8.0380     0.0740     0.1120     2.4950     9.5470     7.6390    30.0200   -63.9950
  164.5000     0.3213   102.0450    93.1380     8.0340     0.0700     0.1100     2.4980     9.4800     7.1620    30.1980   -64.3500
  165.0000     0.3244   102.0450    95.5720     8.0300     0.0660     0.1070     2.5000     9.4130     7.1200    30.3770   -64.7030
  165.5000     0.3321   102.5360    98.6620     8.0250     0.0610     0.1060     2.5020     9.3470     7.0700    30.5560   -65.0630
  166.0000     0.3469   103.3020    99.4890     8.0210     0.0670     0.1130     2.5010     9.2800     6.7420    30.6920   -65.5050
  166.5000     0.3437   104.0670    99.8360     8.0170     0.0910     0.1220     2.4840     9.1080     6.2560    29.9530   -66.2600
  167.0000     0.3307   105.0620   101.4850     8.0120     0.0790     0.1310     2.4670     8.7380     6.0300    29.3560   -66.9050
  167.5000     0.3207   106.3170   103.8320     8.0080     0.0580     0.1400     2.4510     8.5320     5.8040    28.7580   -67.5330
  168.0000     0.3253   107.5730   104.2890     8.0030     0.0480     0.1460     2.4400     7.7270     5.5850    28.1600   -68.1550
  168.5000     0.3990   108.8290   102.2730     7.9980     0.0440     0.1490     2.4340     6.9460     4.9930    27.5630   -68.7780
  169.0000     0.4232   110.0840   100.4900     8.0190     0.0390     0.1540     2.4280     6.1650     4.4160    26.9790   -69.4010
  169.5000     0.4200   111.5300   101.6110     8.0190     0.0350     0.1590     2.4220     5.3850     3.8950    26.1640   -70.0230
  170.0000     0.4006   113.1780   102.7840     8.0190     0.0450     0.1760     2.4070     4.6040     3.4600    25.7650   -70.6360
  170.5000     0.3822   117.3060   103.8720     8.0200     0.0680     0.1960     2.3720     3.8230     3.0070    23.7540   -70.9440
  171.0000     0.3911   120.9940   101.0990     8.0210     0.0740     0.2170     2.3380     3.3240     2.5290    20.5070   -71.1870
  171.5000     0.4087   124.6830    98.3560     8.0210     0.0720     0.2410     2.3040     3.0130     2.5540    16.4210   -71.2820
  172.0000     0.3910   128.3720    94.3670     8.0220     0.0700     0.2410     2.2760     2.9040     2.6140    12.1460   -71.0280
  172.5000     0.3600   132.2060    90.2630     8.0230     0.0670     0.2220     2.2880     2.7990     2.6740     8.5630   -70.5820
  173.0000     0.3751   131.5990    88.3500     8.0230     0.0760     0.2070     2.3180     2.7230     2.7130     8.2230   -70.1380
  173.5000     0.3835   127.8050    94.4620     8.0240     0.0900     0.1900     2.3480     3.0250     2.7380     9.2330   -69.6970
  174.0000     0.3695   124.5530   100.5050     8.0250     0.1010     0.1820     2.3680     3.2740     2.9970    10.1630   -69.2810
  174.5000     0.3512   121.2750   103.5550     8.0250     0.0850     0.1730     2.3770     3.7290     3.4090     8.7750   -69.0210
  175.0000     0.3279   119.5550   106.6120     8.0260     0.0640     0.1610     2.3960     4.1830     3.8210     8.0730   -68.7560
  175.5000     0.3200   117.8340   109.7760     8.0270     0.0420     0.1460     2.4220     4.6370     4.2320     8.8560   -68.4890
  176.0000     0.3352   113.8920   110.0150     8.0270     0.0500     0.1230     2.4500     5.2910     4.6440    10.8190   -68.2220
  176.5000     0.3383   109.9810   107.3200     8.0280     0.0630     0.1240     2.4760     6.0800     5.0560    13.0330   -67.9560
  177.0000     0.3429   108.0960   104.9580     8.0290     0.0660     0.1260     2.4750     6.8690     5.1980    12.4700   -67.6890
  177.5000     0.3453   107.8240   106.9950     8.0290     0.0670     0.1280     2.4710     7.6590     5.2700    11.7230   -67.4200
  178.0000     0.3459   108.0790   109.0510     8.0300     0.0600     0.1300     2.4660     8.2990     5.3550    10.9770   -67.3980
  178.5000     0.3412   108.3200   109.4990     8.0310     0.0350     0.1320     2.4600     8.5320     5.4730    10.0700   -67.6040
  179.0000     0.3316   107.9280   108.3100     8.0310     0.0330     0.1360     2.4550     8.5320     5.5920    10.2180   -67.8130
  179.5000     0.3173   107.5570   107.1570     8.0320     0.0360     0.1400     2.4500     8.1480     5.6890    10.4070   -68.0210
  180.0000     0.3098   107.1860   107.0880     8.0330     0.0380     0.1480     2.4410     7.6590     5.3820    10.5960   -68.2300
  180.5000     0.3232   106.8150   109.8340     8.0330     0.0100     0.1560     2.4300     7.1700     5.0610    10.7850   -68.4390
  181.0000     0.3395   107.8770   113.3580     8.0340     0.0090     0.1640     2.4190     6.6810     4.7260    10.9400   -68.6470
  181.5000     0.3577   109.8150   116.8930     8.0350     0.0350     0.1720     2.3970     6.1920     4.3910     9.5810   -68.8560
  182.0000     0.3927   111.7540   116.9290     8.0350     0.0510     0.1800     2.3750     5.6890     4.0460     8.2780   -69.0640
  182.5000     0.4075   113.6920   112.1850     8.0360     0.0230     0.1890     2.3630     5.5570     4.0460     6.4130   -69.2730
  183.0000     0.3935   115.0830   113.3360     8.0370     0.0100     0.1800     2.3720     5.3860     4.1520     6.6580   -69.4870
  183.5000     0.3669   115.2020   114.7690     8.0370     0.0360     0.1710     2.3860     5.2150     4.2610     7.0890   -69.5390
  184.0000     0.3492   113.5620   112.6390     8.0370     0.0560     0.1610     2.4050     5.1410     4.3700     7.4310   -69.5350
  184.5000     0.3494   112.1170   107.6150     8.0090     0.0660     0.1510     2.4240     5.4900     4.5400     7.2710   -69.3860
  185.0000     0.3491   111.7610   106.5460     7.9790     0.0570     0.1410     2.4370     5.7980     4.7300     7.0960   -68.7630
  185.5000     0.3466   110.9840   108.1800     7.9490     0.0460     0.1380     2.4470     6.1520     4.9990     7.7620   -68.1550
  186.0000     0.3371   109.8820   109.5950     7.9190     0.0430     0.1380     2.4480     6.5060     5.2940     8.1480   -67.5480
  186.5000     0.3340   108.6430   107.5350     7.8890     0.0400     0.1380     2.4480     7.1920     5.5890     7.5700   -66.9430
  187.0000     0.3319   107.4040   104.1830     7.8610     0.0370     0.1360     2.4490     7.9870     5.8840     7.2950   -66.3680
  187.5000     0.3213   106.1650   100.8280     7.8800     0.0350     0.1320     2.4530     8.7810     6.0200     8.0760   -66.0410
  188.0000     0.2838   104.9270    98.2440     7.9010     0.0330     0.1290     2.4580     9.6170     6.1990     8.6520   -65.7310
  188.5000     0.2813   103.4620   101.9780     7.9210     0.0280     0.1300     2.4620    10.0480     6.3780     9.2290   -65.4250
  189.0000     0.2977   103.1490   106.7510     7.9420     0.0170     0.1290     2.4640    10.2570     6.5540     9.8060   -65.2650
  189.5000     0.3020   102.9130   111.4330     7.9630     0.0090     0.1270     2.4650    10.3520     6.6250    10.0700   -65.7030
