~VERSION INFORMATION
 VERS.                2.0:   CWLS LOG ASCII STANDARD - VERSION 2.0
 WRAP.                 NO:   ONE LINE PER DEPTH STEP
~WELL INFORMATION
#MNEM.UNIT      DATA TYPE    INFORMATION
#----------   ------------   ------------------------------
 STRT.F            0.0000:   START DEPTH
 STOP.F          675.0000:   STOP DEPTH
 STEP.F            0.5000:   STEP LENGTH
 NULL.          -999.2500:   NO VALUE
 COMP.       F D SERV INC:   COMPANY
 WELL. NAVEL PETROLEUM RESERVE 3 SX-2 #18-1-2:   WELL
 FLD .             TEAPOT:   FIELD
 LOC .       S2 T38N R78W:   LOCATION
 CNTY.            NATRONA:   COUNTY
 STAT.            WYOMING:   STATE
 CTRY. UNITED STATES OF AMERICA:   COUNTRY
 SRVC.     Atlas Wireline:   SERVICE COMPANY
 DATE.        23-DEC-1991:   LOGDATE
 API .       490252247200:   API NUMBER
~CURVE INFORMATION
#MNEM.UNIT       API CODE    CURVE DESCRIPTION
#----------   ------------   ------------------------------
 DEPT.F                  :   
 GRR .GAPI   07 310 01 00:   GAMMA RAY FROM RES. LOG.
 SPR .MV     07 010 01 00:   SPONTANEOUS POTENTIAL
 SFL .OHMM   07 220 01 00:   SHALLOW FOCUSED LOG RESISTIVITY
 ILD .OHMM   07 120 46 00:   INDUCTION LOG DEEP
 ILM .OHMM   07 120 44 00:   INDUCTION LOG MEDIUM
~PARAMETER INFORMATION
#MNEM.UNIT          VALUE    DESCRIPTION
#----------   ------------   ------------------------------
 PD  .                 GL:   PERMANENT DATUM
 EPD .F              5148:   ELEVATION PERMANENT DATUM
 LMF .                 KB:   LOG MEASURED FROM
 DAPD.F                10:   FEET ABOVE PERMANENT DATUM
 DMF .                 KB:   DRILLING MEASURED FROM
 EKB .F              5158:   KELLING BUSHING
 EGL .F              5148:   GROUND LEVEL
 DATE.        23-DEC-1991:   RUN DATE
 RUN .                  1:   RUN NUMBER
 DD  .F               630:   DEPTH DRILLER
 DL  .F               678:   DEPTH LOGGER
 BLI .F               675:   BOTTOM LOG INTERVAL
 CS  .IN            9.625:   CASING SIZE
 CBD .F                44:   CASING BOTTOM DRILLER
 CBL .F                48:   CASING BOTTOM LOGGER
 BS  .IN             8.75:   BIT SIZE
 BSD .F               680:   BIT SIZE AT DEPTH
 DFT .           CHEM GEL:   DRILLING FLUID TYPE
 DFD .                9.7:   DRILLING FLUID DENSITY
 DFV .                 79:   DRILLING FLUID VISCOSITY
 DFPH.                  9:   DRILLING FLUID PH
 DFL .                 10:   DRILLING FLUID LOSS
 MSS .           MUD TANK:   MUD SAMPLE SOURCE
 RMS .OHMM            .82:   RESISTIVITY MUD SAMPLE
 MST .F                54:   MUD SAMPLE TEMPERATURE
 RMF .OHMM           1.02:   RESISTIVITY MUD FILTRATE SAMPLE
 MFST.F                54:   MUD FILTRATE SAMPLE TEMPERATURE
 RMC .OHMM            .51:   RESISTIVITY MUD CAKE
 MCST.F                54:   MUD CAKE SAMPLE TEMPERATURE
 MFSS.               CALC:   MUD FILTRATE SAMPLE SOURCE
 MCSS.               CALC:   MUD CAKE SAMPLE SOURCE
 RMB .OHMM            .43:   RESISTIVITY MUD AT BHT
 BHT .F               102:   BOTTOM HOLE TEMPERATURE
 TCS .HRS               2:   TIME CURCULATED STOPPED
 MRT .F               102:   MAXIMUM RECORDED TEMPERATURE
 LUN .            HL-6307:   LOGGING UNIT NUMBER
 LUL .             CASPER:   LOGGING UNIT LOCATION
 ENGI.            WADDELL:   RECORDING ENGINEER
 WITN.              FJVAS:   WITNESSED BY
 CLNT.            A2DTECH:   CLIENT CODE
 ORIG.      2" & 5" PRINT:   ORIGIN OF DATA
 UWI .       490252247200:   UNIQUE WELL ID
 DICO. A2D Technologies, Inc.:   DIGITIZING COMPANY
~OTHER INFORMATION
~A    DEPT      GRR       SPR        SFL        ILD        ILM   
# ...
  366.0000   102.5207   -32.8948     7.1642     5.8284     6.3289
  366.5000   105.4028   -32.6875     6.8967     5.4471     5.8918
  367.0000   106.6458   -32.4761     6.6392     4.9509     5.2450
  367.5000   106.5909   -32.2630     6.3108     4.3396     4.6692
  368.0000   105.2208   -32.0551     5.9247     3.8258     4.1287
  368.5000   105.4858   -31.7542     5.5622     3.3476     3.5751
  369.0000   106.1447   -31.3529     5.0963     2.9456     3.0957
  369.5000   105.5422   -30.9415     4.6017     2.5919     2.6806
  370.0000   101.8086   -30.8943     4.1573     2.4333     2.3412
  370.5000    97.8820   -31.0175     3.7552     2.3196     2.3196
  371.0000    96.2648   -31.1457     3.4485     2.2982     2.4053
  371.5000    95.3713   -31.2866     3.6155     2.3298     2.4657
  372.0000    97.4921   -31.4454     4.1799     2.4149     2.4981
  372.5000   102.2215   -31.6035     4.7345     2.6137     2.8763
  373.0000   106.9249   -31.7620     4.6047     2.7919     3.2838
  373.5000   110.0639   -31.9207     4.6908     3.1936     3.7467
  374.0000   110.7236   -32.0795     5.6948     3.6153     4.2745
  374.5000   109.0183   -32.2214     6.8064     4.0928     4.7993
  375.0000   107.3570   -32.2229     7.1839     4.5342     5.1862
  375.5000   105.0094   -32.2224     7.0725     4.9149     5.4724
  376.0000   102.7049   -32.2222     6.9970     5.3275     5.6396
  376.5000   103.3268   -32.2221     6.9231     5.6417     5.8119
  377.0000   107.1135   -32.2225     6.8587     5.7109     5.9687
  377.5000   108.6030   -32.2471     6.8944     5.7351     6.0713
  378.0000   109.6268   -32.3292     6.9447     5.7515     6.1957
  378.5000   110.8113   -32.4106     7.1263     5.5921     6.0052
  379.0000   112.6932   -32.4920     7.3140     5.3795     5.7522
  379.5000   113.6963   -32.5705     7.5050     5.1750     5.5102
  380.0000   115.3847   -32.5250     7.5984     4.9782     5.2785
  380.5000   117.6437   -32.2085     7.0703     4.7888     5.0567
  381.0000   119.8937   -31.8966     6.2161     4.6064     4.8442
  381.5000   121.9134   -31.5839     5.4405     4.4324     4.6406
  382.0000   122.1540   -31.2731     5.6551     4.3240     4.4372
  382.5000   120.0244   -30.9980     6.1369     4.2703     4.3962
  383.0000   114.6728   -30.7286     6.0837     4.2357     4.5374
  383.5000   109.6969   -30.8880     5.9901     4.3420     4.6745
  384.0000   108.0947   -31.3740     5.9136     4.4354     4.8704
  384.5000   113.0494   -31.8645     6.4929     4.6093     5.0744
  385.0000   116.8797   -32.3562     6.8528     4.8420     5.2913
  385.5000   118.3832   -32.8471     6.7277     5.0865     5.6474
  386.0000   117.4139   -33.3340     6.6707     5.3212     6.0354
  386.5000   114.8910   -33.6298     7.3691     5.5322     6.4149
  387.0000   113.5796   -33.5647     7.7048     5.7507     6.6619
  387.5000   114.2300   -33.5062     7.9548     5.9780     6.9193
  388.0000   113.5354   -33.4417     8.0256     6.2144     7.1837
  388.5000   112.0911   -33.6900     8.0970     6.4610     7.2864
  389.0000   112.3803   -34.1054     8.1690     6.6215     7.3871
  389.5000   113.2300   -34.5229     8.2417     6.6533     7.3867
  390.0000   114.9353   -34.8519     8.2551     6.6716     7.2464
  390.5000   116.9666   -34.7124     8.0614     6.5743     7.1484
  391.0000   118.3637   -34.5756     7.9275     6.4589     7.0521
  391.5000   117.6846   -34.4401     7.7959     6.3454     6.9570
  392.0000   115.6395   -34.3047     7.6664     6.2340     6.7604
  392.5000   112.7440   -34.1690     7.5674     6.0865     6.5395
  393.0000   110.2670   -34.0429     7.5055     5.9215     6.3258
  393.5000   109.2555   -34.0397     7.4441     5.7609     6.1625
  394.0000   110.0790   -34.0405     7.3864     5.6032     5.9670
  394.5000   114.9427   -34.0405     7.2209     5.3720     5.7821
  395.0000   119.0918   -34.0379     7.0315     4.9114     5.3626
  395.5000   120.1668   -33.8947     6.8587     4.5186     4.9448
  396.0000   117.6431   -33.5758     6.2852     4.3012     4.5582
  396.5000   115.6007   -33.2609     5.7899     4.2748     4.1585
  397.0000   115.1501   -33.0254     5.1942     4.2747     4.3307
  397.5000   113.9810   -33.0299     5.2766     4.3967     4.4372
  398.0000   112.0179   -33.0301     5.6586     4.5148     4.8056
  398.5000   112.5873   -33.0307     6.2444     4.6290     5.1741
  399.0000   116.9332   -33.0274     6.8908     4.7345     5.5708
  399.5000   119.1439   -33.1842     7.4592     5.1034     5.8746
  400.0000   114.8324   -33.4012     7.7367     5.4665     6.1383
  400.5000   111.0328   -33.6248     7.6618     5.8554     6.4138
  401.0000   113.6452   -33.6049     7.5795     6.1791     6.6985
  401.5000   119.0512   -33.5670     7.5246     6.3140     6.9378
  402.0000   121.1379   -33.5297     7.7618     6.4518     7.0660
  402.5000   118.8014   -33.4931     7.9456     6.4878     7.0921
  403.0000   116.4350   -33.4593     8.1336     6.5159     7.1184
  403.5000   115.6750   -33.5745     8.2700     6.5670     7.1447
  404.0000   115.6932   -33.9569     8.3109     6.6185     7.1712
  404.5000   116.3513   -34.3350     8.3522     6.6707     7.1977
  405.0000   118.0923   -34.7144     8.3933     6.6354     7.2243
  405.5000   119.1988   -35.0939     8.4097     6.5926     7.2508
  406.0000   118.4700   -35.4444     8.3595     6.5522     7.2328
  406.5000   119.3729   -35.5692     8.3239     6.5120     7.2150
  407.0000   119.3004   -35.7007     8.2885     6.4720     7.1972
  407.5000   118.0674   -35.8339     8.2551     6.4323     7.1796
  408.0000   115.9866   -35.9662     8.2487     6.3928     7.1619
  408.5000   116.7194   -36.1212     8.2426     6.3535     7.1442
  409.0000   117.5560   -36.3264     8.2365     6.3099     7.1267
  409.5000   118.3675   -36.5287     8.2303     6.3455     7.1174
  410.0000   119.0672   -36.6614     8.2242     6.3861     7.1402
  410.5000   119.8974   -36.6353     8.2181     6.4270     7.1577
  411.0000   121.4534   -36.6125     8.2120     6.4878     7.1755
  411.5000   121.1466   -36.5892     8.2059     6.4390     7.1839
  412.0000   119.4452   -36.5659     8.1998     6.3469     7.0368
  412.5000   119.0538   -36.5427     8.1940     6.2562     6.9225
  413.0000   120.4897   -36.5194     8.1876     6.1667     6.6768
  413.5000   122.3261   -36.4962     8.1902     6.0786     6.4278
  414.0000   124.7827   -36.4737     7.8770     5.9949     6.1369
  414.5000   126.2955   -36.5208     7.1839     5.9174     6.1758
  415.0000   125.2443   -36.6492     7.2984     5.8410     6.2428
  415.5000   124.8625   -36.7767     7.4199     5.7656     6.3099
  416.0000   124.8340   -36.9046     7.5434     5.5569     6.3687
  416.5000   124.2994   -37.0329     7.6659     5.3261     5.9604
  417.0000   119.1094   -37.1612     7.7568     5.1051     5.5684
  417.5000   117.2939   -37.2852     7.9033     4.8929     5.1800
  418.0000   119.3765   -36.8366     8.0288     4.6895     4.8186
  418.5000   122.5915   -36.2368     6.6396     4.4952     4.4824
  419.0000   123.5446   -35.6408     5.3272     4.3962     4.3155
  419.5000   121.8133   -35.2702     4.5530     4.4592     4.6427
  420.0000   118.4018   -35.3433     4.4979     4.5092     4.9060
  420.5000   115.9418   -35.4081     6.8435     4.5597     5.1841
  421.0000   116.7386   -35.4743     7.8087     4.6414     5.4781
  421.5000   117.6943   -35.5398     7.9548     4.9623     5.7899
  422.0000   118.5059   -35.6064     7.6647     5.3054     6.1352
  422.5000   118.7050   -35.7092     7.6852     5.6721     6.3682
  423.0000   119.3008   -35.9628     7.7239     6.0803     6.6193
  423.5000   119.4281   -36.2110     7.7620     6.1898     6.7416
  424.0000   118.0955   -36.4588     7.8003     6.2517     6.7954
  424.5000   116.6324   -36.7066     7.9046     5.8854     6.5012
  425.0000   116.8888   -36.9549     8.0288     5.6324     6.0269
  425.5000   115.7554   -37.2157     8.1550     5.3558     5.5872
  426.0000   113.2554   -37.1161     8.2551     4.9635     5.1795
  426.5000   112.4087   -36.9008     6.8770     4.8151     4.9452
