~VERSION INFORMATION
 VERS.                2.0:   CWLS LOG ASCII STANDARD - VERSION 2.0
 WRAP.                 NO:   ONE LINE PER DEPTH STEP
~WELL INFORMATION
#MNEM.UNIT      DATA TYPE    INFORMATION
#----------   ------------   ------------------------------
 STRT.F           80.0000:   START DEPTH
 STOP.F          480.0000:   STOP DEPTH
 STEP.F            0.5000:   STEP LENGTH
 NULL.          -999.2500:   NO VALUE
 COMP. BROWN JOHN E&C INC:   COMPANY
 WELL.         SX 57 #2-3:   WELL
 FLD .        TEAPOT DOME:   FIELD
 LOC .       S3 T38N R78W:   LOCATION
 CNTY.            NATRONA:   COUNTY
 STAT.            WYOMING:   STATE
 CTRY. UNITED STATES OF AMERICA:   COUNTRY
 SRVC.       Schlumberger:   SERVICE COMPANY
 DATE.        05-OCT-1990:   LOGDATE
 API .       490251132700:   API NUMBER
~CURVE INFORMATION
#MNEM.UNIT       API CODE    CURVE DESCRIPTION
#----------   ------------   ------------------------------
 DEPT.F                  :   
 GRR .GAPI   07 310 01 00:   GAMMA RAY FROM RES. LOG.
 SFLU.OHMM   07 220 01 00:   SPHERICALLY FOCUSED LOG UNAVERAGED RESISTIVITY
 ILD .OHMM   07 120 46 00:   INDUCTION LOG DEEP
 ILM .OHMM   07 120 44 00:   INDUCTION LOG MEDIUM
 CNC .DEC    42 890 01 00:   NEUTRON POROSITY LIMESTONE
~PARAMETER INFORMATION
#MNEM.UNIT          VALUE    DESCRIPTION
#----------   ------------   ------------------------------
 PD  .                 GL:   PERMANENT DATUM
 EPD .F              5148:   ELEVATION PERMANENT DATUM
 LMF .                 KB:   LOG MEASURED FROM
 DAPD.F                10:   FEET ABOVE PERMANENT DATUM
 DMF .                 KB:   DRILLING MEASURED FROM
 EKB .F              5158:   KELLING BUSHING
 EDF .F              5157:   DRILLING FLOOR
 EGL .F              5148:   GROUND LEVEL
 DATE.            10-5-90:   RUN DATE
 RUN .                  1:   RUN NUMBER
 DD  .F               485:   DEPTH DRILLER
 DL  .F               484:   DEPTH LOGGER
 BLI .F               481:   BOTTOM LOG INTERVAL
 TLI .F                48:   TOP LOG INTERVAL
 CS  .IN            8.625:   CASING SIZE
 CBD .F                53:   CASING BOTTOM DRILLER
 CBL .F                53:   CASING BOTTOM LOGGER
 BS  .IN            7.875:   BIT SIZE
 BSD .F               485:   BIT SIZE AT DEPTH
 DFT .           WTD DISP:   DRILLING FLUID TYPE
 DFD .               14.3:   DRILLING FLUID DENSITY
 DFV .                 67:   DRILLING FLUID VISCOSITY
 DFPH.                9.5:   DRILLING FLUID PH
 DFL .               12.8:   DRILLING FLUID LOSS
 MSS .           FLOWLINE:   MUD SAMPLE SOURCE
 RMS .OHMM            9.3:   RESISTIVITY MUD SAMPLE
 MST .F                74:   MUD SAMPLE TEMPERATURE
 RMF .OHMM            6.9:   RESISTIVITY MUD FILTRATE SAMPLE
 MFST.F                74:   MUD FILTRATE SAMPLE TEMPERATURE
 RMC .OHMM           13.9:   RESISTIVITY MUD CAKE
 MCST.F                74:   MUD CAKE SAMPLE TEMPERATURE
 MFSS.               CALC:   MUD FILTRATE SAMPLE SOURCE
 MCSS.               CALC:   MUD CAKE SAMPLE SOURCE
 RMB .OHMM          6.438:   RESISTIVITY MUD AT BHT
 BHT .F               110:   BOTTOM HOLE TEMPERATURE
 TCS .HRS            1600:   TIME CURCULATED STOPPED
 MRT .F               110:   MAXIMUM RECORDED TEMPERATURE
 LUN .               5887:   LOGGING UNIT NUMBER
 LUL .               CODY:   LOGGING UNIT LOCATION
 ENGI.        MIKE FISHER:   RECORDING ENGINEER
 WITN.        GARY STRONG:   WITNESSED BY
 CLNT.            A2DTECH:   CLIENT CODE
 ORIG.        2" 5" PRINT:   ORIGIN OF DATA
 UWI .       490251132700:   UNIQUE WELL ID
 DICO. A2D Technologies, Inc.:   DIGITIZING COMPANY
~OTHER INFORMATION
~A   DEPT       GRR        SFLU      ILD        ILM        CNC   
# ...
  263.0000    85.3117     0.9981     0.6959     0.6960     0.2239
  263.5000    84.1011     1.1502     0.7083     0.7085     0.2259
  264.0000    81.0674     1.2265     0.6316     0.6973     0.2280
  264.5000    77.1928     1.2669     0.5498     0.6491     0.2319
  265.0000    73.9797     1.2828     0.4677     0.5549     0.2532
  265.5000    75.5168     0.9375     0.3979     0.4491     0.2770
  266.0000    79.3649     0.6179     0.3385     0.3635     0.2994
  266.5000    84.5386     0.3446     0.2880     0.2942     0.2825
  267.0000    84.8191     0.2584     0.2686     0.2686     0.2554
  267.5000    83.4148     0.2995     0.3037     0.3054     0.2357
  268.0000    78.7586     0.4192     0.3443     0.3482     0.2256
  268.5000    74.3106     0.7899     0.3903     0.3970     0.2196
  269.0000    72.6419     0.9590     0.4424     0.4526     0.2169
  269.5000    72.6756     1.0117     0.5015     0.5160     0.2147
  270.0000    72.3325     1.0695     0.5685     0.5884     0.2135
  270.5000    70.5942     1.0270     0.6365     0.6374     0.2122
  271.0000    70.7188     0.9819     0.6487     0.6574     0.2136
  271.5000    72.8939     0.9387     0.6665     0.6695     0.2150
  272.0000    75.1237     0.8809     0.6506     0.6747     0.2122
  272.5000    77.1176     0.8916     0.6229     0.6482     0.2069
  273.0000    76.9565     0.7979     0.6124     0.6264     0.2017
  273.5000    75.3319     0.7160     0.6199     0.6394     0.1965
  274.0000    73.7022     0.7151     0.6707     0.6933     0.1851
  274.5000    71.7402     0.7859     0.7365     0.7876     0.1663
  275.0000    69.2496     0.9625     0.8087     0.8971     0.1476
  275.5000    63.2313     1.3526     0.8880     1.0217     0.1452
  276.0000    55.1264     1.9862     0.9750     1.1636     0.1488
  276.5000    47.0518     3.1458     1.0706     1.3060     0.1698
  277.0000    43.1334     2.9842     1.1755     1.3554     0.1903
  277.5000    44.2456     2.7199     1.2811     1.3964     0.2052
  278.0000    47.2537     2.1969     1.3534     1.4134     0.2129
  278.5000    49.0149     1.7744     1.3968     1.3902     0.2155
  279.0000    50.1392     1.7160     1.3565     1.3739     0.2155
  279.5000    50.8142     1.7445     1.3248     1.3582     0.2170
  280.0000    51.5214     1.8604     1.2940     1.3463     0.2185
  280.5000    51.3138     2.0202     1.2656     1.2653     0.2195
  281.0000    49.8314     2.1434     1.2510     1.2512     0.2159
  281.5000    48.2616     2.1619     1.2366     1.2366     0.2098
  282.0000    46.1613     1.9279     1.2221     1.2221     0.2033
  282.5000    47.0032     1.7101     1.2445     1.2512     0.2043
  283.0000    48.0228     1.5943     1.2678     1.2816     0.2053
  283.5000    48.1361     1.5940     1.2915     1.3125     0.2031
  284.0000    48.2610     1.6966     1.3143     1.3612     0.1942
  284.5000    48.3825     1.8694     1.3740     1.4312     0.1884
  285.0000    48.6188     2.0581     1.4335     1.5051     0.1897
  285.5000    48.9316     2.2659     1.4951     1.5829     0.1974
  286.0000    50.0585     2.4946     1.5764     1.6647     0.2065
  286.5000    50.0110     2.6871     1.5437     1.7369     0.2074
  287.0000    49.9993     2.6228     1.5009     1.6017     0.2035
  287.5000    49.9922     2.2313     1.4593     1.4933     0.1957
  288.0000    51.0351     1.8922     1.4189     1.4134     0.1879
  288.5000    52.8698     1.6150     1.3964     1.4190     0.1807
  289.0000    54.7222     1.5956     1.4040     1.4237     0.1808
  289.5000    56.4429     1.7686     1.4101     1.4296     0.1893
  290.0000    56.0641     1.9517     1.4136     1.4313     0.1960
  290.5000    54.0759     2.1527     1.4443     1.5311     0.2001
  291.0000    52.1456     2.3739     1.4733     1.6347     0.1953
  291.5000    51.1243     2.5291     1.5028     1.6209     0.1892
  292.0000    50.8938     2.4012     1.5328     1.5961     0.1827
  292.5000    51.0771     2.1580     1.5764     1.5775     0.1821
  293.0000    52.6828     1.9798     1.6080     1.6281     0.1828
  293.5000    54.5770     1.9577     1.6483     1.6684     0.1862
  294.0000    56.4808     1.9371     1.6895     1.7101     0.1921
  294.5000    58.3815     2.1749     1.7168     1.7376     0.1981
  295.0000    60.1100     2.4263     1.7418     1.7631     0.2005
  295.5000    59.3981     2.5802     1.7674     1.7889     0.2001
  296.0000    57.2798     2.6228     1.8295     1.8518     0.1997
  296.5000    54.6279     2.4986     1.9277     1.9512     0.2018
  297.0000    53.4701     2.5312     2.0349     2.0581     0.2005
  297.5000    53.3544     2.5895     2.0347     2.0624     0.1986
  298.0000    54.0515     2.6492     2.0420     2.0668     0.1967
  298.5000    54.7364     2.7199     2.0463     2.0712     0.1964
  299.0000    55.4724     2.6499     2.0507     2.0757     0.1977
  299.5000    56.1871     2.5912     2.0548     2.0799     0.1989
  300.0000    57.0660     2.6548     2.0686     2.0938     0.1985
  300.5000    60.7528     2.6316     2.1047     2.1304     0.1957
  301.0000    64.3009     2.5912     2.1414     2.1675     0.1926
  301.5000    66.8761     2.6542     2.1787     2.2053     0.1901
  302.0000    67.1887     2.7717     2.2167     2.2437     0.1879
  302.5000    65.7865     2.8906     2.2554     2.2829     0.1872
  303.0000    64.7914     2.8303     2.2947     2.3227     0.1857
  303.5000    64.3388     2.7724     2.3347     2.3633     0.1823
  304.0000    63.9467     2.7199     2.3754     2.4039     0.1910
  304.5000    60.1879     2.7769     2.4286     2.4585     0.1928
  305.0000    57.0626     2.8600     2.4846     2.5150     0.1908
  305.5000    56.3644     2.9456     2.5420     2.5730     0.1888
  306.0000    58.4381     3.0338     2.6054     2.6372     0.1876
  306.5000    58.8730     3.1079     2.6959     2.7289     0.1899
  307.0000    56.3370     3.1225     2.7897     2.8238     0.1905
  307.5000    54.7000     3.1374     2.8868     2.9219     0.1900
  308.0000    54.5769     3.1713     2.9871     3.0235     0.1949
  308.5000    57.5071     3.2770     3.0909     3.1286     0.1999
  309.0000    60.5882     3.3863     3.1552     3.1937     0.2045
  309.5000    61.6544     3.5077     3.1748     3.2137     0.2045
  310.0000    61.1051     3.4650     3.1946     3.2336     0.2045
  310.5000    60.2051     3.4170     3.2230     3.2622     0.2062
  311.0000    59.3388     3.3702     3.2197     3.2589     0.2082
  311.5000    59.6802     3.3423     3.2139     3.2531     0.2066
  312.0000    61.2972     3.3423     3.2083     3.2475     0.2031
  312.5000    62.7547     3.3856     3.2027     3.2417     0.2006
  313.0000    62.7397     3.4385     3.1970     3.2360     0.2009
  313.5000    61.7611     3.4922     3.1913     3.2303     0.1975
  314.0000    60.9651     3.5466     3.1857     3.2246     0.1943
  314.5000    61.8404     3.5945     3.1801     3.2188     0.1935
  315.0000    63.4321     3.5699     3.1744     3.2132     0.1938
  315.5000    64.1409     3.5484     3.1688     3.2075     0.1946
  316.0000    62.1482     3.5270     3.1632     3.2018     0.1977
  316.5000    60.4916     3.5058     3.1577     3.1962     0.2016
  317.0000    60.5072     3.4846     3.1521     3.1905     0.2058
  317.5000    61.6470     3.4636     3.1460     3.1844     0.2090
  318.0000    63.3253     3.4428     3.1840     3.2228     0.2110
  318.5000    63.8069     3.4244     3.2278     3.2672     0.2098
  319.0000    63.1354     3.5852     3.2727     3.3126     0.2084
  319.5000    62.4459     3.7363     3.3180     3.3585     0.2087
  320.0000    61.7517     3.8939     3.3831     3.4244     0.2115
  320.5000    61.0429     3.9605     3.3689     3.4100     0.2144
  321.0000    61.1930     3.8593     3.3449     3.3857     0.2144
  321.5000    61.8144     3.6788     3.3211     3.3616     0.2106
  322.0000    63.9045     3.3764     3.2974     3.3373     0.2020
  322.5000    65.2808     3.0704     3.2646     3.3037     0.1925
  323.0000    65.5549     3.1458     3.3477     3.3897     0.1798
  323.5000    63.4772     3.4890     3.5251     3.6138     0.1661
