~VERSION INFORMATION
 VERS.                2.0:   CWLS LOG ASCII STANDARD - VERSION 2.0
 WRAP.                 NO:   ONE LINE PER DEPTH STEP
~WELL INFORMATION
#MNEM.UNIT      DATA TYPE    INFORMATION
#----------   ------------   ------------------------------
 STRT.F           86.0000:   START DEPTH
 STOP.F          770.0000:   STOP DEPTH
 STEP.F            0.5000:   STEP LENGTH
 NULL.          -999.2500:   NO VALUE
 COMP.           U S NAVY:   COMPANY
 WELL. NPR 3 TEAPOT DOM #85-S-34:   WELL
 FLD .        TEAPOT DOME:   FIELD
 LOC .      S34 T39N R78W:   LOCATION
 CNTY.            NATRONA:   COUNTY
 STAT.            WYOMING:   STATE
 CTRY. UNITED STATES OF AMERICA:   COUNTRY
 SRVC. Schlumberger Well Surveying Corp:   SERVICE COMPANY
 DATE.        31-JUL-1963:   LOGDATE
 API .       490250652800:   API NUMBER
~CURVE INFORMATION
#MNEM.UNIT       API CODE    CURVE DESCRIPTION
#----------   ------------   ------------------------------
 DEPT.F                  :   
 ASN .OHMM   05 041 16 00:   AMPLIFIED SHORT NORMAL 16"
 CILD.MMHO   05 110 46 00:   CONDUCTIVITY INDUCTION LOG DEEP
 ILD .OHMM   05 120 46 00:   INDUCTION LOG DEEP
 SPR .MV     05 010 01 00:   SPONTANEOUS POTENTIAL FROM RES.
 GR  .GAPI   30 310 01 00:   GAMMA RAY
~PARAMETER INFORMATION
#MNEM.UNIT          VALUE    DESCRIPTION
#----------   ------------   ------------------------------
 PD  .                 GL:   PERMANENT DATUM
 EPD .F              5071:   ELEVATION PERMANENT DATUM
 LMF .                 KB:   LOG MEASURED FROM
 DAPD.F                 5:   FEET ABOVE PERMANENT DATUM
 DMF .                 KB:   DRILLING MEASURED FROM
 EKB .F              5076:   KELLING BUSHING
 EGL .F              5071:   GROUND LEVEL
 DATE.        31-JUL-1963:   RUN DATE
 RUN .                  1:   RUN NUMBER
 DD  .F               770:   DEPTH DRILLER
 DL  .F               771:   DEPTH LOGGER
 BLI .F               770:   BOTTOM LOG INTERVAL
 TLI .F                86:   TOP LOG INTERVAL
 CS  .IN            8.625:   CASING SIZE
 CBD .F                10:   CASING BOTTOM DRILLER
 BS  .IN             6.75:   BIT SIZE
 BSD .F               770:   BIT SIZE AT DEPTH
 DFT .          GEL & OIL:   DRILLING FLUID TYPE
 DFD .                9.6:   DRILLING FLUID DENSITY
 DFV .                 39:   DRILLING FLUID VISCOSITY
 DFPH.                9.0:   DRILLING FLUID PH
 DFL .                8.8:   DRILLING FLUID LOSS
 MSS .           FLOWLINE:   MUD SAMPLE SOURCE
 RMS .OHMM           3.06:   RESISTIVITY MUD SAMPLE
 MST .F                94:   MUD SAMPLE TEMPERATURE
 RMF .OHMM           2.64:   RESISTIVITY MUD FILTRATE SAMPLE
 MFST.F                94:   MUD FILTRATE SAMPLE TEMPERATURE
 MFSS.               MEAS:   MUD FILTRATE SAMPLE SOURCE
 TCS .HRS               1:   TIME CURCULATED STOPPED
 MRT .F           LESS 80:   MAXIMUM RECORDED TEMPERATURE
 LUN .               4507:   LOGGING UNIT NUMBER
 LUL .               CSPR:   LOGGING UNIT LOCATION
 ENGI.            WINKLER:   RECORDING ENGINEER
 WITN.          JORGENSON:   WITNESSED BY
 CLNT.            A2DTECH:   CLIENT CODE
 ORIG.           5" PRINT:   ORIGIN OF DATA
 UWI .       490250652800:   UNIQUE WELL ID
 DICO. A2D Technologies, Inc.:   DIGITIZING COMPANY
~OTHER INFORMATION
~A   DEPT        ASN      CILD         ILD      SPR         GR   
# ...
  269.0000     7.7471   155.7731     6.4636   -32.2272  -999.2500
  269.5000     7.5265   154.9473     6.4606   -32.2363  -999.2500
  270.0000     7.3375   151.8989     6.4575   -32.2455  -999.2500
  270.5000     7.8329   149.5636     6.5329   -32.2547  -999.2500
  271.0000     8.1526   148.0094     6.6082   -32.2638  -999.2500
  271.5000     7.9635   149.6250     6.6050   -31.9590  -999.2500
  272.0000     7.8216   151.2329     6.6013   -31.7844  -999.2500
  272.5000     7.7111   152.0523     6.7558   -31.5064  -999.2500
  273.0000     7.5692   152.0829     6.7520   -31.5179  -999.2500
  273.5000     7.4744   151.3249     6.7489   -32.1550  -999.2500
  274.0000     7.4267   150.5670     6.7459   -33.4200  -999.2500
  274.5000     7.4574   149.8090     6.7429   -33.2722  -999.2500
  275.0000     7.5039   148.2624     6.7398   -33.2814  -999.2500
  275.5000     7.6179   146.7235     6.7367   -34.0755  -999.2500
  276.0000     7.7537   145.9578     6.7330   -35.5143  -999.2500
  276.5000     7.8159   145.1999     6.7299   -36.8142  -999.2500
  277.0000     7.8467   144.4419     6.7269   -37.4020  -999.2500
  277.5000     7.8775   145.2689     6.7238   -37.5681  -999.2500
  278.0000     7.9241   146.8980     6.7992   -37.7343  -999.2500
  278.5000     7.8919   149.2744     6.7961   -37.4295  -999.2500
  279.0000     7.8285   150.1005     6.7147   -36.4967  -999.2500
  279.5000     7.7808   151.7084     6.7053   -36.1915  -999.2500
  280.0000     7.7174   152.5278     6.5511   -37.1430  -999.2500
  280.5000     7.6210   154.1357     6.3913   -37.9440  -999.2500
  281.0000     7.5120   154.9550     6.3883   -38.5986  -999.2500
  281.5000     7.4486   155.7744     6.3069   -39.0566  -999.2500
  282.0000     7.4165   156.5937     6.3038   -38.7518  -999.2500
  282.5000     7.3845   155.8357     6.3799   -37.8191  -999.2500
  283.0000     7.3682   155.0777     6.3761   -34.8455  -999.2500
  283.5000     7.3835   153.5311     6.3730   -32.1859  -999.2500
  284.0000     7.5240   151.2036     6.4484   -31.4079  -999.2500
  284.5000     7.6647   149.6569     6.5237   -31.7333  -999.2500
  285.0000     7.7268   148.1103     6.5199   -34.1078  -999.2500
  285.5000     7.7733   146.5560     6.5960   -35.0487  -999.2500
  286.0000     7.8197   144.2271     6.6713   -35.3738  -999.2500
  286.5000     7.8504   141.1046     6.7459   -35.0690  -999.2500
  287.0000     7.9126   137.9389     6.8996   -34.4502  -999.2500
  287.5000     7.9748   136.4341     7.0533   -33.8314  -999.2500
  288.0000     8.0684   134.8874     7.2163   -33.2126  -999.2500
  288.5000     8.2091   133.3408     7.4383   -32.9078  -999.2500
  289.0000     8.3497   131.7942     7.5920   -32.9170  -999.2500
  289.5000     8.5061   128.6780     7.7457   -32.9262  -999.2500
  290.0000     8.6311   127.1237     7.8218   -32.6007  -999.2500
  290.5000     8.6933   125.5848     7.8971   -32.3166  -999.2500
  291.0000     8.7396   125.6154     7.8933   -32.3280  -999.2500
  291.5000     8.7862   125.6467     7.8903   -32.3372  -999.2500
  292.0000     8.8170   127.2618     7.8809   -32.3463  -999.2500
  292.5000     8.8321   131.2356     7.4916   -31.8846  -999.2500
  293.0000     8.7842   135.2095     7.3318   -31.4228  -999.2500
  293.5000     8.5952   139.9721     7.2504   -31.1177  -999.2500
  294.0000     8.3749   142.3687     7.0906   -30.8111  -999.2500
  294.5000     8.2800   143.1880     6.9308   -30.5084  -999.2500
  295.0000     8.1852   138.4868     6.9277   -30.5198  -999.2500
  295.5000     8.0889   136.1516     7.1598   -30.5290  -999.2500
  296.0000     8.0427   135.3936     7.2351   -30.5381  -999.2500
  296.5000     8.5286   137.7979     7.1536   -30.5473  -999.2500
  297.0000     8.9991   140.1945     7.0716   -30.5565  -999.2500
  297.5000     8.7472   139.4365     7.0685   -30.4064  -999.2500
  298.0000     8.7153   136.3126     7.0655   -30.4178  -999.2500
  298.5000     8.9657   133.1887     7.2199   -30.1130  -999.2500
  299.0000     9.0124   131.6344     7.3736   -30.1224  -999.2500
  299.5000     8.3837   134.0387     7.4483   -30.2906  -999.2500
  300.0000     8.1788   139.5899     7.2096   -30.6115  -999.2500
  300.5000     8.1932   140.4417     7.2041   -31.0900  -999.2500
  301.0000     8.2072   140.5047     7.1987   -31.0962  -999.2500
  301.5000     8.2683   140.5678     7.1932   -30.7870  -999.2500
  302.0000     8.2980   139.8412     7.1877   -30.4808  -999.2500
  302.5000     8.2958   139.9041     7.1823   -30.4871  -999.2500
  303.0000     8.2313   139.1782     7.2552   -30.8073  -999.2500
  303.5000     8.1982   138.4524     7.2497   -31.4415  -999.2500
  304.0000     8.1965   137.6235     7.3229   -31.7617  -999.2500
  304.5000     8.1791   136.0962     7.3172   -31.7680  -999.2500
  305.0000     8.1774   134.6977     7.3903   -31.9312  -999.2500
  305.5000     8.2070   133.1832     7.4632   -31.3096  -999.2500
  306.0000     8.3937   131.6845     7.4576   -31.0016  -999.2500
  306.5000     8.5810   131.7473     7.5306   -31.1651  -999.2500
  307.0000     8.6886   131.8102     7.6034   -31.6423  -999.2500
  307.5000     8.7182   132.6616     7.5979   -32.1195  -999.2500
  308.0000     8.6150   136.6677     7.5925   -32.7537  -999.2500
  308.5000     8.3305   141.4624     7.4303   -33.2309  -999.2500
  309.0000     8.0445   146.2570     7.2638   -33.7082  -999.2500
  309.5000     7.7742   149.4745     6.9454   -34.1854  -999.2500
  310.0000     7.6417   151.1146     6.7816   -34.8196  -999.2500
  310.5000     7.5772   152.7547     6.6246   -35.6108  -999.2500
  311.0000     7.5284   152.8175     6.6191   -35.7740  -999.2500
  311.5000     7.5267   154.4576     6.5253   -34.9953  -999.2500
  312.0000     7.5250   154.5205     6.4514   -32.6468  -999.2500
  312.5000     7.5394   154.5833     6.4329   -31.7111  -999.2500
  313.0000     7.5372   156.2234     6.3621   -30.9304  -999.2500
  313.5000     7.5355   157.0749     6.3555   -30.6206  -999.2500
  314.0000     7.5338   157.9263     6.3500   -30.3170  -999.2500
  314.5000     7.4850   159.5665     6.4243   -30.4888  -999.2500
  315.0000     7.3891   161.2066     6.4175   -31.9414  -999.2500
  315.5000     7.3089   161.2694     6.4904   -34.2732  -999.2500
  316.0000     7.2758   158.9663     6.5647   -35.0518  -999.2500
  316.5000     7.3055   156.6632     6.7146   -35.0581  -999.2500
  317.0000     7.3356   155.1331     6.7889   -35.2214  -999.2500
  317.5000     7.4276   152.0570     6.8618   -35.2276  -999.2500
  318.0000     7.5515   148.9653     7.0131   -35.2339  -999.2500
  318.5000     7.7539   145.8735     7.0062   -35.0830  -999.2500
  319.0000     7.9562   142.7818     7.1589   -34.9322  -999.2500
  319.5000     8.0173   139.6900     7.2318   -34.7815  -999.2500
  320.0000     8.0313   136.5983     7.3047   -34.9463  -999.2500
  320.5000     8.0767   135.0681     7.2979   -35.1096  -999.2500
  321.0000     8.1377   135.1467     7.4492   -35.2728  -999.2500
  321.5000     8.2145   135.2095     7.5221   -35.2791  -999.2500
  322.0000     8.2756   136.0610     7.5166   -35.2853  -999.2500
  322.5000     8.3053   136.9124     7.5112   -35.1330  -999.2500
  323.0000     8.2251   138.5526     7.5057   -34.8269  -999.2500
  323.5000     8.1920   140.1927     7.4219   -34.5192  -999.2500
  324.0000     8.1431   141.8328     7.4164   -34.2114  -999.2500
  324.5000     8.0943   144.2616     7.3326   -33.5898  -999.2500
  325.0000     8.0298   147.4790     7.1704   -32.8111  -999.2500
  325.5000     7.9492   149.9077     6.9298   -32.6588  -999.2500
  326.0000     7.8512   150.7592     6.7676   -32.0387  -999.2500
  326.5000     7.7421   150.8220     6.7622   -30.9460  -999.2500
  327.0000     7.7403   150.0946     6.8364   -30.4798  -999.2500
  327.5000     7.7878   149.3704     6.9094   -30.4876  -999.2500
  328.0000     7.8493   147.0673     7.0593   -30.4939  -999.2500
  328.5000     7.9323   143.9756     7.2108   -30.5001  -999.2500
  329.0000     8.1570   141.6725     7.4402   -30.5064  -999.2500
  329.5000     8.2970   137.7921     7.5133   -30.8266  -999.2500
