~VERSION INFORMATION
 VERS.                2.0:   CWLS LOG ASCII STANDARD - VERSION 2.0
 WRAP.                 NO:   ONE LINE PER DEPTH STEP
~WELL INFORMATION
#MNEM.UNIT      DATA TYPE    INFORMATION
#----------   ------------   ------------------------------
 STRT.F           28.0000:   START DEPTH
 STOP.F          551.0000:   STOP DEPTH
 STEP.F            0.5000:   STEP LENGTH
 NULL.          -999.2500:   NO VALUE
 COMP. FENIX & SCISSON, INC.:   COMPANY
 WELL.        NPR #85-S-3:   WELL
 FLD .             TEAPOT:   FIELD
 LOC .       S3 T38N R78W:   LOCATION
 CNTY.            NATRONA:   COUNTY
 STAT.            WYOMING:   STATE
 CTRY. UNITED STATES OF AMERICA:   COUNTRY
 SRVC.            Unknown:   SERVICE COMPANY
 DATE.        22-JAN-1977:   LOGDATE
 API .       490251055800:   API NUMBER
~CURVE INFORMATION
#MNEM.UNIT       API CODE    CURVE DESCRIPTION
#----------   ------------   ------------------------------
 DEPT.F                  :   
 ILD .OHMM   05 120 46 00:   INDUCTION LOG DEEP
 SN  .OHMM   05 040 16 00:   SHORT NORMAL 16"
 SPR .MV     05 010 01 00:   SPONTANEOUS POTENTIAL FROM RES.
 CALD.IN     45 280 60 00:   CALIPER FROM DENSITY LOG
 CORR.G/C3   45 356 01 00:   DENSITY CORRECTION
 DPHI.DEC    45 890 12 00:   DENSITY POROSITY SANDSTONE
 GRD .GAPI   45 310 01 00:   GAMMA RAY FROM DENSITY LOG
 RHOB.G/C3   45 350 01 00:   BULK DENSITY
~PARAMETER INFORMATION
#MNEM.UNIT          VALUE    DESCRIPTION
#----------   ------------   ------------------------------
 PD  .                 GL:   PERMANENT DATUM
 EPD .F              5132:   ELEVATION PERMANENT DATUM
 LMF .                 KB:   LOG MEASURED FROM
 DAPD.F                 4:   FEET ABOVE PERMANENT DATUM
 DMF .                 KB:   DRILLING MEASURED FROM
 EKB .F              5136:   KELLING BUSHING
 EGL .F              5132:   GROUND LEVEL
 DATE.          1-22-1977:   RUN DATE
 RUN .                  1:   RUN NUMBER
 DD  .F               550:   DEPTH DRILLER
 DL  .F               550:   DEPTH LOGGER
 BLI .F               545:   BOTTOM LOG INTERVAL
 TLI .F                50:   TOP LOG INTERVAL
 CS  .IN            8.625:   CASING SIZE
 CBD .F                40:   CASING BOTTOM DRILLER
 CBL .F                40:   CASING BOTTOM LOGGER
 BS  .IN            7.875:   BIT SIZE
 BSD .F               550:   BIT SIZE AT DEPTH
 DFT .                KCL:   DRILLING FLUID TYPE
 DFD .                8.6:   DRILLING FLUID DENSITY
 DFV .                 36:   DRILLING FLUID VISCOSITY
 DFPH.                 10:   DRILLING FLUID PH
 DFL .                7.2:   DRILLING FLUID LOSS
 MSS .           FLOWLINE:   MUD SAMPLE SOURCE
 RMS .OHMM             .3:   RESISTIVITY MUD SAMPLE
 MST .F                56:   MUD SAMPLE TEMPERATURE
 RMF .OHMM             .3:   RESISTIVITY MUD FILTRATE SAMPLE
 MFST.F                58:   MUD FILTRATE SAMPLE TEMPERATURE
 RMC .OHMM             .3:   RESISTIVITY MUD CAKE
 MCST.F                58:   MUD CAKE SAMPLE TEMPERATURE
 MFSS.           MEASURED:   MUD FILTRATE SAMPLE SOURCE
 MCSS.           MEASURED:   MUD CAKE SAMPLE SOURCE
 RMB .OHMM            .25:   RESISTIVITY MUD AT BHT
 BHT .F                68:   BOTTOM HOLE TEMPERATURE
 TCS .HRS               3:   TIME CURCULATED STOPPED
 MRT .F                68:   MAXIMUM RECORDED TEMPERATURE
 LUN .               2958:   LOGGING UNIT NUMBER
 LUL .             CASPER:   LOGGING UNIT LOCATION
 ENGI.           REYNOLDS:   RECORDING ENGINEER
 WITN.             GINLEY:   WITNESSED BY
 CLNT.            A2DTECH:   CLIENT CODE
 ORIG.           5" PRINT:   ORIGIN OF DATA
 UWI .       490251055800:   UNIQUE WELL ID
 DICO. A2D Technologies, Inc.:   DIGITIZING COMPANY
~OTHER INFORMATION
~A   DEPT      ILD         SN        SPR       CALD       CORR       DPHI         GRD      RHOB   
# ...
  271.0000     7.2217     7.2414   -46.5349     7.6887     0.1935     0.1740   110.6078     2.3798
  271.5000     6.9301     6.9488   -46.8280     7.7042     0.1932     0.1827   109.2439     2.3588
  272.0000     6.5589     6.6220   -47.1211     7.7197     0.1929     0.1869   110.1740     2.3498
  272.5000     6.0383     6.2239   -47.4141     7.7352     0.1926     0.1863   109.4348     2.3476
  273.0000     5.4074     5.8903   -47.5576     7.7358     0.1923     0.1884   107.9490     2.3461
  273.5000     4.7759     5.4980   -47.5516     7.7364     0.1921     0.1971   109.4452     2.3409
  274.0000     4.0748     5.0613   -47.5456     7.7370     0.1918     0.2031   107.8118     2.3274
  274.5000     3.5007     4.4697   -47.5396     7.7524     0.1915     0.2118   109.9056     2.3079
  275.0000     3.1133     3.8931   -47.5336     7.7530     0.1912     0.2283   111.1038     2.2907
  275.5000     2.9876     3.4860   -47.5265     7.7536     0.1925     0.2370   111.7059     2.2810
  276.0000     2.9474     3.2764   -47.3711     7.7691     0.1970     0.2538   106.7938     2.2480
  276.5000     2.9482     3.2284   -47.2157     7.7697     0.2031     0.2592   106.3511     2.2142
  277.0000     3.0808     3.3010   -47.0603     7.7852     0.2091     0.2591   105.6134     2.2113
  277.5000     3.4110     3.5878   -46.9049     7.7858     0.2151     0.2494   104.4271     2.2150
  278.0000     3.7329     3.8995   -46.6000     7.8012     0.2196     0.2347   103.6878     2.2308
  278.5000     4.2581     4.2713   -46.4446     7.8018     0.2182     0.2044   105.3331     2.2789
  279.0000     4.9935     4.7155   -46.1397     7.8024     0.2031     0.1654   109.2139     2.3606
  279.5000     5.6569     5.3191   -45.8348     7.8179     0.2046     0.1579   118.4597     2.3794
  280.0000     6.0218     6.0373   -45.3805     7.8185     0.2077     0.1559   120.9977     2.3930
  280.5000     6.3660     6.3387   -45.3886     7.8339     0.1942     0.1556   116.2361     2.4012
  281.0000     6.5918     6.6092   -45.3979     7.8345     0.1942     0.1574   115.6445     2.4012
  281.5000     6.7785     6.7966   -45.4071     7.8500     0.1942     0.1587   116.9931     2.3998
  282.0000     6.8274     6.8456   -45.4163     7.8506     0.1942     0.1569   120.8739     2.4028
  282.5000     6.8767     6.8475   -45.4256     7.8512     0.1942     0.1514   121.9230     2.4081
  283.0000     6.8307     6.8494   -45.4348     7.8518     0.1942     0.1496   122.5251     2.4126
  283.5000     6.7855     6.8988   -45.4440     7.8458     0.1942     0.1550   123.8723     2.4149
  284.0000     6.6484     6.8054   -45.4533     7.8380     0.1943     0.1568   122.6860     2.4089
  284.5000     6.4688     6.8550   -45.4625     7.8446     0.1943     0.1549   122.2434     2.4074
  285.0000     6.2507     6.8096   -45.4712     7.8542     0.1943     0.1522   125.3804     2.4067
  285.5000     5.9983     6.7178   -45.4638     7.8697     0.1928     0.1513   126.7276     2.4097
  286.0000     5.7562     6.4019   -45.4579     7.8702     0.1883     0.1555   126.2865     2.4105
  286.5000     5.5621     6.2288   -45.4519     7.8709     0.1838     0.1615   123.7589     2.4045
  287.0000     5.4494     6.0604   -45.2965     7.8715     0.1883     0.1660   121.6784     2.3970
  287.5000     5.3760     5.9375   -45.1411     7.8869     0.1944     0.1708   120.6411     2.3858
  288.0000     5.4163     5.7770   -44.9857     7.8875     0.2019     0.1675   120.3487     2.3790
  288.5000     5.5713     5.8231   -44.8303     7.8881     0.2034     0.1588   122.1433     2.3836
  289.0000     5.7307     5.9491   -44.6749     7.8887     0.2034     0.1516   123.4905     2.4031
  289.5000     5.9835     6.1537   -44.6690     7.8985     0.2034     0.1471   120.6648     2.4174
  290.0000     6.3118     6.3721   -44.6637     7.9048     0.2035     0.1459   119.1803     2.4227
  290.5000     6.5810     6.5982   -44.6577     7.9054     0.2050     0.1444   119.1864     2.4249
  291.0000     6.8616     6.7853   -44.6517     7.9209     0.2065     0.1426   119.4903     2.4273
  291.5000     7.1542     7.0261   -44.6457     7.9214     0.2095     0.1405   120.8376     2.4325
  292.0000     7.4079     7.2754   -44.6398     7.9220     0.2125     0.1375   122.4849     2.4347
  292.5000     7.6178     7.5336   -44.6338     7.9226     0.2126     0.1344   120.2185     2.4371
  293.0000     7.7796     7.7471   -44.6278     7.9232     0.2126     0.1317   118.3218     2.4441
  293.5000     7.8901     7.8573   -44.6218     7.9238     0.2111     0.1302   119.8510     2.4531
  294.0000     7.9470     7.9140   -44.6158     7.9244     0.2081     0.1320   121.3423     2.4566
  294.5000     7.9492     7.9711   -44.6099     7.9101     0.2066     0.1365   112.9240     2.4502
  295.0000     7.9514     7.9733   -44.6039     7.8958     0.2051     0.1440   115.0769     2.4404
  295.5000     7.8987     7.9755   -44.5979     7.8816     0.2096     0.1572   116.5631     2.4245
  296.0000     7.9009     7.8137   -44.5919     7.8673     0.2247     0.1674   113.5884     2.3922
  296.5000     7.8481     7.6553   -44.5859     7.8381     0.2488     0.1743   115.0224     2.3802
  297.0000     7.7961     7.5514   -44.5800     7.8387     0.2849     0.1704   116.2843     2.3727
  297.5000     7.6911     7.4504   -44.5740     7.8095     0.3225     0.1638   114.2038     2.3750
  298.0000     7.5880     7.4463   -44.5680     7.7506     0.3315     0.1536   111.9743     2.3945
  298.5000     7.4344     7.3433   -44.5620     7.6768     0.3300     0.1371   114.5137     2.4328
  299.0000     7.2335     7.2029   -44.5561     7.6476     0.3255     0.1212   116.0085     2.4688
  299.5000     6.9415     6.9603   -44.5501     7.6333     0.3000     0.1173   114.0785     2.4824
  300.0000     6.5244     6.7717   -44.5441     7.6190     0.2450     0.1227   115.1277     2.4846
  300.5000     6.1291     7.0609   -44.5381     7.6296     0.2083     0.1500   113.3452     2.4081
  301.0000     5.7977     6.5906   -44.5313     7.6202     0.2068     0.1551   112.7535     2.4074
  301.5000     5.5992     6.1944   -44.5253     7.6059     0.2054     0.1571   113.3571     2.3992
  302.0000     5.4947     5.9441   -44.5194     7.6040     0.2024     0.1586   112.1708     2.3977
  302.5000     5.5347     5.8236   -44.5135     7.5998     0.2025     0.1673   113.2184     2.3932
  303.0000     5.6523     5.7452   -44.3581     7.5955     0.2040     0.1811   112.1811     2.3737
  303.5000     5.8124     5.8268   -43.9037     7.5913     0.2086     0.1826   113.9769     2.3580
  304.0000     6.0603     5.9097   -43.7483     7.5870     0.2116     0.1754   112.3608     2.3550
  304.5000     6.4512     6.1619   -43.5929     7.5828     0.2102     0.1682   113.0477     2.3580
  305.0000     6.9629     6.6052   -43.5870     7.5803     0.2027     0.1616   111.9124     2.3828
  305.5000     7.3102     7.1296   -43.5811     7.5959     0.1982     0.1458   110.5884     2.4009
  306.0000     7.6220     7.5899   -43.5617     7.6263     0.1968     0.1392   113.0760     2.4039
  306.5000     7.8379     7.8051   -43.5357     7.6715     0.1968     0.1458   114.0310     2.4043
  307.0000     7.8944     7.9160   -43.5096     7.7018     0.1969     0.1533   111.8029     2.4059
  307.5000     7.9514     7.9732   -43.4836     7.7322     0.1969     0.1557   116.5812     2.3976
  308.0000     7.9535     7.9754   -43.4576     7.7328     0.1970     0.1545   119.4202     2.3998
  308.5000     8.0109     8.0330   -43.4315     7.7483     0.1970     0.1542   115.7019     2.4036
  309.0000     8.0131     8.0352   -43.4055     7.7489     0.1971     0.1545   113.4738     2.4044
  309.5000     8.0152     8.0933   -43.5335     7.7494     0.1971     0.1548   112.2890     2.4036
  310.0000     8.0174     8.1517   -43.5276     7.7500     0.1971     0.1554   111.6985     2.4029
  310.5000     8.0196     8.1540   -43.6712     7.7506     0.1972     0.1554   112.4529     2.4029
  311.0000     8.0218     8.2129   -43.6652     7.7520     0.1972     0.1551   114.6958     2.4036
