~VERSION INFORMATION
 VERS.                2.0:   CWLS LOG ASCII STANDARD - VERSION 2.0
 WRAP.                 NO:   ONE LINE PER DEPTH STEP
~WELL INFORMATION
#MNEM.UNIT      DATA TYPE    INFORMATION
#----------   ------------   ------------------------------
 STRT.F            7.0000:   START DEPTH
 STOP.F          587.0000:   STOP DEPTH
 STEP.F            0.5000:   STEP LENGTH
 NULL.          -999.2500:   NO VALUE
 COMP. FENIX & SCISSON INC:   COMPANY
 WELL.        NPR-3 #63-3:   WELL
 FLD .             TEAPOT:   FIELD
 LOC .       S3 T38N R78W:   LOCATION
 CNTY.            NATRONA:   COUNTY
 STAT.            WYOMING:   STATE
 CTRY. UNITED STATES OF AMERICA:   COUNTRY
 SRVC.     Wedge Wireline:   SERVICE COMPANY
 DATE.        06-JAN-1978:   LOGDATE
 API .       490251044700:   API NUMBER
~CURVE INFORMATION
#MNEM.UNIT       API CODE    CURVE DESCRIPTION
#----------   ------------   ------------------------------
 DEPT.F                  :   
 ILD .OHMM   05 120 46 00:   INDUCTION LOG DEEP
 SN  .OHMM   05 040 16 00:   SHORT NORMAL
 SPR .MV     05 010 01 00:   SPONTANEOUS POTENTIAL FROM RES.
 CALD.IN     45 280 60 00:   CALIPER FROM DENSITY LOG
 CORR.G/C3   45 356 01 00:   DENSITY CORRECTION
 DPHI.DEC    45 890 12 00:   DENSITY POROSITY SANDSTONE
 GRD .GAPI   45 310 01 00:   GAMMA RAY FROM DENSITY LOG
 RHOB.G/C3   45 350 01 00:   BULK DENSITY
~PARAMETER INFORMATION
#MNEM.UNIT          VALUE    DESCRIPTION
#----------   ------------   ------------------------------
 PD  .                 GL:   PERMANENT DATUM
 EPD .F              5177:   ELEVATION PERMANENT DATUM
 LMF .                 KB:   LOG MEASURED FROM
 DMF .                 KB:   DRILLING MEASURED FROM
 EKB .F              5181:   KELLING BUSHING
 EGL .F              5177:   GROUND LEVEL
 DATE.        06-JAN-1978:   RUN DATE
 RUN .                  1:   RUN NUMBER
 DD  .F               590:   DEPTH DRILLER
 DL  .F               581:   DEPTH LOGGER
 BLI .F               576:   BOTTOM LOG INTERVAL
 TLI .F                20:   TOP LOG INTERVAL
 CS  .IN            9.625:   CASING SIZE
 CBD .F                19:   CASING BOTTOM DRILLER
 CBL .F                19:   CASING BOTTOM LOGGER
 BS  .IN            7.875:   BIT SIZE
 BSD .F               590:   BIT SIZE AT DEPTH
 DFT .                KCL:   DRILLING FLUID TYPE
 DFD .                8.5:   DRILLING FLUID DENSITY
 DFV .                 34:   DRILLING FLUID VISCOSITY
 DFPH.                9.0:   DRILLING FLUID PH
 DFL .                7.8:   DRILLING FLUID LOSS
 MSS .           FLOWLINE:   MUD SAMPLE SOURCE
 RMS .OHMM           0.22:   RESISTIVITY MUD SAMPLE
 MST .F                63:   MUD SAMPLE TEMPERATURE
 RMF .OHMM           0.24:   RESISTIVITY MUD FILTRATE SAMPLE
 MFST.F                63:   MUD FILTRATE SAMPLE TEMPERATURE
 RMC .OHMM           0.48:   RESISTIVITY MUD CAKE
 MCST.F                64:   MUD CAKE SAMPLE TEMPERATURE
 MFSS.               MEAS:   MUD FILTRATE SAMPLE SOURCE
 MCSS.               MEAS:   MUD CAKE SAMPLE SOURCE
 RMB .OHMM           0.19:   RESISTIVITY MUD AT BHT
 BHT .F                71:   BOTTOM HOLE TEMPERATURE
 TCS .HRS               3:   TIME CURCULATED STOPPED
 MRT .F                71:   MAXIMUM RECORDED TEMPERATURE
 LUN .               2958:   LOGGING UNIT NUMBER
 LUL .             CASPER:   LOGGING UNIT LOCATION
 ENGI.             MILLER:   RECORDING ENGINEER
 WITN.         HARRINGTON:   WITNESSED BY
 CLNT.            A2DTECH:   CLIENT CODE
 ORIG.           5" PRINT:   ORIGIN OF DATA
 UWI .       490251044700:   UNIQUE WELL ID
 DICO. A2D Technologies, Inc.:   DIGITIZING COMPANY
~OTHER INFORMATION
~A    DEPT     ILD         SN        SPR       CALD       CORR       DPHI         GRD      RHOB   
# ...
  169.0000    12.4996     8.8817   -45.4310     8.4032    -0.3269     0.1093   102.0634     2.4726
  169.5000    12.5077     8.8857   -45.5670     8.4034    -0.3416     0.1116   108.5358     2.4673
  170.0000    12.5159     8.8288   -45.7000     8.4035    -0.3446     0.1087   110.3063     2.4780
  170.5000    12.3523     8.7722   -45.6844     8.3890    -0.3394     0.1040    98.2793     2.4879
  171.0000    12.1913     8.7772   -45.6715     8.3892    -0.3345     0.1013    93.8852     2.4962
  171.5000    12.0322     8.6600   -45.8018     8.3893    -0.3335     0.1022    94.4866     2.4917
  172.0000    12.0420     8.6055   -45.9378     8.3895    -0.3288     0.1049    98.3158     2.4827
  172.5000    12.0499     8.5503   -45.9223     8.4043    -0.3181     0.1060   108.6061     2.4797
  173.0000    11.9749     8.4955   -45.9099     8.4044    -0.3119     0.1042   125.6511     2.4873
  173.5000    12.0675     8.4411   -46.0428     8.4045    -0.3118     0.1011   130.9487     2.4944
  174.0000    12.0754     8.4459   -46.1757     8.4047    -0.3056     0.1029   121.4604     2.4965
  174.5000    12.0833     8.4498   -46.1602     8.4048    -0.3262     0.1059   109.2413     2.4890
  175.0000    12.0911     8.5719   -46.1477     8.4050    -0.3719     0.1098   107.7813     2.4800
  175.5000    12.2690     8.5758   -46.2868     8.4051    -0.3930     0.1131   108.0890     2.4710
  176.0000    12.2770     8.6987   -47.1372     8.4053    -0.3687     0.1119   108.1429     2.4718
  176.5000    12.3700     8.8234   -47.2732     8.3908    -0.3534     0.1085   106.9193     2.4794
  177.0000    12.4637     8.9510   -47.2577     8.3990    -0.3455     0.1040   102.8392     2.4870
  177.5000    12.7345     9.0793   -47.2453     8.3911    -0.3440     0.1010   100.4982     2.4969
  178.0000    13.0091     9.0834   -47.0737     8.3912    -0.3454     0.0990   104.6239     2.5037
  178.5000    13.1983     9.2137   -46.9266     8.4060    -0.3468     0.0975   105.5162     2.5068
  179.0000    13.3902     9.2239   -46.9142     8.4061    -0.3451     0.0972   104.3527     2.5084
  179.5000    13.5852     9.3511   -46.9018     8.4052    -0.3252     0.0972    97.1836     2.5084
  180.0000    13.7848     9.4200   -46.8893     8.3918    -0.2918     0.0969    93.5088     2.5085
  180.5000    13.7938     9.4895   -46.8765     8.3920    -0.2871     0.0962    92.9327     2.5073
  181.0000    13.8983     9.6255   -46.8614     8.3921    -0.2885     0.0956    92.6531     2.5052
  181.5000    14.0036     9.6976   -46.9974     8.3923    -0.2914     0.0956    95.8948     2.5026
  182.0000    14.0149     9.7020   -47.1272     8.3924    -0.2943     0.0961   101.7798     2.5010
  182.5000    14.0241     9.7736   -47.1148     8.3926    -0.2942     0.0970   102.9662     2.4997
  183.0000    14.0332     9.7780   -47.3930     8.3927    -0.2955     0.0979   101.8051     2.4990
  183.5000    14.0423     9.7826   -47.5229     8.3928    -0.3075     0.0982    99.7606     2.4998
  184.0000    13.9550     9.7881   -47.6589     8.3930    -0.3271     0.0978    99.4753     2.4998
  184.5000    13.8681     9.7242   -47.7887     8.3931    -0.3406     0.0981   101.2515     2.4999
  185.0000    13.6871     9.6619   -47.9263     8.3933    -0.3451     0.0999   106.9017     2.4954
  185.5000    13.5107     9.5351   -48.1999     8.3934    -0.3539     0.1032   111.8467     2.4864
  186.0000    13.3344     9.4090   -48.1843     8.3936    -0.3644     0.1063   109.5113     2.4789
  186.5000    13.1604     9.2845   -48.4657     8.3937    -0.3703     0.1089   107.1730     2.4744
  187.0000    12.8994     9.1616   -48.4502     8.3939    -0.3702     0.1089   104.8348     2.4722
  187.5000    12.7331     9.1039   -48.5831     8.4087    -0.3640     0.1079   104.2584     2.4745
  188.0000    12.5613     9.0455   -48.7160     8.3942    -0.3563     0.1061   106.1421     2.4781
  188.5000    12.4887     9.0507   -48.7005     8.3943    -0.3592     0.1042   115.1504     2.4860
  189.0000    12.4989     9.0549   -48.6881     8.3945    -0.3651     0.1027   119.5669     2.4898
  189.5000    12.5070     9.0590   -48.6756     8.3946    -0.3710     0.1036   120.1655     2.4921
  190.0000    12.5152     9.0631   -48.5174     8.3938    -0.3770     0.1051   115.4778     2.4906
  190.5000    12.6993     9.1932   -48.5023     8.3656    -0.3829     0.1075   103.1543     2.4854
  191.0000    12.8840     9.2619   -48.4899     8.3658    -0.3873     0.1108   100.2286     2.4779
  191.5000    13.0714     9.3302   -48.3321     8.3659    -0.3932     0.1126    99.6525     2.4704
  192.0000    13.2615     9.3990   -48.3197     8.3515    -0.3885     0.1091   100.2540     2.4629
  192.5000    13.5496     9.4683   -48.1588     8.3516    -0.3733     0.1045   101.1463     2.4621
  193.0000    13.6522     9.5392   -48.0010     8.3371    -0.3593     0.0998   102.3323     2.4833
  193.5000    13.8508     9.5435   -47.8432     8.3373    -0.3411     0.0951   103.8336     2.5031
  194.0000    13.9557     9.5479   -46.8134     8.3374    -0.3183     0.0905   106.1755     2.5281
  194.5000    14.0616     9.4866   -46.2195     8.3376    -0.3060     0.0858   110.5920     2.5500
  195.0000    14.0729     9.4912   -46.4978     8.3367    -0.3029     0.0821   118.5328     2.5403
  195.5000    14.1794     9.4965   -46.4823     8.3232    -0.3110     0.0857   131.4662     2.5220
  196.0000    14.2868     9.5008   -46.4699     8.3244    -0.3223     0.0914   166.7198     2.5064
  196.5000    14.2962     9.5708   -46.4574     8.3382    -0.3306     0.0957   178.5355     2.4981
  197.0000    14.3078     9.5761   -46.4448     8.3383    -0.3417     0.0999   181.4294     2.4921
  197.5000    14.3171     9.6469   -46.4295     8.3384    -0.3476     0.1026   179.0911     2.4892
  198.0000    14.3265     9.7181   -46.4170     8.3386    -0.3566     0.1028   165.8865     2.4885
  198.5000    14.3358     9.7897   -46.4046     8.3388    -0.3612     0.1022   143.8713     2.4901
  199.0000    14.2466     9.7942   -46.3922     8.3389    -0.3487     0.1013   128.3172     2.4924
  199.5000    14.1579     9.7988   -46.3794     8.3537    -0.3365     0.1006   122.5649     2.4939
  200.0000    14.0721     9.6906   -46.3642     8.3538    -0.3288     0.1024   117.1799     2.4930
  200.5000    13.9907     9.5508   -46.4077     8.3816    -0.3286     0.1078   118.6588     2.4823
  201.0000    13.8889     9.4820   -46.4595     8.3988    -0.3362     0.1136   120.4293     2.4715
  201.5000    13.7969     9.4882   -46.5112     8.4161    -0.3481     0.1193   121.6124     2.4593
  202.0000    13.8026     9.4268   -46.5630     8.4333    -0.3514     0.1223   117.5113     2.4502
  202.5000    13.8072     9.3670   -46.6147     8.4378    -0.3498     0.1172   103.4228     2.4586
  203.0000    13.9074     9.3731   -46.6664     8.4385    -0.3468     0.1138    95.5016     2.4684
  203.5000    14.0093     9.3781   -46.7182     8.4392    -0.3437     0.1108    91.9858     2.4775
  204.0000    14.2084     9.3186   -46.7786     8.4253    -0.3399     0.1080    95.2247     2.4851
  204.5000    14.4104     9.3892   -46.7758     8.4260    -0.3361     0.1049   100.2278     2.4919
  205.0000    14.8182     9.3941   -46.7730     8.4268    -0.3345     0.1022   102.8773     2.4972
  205.5000    15.1346     9.5294   -46.3342     8.4275    -0.3315     0.1007    96.7204     2.4980
  206.0000    15.5624     9.6667   -45.2829     8.4282    -0.3315     0.1025    91.0778     2.4942
  206.5000    15.8929     9.8073   -44.4385     8.4289    -0.3345     0.1055    85.8693     2.4902
  207.0000    16.3426     9.8803   -44.1457     8.4296    -0.3359     0.1061    85.8798     2.4866
  207.5000    16.5750    10.0226   -44.4336     8.4157    -0.3344     0.1034    91.8796     2.4852
  208.0000    16.8106    10.0972   -43.9941     8.4164    -0.3283     0.1012    96.4713     2.4868
  208.5000    16.8299    10.2426   -42.9738     8.4172    -0.3222     0.1021    98.8292     2.4906
  209.0000    16.9394    10.3191   -42.6798     8.4179    -0.3176     0.1045   100.0123     2.4944
