~VERSION INFORMATION
 VERS.                2.0:   CWLS LOG ASCII STANDARD - VERSION 2.0
 WRAP.                 NO:   ONE LINE PER DEPTH STEP
~WELL INFORMATION
#MNEM.UNIT      DATA TYPE    INFORMATION
#----------   ------------   ------------------------------
 STRT.F            4.0000:   START DEPTH
 STOP.F          530.0000:   STOP DEPTH
 STEP.F            0.5000:   STEP LENGTH
 NULL.          -999.2500:   NO VALUE
 COMP. LAWRENCE-ALLISON &ASSOC:   COMPANY
 WELL.  NPR 3 #77-22STX10:   WELL
 FLD .             TEAPOT:   FIELD
 LOC .      S10 T38N R78W:   LOCATION
 CNTY.            NATRONA:   COUNTY
 STAT.            WYOMING:   STATE
 CTRY. UNITED STATES OF AMERICA:   COUNTRY
 SRVC.           Gearhart:   SERVICE COMPANY
 DATE.        27-JUN-1986:   LOGDATE
 API .       490251108100:   API NUMBER
~CURVE INFORMATION
#MNEM.UNIT       API CODE    CURVE DESCRIPTION
#----------   ------------   ------------------------------
 DEPT.F                  :   
 GRR .GAPI   07 310 01 00:   GAMMA RAY FROM RES. LOG.
 SPR .MV     07 010 01 00:   SPONTANEOUS POTENTIAL
 ILM .OHMM   07 120 44 00:   INDUCTION LOG MEDIUM
 ILD .OHMM   07 120 46 00:   INDUCTION LOG DEEP
 RLLA.OHMM   07 220 00 00:   LATEROLOG RESISTIVITY
~PARAMETER INFORMATION
#MNEM.UNIT          VALUE    DESCRIPTION
#----------   ------------   ------------------------------
 PD  .                 GL:   PERMANENT DATUM
 EPD .F              5188:   ELEVATION PERMANENT DATUM
 LMF .                 KB:   LOG MEASURED FROM
 DAPD.F                 5:   FEET ABOVE PERMANENT DATUM
 DMF .                 KB:   DRILLING MEASURED FROM
 EKB .F              5193:   KELLING BUSHING
 EGL .F              5188:   GROUND LEVEL
 DATE.            6-27-86:   RUN DATE
 RUN .                  1:   RUN NUMBER
 DD  .F               555:   DEPTH DRILLER
 DL  .F               534:   DEPTH LOGGER
 BLI .F               530:   BOTTOM LOG INTERVAL
 TLI .F                44:   TOP LOG INTERVAL
 CS  .IN            8.625:   CASING SIZE
 CBD .F                42:   CASING BOTTOM DRILLER
 CBL .F                44:   CASING BOTTOM LOGGER
 BS  .IN            7.875:   BIT SIZE
 BSD .F               555:   BIT SIZE AT DEPTH
 DFT .                AIR:   DRILLING FLUID TYPE
 MSS .           FLOWLINE:   MUD SAMPLE SOURCE
 RMS .OHMM            1.5:   RESISTIVITY MUD SAMPLE
 MST .F                68:   MUD SAMPLE TEMPERATURE
 RMF .OHMM            1.2:   RESISTIVITY MUD FILTRATE SAMPLE
 MFST.F                66:   MUD FILTRATE SAMPLE TEMPERATURE
 RMC .OHMM            1.7:   RESISTIVITY MUD CAKE
 MCST.F                66:   MUD CAKE SAMPLE TEMPERATURE
 MFSS.                  M:   MUD FILTRATE SAMPLE SOURCE
 MCSS.                  M:   MUD CAKE SAMPLE SOURCE
 RMB .OHMM            1.5:   RESISTIVITY MUD AT BHT
 BHT .F                65:   BOTTOM HOLE TEMPERATURE
 TCS .HRS            0600:   TIME CURCULATED STOPPED
 TLAB.HRS            0055:   TIME LOGGER AT BOTTOM
 MRT .F                61:   MAXIMUM RECORDED TEMPERATURE
 LUN .               7609:   LOGGING UNIT NUMBER
 LUL .           GILLETTE:   LOGGING UNIT LOCATION
 ENGI.            WANGLER:   RECORDING ENGINEER
 WITN.              FIVAS:   WITNESSED BY
 CLNT.            A2DTECH:   CLIENT CODE
 ORIG.       2", 5" PRINT:   ORIGIN OF DATA
 UWI .       490251108100:   UNIQUE WELL ID
 DICO. A2D Technologies, Inc.:   DIGITIZING COMPANY
~OTHER INFORMATION
~A    DEPT      GRR       SPR        ILM        ILD       RLLA   
# ...
  187.0000    90.0902   -91.2698     8.3686     8.6625    11.2181
  187.5000    89.1128   -91.3157     8.4192     8.7510    10.7997
  188.0000    88.4391   -91.3604     8.4701     8.7983    10.3183
  188.5000    85.9082   -91.3962     8.4758     8.8098     9.8587
  189.0000    84.3717   -91.9100     8.5340     8.8203     9.4433
  189.5000    85.0770   -92.0284     8.5975     8.8310     9.2214
  190.0000    90.0461   -91.2461     8.6616     8.8416     9.0017
  190.5000    95.6934   -91.4226     8.7261     8.8523     8.9639
  191.0000    95.5974   -91.6263     8.7982     8.8630     9.0730
  191.5000    92.6051   -91.8950     8.7802     8.8736     9.4756
  192.0000    89.9188   -92.5944     8.7600     8.8806     9.7493
  192.5000    90.7281   -93.6099     8.7399     8.8807     9.3551
  193.0000    92.3896   -93.1252     8.7199     8.8807     9.1327
  193.5000    94.0527   -93.2987     8.5096     8.7729     9.0162
  194.0000    94.6532   -94.5399     8.2668     8.5354     8.8785
  194.5000    93.2299   -95.6224     8.0143     8.2435     8.7424
  195.0000    91.0109   -95.0998     8.0143     8.2642     8.6085
  195.5000    89.6712   -95.5071     8.0143     8.2928     8.4758
  196.0000    90.3393   -96.3300     8.0143     8.3228     8.4758
  196.5000    91.9143   -96.4376     8.0143     8.3526     8.6191
  197.0000    92.6420   -95.8701     8.0143     8.3975     8.7941
  197.5000    92.1629   -95.4467     7.9408     8.2243     8.8942
  198.0000    91.7037   -95.4530     7.7947     7.8948     8.9639
  198.5000    92.4460   -95.4584     7.6431     7.5788     8.0143
  199.0000    94.0396   -95.7263     7.4875     7.2754     7.8066
  199.5000    96.0821   -96.4000     6.9531     6.9844     7.6038
  200.0000    97.1599   -96.8201     6.2504     6.4270     7.2741
  200.5000    96.8762   -95.8573     5.6263     5.6526     6.9028
  201.0000    97.3660   -96.0068     5.0727     4.9715     6.9028
  201.5000    97.9908   -95.7825     4.5851     4.3724     6.0249
  202.0000    97.2283   -95.3258     4.1443     3.8728     5.3555
  202.5000    94.4973   -94.9990     3.7459     3.6670     4.9332
  203.0000    93.2635   -95.3767     3.4044     3.4475     4.7707
  203.5000    93.6555   -96.4313     3.2174     3.2396     4.6212
  204.0000    92.6107   -96.6459     3.0407     3.0440     4.5783
  204.5000    88.9669   -96.0654     2.9582     3.0084     4.8605
  205.0000    85.8518   -96.1434     2.9253     3.0051     4.9794
  205.5000    84.2403   -96.2165     2.9574     3.0818     4.9323
  206.0000    85.4105   -96.5413     2.9804     3.2654     4.8874
  206.5000    90.5433   -97.4457     3.2612     3.5193     4.9332
  207.0000    95.6803   -98.3528     3.5827     3.8088     5.6553
  207.5000    96.6289   -98.3525     3.9359     4.1981     6.3033
  208.0000    93.5797   -97.8795     4.3144     4.6247     6.7040
  208.5000    89.7887   -98.1063     4.7245     5.0951     7.0909
  209.0000    91.8290   -98.3700     5.1736     5.5384     7.7956
  209.5000    94.4938   -98.6384     5.5234     5.8840     7.4625
  210.0000    95.1855   -98.6887     5.7813     6.2294     6.9383
  210.5000    93.3081   -98.6953     6.0034     6.3533     6.7751
  211.0000    92.4927   -98.3940     6.2878     6.5265     6.6315
  211.5000    93.5637   -97.4586     6.2878     6.4351     6.4062
  212.0000    96.2916   -97.1285     6.0686     6.2681     7.0328
  212.5000    98.2064   -98.4717     5.9124     6.1066     6.9675
  213.0000    98.7405   -97.6502     5.7694     5.9493     6.3914
  213.5000    99.3250   -96.7512     5.6314     5.7962     5.9186
  214.0000   101.0343   -96.2807     5.4967     5.6470     5.7021
  214.5000   106.0856   -95.9408     5.3651     5.5011     5.4936
  215.0000   109.3921   -95.6923     5.2368     5.3658     5.4157
  215.5000   106.5112   -95.9673     5.1535     5.3210     6.0465
  216.0000   100.4885   -96.2807     5.0732     5.2640     6.8120
  216.5000    94.4578   -96.2319     5.1881     5.4134     7.3687
  217.0000    91.9921   -96.4638     5.3505     5.5990     7.0988
  217.5000    92.8210   -96.6711     5.5686     5.8314     7.2175
  218.0000    95.6632   -96.6865     5.8301     6.0996     7.3003
  218.5000    99.6082   -96.0328     6.1047     6.4062     7.0328
  219.0000    97.3766   -96.1400     6.4047     6.6253     7.6598
  219.5000    94.6330   -97.6100     6.6483     6.9296     8.0183
  220.0000    92.7813   -97.3696     6.9141     7.2507     8.5150
  220.5000    93.4497   -98.1396     7.1906     7.5464     8.8003
  221.0000    92.4389   -98.8702     7.4781     7.7046     8.7982
  221.5000    91.0318   -98.8917     7.6174     7.8662     9.0817
  222.0000    90.2817   -98.7718     7.7931     7.9399     9.6591
  222.5000    94.5416   -98.5179     7.7562     7.9151    10.0261
  223.0000    98.9490   -98.2659     7.7931     7.8968     9.8187
  223.5000   100.8035   -98.0131     7.6388     7.8786     9.3545
  224.0000   100.6912   -97.7610     7.5164     7.7775     8.7451
  224.5000    97.2883   -97.5231     7.3961     7.5000     8.0088
  225.0000    95.1125   -96.9168     7.2132     7.2325     7.9426
  225.5000    93.1407   -96.3932     7.0163     6.9745     8.1341
  226.0000    92.9472   -95.8733     6.8248     6.7257     8.3201
  226.5000    93.1885   -95.5707     6.6385     6.4858     8.2652
  227.0000    93.3447   -95.4655     6.3362     6.2544     8.1842
  227.5000    93.4146   -95.5894     6.0043     6.0313     7.5452
  228.0000    96.9455   -94.9693     5.6897     5.8162     6.8014
  228.5000   100.8131   -92.2257     5.4296     5.6087     6.1668
  229.0000   103.1205   -92.0505     5.2880     5.4236     5.8297
  229.5000    97.6859   -92.9317     5.1502     5.2796     6.0753
  230.0000    92.0316   -92.4608     5.0159     5.2173     6.5735
  230.5000    88.4763   -91.4054     4.8874     5.2173     7.0988
  231.0000    91.0524   -91.5506     4.9954     5.2918     7.7698
  231.5000    97.2020   -92.5444     5.1712     5.4654     8.7165
  232.0000   103.3594   -93.2116     5.3654     5.7324     8.2418
  232.5000   107.2387   -93.5817     5.6727     6.0512     8.3681
  233.0000   104.8734   -93.2484     6.0212     6.3878     8.5553
  233.5000   101.0547   -92.6550     6.2981     6.6818     8.3763
  234.0000    97.2107   -92.6218     6.6153     7.0922     8.2418
  234.5000    95.5859   -92.7120     6.9440     7.6532     8.4289
  235.0000    95.5297   -93.2367     7.3003     7.6466     8.6056
  235.5000    94.5280   -92.8994     7.4056     7.8008     8.7165
  236.0000    92.1826   -91.8156     7.5448     7.8892     8.7165
  236.5000    92.3989   -91.0399     7.6498     7.9439     8.8216
  237.0000    95.3917   -90.8195     7.7031     7.9990     8.9482
  237.5000    93.8457   -91.7168     7.7544     8.0545     9.0766
  238.0000    90.2602   -92.6245     7.8057     8.0895     9.4518
  238.5000    88.2977   -91.7941     7.8661     8.0895    10.0304
  239.0000    89.6095   -91.8495     7.8565     8.0895    10.0247
  239.5000    94.2776   -92.1060     7.8451     8.0895    10.1201
  240.0000    99.1041   -92.1832     7.8335     8.0895     9.6153
  240.5000   100.3647   -90.0157     7.8220     8.0895     9.0871
  241.0000    99.6575   -89.6339     7.8105     8.0897     8.7792
  241.5000    98.7487   -89.5222     7.7991     8.0825     8.5553
  242.0000    97.6489   -89.7616     7.7930     8.0740     8.7982
  242.5000    97.7596   -88.4469     7.7931     8.0655     8.6782
  243.0000    99.6713   -88.3770     7.7931     8.0570     8.4478
  243.5000   103.1334   -88.3689     7.7931     8.0485     8.3708
  244.0000   102.9205   -87.9025     7.7931     8.0400     8.3361
  244.5000   101.8224   -88.7912     7.7932     8.0313     8.3195
  245.0000   100.7148   -89.8170     7.7944     8.0223     8.4754
  245.5000    99.9038   -89.5333     7.7921     8.0143     8.4258
  246.0000    99.6649   -88.7796     7.6182     7.8163     8.3587
  246.5000    99.4141   -88.0226     7.3960     7.6151     8.2906
  247.0000    99.2001   -87.6842     7.1803     7.4191     8.2001
  247.5000    99.4170   -87.6499     6.9761     7.2281     8.0428
