~VERSION INFORMATION
 VERS.                2.0:   CWLS LOG ASCII STANDARD - VERSION 2.0
 WRAP.                 NO:   ONE LINE PER DEPTH STEP
~WELL INFORMATION
#MNEM.UNIT      DATA TYPE    INFORMATION
#----------   ------------   ------------------------------
 STRT.F           65.0000:   START DEPTH
 STOP.F          860.0000:   STOP DEPTH
 STEP.F            0.5000:   STEP LENGTH
 NULL.          -999.2500:   NO VALUE
 COMP.          U.S. NAVY:   COMPANY
 WELL. NPR 3 TEAPOT DOM #71-S-34:   WELL
 FLD .             TEAPOT:   FIELD
 LOC .      S34 T39N R78W:   LOCATION
 CNTY.            NATRONA:   COUNTY
 STAT.            WYOMING:   STATE
 CTRY. UNITED STATES OF AMERICA:   COUNTRY
 SRVC. Schlumberger Well Surveying Corp:   SERVICE COMPANY
 DATE.        22-FEB-1961:   LOGDATE
 API .       490250657300:   API NUMBER
~CURVE INFORMATION
#MNEM.UNIT       API CODE    CURVE DESCRIPTION
#----------   ------------   ------------------------------
 DEPT.F                  :   
 GR  .GAPI   30 310 01 00:   GAMMA RAY
 ASN .OHMM   05 041 16 00:   AMPLIFIED SHORT NORMAL 16"
 CILD.MMHO   05 110 46 00:   CONDUCTIVITY INDUCTION LOG DEEP
 ILD .OHMM   05 120 46 00:   INDUCTION LOG DEEP
 SPR .MV     05 010 01 00:   SPONTANEOUS POTENTIAL FROM RES.
~PARAMETER INFORMATION
#MNEM.UNIT          VALUE    DESCRIPTION
#----------   ------------   ------------------------------
 LMF .                 KB:   LOG MEASURED FROM
 DMF .                 KB:   DRILLING MEASURED FROM
 EKB .F              5067:   KELLING BUSHING
 EGL .F              5063:   GROUND LEVEL
 DATE.        22-FEB-1961:   RUN DATE
 RUN .                  1:   RUN NUMBER
 DD  .F               861:   DEPTH DRILLER
 DL  .F               861:   DEPTH LOGGER
 BLI .F               860:   BOTTOM LOG INTERVAL
 TLI .F                80:   TOP LOG INTERVAL
 CBD .F                12:   CASING BOTTOM DRILLER
 BS  .IN            7.875:   BIT SIZE
 BSD .F               861:   BIT SIZE AT DEPTH
 DFT .       GEL-OIL EMUL:   DRILLING FLUID TYPE
 DFD .                9.6:   DRILLING FLUID DENSITY
 DFV .                 38:   DRILLING FLUID VISCOSITY
 DFPH.                  9:   DRILLING FLUID PH
 DFL .               15.4:   DRILLING FLUID LOSS
 MSS .           FLOWLINE:   MUD SAMPLE SOURCE
 RMS .OHMM           0.86:   RESISTIVITY MUD SAMPLE
 MST .F                68:   MUD SAMPLE TEMPERATURE
 RMF .OHMM           0.52:   RESISTIVITY MUD FILTRATE SAMPLE
 MFST.F                68:   MUD FILTRATE SAMPLE TEMPERATURE
 RMC .OHMM           1.98:   RESISTIVITY MUD CAKE
 MCST.F                68:   MUD CAKE SAMPLE TEMPERATURE
 MFSS.               MEAS:   MUD FILTRATE SAMPLE SOURCE
 MCSS.               MEAS:   MUD CAKE SAMPLE SOURCE
 RMB .OHMM           0.77:   RESISTIVITY MUD AT BHT
 BHT .F                78:   BOTTOM HOLE TEMPERATURE
 TCS .HRS               1:   TIME CURCULATED STOPPED
 MRT .F                78:   MAXIMUM RECORDED TEMPERATURE
 LUN .               2523:   LOGGING UNIT NUMBER
 LUL .               CSPR:   LOGGING UNIT LOCATION
 ENGI.             KNOBEL:   RECORDING ENGINEER
 WITN.          JORGENSEN:   WITNESSED BY
 CLNT.            A2DTECH:   CLIENT CODE
 ORIG.      2" , 5" PRINT:   ORIGIN OF DATA
 UWI .       490250657300:   UNIQUE WELL ID
 DICO. A2D Technologies, Inc.:   DIGITIZING COMPANY
~OTHER INFORMATION
~A   DEPT       GR          ASN       CILD        ILD      SPR   
# ...
  309.0000  -999.2500    13.3760    83.0016    12.1473   -24.4514
  309.5000  -999.2500    13.1493    82.1265    12.1473   -24.4514
  310.0000  -999.2500    12.9226    81.4258    12.1473   -24.4514
  310.5000  -999.2500    12.6960    80.6387    12.0690   -24.4514
  311.0000  -999.2500    12.4693    79.8511    12.0690   -24.4514
  311.5000  -999.2500    12.2426    79.8465    12.0065   -24.4514
  312.0000  -999.2500    12.0159    79.8433    11.9080   -24.4514
  312.5000  -999.2500    11.7893    79.8393    11.7555   -24.3796
  313.0000  -999.2500    11.5626    81.4021    11.5703   -24.2947
  313.5000  -999.2500    11.3359    83.5176    11.3608   -24.2947
  314.0000  -999.2500    11.1092    86.1128    10.6583   -24.2947
  314.5000  -999.2500    10.8826    91.0372     9.8255   -24.2947
  315.0000  -999.2500    10.6559   100.1176     8.9342   -24.2411
  315.5000  -999.2500    10.4292   107.2452     8.2922   -24.1379
  316.0000  -999.2500    10.2025   113.6156     7.7680   -24.1379
  316.5000  -999.2500     9.9737   124.0928     7.3668   -24.0534
  317.0000  -999.2500     9.5462   138.5814     6.9898   -23.9812
  317.5000  -999.2500     9.0206   144.8146     6.6412   -23.9812
  318.0000  -999.2500     8.7316   151.4995     6.5047   -23.9812
  318.5000  -999.2500     8.5457   153.4598     6.4263   -23.9812
  319.0000  -999.2500     8.4317   154.2398     6.3480   -23.9812
  319.5000  -999.2500     8.3255   154.0700     6.3480   -23.9812
  320.0000  -999.2500     8.2692   153.4480     6.3480   -23.9812
  320.5000  -999.2500     8.2902   152.6607     6.3627   -23.9405
  321.0000  -999.2500     8.3881   151.7346     6.4263   -23.8546
  321.5000  -999.2500     8.4365   150.3013     6.4263   -23.8245
  322.0000  -999.2500     8.5284   149.9164     6.4715   -23.8245
  322.5000  -999.2500     8.6072   149.5102     6.5047   -23.8057
  323.0000  -999.2500     8.5765   149.5058     6.5831   -23.7198
  323.5000  -999.2500     8.5068   148.7186     6.5831   -23.6677
  324.0000  -999.2500     8.4194   148.7147     6.5831   -23.6677
  324.5000  -999.2500     8.2847   148.7103     6.5831   -23.6677
  325.0000  -999.2500     8.1664   149.4906     6.6255   -23.6677
  325.5000  -999.2500     8.1377   150.2705     6.6614   -23.6677
  326.0000  -999.2500     8.2025   150.2658     6.6614   -23.6677
  326.5000  -999.2500     8.2642   149.6642     6.6614   -23.6677
  327.0000  -999.2500     8.3725   147.8788     6.6614   -23.6677
  327.5000  -999.2500     8.4397   145.5518     6.6614   -23.6677
  328.0000  -999.2500     8.5446   143.4378     6.6604   -23.6677
  328.5000  -999.2500     8.6207   141.6262     6.5831   -23.6677
  329.0000  -999.2500     8.5945   142.1369     6.5831   -23.6677
  329.5000  -999.2500     8.4977   145.4860     6.5831   -23.6677
  330.0000  -999.2500     8.3907   148.6676     6.5831   -23.6677
  330.5000  -999.2500     8.2998   149.1510     6.4934   -23.6677
  331.0000  -999.2500     8.2316   150.6609     6.4263   -23.6677
  331.5000  -999.2500     8.1923   151.7908     6.3325   -23.5716
  332.0000  -999.2500     8.1352   151.7868     6.2696   -23.5110
  332.5000  -999.2500     8.1221   151.5935     6.2696   -23.5110
  333.0000  -999.2500     8.1592   150.2113     6.2696   -23.5110
  333.5000  -999.2500     8.2349   148.9917     6.3651   -23.5110
  334.0000  -999.2500     8.2942   146.9070     6.4948   -23.5110
  334.5000  -999.2500     8.3381   145.4973     6.6038   -23.5110
  335.0000  -999.2500     8.3897   143.9001     6.6758   -23.5110
  335.5000  -999.2500     8.4507   142.0859     6.8055   -23.5009
  336.0000  -999.2500     8.4929   139.9996     6.9131   -23.3542
  336.5000  -999.2500     8.5446   138.4574     6.9749   -23.3542
  337.0000  -999.2500     8.6061   135.9666     7.1317   -23.3542
  337.5000  -999.2500     8.6789   133.7182     7.2280   -23.3542
  338.0000  -999.2500     8.7637   131.7972     7.2973   -23.3542
  338.5000  -999.2500     8.9312   129.6329     7.4451   -23.3542
  339.0000  -999.2500     9.0989   127.4367     7.5899   -23.3542
  339.5000  -999.2500     9.2332   126.6497     7.7648   -23.3542
  340.0000  -999.2500     9.3292   125.0784     7.8370   -23.3542
  340.5000  -999.2500     9.4451   125.0738     7.7586   -23.3542
  341.0000  -999.2500     9.5305   125.0705     7.6769   -23.3542
  341.5000  -999.2500     9.5924   125.0666     7.5235   -23.3542
  342.0000  -999.2500     9.6577   125.8457     7.4958   -23.3542
  342.5000  -999.2500     9.6714   126.8939     7.3668   -23.3542
  343.0000  -999.2500     9.6136   128.1896     7.3148   -23.3542
  343.5000  -999.2500     9.4422   129.4801     7.2635   -23.3542
  344.0000  -999.2500     9.2019   130.6531     7.2100   -23.3542
  344.5000  -999.2500     9.0907   131.3126     7.1608   -23.3542
  345.0000  -999.2500     9.0133   132.5757     7.1095   -23.3542
  345.5000  -999.2500     8.9359   132.8729     7.0533   -23.3542
  346.0000  -999.2500     8.8585   133.6519     7.0533   -23.1975
  346.5000  -999.2500     8.7637   134.4318     7.0533   -23.1975
  347.0000  -999.2500     8.7133   135.3970     7.0533   -23.1975
  347.5000  -999.2500     8.7011   135.9914     7.0533   -23.1975
  348.0000  -999.2500     8.7011   136.4159     7.0533   -23.1975
  348.5000  -999.2500     8.7011   136.9253     7.0533   -23.0408
  349.0000  -999.2500     8.7011   137.5470     7.1130   -23.0408
  349.5000  -999.2500     8.7480   137.5431     7.1317   -23.0408
  350.0000  -999.2500     8.8028   137.5392     7.2100   -23.0408
  350.5000  -999.2500     8.8466   137.5348     7.2100   -23.0408
  351.0000  -999.2500     8.9045   137.5313     7.2100   -23.0408
  351.5000  -999.2500     8.9428   137.5274     7.2100   -23.0408
  352.0000  -999.2500     8.9828   137.5230     7.2100   -23.0408
  352.5000  -999.2500     8.9515   136.7359     7.2100   -22.9578
  353.0000  -999.2500     8.9080   136.7320     7.2100   -22.8840
  353.5000  -999.2500     8.8570   136.7275     7.2100   -22.8840
  354.0000  -999.2500     8.8263   135.9404     7.2100   -22.8840
  354.5000  -999.2500     8.8315   135.9365     7.2100   -22.8840
  355.0000  -999.2500     8.8732   135.1482     7.2100   -22.8840
  355.5000  -999.2500     8.9144   134.8537     7.2100   -22.8840
  356.0000  -999.2500     8.9603   134.3574     7.1557   -22.8840
  356.5000  -999.2500     9.0297   134.3527     7.0260   -22.8669
  357.0000  -999.2500     9.1128   135.9169     6.9356   -22.7273
  357.5000  -999.2500     9.1933   136.6967     6.8450   -22.7273
  358.0000  -999.2500     9.2332   138.6285     6.7153   -22.7273
  358.5000  -999.2500     9.2087   140.0600     6.5831   -22.7273
  359.0000  -999.2500     9.0501   141.3871     6.5342   -22.7273
  359.5000  -999.2500     8.7793   143.1257     6.4045   -22.7273
  360.0000  -999.2500     8.6333   145.5068     6.2696   -22.7273
  360.5000  -999.2500     8.5392   147.6448     6.2235   -22.7273
  361.0000  -999.2500     8.4507   149.3286     6.0938   -22.7273
  361.5000  -999.2500     8.3310   151.7372     6.0345   -22.7273
  362.0000  -999.2500     8.2463   153.1189     5.9561   -22.7273
  362.5000  -999.2500     8.2160   154.3234     5.9561   -22.7273
  363.0000  -999.2500     8.1947   154.6791     6.0345   -22.7273
  363.5000  -999.2500     8.1689   154.6744     6.0345   -22.7273
  364.0000  -999.2500     8.1431   155.0679     6.0345   -22.7273
  364.5000  -999.2500     8.0970   155.4510     6.0345   -22.7273
  365.0000  -999.2500     8.0595   155.4463     6.0345   -22.7273
  365.5000  -999.2500     8.0251   155.4428     6.0453   -22.7273
  366.0000  -999.2500     7.9930   155.3396     6.1129   -22.7273
  366.5000  -999.2500     7.9656   153.8670     6.1480   -22.7180
  367.0000  -999.2500     7.9414   153.0799     6.1993   -22.5705
  367.5000  -999.2500     7.9186   151.5086     6.3480   -22.5705
  368.0000  -999.2500     7.9499   150.7204     6.4263   -22.5705
  368.5000  -999.2500     8.0274   149.6186     6.5101   -22.5705
  369.0000  -999.2500     8.1150   148.2732     6.5831   -22.5705
  369.5000  -999.2500     8.2316   146.0064     6.6911   -22.4931
