~VERSION INFORMATION
 VERS.                2.0:   CWLS LOG ASCII STANDARD - VERSION 2.0
 WRAP.                 NO:   ONE LINE PER DEPTH STEP
~WELL INFORMATION
#MNEM.UNIT      DATA TYPE    INFORMATION
#----------   ------------   ------------------------------
 STRT.F           89.0000:   START DEPTH
 STOP.F         1360.0000:   STOP DEPTH
 STEP.F            0.5000:   STEP LENGTH
 NULL.          -999.2500:   NO VALUE
 COMP.           U S NAVY:   COMPANY
 WELL.     NPR 3 #85 S-11:   WELL
 FLD .             TEAPOT:   FIELD
 LOC .      S11 T38N R78W:   LOCATION
 CNTY.            NATRONA:   COUNTY
 STAT.            WYOMING:   STATE
 CTRY. UNITED STATES OF AMERICA:   COUNTRY
 SRVC.       Schlumberger:   SERVICE COMPANY
 DATE.        15-AUG-1966:   LOGDATE
 API .       490250959000:   API NUMBER
~CURVE INFORMATION
#MNEM.UNIT       API CODE    CURVE DESCRIPTION
#----------   ------------   ------------------------------
 DEPT.F                  :   
 SPR .MV     05 010 01 00:   SPONTANEOUS POTENTIAL FROM RES.
 CILD.MMHO   05 110 46 00:   CONDUCTIVITY INDUCTION LOG DEEP
 ASN .OHMM   05 041 16 00:   AMPLIFIED SHORT NORMAL 16"
 ILD .OHMM   05 120 46 00:   INDUCTION LOG DEEP
 GR  .GAPI   30 310 01 00:   GAMMA RAY
~PARAMETER INFORMATION
#MNEM.UNIT          VALUE    DESCRIPTION
#----------   ------------   ------------------------------
 PD  .                 GL:   PERMANENT DATUM
 EPD .F              5288:   ELEVATION PERMANENT DATUM
 LMF .                 KB:   LOG MEASURED FROM
 DAPD.F                 5:   FEET ABOVE PERMANENT DATUM
 DMF .                 KB:   DRILLING MEASURED FROM
 EKB .F            5286.9:   KELLING BUSHING
 EGL .F            5281.9:   GROUND LEVEL
 DATE.        15-AUG-1966:   RUN DATE
 RUN .                  1:   RUN NUMBER
 DD  .F              1360:   DEPTH DRILLER
 DL  .F              1361:   DEPTH LOGGER
 BLI .F              1360:   BOTTOM LOG INTERVAL
 TLI .F                88:   TOP LOG INTERVAL
 CS  .IN            8.625:   CASING SIZE
 CBD .F                12:   CASING BOTTOM DRILLER
 BS  .IN            7.875:   BIT SIZE
 BSD .F              1360:   BIT SIZE AT DEPTH
 DFT .          CHEM- GEL:   DRILLING FLUID TYPE
 DFD .                9.6:   DRILLING FLUID DENSITY
 DFV .                 60:   DRILLING FLUID VISCOSITY
 DFPH.                7.2:   DRILLING FLUID PH
 DFL .                6.4:   DRILLING FLUID LOSS
 MSS .         CIRCULATED:   MUD SAMPLE SOURCE
 RMS .OHMM           1.41:   RESISTIVITY MUD SAMPLE
 MST .F                72:   MUD SAMPLE TEMPERATURE
 RMF .OHMM           0.75:   RESISTIVITY MUD FILTRATE SAMPLE
 MFST.F                73:   MUD FILTRATE SAMPLE TEMPERATURE
 MFSS.               MEAS:   MUD FILTRATE SAMPLE SOURCE
 TCS .HRS             2.5:   TIME CURCULATED STOPPED
 LUN .               3527:   LOGGING UNIT NUMBER
 LUL .              CSPR.:   LOGGING UNIT LOCATION
 ENGI.               HAUG:   RECORDING ENGINEER
 WITN.             TUTTLE:   WITNESSED BY
 CLNT.            A2DTECH:   CLIENT CODE
 ORIG.       2", 5" PRINT:   ORIGIN OF DATA
 UWI .       490250959000:   UNIQUE WELL ID
 DICO. A2D Technologies, Inc.:   DIGITIZING COMPANY
~OTHER INFORMATION
~A   DEPT      SPR       CILD          ASN        ILD       GR   
# ...
  516.0000   -48.2783   167.1450     8.1189     6.3940    78.1902
  516.5000   -48.2819   167.1599     8.2380     6.4669    73.7739
  517.0000   -48.2849   166.6916     8.3176     6.4647    72.3384
  517.5000   -48.2879   165.6925     8.3878     6.5380    72.3983
  518.0000   -48.2911   164.9634     8.4422     6.5353    75.9771
  518.5000   -48.2939   162.7236     8.4276     6.5331    74.8965
  519.0000   -48.2970   160.3288     8.3262     6.5308    73.8469
  519.5000   -48.4517   159.3623     8.1292     6.6037    71.1883
  520.0000   -48.5354   157.5492     8.1596     6.6015    65.8280
  520.5000   -48.6091   156.3752     8.6260     6.6748    67.5478
  521.0000   -48.6124   155.1519     8.7984     6.6721    71.1556
  521.5000   -48.6152   153.8574     8.9141     6.6699    74.4488
  522.0000   -48.4664   153.4529     9.0162     6.6677    76.9553
  522.5000   -48.4700   152.9770     9.0241     6.6654    79.6191
  523.0000   -48.3212   151.6603     9.0305     6.7038    81.8109
  523.5000   -48.3242   151.2780     8.9998     6.7364    84.6321
  524.0000   -48.3277   150.9400     8.8699     6.7336    83.5198
  524.5000   -48.1788   150.9581     8.8183     6.7316    83.5089
  525.0000   -48.1818   150.5980     8.9081     6.8047    80.0366
  525.5000   -48.1853   150.2377     8.9901     6.8020    76.7243
  526.0000   -48.0364   149.5084     9.0494     6.8000    77.1855
  526.5000   -48.0394   149.5217     9.1326     6.7977    70.2490
  527.0000   -48.0430   148.7881     9.1832     6.8704    70.7101
  527.5000   -48.0455   148.8061     9.2257     6.8684    71.4863
  528.0000   -48.0485   148.8191     9.2518     6.8581    74.3070
  528.5000   -48.1528   148.8341     9.2384     6.7884    72.8801
  529.0000   -48.2061   148.8512     9.1881     6.7549    69.7224
  529.5000   -48.3606   148.8640     9.1299     6.7033    70.9827
  530.0000   -48.3636   148.8789     9.1084     6.5560    74.7354
  530.5000   -48.3667   149.6438     9.0671     6.4790    73.8034
  531.0000   -48.3698   149.9402     9.0081     6.4767    72.9829
  531.5000   -48.3727   151.1659     8.9759     6.3988    76.2761
  532.0000   -48.3374   151.9310     8.8840     6.3699    80.0386
  532.5000   -48.2273   153.9612     8.6452     6.2431    80.3451
  533.0000   -48.1450   157.9572     8.6046     6.1665    77.3420
  533.5000   -48.0814   162.4289     8.5089     6.1646    74.3417
  534.0000   -48.0851   166.9057     8.3689     6.0872    76.5335
  534.5000   -48.0879   169.9404     8.2483     6.0850    78.5680
  535.0000   -48.0909   171.1759     8.1009     6.0075    81.0772
  535.5000   -48.0942   172.2122     7.9199     6.0052    78.5462
  536.0000   -48.0222   172.2277     7.7820     6.0030    72.2418
  536.5000   -47.9482   172.2422     7.7381     6.0007    63.2627
  537.0000   -47.8004   173.1989     7.6986     5.9984    62.3077
  537.5000   -47.8030   174.5150     7.6732     5.9962    62.2968
  538.0000   -47.8061   175.2765     7.6313     5.9188    67.4781
  538.5000   -47.8095   175.4633     7.5989     5.8412    66.6805
  539.0000   -47.6606   177.5496     7.5485     5.7223    64.4696
  539.5000   -47.6636   179.1231     7.4944     5.5203    69.0187
  540.0000   -47.6672   181.4649     7.4327     5.3833    74.6933
  540.5000   -47.6109   184.3212     7.3258     5.2308    72.7730
  541.0000   -47.5211   189.6259     7.1165     5.1398    73.5488
  541.5000   -47.5248   197.8170     6.8974     5.0757    76.5294
  542.0000   -47.5273   205.2930     6.6850     4.9614    79.6631
  542.5000   -47.5303   213.5276     6.4374     4.9211    73.7883
  543.0000   -47.5333   212.6905     6.2357     4.9185    71.3024
  543.5000   -47.5364   211.3172     6.2258     4.9166    79.1394
  544.0000   -47.5394   209.9053     6.3758     4.9142    79.6195
  544.5000   -47.5424   208.1913     6.4992     4.9117    73.3124
  545.0000   -47.5455   205.3833     6.6205     5.0176    74.7175
  545.5000   -47.5486   202.5213     6.7058     5.0647    76.2800
  546.0000   -47.5515   199.3123     6.7631     5.1308    76.9012
  546.5000   -47.4026   196.4598     6.8276     5.1286    72.6394
  547.0000   -47.4062   193.3483     6.9002     5.1263    70.7405
  547.5000   -47.4091   190.5078     6.9623     5.1237    70.2576
  548.0000   -47.4121   189.7784     7.0048     5.1218    70.7214
  548.5000   -47.4154   190.8096     7.0043     5.1196    74.7985
  549.0000   -47.4182   192.8248     6.9986     5.1925    80.2944
  549.5000   -47.3942   195.0552     6.9733     5.1902    85.0036
  550.0000   -47.2727   196.5620     6.9628     5.1880    77.2833
  550.5000   -47.2758   196.5771     6.9423     5.1857    77.9034
  551.0000   -47.2788   196.5919     6.9117     5.1835    83.2435
  551.5000   -47.2822   196.6069     6.8867     5.1812    77.2553
  552.0000   -47.2849   197.3696     6.8028     5.1789    71.8965
  552.5000   -47.2879   199.0534     6.6544     5.1767    66.6950
  553.0000   -47.2913   200.0499     6.5754     5.1744    67.4724
  553.5000   -47.2305   201.1516     6.6019     5.1722    71.5538
  554.0000   -47.1453   200.7275     6.7434     5.1699    72.0165
  554.5000   -47.1490   199.3225     6.8529     5.1675    72.1645
  555.0000   -47.0934   196.7124     6.9453     5.1654    72.2180
  555.5000   -47.0019   194.7313     6.9830     5.1632    76.8658
  556.0000   -46.9580   192.8450     6.9976     5.1607    76.6993
  556.5000   -46.9140   192.2720     6.9941     5.1586    78.8903
  557.0000   -46.8700   194.1755     6.9515     5.0812    83.4461
  557.5000   -46.8260   197.0604     6.9054     5.0787    82.8051
  558.0000   -46.7820   199.7922     6.8399     5.0386    78.3903
  558.5000   -46.7380   202.7902     6.7543     4.9993    74.7622
  559.0000   -46.7212   206.0288     6.6790     4.9216    76.7982
  559.5000   -46.7242   208.8059     6.6459     4.8837    75.8449
  560.0000   -46.7273   209.5665     6.6325     4.8421    83.7024
  560.5000   -46.5789   209.4893     6.6609     4.8396    80.8610
  561.0000   -46.5818   208.8490     6.7104     4.9464    78.9636
  561.5000   -46.6200   205.9692     6.7667     5.0610    74.2341
  562.0000   -46.7396   202.4818     6.8157     5.1335    70.1340
  562.5000   -46.5909   194.6958     6.9051     5.1629    69.4977
  563.0000   -46.7455   192.9098     6.9912     5.2798    70.2727
  563.5000   -46.7488   191.6866     7.0178     5.2771    71.8367
  564.0000   -46.9798   190.2566     7.0673     5.3504    66.3206
  564.5000   -47.0821   188.4927     7.1404     5.3481    70.5593
  565.0000   -47.3640   188.0169     7.2279     5.3455    72.1234
  565.5000   -47.3667   187.3094     7.2601     5.3436    73.3955
  566.0000   -47.3505   188.3309     7.1391     5.3404    73.8354
  566.5000   -47.0701   190.3340     7.0431     5.2635    73.9834
  567.0000   -47.0727   193.3185     6.9274     5.1864    68.7156
  567.5000   -46.9103   197.5586     6.8276     5.1090    68.1432
  568.0000   -46.7758   200.0899     6.7319     5.1068    73.3237
  568.5000   -46.6273   202.5410     6.6550     5.0599    71.1116
  569.0000   -46.4787   205.0322     6.5964     4.8766    71.5743
  569.5000   -46.4823   207.6089     6.5253     4.7534    73.7677
  570.0000   -46.4293   210.4634     6.4428     4.7218    76.7501
  570.5000   -46.3363   214.3845     6.3439     4.7194    68.5569
  571.0000   -46.1885   221.8543     6.1634     4.7609    65.0885
  571.5000   -46.1909   223.7893     6.1402     4.7905    69.4822
  572.0000   -46.1940   223.2088     6.1482     4.7878    77.0251
  572.5000   -46.1970   221.1520     6.2061     4.8271    83.4689
  573.0000   -46.2000   218.8639     6.2894     4.8742    81.0972
  573.5000   -46.2031   216.4025     6.3812     4.9316    85.0213
  574.0000   -46.2980   214.4707     6.4627     5.0045    81.3932
  574.5000   -46.4002   212.6084     6.5441     5.0023    71.1569
  575.0000   -46.5153   210.6378     6.6115     4.9998    70.0725
  575.5000   -46.5182   209.2841     6.6835     4.9977    79.9491
  576.0000   -46.7071   208.1914     6.6481     4.9955    81.5763
  576.5000   -46.8275   206.9681     6.4830     4.9930    78.9864
