~VERSION INFORMATION
 VERS.                2.0:   CWLS LOG ASCII STANDARD - VERSION 2.0
 WRAP.                 NO:   ONE LINE PER DEPTH STEP
~WELL INFORMATION
#MNEM.UNIT      DATA TYPE    INFORMATION
#----------   ------------   ------------------------------
 STRT.F            8.0000:   START DEPTH
 STOP.F          513.0000:   STOP DEPTH
 STEP.F            0.5000:   STEP LENGTH
 NULL.          -999.2500:   NO VALUE
 COMP. LAWRENCE-ALLISON &AS:   COMPANY
 WELL. NPR 3 #51-63SX10UP3:   WELL
 FLD .             TEAPOT:   FIELD
 LOC .      S10 T38N R78W:   LOCATION
 CNTY.            NATRONA:   COUNTY
 STAT.            WYOMING:   STATE
 CTRY. UNITED STATES OF AMERICA:   COUNTRY
 SRVC.      Dresser Atlas:   SERVICE COMPANY
 DATE.        09-DEC-1984:   LOGDATE
 API .       490251099400:   API NUMBER
~CURVE INFORMATION
#MNEM.UNIT       API CODE    CURVE DESCRIPTION
#----------   ------------   ------------------------------
 DEPT.F                  :   
 RFOC.OHMM   07 220 01 00:   RESISTIVITY FOCUSED LOG
 RILD.OHMM   07 120 46 00:   INDUCTION LOG DEEP RESISTIVITY
 RILM.OHMM   07 120 44 00:   RESITIVITY LONG MEDIUM
 SPR .MV     07 010 01 00:   SPONTANEOUS POTENTIAL
 CALD.IN     45 280 60 00:   CALIPER FROM DENSITY LOG
 CORR.none               :   
 DEN .G/C3   45 350 01 00:   COMPENSATED BULK DENSTIY
 GRD .GAPI   45 310 01 00:   GAMMA RAY FROM DENSITY LOG
 PORD.DEC    45 890 12 00:   POROSITY DENSITY SANDSTONE
 CNC .DEC    42 890 03 00:   NEUTRON POROSITY SANDSTONE
~PARAMETER INFORMATION
#MNEM.UNIT          VALUE    DESCRIPTION
#----------   ------------   ------------------------------
 PD  .                 GL:   PERMANENT DATUM
 EPD .F              5162:   ELEVATION PERMANENT DATUM
 LMF .                 GL:   LOG MEASURED FROM
 DMF .                 GL:   DRILLING MEASURED FROM
 EGL .F              5162:   GROUND LEVEL
 DATE.        09-DEC-1984:   RUN DATE
 RUN .                  1:   RUN NUMBER
 DD  .F               510:   DEPTH DRILLER
 DL  .F               515:   DEPTH LOGGER
 BLI .F               513:   BOTTOM LOG INTERVAL
 TLI .F                20:   TOP LOG INTERVAL
 CS  .IN            8.625:   CASING SIZE
 CBD .F                20:   CASING BOTTOM DRILLER
 CBL .F                20:   CASING BOTTOM LOGGER
 BS  .IN            7.875:   BIT SIZE
 BSD .F               510:   BIT SIZE AT DEPTH
 DFT .          KCL-WATER:   DRILLING FLUID TYPE
 MSS .            MUDTANK:   MUD SAMPLE SOURCE
 RMS .OHMM           0.41:   RESISTIVITY MUD SAMPLE
 MST .F                45:   MUD SAMPLE TEMPERATURE
 RMF .OHMM           0.31:   RESISTIVITY MUD FILTRATE SAMPLE
 MFST.F                45:   MUD FILTRATE SAMPLE TEMPERATURE
 RMC .OHMM           0.51:   RESISTIVITY MUD CAKE
 MCST.F                45:   MUD CAKE SAMPLE TEMPERATURE
 MFSS.               CALC:   MUD FILTRATE SAMPLE SOURCE
 MCSS.               CALC:   MUD CAKE SAMPLE SOURCE
 RMB .OHMM           0.22:   RESISTIVITY MUD AT BHT
 BHT .F                85:   BOTTOM HOLE TEMPERATURE
 TCS .HRS               2:   TIME CURCULATED STOPPED
 MRT .F               100:   MAXIMUM RECORDED TEMPERATURE
 LUN .               6270:   LOGGING UNIT NUMBER
 LUL .                 FM:   LOGGING UNIT LOCATION
 ENGI.          E. GOVETT:   RECORDING ENGINEER
 WITN.              LUERS:   WITNESSED BY
 CLNT.            A2DTECH:   CLIENT CODE
 ORIG.           5" PRINT:   ORIGIN OF DATA
 UWI .       490251099400:   UNIQUE WELL ID
 DICO. A2D Technologies, Inc.:   DIGITIZING COMPANY
~OTHER INFORMATION
~A    DEPT    RFOC       RILD       RILM        SPR       CALD       CORR        DEN        GRD       PORD          CNC 
# ...
  142.0000     8.7494     7.4853     8.3522   -50.8580     8.1054    -0.0268     2.4253    99.2662     0.1523     0.2852
  142.5000     8.8773     7.5943     8.3567   -50.6978     8.1046    -0.0102     2.4275    97.9839     0.1508     0.2767
  143.0000     8.9447     7.7627     8.3018   -50.5375     8.1039     0.0094     2.4366    98.4306     0.1451     0.2737
  143.5000     9.0166     7.9268     8.2482   -50.8232     8.1032     0.0215     2.4411    98.5751     0.1457     0.2765
  144.0000     9.1446     8.0431     8.1950   -51.4116     8.1024     0.0260     2.4334    97.0640     0.1481     0.2759
  144.5000     9.2153     8.0475     8.0306   -51.8399     8.1015     0.0167     2.4303    95.5544     0.1499     0.2749
  145.0000     9.2852     8.0513     7.9235   -51.9768     8.1008     0.0121     2.4295    94.3455     0.1500     0.2768
  145.5000     9.3557     8.0563     7.7634   -51.8137     8.1000     0.0059     2.4303    93.1366     0.1484     0.2787
  146.0000     9.4260     8.1165     7.6072   -51.6534     8.0993     0.0058     2.4334    93.7322     0.1462     0.2789
  146.5000     9.4977     8.1213     7.5057   -51.4948     8.0986     0.0148     2.4408    96.7438     0.1415     0.2701
  147.0000     9.5704     8.1258     7.4573   -51.4815     8.1129     0.0314     2.4498    99.4827     0.1360     0.2635
  147.5000     9.6431     8.0738     7.5662   -51.4699     8.1272     0.0480     2.4589   101.5327     0.1285     0.2592
  148.0000     9.7347     8.0782     7.6758   -51.3096     8.1265     0.0585     2.4717   102.4290     0.1236     0.2559
  148.5000     9.7901     8.0827     7.8960   -51.0008     8.1256     0.0235     2.4838   103.3254     0.1179     0.2599
  149.0000     9.9102     8.0872     8.0103   -50.6920     8.1271     0.0082     2.4944   104.0714     0.1115     0.2690
  149.5000     9.9394     8.0925     8.0142   -50.6803     8.1393     0.0049     2.5035   103.3137     0.1067     0.2745
  150.0000    10.0150     8.0401     8.1303   -50.9658     8.1252     0.0269     2.4935   102.2944     0.1117     0.2784
  150.5000    10.0225     7.9892     8.0773   -51.1932     8.1062     0.0596     2.4837   101.4986     0.1173     0.2838
  151.0000     9.8901     7.9943     8.0827   -51.3797     8.0872     0.0532     2.4738   101.1934     0.1234     0.2930
  151.5000     9.7581     8.0003     8.0311   -51.8055     8.0765     0.0442     2.4654    97.7303     0.1286     0.3027
  152.0000     9.5640     8.0052     8.0355   -52.0907     8.0910     0.0380     2.4593    97.2747     0.1322     0.3203
  152.5000     9.3724     8.0101     8.0400   -51.4765     8.0904     0.0319     2.4555    97.5721     0.1344     0.3161
  153.0000     9.2486     8.0150     8.0453   -51.0148     8.0897     0.0348     2.4623    97.1154     0.1327     0.3006
  153.5000     9.1888     8.0038     8.0497   -50.5530     8.0892     0.0454     2.4722    95.9079     0.1266     0.2811
  154.0000     9.1319     7.9680     8.0540   -50.6857     8.0886     0.0544     2.4720    93.9486     0.1253     0.2620
  154.5000     9.1377     7.9741     8.0584   -50.8187     8.0879     0.0589     2.4680    93.1923     0.1280     0.2534
  155.0000     9.0800     7.9788     8.0059   -50.9510     8.1024     0.0497     2.4645    93.1878     0.1299     0.2780
  155.5000     9.0856     7.9286     7.9558   -50.9350     8.1017     0.0421     2.4637    94.5368     0.1305     0.2874
  156.0000     8.9670     7.9334     7.9601   -51.3609     8.1012     0.0359     2.4629    97.9909     0.1302     0.2902
  156.5000     8.7873     7.8286     7.9092   -51.9393     8.1157     0.0313     2.4629   104.0375     0.1296     0.2807
  157.0000     8.5193     7.6123     7.7492   -52.2245     8.1224     0.0374     2.4629   108.7309     0.1290     0.2701
  157.5000     8.1504     7.3126     7.5358   -52.2045     8.1445     0.0573     2.4628   107.8922     0.1293     0.2892
  158.0000     7.7681     6.9694     7.1387   -52.1886     8.1439     0.0518     2.4583   102.9835     0.1321     0.2969
  158.5000     7.4037     6.5050     6.7562   -52.6224     8.1433     0.0386     2.4537    98.2683     0.1339     0.2993
  159.0000     7.0564     6.0295     6.3500   -53.0482     8.1427     0.0339     2.4552    96.6097     0.1342     0.3004
  159.5000     6.6325     5.6278     6.0097   -53.3295     8.1573     0.0430     2.4574    97.0564     0.1333     0.3007
  160.0000     6.3214     4.8659     5.5318   -53.4621     8.1566     0.0581     2.4551    99.1572     0.1318     0.3171
  160.5000     5.6990     4.3258     4.9522   -53.9064     8.1560     0.0671     2.4460   100.0550     0.1345     0.3347
  161.0000     5.3155     3.7925     4.5268   -54.3217     8.1554     0.0594     2.4346   100.5017     0.1485     0.3581
  161.5000     4.9530     3.3716     4.1092   -53.7075     8.1547     0.0548     2.4171   101.7003     0.1582     0.3854
  162.0000     4.3847     3.0606     3.6787   -53.2458     8.1542     0.0502     2.3704   104.4026     0.1680     0.3936
  162.5000     3.7133     2.7783     3.3569   -53.0812     8.1536     0.0395     2.3362   106.8053     0.1907     0.3967
  163.0000     3.3710     2.5918     3.1347   -53.2139     8.1530     0.0303     2.2843   104.9952     0.2114     0.3917
  163.5000     3.1906     2.5236     3.0334   -53.4951     8.1523     0.0272     2.2492   101.2313     0.2317     0.3881
  164.0000     3.5434     2.5076     3.1206   -53.9249     8.1517     0.0287     2.2370    94.4600     0.2539     0.3808
  164.5000     4.1315     2.5804     3.3940   -54.2065     8.1511     0.0333     2.2696    93.4029     0.2618     0.3650
  165.0000     4.6203     2.8067     3.7429   -54.3388     8.1505     0.0406     2.3121    97.6089     0.2351     0.3529
  165.5000     4.4652     3.0743     4.0425   -54.1738     8.1499     0.0466     2.3395   103.1684     0.2121     0.3447
  166.0000     4.3959     3.4383     4.5205   -54.1543     8.1493     0.0405     2.3561   105.8827     0.1999     0.3410
  166.5000     5.7021     3.8455     5.1976   -54.2909     8.1487     0.0328     2.3827   107.0832     0.1936     0.3292
  167.0000     6.7994     4.2711     5.9760   -53.9738     8.1481     0.0312     2.4039   107.6663     0.1861     0.3164
  167.5000     7.7212     4.7437     6.3676   -53.6607     8.1475     0.0327     2.4381   106.0066     0.1670     0.3073
  168.0000     7.9752     5.2322     6.5941   -53.0504     8.1470     0.0447     2.4517   105.4007     0.1426     0.3005
  168.5000     7.7086     5.6912     6.7845   -52.7373     8.1464     0.0613     2.4601   105.2458     0.1341     0.2955
  169.0000     7.5542     6.1940     6.9313   -52.4242     8.1458     0.0674     2.4653   105.5421     0.1299     0.2939
  169.5000     7.4017     6.5599     6.9834   -51.9625     8.1451     0.0597     2.4668   106.7407     0.1284     0.3015
  170.0000     7.3549     6.8808     6.8898   -51.6493     8.1446     0.0520     2.4676   108.3904     0.1275     0.3115
  170.5000     7.4119     6.7899     6.7522   -51.4844     8.1439     0.0459     2.4630   109.1389     0.1287     0.3136
  171.0000     7.5727     6.6076     6.6617   -51.3163     8.1283     0.0412     2.4614   108.2311     0.1306     0.3071
  171.5000     7.8453     6.3857     6.4834   -51.3003     8.1277     0.0361     2.4574   107.6252     0.1312     0.3029
  172.0000     8.0156     6.1284     6.2653   -51.2844     8.1271     0.0198     2.4464   107.4703     0.1333     0.2999
  172.5000     7.6928     5.7600     5.9276   -51.2684     8.1264     0.0061     2.4265   108.2177     0.1388     0.3048
  173.0000     7.1619     5.4138     5.6033   -51.4011     8.1259    -0.0016     2.4112   110.4689     0.1552     0.3090
  173.5000     5.8627     5.1238     5.3490   -51.5377     8.1253    -0.0032     2.3960   112.4194     0.1673     0.3111
  174.0000     5.1506     4.9174     5.2415   -51.9635     8.1246     0.0195     2.3861   110.0089     0.1722     0.3141
  174.5000     5.1173     4.7522     5.2073   -52.2452     8.1240     0.0392     2.3839   105.9443     0.1774     0.3311
  175.0000     5.4898     4.6894     5.1744   -52.5260     8.1235     0.0497     2.3960   101.5789     0.1750     0.3381
