~VERSION INFORMATION
 VERS.                2.0:   CWLS LOG ASCII STANDARD - VERSION 2.0
 WRAP.                 NO:   ONE LINE PER DEPTH STEP
~WELL INFORMATION
#MNEM.UNIT      DATA TYPE    INFORMATION
#----------   ------------   ------------------------------
 STRT.F           12.0000:   START DEPTH
 STOP.F          664.5000:   STOP DEPTH
 STEP.F            0.5000:   STEP LENGTH
 NULL.          -999.2500:   NO VALUE
 COMP. LAWRENCE/ALLISON INC:   COMPANY
 WELL.   23-16 SHX #14-14:   WELL
 FLD .             TEAPOT:   FIELD
 LOC .      S14 T38N R78W:   LOCATION
 CNTY.            NATRONA:   COUNTY
 STAT.            WYOMING:   STATE
 CTRY. UNITED STATES OF AMERICA:   COUNTRY
 SRVC.           Gearhart:   SERVICE COMPANY
 DATE.        03-JUL-1987:   LOGDATE
 API .       490251114200:   API NUMBER
~CURVE INFORMATION
#MNEM.UNIT       API CODE    CURVE DESCRIPTION
#----------   ------------   ------------------------------
 DEPT.F                  :   
 RILD.OHMM   07 120 46 00:   INDUCTION LOG DEEP RESISTIVITY
 RILM.OHMM   07 120 44 00:   INDUCTION LOG MEDIUM RESISTIVITY
 GRR .GAPI   07 310 01 00:   GAMMA RAY FROM RES. LOG
~PARAMETER INFORMATION
#MNEM.UNIT          VALUE    DESCRIPTION
#----------   ------------   ------------------------------
 PD  .                 GL:   PERMANENT DATUM
 EPD .F              5203:   ELEVATION PERMANENT DATUM
 LMF .                 KB:   LOG MEASURED FROM
 DAPD.F                 8:   FEET ABOVE PERMANENT DATUM
 DMF .                 KB:   DRILLING MEASURED FROM
 EKB .F              5211:   KELLING BUSHING
 EDF .F              5210:   DRILLING FLOOR
 EGL .F              5203:   GROUND LEVEL
 DATE.             7-3-87:   RUN DATE
 RUN .                  1:   RUN NUMBER
 DD  .F               679:   DEPTH DRILLER
 DL  .F               672:   DEPTH LOGGER
 BLI .F               664:   BOTTOM LOG INTERVAL
 TLI .F                48:   TOP LOG INTERVAL
 CS  .IN            8.625:   CASING SIZE
 CBD .F                48:   CASING BOTTOM DRILLER
 CBL .F                48:   CASING BOTTOM LOGGER
 BS  .IN            7.875:   BIT SIZE
 BSD .F               679:   BIT SIZE AT DEPTH
 DFT .               FOAM:   DRILLING FLUID TYPE
 TCS .HRS            1345:   TIME CURCULATED STOPPED
 TLAB.HRS            1450:   TIME LOGGER AT BOTTOM
 MRT .F                80:   MAXIMUM RECORDED TEMPERATURE
 LUN .               7597:   LOGGING UNIT NUMBER
 LUL .           GILLETTE:   LOGGING UNIT LOCATION
 ENGI.            WANGLER:   RECORDING ENGINEER
 WITN.             STRONG:   WITNESSED BY
 CLNT.            A2DTECH:   CLIENT CODE
 ORIG.       2", 5" PRINT:   ORIGIN OF DATA
 UWI .       490251114200:   UNIQUE WELL ID
 DICO. A2D Technologies, Inc.:   DIGITIZING COMPANY
~OTHER INFORMATION
~A   DEPT     RILD       RILM         GRR  
# ...
  558.0000    26.3834    33.3483    63.2727
  558.5000    26.8951    35.1768    65.9479
  559.0000    25.5356    35.5039    69.1778
  559.5000    24.2685    31.0515    72.3660
  560.0000    22.8172    27.2749    75.4816
  560.5000    21.1401    23.9689    78.5839
  561.0000    19.5863    21.0671    81.6706
  561.5000    18.1467    18.5160    83.4578
  562.0000    16.9304    16.4667    82.8209
  562.5000    16.0250    16.0498    81.8905
  563.0000    15.3840    15.5281    81.0097
  563.5000    14.7687    15.0233    82.6403
  564.0000    14.4653    14.5350    86.4417
  564.5000    14.4030    14.0625    89.2444
  565.0000    14.3360    13.6838    89.0349
  565.5000    14.2692    13.4328    87.0714
  566.0000    14.1999    13.3090    85.1792
  566.5000    14.1999    13.4469    83.8936
  567.0000    14.2264    13.5497    84.2580
  567.5000    14.2982    13.6533    84.5846
  568.0000    14.3706    13.7577    84.9108
  568.5000    14.4433    13.8629    85.2354
  569.0000    14.5163    13.9689    85.4773
  569.5000    14.5898    14.0757    85.4080
  570.0000    14.6638    14.1833    82.0495
  570.5000    14.7356    14.2918    78.3552
  571.0000    14.7356    14.3320    74.6961
  571.5000    14.6600    14.2147    74.6180
  572.0000    14.6075    13.9519    74.9347
  572.5000    14.5552    13.6939    75.2479
  573.0000    14.5030    13.4407    75.7479
  573.5000    14.3661    13.1919    77.8164
  574.0000    14.0097    12.9476    80.9888
  574.5000    13.6622    12.8134    84.2030
  575.0000    13.5577    12.7716    87.4193
  575.5000    13.6111    12.7310    89.0455
  576.0000    13.6875    12.6902    87.3722
  576.5000    13.7644    12.6496    85.6362
  577.0000    13.8416    12.5846    84.3077
  577.5000    13.9193    12.7023    85.3372
  578.0000    13.9395    12.7423    88.7306
  578.5000    13.8202    12.7900    91.9558
  579.0000    13.8329    12.8378    92.1668
  579.5000    13.8444    12.8858    91.3736
  580.0000    13.8557    12.9451    91.0900
  580.5000    13.8671    12.9446    91.7391
  581.0000    13.8784    12.9445    92.6115
  581.5000    13.8898    12.9445    93.4956
  582.0000    13.9012    12.9445    93.9992
  582.5000    13.9125    12.9447    91.8331
  583.0000    13.9239    12.9456    90.2525
  583.5000    13.9386    12.9389    89.9008
  584.0000    13.9286    12.9564    89.8973
  584.5000    13.9122    12.8080    89.0444
  585.0000    13.8955    12.7941    87.4006
  585.5000    13.8789    12.7802    86.1930
  586.0000    13.8623    12.7663    88.6378
  586.5000    13.8447    12.7525    91.8653
  587.0000    13.8257    12.7384    95.1729
  587.5000    13.8110    12.7248    97.4759
  588.0000    14.6075    12.7111    97.5753
  588.5000    15.6143    12.7071    96.9682
  589.0000    16.6930    13.6118    96.2286
  589.5000    17.8298    14.5984    90.8984
  590.0000    18.8369    15.9612    85.2295
  590.5000    20.1493    17.5754    80.4179
  591.0000    21.5641    19.3391    79.6621
  591.5000    23.0782    21.1247    76.6390
  592.0000    24.6987    23.3170    73.6404
  592.5000    26.4329    25.7471    70.6666
  593.0000    28.2889    28.1691    68.7723
  593.5000    28.9624    29.2317    68.6405
  594.0000    27.8955    29.2317    69.2715
  594.5000    26.8639    28.4670    68.8760
  595.0000    25.8705    27.2904    66.7872
  595.5000    24.9138    26.1624    64.8620
  596.0000    23.9924    25.0811    67.4397
  596.5000    23.1052    24.0444    71.3147
  597.0000    22.2507    23.0506    74.8837
  597.5000    21.4278    22.0979    75.7125
  598.0000    20.6360    21.1846    74.2038
  598.5000    19.8724    20.3737    72.9466
  599.0000    19.4522    20.3575    75.4375
  599.5000    19.4706    20.2999    77.8952
  600.0000    19.4974    20.2425    79.0118
  600.5000    19.5242    20.1853    78.5782
  601.0000    19.5510    20.1282    77.7242
  601.5000    19.5779    20.0713    76.8887
  602.0000    19.6060    20.0146    76.1299
  602.5000    19.6368    20.0000    78.0972
  603.0000    19.6376    19.4657    81.6967
  603.5000    18.8541    18.8501    85.2843
  604.0000    18.0712    18.2539    88.3705
  604.5000    17.3226    17.6074    87.5227
  605.0000    16.6052    16.8783    86.6466
  605.5000    16.4667    16.1793    87.1051
  606.0000    16.3993    15.5093    87.6640
  606.5000    16.3328    15.0109    87.9033
  607.0000    16.2665    14.8726    86.7790
  607.5000    16.2005    15.1155    85.4264
  608.0000    16.1647    15.4093    84.6632
  608.5000    16.4040    15.7087    85.2582
  609.0000    16.5973    15.8682    85.4046
  609.5000    16.7960    15.9104    84.3121
  610.0000    16.9389    15.9496    83.2077
  610.5000    16.5967    15.9889    82.6341
  611.0000    16.3352    16.0158    82.8422
  611.5000    16.0826    15.7341    83.0427
  612.0000    15.8340    15.4865    82.1880
  612.5000    15.5891    15.2428    81.0218
  613.0000    15.3481    15.0030    80.2079
  613.5000    15.1108    14.7669    82.3433
  614.0000    14.8772    14.5345    84.6914
  614.5000    14.6472    14.3058    87.0621
  615.0000    14.4207    14.0807    89.4329
  615.5000    14.1977    13.8592    88.2265
  616.0000    14.0336    13.6411    85.1061
  616.5000    13.9487    13.4328    80.8662
  617.0000    13.8643    13.3190    76.5596
  617.5000    13.7803    13.2096    76.4571
  618.0000    13.6969    13.1012    80.5847
  618.5000    13.6140    12.9936    84.6848
  619.0000    13.5316    12.8868    88.7677
  619.5000    13.4497    12.7810    92.3015
  620.0000    13.3683    12.6760    92.1817
  620.5000    13.2874    12.5718    91.4037
  621.0000    13.2070    12.4680    89.5160
  621.5000    13.1271    12.3590    87.0842
  622.0000    13.0476    12.3255    84.6240
  622.5000    12.9686    12.2895    83.5534
  623.0000    12.8902    12.2537    86.4363
  623.5000    12.8252    12.2179    88.3398
  624.0000    12.7672    12.1823    87.3306
  624.5000    12.7077    12.1467    86.2460
  625.0000    12.6484    12.1113    85.1542
  625.5000    12.5894    12.0760    84.7522
  626.0000    12.5307    12.0410    85.7943
  626.5000    12.4722    11.9958    87.2330
  627.0000    12.4141    11.9380    88.6549
  627.5000    12.3590    11.8804    90.0858
  628.0000    12.3150    11.8231    90.4735
  628.5000    12.2732    11.7660    89.8524
  629.0000    12.2316    11.7093    89.1966
  629.5000    12.1901    11.6528    90.3948
  630.0000    12.1487    11.5966    92.9585
  630.5000    12.1074    11.5406    95.5356
  631.0000    12.0664    11.4850    98.0866
  631.5000    12.0254    11.4295    99.0223
  632.0000    11.9846    11.3711    97.5849
  632.5000    11.9440    11.3868    96.1550
  633.0000    11.9070    11.4167    96.9090
  633.5000    11.8928    11.4465    98.3506
  634.0000    11.8782    11.4763    99.8231
  634.5000    11.8636    11.5062    99.3124
  635.0000    11.8490    11.5361    98.7903
  635.5000    11.8344    11.5659    98.8130
  636.0000    11.8199    11.5835    98.1018
  636.5000    11.8049    11.5834    96.9585
  637.0000    11.7271    11.5836    95.2698
  637.5000    11.6130    11.5488    93.5361
  638.0000    11.4999    11.4093    92.7354
  638.5000    11.3879    11.2715    93.0401
  639.0000    11.2770    11.1353    93.1203
  639.5000    11.1672    11.0008    93.1143
  640.0000    11.0585    10.8679    93.5508
  640.5000    10.9508    10.7366    98.4700
  641.0000    10.8568    10.6069   103.5020
  641.5000    10.7522    10.4788    99.8154
  642.0000    10.6398    10.3522    93.2704
  642.5000    10.5284    10.2192    89.2452
  643.0000    10.4182    10.0733    87.3661
  643.5000    10.3092     9.9294    89.8695
  644.0000    10.2014     9.7878    92.8115
  644.5000    10.0946     9.6495    95.7662
  645.0000     9.9883     9.5372    98.8428
  645.5000     9.6192     9.2086   102.6757
  646.0000     9.2614     8.8914   106.4995
  646.5000     8.9162     8.5851   107.6563
  647.0000     8.5910     8.3008   103.7766
  647.5000     7.9360     7.5911   101.8017
  648.0000     7.2832     6.9658   101.7353
  648.5000     6.6829     6.3920  -999.2500
