~VERSION INFORMATION
 VERS.                2.0:   CWLS LOG ASCII STANDARD - VERSION 2.0
 WRAP.                 NO:   ONE LINE PER DEPTH STEP
~WELL INFORMATION
#MNEM.UNIT      DATA TYPE    INFORMATION
#----------   ------------   ------------------------------
 STRT.F           29.0000:   START DEPTH
 STOP.F          462.0000:   STOP DEPTH
 STEP.F            0.5000:   STEP LENGTH
 NULL.          -999.2500:   NO VALUE
 COMP.    FENIX & SCISSON:   COMPANY
 WELL.      NPR #71-SX-10:   WELL
 FLD .             TEAPOT:   FIELD
 LOC .      S10 T38N R78W:   LOCATION
 CNTY.            NATRONA:   COUNTY
 STAT.            WYOMING:   STATE
 CTRY. UNITED STATES OF AMERICA:   COUNTRY
 SRVC.              Welex:   SERVICE COMPANY
 DATE.        01-APR-1977:   LOGDATE
 API .       490251032300:   API NUMBER
~CURVE INFORMATION
#MNEM.UNIT       API CODE    CURVE DESCRIPTION
#----------   ------------   ------------------------------
 DEPT.F                  :   
 SPR .MV     07 010 01 00:   SPONTANEOUS POTENTIAL
 ILD .OHMM   07 120 46 00:   INDUCTION LOG DEEP
 ILM .OHMM   07 120 44 00:   INDUCTION LOG MEDIUM
 SGRD.OHMM   07 221 05 00:   SHALLOW SHORT GUARD RESISTIVITY
 CALD.IN     45 280 60 00:   CALIPER FROM DENSITY LOG
 GRD .GAPI   45 310 01 00:   GAMMA RAY FROM DENSITY LOG
 CORR.G/C3   45 356 01 00:   DENSITY CORRECTION
 RHOB.G/C3   45 350 01 00:   BULK DENSITY
 DPHI.DEC    45 890 12 00:   DENSITY POROSITY SANDSTONE
~PARAMETER INFORMATION
#MNEM.UNIT          VALUE    DESCRIPTION
#----------   ------------   ------------------------------
 PD  .                 GL:   PERMANENT DATUM
 EPD .F              5157:   ELEVATION PERMANENT DATUM
 LMF .                 GL:   LOG MEASURED FROM
 DMF .                 GL:   DRILLING MEASURED FROM
 EGL .F              5157:   GROUND LEVEL
 DATE.        01-APR-1977:   RUN DATE
 RUN .                  1:   RUN NUMBER
 DD  .F               475:   DEPTH DRILLER
 DL  .F               466:   DEPTH LOGGER
 BLI .F               463:   BOTTOM LOG INTERVAL
 TLI .F                30:   TOP LOG INTERVAL
 CS  .IN            8.625:   CASING SIZE
 BS  .IN            7.875:   BIT SIZE
 BSD .F               475:   BIT SIZE AT DEPTH
 DFT .                KCL:   DRILLING FLUID TYPE
 DFD .                8.5:   DRILLING FLUID DENSITY
 TCS .HRS               3:   TIME CURCULATED STOPPED
 MRT .F                67:   MAXIMUM RECORDED TEMPERATURE
 ENGI.            C. DOAK:   RECORDING ENGINEER
 WITN.   R. B. HARRINGTON:   WITNESSED BY
 CLNT.            A2DTECH:   CLIENT CODE
 ORIG.           5" PRINT:   ORIGIN OF DATA
 UWI .       490251032300:   UNIQUE WELL ID
 DICO. A2D Technologies, Inc.:   DIGITIZING COMPANY
~OTHER INFORMATION
~A   DEPT      SPR        ILD        ILM       SGRD         CALD      GRD       CORR       RHOB       DPHI   
# ...
  430.5000   -28.6206    10.5078    13.6119    16.5326     7.7772   105.7388    -0.0073     2.4257     0.1275
  431.0000   -28.9288    10.4418    12.8859    16.2027     7.7784   105.6177    -0.0088     2.4363     0.1236
  431.5000   -29.1848    10.3038    12.8024    15.6610     7.7796   104.4518    -0.0102     2.4424     0.1226
  432.0000   -29.6153    10.1694    12.8112    15.4527     7.7808   102.2411    -0.0116     2.4462     0.1214
  432.5000   -30.1905    10.0358    13.0871    15.4647     7.7820   102.5678    -0.0145     2.4508     0.1196
  433.0000   -30.7693     9.9665    13.2768    15.2614     7.7832   104.9840    -0.0160     2.4553     0.1166
  433.5000   -31.1998     9.8338    13.2841    14.8537     7.7844   107.2509    -0.0158     2.4652     0.1126
  434.0000   -31.6303     9.7125    13.1087    14.4568     7.7854   107.5705    -0.0142     2.4787     0.1069
  434.5000   -32.0644     9.5077    11.8228    14.2646     7.7865   104.1729    -0.0111     2.4960     0.1000
  435.0000   -32.4912     9.0132    11.4254    14.0771     7.7877   104.4995    -0.0050     2.4991     0.1009
  435.5000   -32.7733     8.7120    11.4333    13.7031     7.7889   108.8560     0.0042     2.4909     0.1050
  436.0000   -33.0591     8.4210    11.3591    13.4276     7.7901   113.0632     0.0118     2.4782     0.1107
  436.5000   -33.6343     7.5954    11.0566    13.1597     7.7921   118.3152     0.0134     2.4761     0.1095
  437.0000   -34.0648     7.1908    10.4669    12.8100     7.8075   121.4777     0.0135     2.4716     0.1113
  437.5000   -34.6436     6.8551     9.7725    12.5544     7.8236   123.4461     0.0106     2.4657     0.1146
  438.0000   -35.0741     6.3127     8.9987    12.2190     7.8547   135.4146     0.0077     2.4560     0.1190
  438.5000   -35.3562     5.9764     8.1160    11.0968     7.8709   139.6218     0.0047     2.4426     0.1328
  439.0000   -35.3284     5.8169     7.3707     8.2441     7.8870   140.2469     0.0018     2.4044     0.1493
  439.5000   -34.8600     5.8205     6.4661     5.1156     7.9032   138.6333    -0.0042     2.3759     0.1601
  440.0000   -34.1217     5.8241     6.1204     4.6130     7.9193   133.4375    -0.0132     2.3737     0.1438
  440.5000   -33.5136     5.9913     7.6958    11.2017     7.9205   122.5701    -0.0146     2.4211     0.1318
  441.0000   -33.0539     6.3362     8.6613    14.5827     7.9217   110.9565    -0.0145     2.4474     0.1216
  441.5000   -32.5941     6.7944     9.2229    14.8073     7.9077   104.2682    -0.0129     2.4565     0.1144
  442.0000   -32.2828     7.2355     9.8892    14.5000     7.9092   102.0505    -0.0128     2.4678     0.1128
  442.5000   -31.8230     7.5993    10.4578    14.4088     7.9104   102.5334    -0.0112     2.4799     0.1071
  443.0000   -31.6600     7.9263    11.3695    14.4177     7.8963   103.4571    -0.0111     2.5017     0.0939
  443.5000   -31.3487     8.3827    12.0233    14.9350     7.8979   103.4782    -0.0064     2.5228     0.0807
  444.0000   -31.1857     8.9888    12.3676    15.5796     7.8991   101.7908     0.0028     2.5528     0.0691
  444.5000   -31.1710     9.3757    12.2043    15.3693     7.9003  -999.2500     0.0119     2.5334     0.0833
  445.0000   -31.3084     9.5783    12.3016    15.0599     7.8862  -999.2500     0.0120     2.4922     0.0983
  445.5000   -31.4392     9.7853    12.7441    14.6641     7.8877  -999.2500     0.0105     2.4945     0.1019
  446.0000   -31.5727     9.9278    13.3053    15.0066     7.8889  -999.2500     0.0076     2.4961     0.0987
  446.5000   -31.5576     9.9339    13.9786    15.3056     7.8749  -999.2500     0.0047     2.4916     0.0925
  447.0000   -31.5430     9.9401    14.4666    15.3151     7.8764  -999.2500     0.0048     2.5015     0.0928
  447.5000   -31.5282     9.8776    14.5592    15.7570     7.8776  -999.2500     0.0079     2.5053     0.0916
  448.0000   -31.3650     9.6805    14.6683    16.7807     7.8635  -999.2500     0.0125     2.5076     0.0864
  448.5000   -31.2018     9.4222    14.8809    17.1410     7.8650  -999.2500     0.0141     2.5099     0.0813
  449.0000   -30.8874     9.4281    15.6281    16.2272     7.8663  -999.2500     0.0142     2.5108     0.0807
  449.5000   -30.7244     9.5654    16.4127    17.0464     7.8522  -999.2500     0.0158     2.5063     0.0867
  450.0000   -29.6761     9.8399    16.9998    17.7785     7.8385  -999.2500     0.0159     2.5026     0.0899
  450.5000   -28.5192     9.9082    17.2545    17.6617     7.8400  -999.2500     0.0166     2.5050     0.0860
  451.0000   -26.9172     9.9770    17.2724    17.6692     7.8412  -999.2500     0.0174     2.5073     0.0823
  451.5000   -25.6119    10.1178    17.6529    17.9218     7.8424  -999.2500     0.0182     2.5058     0.0825
  452.0000   -23.2681    10.4024    18.2933    18.1780     7.8436  -999.2500     0.0174     2.4999     0.0863
  452.5000   -19.4406    10.8503    18.8262    18.6950     7.8446  -999.2500     0.0118     2.4880     0.1028
  453.0000   -11.7555    12.0322    19.5091    19.6303     7.8458  -999.2500     0.0076     2.4805     0.1012
  453.5000    -6.1476    16.9087    19.6649    19.7735     7.8618  -999.2500     0.0079     2.4934     0.1038
  454.0000    -2.6168    18.8839    19.4147    19.3736     7.8780  -999.2500     0.0083     2.4792     0.1097
  454.5000    -1.3115    19.8038    19.2998    18.0836     7.8941  -999.2500     0.0102     2.4605     0.1146
  455.0000    -0.8890    20.2204    19.8629    17.7163     7.9103  -999.2500     0.0090     2.4598     0.1153
  455.5000    -1.0682    21.4139    20.1606    17.9711     7.9115  -999.2500     0.0080     2.4636     0.1134
  456.0000    -1.3947    24.8223    19.9040    18.7400     7.9127  -999.2500     0.0068     2.4682     0.1109
  456.5000    -1.5727    37.7662    19.2470    19.2730     7.9139  -999.2500     0.0072     2.4728     0.1076
  457.0000    -1.6026    93.5831    18.7410    18.7529     7.9151  -999.2500     0.0076     2.4781     0.1045
  457.5000    -1.6327  -999.2500    18.8906    18.7593     7.9163  -999.2500     0.0080     2.4811     0.1002
  458.0000    -1.8111  -999.2500    18.6502    18.5076     7.9325  -999.2500     0.0084     2.4842     0.0975
  458.5000    -1.9895  -999.2500    17.6639    17.6379     7.9337  -999.2500     0.0087     2.4858     0.0995
  459.0000    -2.1679  -999.2500    17.4392    17.6440     7.9349  -999.2500     0.0122     2.4866     0.0979
  459.5000    -2.3463  -999.2500    18.0719    18.2719     7.9361  -999.2500     0.0142     2.4851     0.0957
  460.0000    -2.5172  -999.2500    18.7275    18.9221     7.9373  -999.2500     0.0189     2.4822     0.0954
  460.5000    -2.0772  -999.2500    18.2163    19.1860     7.9232  -999.2500     0.0208     2.4785     0.0980
  461.0000    -2.5223  -999.2500    19.1203    17.7788     7.8948  -999.2500     0.0197     2.4741     0.1060
  461.5000    -2.9674  -999.2500    19.2531    17.7788     7.8363  -999.2500     0.0140     2.4682     0.1116
  462.0000    -2.7616  -999.2500    19.1203    17.7788     7.5418  -999.2500     0.0113     2.4630     0.1137
