~VERSION INFORMATION
 VERS.                2.0:   CWLS LOG ASCII STANDARD - VERSION 2.0
 WRAP.                 NO:   ONE LINE PER DEPTH STEP
~WELL INFORMATION
#MNEM.UNIT      DATA TYPE    INFORMATION
#----------   ------------   ------------------------------
 STRT.M         1049.9000:   START DEPTH
 STOP.M         2123.5000:   STOP DEPTH
 STEP.M            0.1000:   STEP LENGTH
 NULL.          -999.2500:   NO VALUE
 COMP. BROWN JOHN E&C INC:   COMPANY
 WELL. NAVAL PETROLEUM RESERVE 3 STX- #34-3:   WELL
 FLD .            WILDCAT:   FIELD
 LOC .       S3 T38N R78W:   LOCATION
 CNTY.            NATRONA:   COUNTY
 STAT.            WYOMING:   STATE
 CTRY. UNITED STATES OF AMERICA:   COUNTRY
 SRVC.            Unknown:   SERVICE COMPANY
 DATE.        04-SEP-1991:   LOGDATE
 API .       490251090400:   API NUMBER
~CURVE INFORMATION
#MNEM.UNIT       API CODE    CURVE DESCRIPTION
#----------   ------------   ------------------------------
 DEPT.M                  :   
 ROP .MIN/FT 91 810 01 00:   RAT OF DRILLING PENETRATION
 TGAS.UNITS  91 830 01 00:   TOTAL GAS FROM HOTWIRE
~PARAMETER INFORMATION
#MNEM.UNIT          VALUE    DESCRIPTION
#----------   ------------   ------------------------------
 EKB .F              5189:   KELLING BUSHING
 EGL .F              5179:   GROUND LEVEL
 DATE.             9-4-91:   RUN DATE
 DD  .F              2123:   DEPTH DRILLER
 CS  .IN            9.625:   CASING SIZE
 BS  .IN             8.75:   BIT SIZE
 BSD .F              2123:   BIT SIZE AT DEPTH
 ENGI.              TOWER:   RECORDING ENGINEER
 WITN.               HUSK:   WITNESSED BY
 CLNT.            A2DTECH:   CLIENT CODE
 ORIG.           5" PRINT:   ORIGIN OF DATA
 UWI .       490251090400:   UNIQUE WELL ID
 DICO. A2D Technologies, Inc.:   DIGITIZING COMPANY
~OTHER INFORMATION
~A  DEPT       ROP         TGAS 
# ...
 1876.1000     0.5770    20.3471
 1876.2000     0.5725    20.3413
 1876.3000     0.5709    20.3355
 1876.4000     0.5707    20.3298
 1876.5000     0.5706    20.3240
 1876.6000     0.5704    20.3182
 1876.7000     0.5702    20.3124
 1876.8000     0.5719    20.3067
 1876.9000     0.5740    20.3009
 1877.0000     0.5760    20.2951
 1877.1000     0.5781    20.2893
 1877.2000     0.5802    20.2836
 1877.3000     0.5801    20.2778
 1877.4000     0.5799    20.2720
 1877.5000     0.5798    20.2662
 1877.6000     0.5796    20.2605
 1877.7000     0.5792    20.2547
 1877.8000     0.5768    20.2489
 1877.9000     0.5745    20.2431
 1878.0000     0.5721    20.2374
 1878.1000     0.5698    20.2316
 1878.2000     0.5668    20.2258
 1878.3000     0.5623    20.2200
 1878.4000     0.5577    20.2143
 1878.5000     0.5531    20.2085
 1878.6000     0.5486    20.2027
 1878.7000     0.5431    20.1970
 1878.8000     0.5363    20.1912
 1878.9000     0.5295    20.1854
 1879.0000     0.5227    20.1796
 1879.1000     0.5160    20.1739
 1879.2000     0.5117    20.1681
 1879.3000     0.5094    20.1623
 1879.4000     0.5070    20.1565
 1879.5000     0.5046    20.1508
 1879.6000     0.5023    20.1450
 1879.7000     0.5047    20.1392
 1879.8000     0.5090    20.1334
 1879.9000     0.5132    20.1277
 1880.0000     0.5175    20.1219
 1880.1000     0.5223    20.1161
 1880.2000     0.5299    20.1103
 1880.3000     0.5385    20.1046
 1880.4000     0.5472    20.0988
 1880.5000     0.5559    20.0923
 1880.6000     0.5646    20.1022
 1880.7000     0.5755    20.1135
 1880.8000     0.5864    20.1249
 1880.9000     0.5973    20.1362
 1881.0000     0.6082    20.1476
 1881.1000     0.6194    20.1589
 1881.2000     0.6325    20.1702
 1881.3000     0.6456    20.1816
 1881.4000     0.6587    20.1929
 1881.5000     0.6718    20.2043
 1881.6000     0.6879    20.2156
 1881.7000     0.7104    20.2269
 1881.8000     0.7330    20.2383
 1881.9000     0.7337    20.2496
 1882.0000     0.7115    20.2610
 1882.1000     0.6893    20.2723
 1882.2000     0.6671    20.2836
 1882.3000     0.6448    20.2950
 1882.4000     0.6324    20.3063
 1882.5000     0.6257    20.3177
 1882.6000     0.6189    20.3290
 1882.7000     0.6121    20.3403
 1882.8000     0.6054    20.3517
 1882.9000     0.5986    20.3630
 1883.0000     0.5918    20.3744
 1883.1000     0.5850    20.3857
 1883.2000     0.5783    20.3970
 1883.3000     0.5711    20.4084
 1883.4000     0.5689    20.4197
 1883.5000     0.5665    20.4311
 1883.6000     0.5641    20.4424
 1883.7000     0.5618    20.4537
 1883.8000     0.5596    20.4651
 1883.9000     0.5619    20.4764
 1884.0000     0.5639    20.4878
 1884.1000     0.5660    20.4991
 1884.2000     0.5680    20.5104
 1884.3000     0.5701    20.5218
 1884.4000     0.5721    20.5331
 1884.5000     0.5742    20.5445
 1884.6000     0.5763    20.5558
 1884.7000     0.5783    20.5671
 1884.8000     0.5804    20.5785
 1884.9000     0.5824    20.5898
 1885.0000     0.5845    20.6012
 1885.1000     0.5866    20.6125
 1885.2000     0.5886    20.6238
 1885.3000     0.5895    20.6352
 1885.4000     0.5893    20.6465
 1885.5000     0.5892    20.6579
 1885.6000     0.5890    20.6692
 1885.7000     0.5889    20.6805
 1885.8000     0.5850    20.6919
 1885.9000     0.5716    20.7032
 1886.0000     0.5582    20.7146
 1886.1000     0.5448    20.7259
 1886.2000     0.5315    20.7372
 1886.3000     0.5190    20.7486
 1886.4000     0.5078    20.7599
 1886.5000     0.4966    20.7713
 1886.6000     0.4855    20.7826
 1886.7000     0.4743    20.7939
 1886.8000     0.4644    20.8053
 1886.9000     0.4554    20.8166
 1887.0000     0.4464    20.8280
 1887.1000     0.4374    20.8393
 1887.2000     0.4284    20.8506
 1887.3000     0.4243    20.8620
 1887.4000     0.4219    20.8733
 1887.5000     0.4196    20.8847
 1887.6000     0.4172    20.8960
 1887.7000     0.4146    20.9073
 1887.8000     0.4164    20.9187
 1887.9000     0.4184    20.9300
 1888.0000     0.4205    20.9414
 1888.1000     0.4225    20.9527
 1888.2000     0.4248    20.9640
 1888.3000     0.4357    20.9754
 1888.4000     0.4466    20.9867
 1888.5000     0.4575    20.9981
 1888.6000     0.4684    21.0094
 1888.7000     0.4797    21.0207
 1888.8000     0.4928    21.0321
 1888.9000     0.5059    21.0434
 1889.0000     0.5190    21.0547
 1889.1000     0.5320    21.0661
 1889.2000     0.5437    21.0774
 1889.3000     0.5524    21.0888
 1889.4000     0.5611    21.1001
 1889.5000     0.5697    21.1114
 1889.6000     0.5784    21.1228
 1889.7000     0.5850    21.1341
 1889.8000     0.5893    21.1455
 1889.9000     0.5935    21.1568
 1890.0000     0.5978    21.1681
 1890.1000     0.6021    21.1783
 1890.2000     0.6049    21.1851
 1890.3000     0.6070    21.1920
 1890.4000     0.6091    21.1989
 1890.5000     0.6111    21.2057
 1890.6000     0.6132    21.2126
 1890.7000     0.6135    21.2194
 1890.8000     0.6134    21.2263
 1890.9000     0.6132    21.2331
 1891.0000     0.6131    21.2400
 1891.1000     0.6129    21.2469
 1891.2000     0.6107    21.2537
 1891.3000     0.6084    21.2606
 1891.4000     0.6060    21.2674
 1891.5000     0.6037    21.2743
 1891.6000     0.6015    21.2811
 1891.7000     0.6013    21.2880
 1891.8000     0.6012    21.2949
 1891.9000     0.6010    21.3017
 1892.0000     0.6009    21.3086
 1892.1000     0.6017    21.3154
 1892.2000     0.6060    21.3223
 1892.3000     0.6102    21.3291
 1892.4000     0.6145    21.3360
 1892.5000     0.6188    21.3429
 1892.6000     0.6247    21.3497
 1892.7000     0.6333    21.3566
 1892.8000     0.6420    21.3634
 1892.9000     0.6507    21.3703
 1893.0000     0.6594    21.3771
 1893.1000     0.6681    21.3840
 1893.2000     0.6767    21.3909
 1893.3000     0.6854    21.3977
 1893.4000     0.6941    21.4046
 1893.5000     0.7028    21.4114
 1893.6000     0.7115    21.4183
 1893.7000     0.7201    21.4251
 1893.8000     0.7288    21.4320
 1893.9000     0.7375    21.4389
 1894.0000     0.7477    21.4457
 1894.1000     0.7530    21.4526
 1894.2000     0.7595    21.4594
 1894.3000     0.7660    21.4663
 1894.4000     0.7725    21.4731
 1894.5000     0.7791    21.4800
 1894.6000     0.7768    21.4869
 1894.7000     0.7745    21.4937
 1894.8000     0.7721    21.5006
 1894.9000     0.7698    21.5074
 1895.0000     0.7671    21.5143
 1895.1000     0.7626    21.5211
 1895.2000     0.7580    21.5280
 1895.3000     0.7534    21.5349
 1895.4000     0.7489    21.5417
 1895.5000     0.7431    21.5486
 1895.6000     0.7341    21.5554
 1895.7000     0.7252    21.5623
 1895.8000     0.7162    21.5691
 1895.9000     0.7072    21.5760
 1896.0000     0.6991    21.5829
 1896.1000     0.6924    21.5897
 1896.2000     0.6856    21.5966
 1896.3000     0.6788    21.6034
 1896.4000     0.6721    21.6103
 1896.5000     0.6678    21.6171
 1896.6000     0.6654    21.6240
 1896.7000     0.6631    21.6309
 1896.8000     0.6607    21.6377
 1896.9000     0.6584    21.6446
 1897.0000     0.6576    21.6514
 1897.1000     0.6575    21.6583
 1897.2000     0.6573    21.6651
 1897.3000     0.6572    21.6720
 1897.4000     0.6570    21.6789
 1897.5000     0.6569    21.6857
 1897.6000     0.6567    21.6926
 1897.7000     0.6566    21.6994
 1897.8000     0.6564    21.7063
 1897.9000     0.6563    21.7131
 1898.0000     0.6561    21.7200
 1898.1000     0.6560    21.7269
 1898.2000     0.6558    21.7337
 1898.3000     0.6557    21.7406
 1898.4000     0.6566    21.7474
 1898.5000     0.6631    21.7543
 1898.6000     0.6696    21.7611
 1898.7000     0.6760    21.7680
 1898.8000     0.6825    21.7749
 1898.9000     0.6904    21.7817
 1899.0000     0.7013    21.7886
 1899.1000     0.7122    21.7954
 1899.2000     0.7230    21.8023
 1899.3000     0.7339    21.8091
 1899.4000     0.7448    21.8160
 1899.5000     0.7557    21.8229
 1899.6000     0.7666    21.8297
 1899.7000     0.7775    21.8366
 1899.8000     0.7884    21.8434
 1899.9000     0.8015    21.8503
 1900.0000     0.8161    21.8571
 1900.1000     0.8306    21.8629
 1900.2000     0.8455    21.8679
 1900.3000     0.8411    21.8729
