~VERSION INFORMATION
 VERS.                2.0:   CWLS LOG ASCII STANDARD - VERSION 2.0
 WRAP.                 NO:   ONE LINE PER DEPTH STEP
~WELL INFORMATION
#MNEM.UNIT      DATA TYPE    INFORMATION
#----------   ------------   ------------------------------
 STRT.F            0.0000:   START DEPTH
 STOP.F         1002.0000:   STOP DEPTH
 STEP.F            0.5000:   STEP LENGTH
 NULL.          -999.2500:   NO VALUE
 COMP. U S NAVY-INTEX OIL:   COMPANY
 WELL.     NPR ##3 28-S-2:   WELL
 FLD .             TEAPOT:   FIELD
 LOC .       S2 T38N R78W:   LOCATION
 CNTY.            NATRONA:   COUNTY
 STAT.            WYOMING:   STATE
 CTRY. UNITED STATES OF AMERICA:   COUNTRY
 SRVC.      NL McCullough:   SERVICE COMPANY
 DATE.        13-JUN-1963:   LOGDATE
 API .       490250639400:   API NUMBER
~CURVE INFORMATION
#MNEM.UNIT       API CODE    CURVE DESCRIPTION
#----------   ------------   ------------------------------
 DEPT.F                  :   
 ASN .OHMM   05 041 16 00:   AMPLIFIED SHORT NORMAL 16"
 ILD .OHMM   05 120 46 00:   INDUCTION LOG DEEP
 CILD.MMHO   05 110 46 00:   CONDUCTIVITY INDUCTION LOG DEEP
 SPR .MV     05 010 01 00:   SPONTANEOUS POTENTIAL FROM RES.
 GR  .GAPI   30 310 01 00:   GAMMA RAY
~PARAMETER INFORMATION
#MNEM.UNIT          VALUE    DESCRIPTION
#----------   ------------   ------------------------------
 PD  .                 GL:   PERMANENT DATUM
 EPD .F              5147:   ELEVATION PERMANENT DATUM
 LMF .                 KB:   LOG MEASURED FROM
 DAPD.F                 5:   FEET ABOVE PERMANENT DATUM
 DMF .                 KB:   DRILLING MEASURED FROM
 EKB .F              5152:   KELLING BUSHING
 EGL .F              5147:   GROUND LEVEL
 DATE.        13-SEP-1963:   RUN DATE
 RUN .                  1:   RUN NUMBER
 BLI .F               600:   BOTTOM LOG INTERVAL
 CS  .IN                7:   CASING SIZE
 DFT .                OIL:   DRILLING FLUID TYPE
 ENGI.            JACKSON:   RECORDING ENGINEER
 WITN.             HUDSON:   WITNESSED BY
 CLNT.            A2DTECH:   CLIENT CODE
 ORIG.           5" PRINT:   ORIGIN OF DATA
 UWI .       490250639400:   UNIQUE WELL ID
 DICO. A2D Technologies, Inc.:   DIGITIZING COMPANY
~OTHER INFORMATION
~A    DEPT     ASN        ILD       CILD        SPR          GR  
# ...
  183.0000     9.0296     7.9341   124.8252   -36.5710    99.7444
  183.5000     8.8652     7.7844   127.8158   -36.5725   102.1687
  184.0000     8.7147     7.4850   133.0508   -36.4245   101.9308
  184.5000     8.5259     7.2605   136.7877   -36.4260   103.8454
  185.0000     8.3319     7.0359   141.2765   -36.2532    97.2621
  185.5000     8.1827     6.8114   145.7653   -35.9805    92.8097
  186.0000     8.0485     6.6617   147.9984   -35.9824    93.1192
  186.5000     8.0039     6.7365   147.2240   -35.9838    93.5775
  187.0000     8.0341     6.8114   144.9459   -35.8355    91.6548
  187.5000     8.1241     6.9611   141.1640   -35.8374    91.3690
  188.0000     8.2739     7.1108   138.1340   -35.9883    95.4090
  188.5000     8.4535     7.1856   135.8559   -35.9898    99.1310
  189.0000     8.6183     7.3353   133.5777   -36.1408    98.6904
  189.5000     8.7082     7.4102   132.0514   -36.2917    96.7259
  190.0000     8.7384     7.5599   130.5252   -36.4427    94.4046
  190.5000     8.7686     7.5599   128.2471   -36.4442    98.0239
  191.0000     8.7689     7.6347   125.9689   -36.5952    97.3771
  191.5000     8.7842     7.6347   124.4426   -36.4468    94.8233
  192.0000     8.8293     7.7096   123.6683   -36.4487    91.3866
  192.5000     8.9342     7.7096   122.1420   -36.4501    88.7302
  193.0000     9.0545     7.7096   121.3676   -36.4516    86.8865
  193.5000     9.1740     7.7844   120.5933   -36.3033    88.6783
  194.0000     9.1743     7.8593   120.5708   -36.3051    91.9960
  194.5000     9.1896     7.8705   121.3007   -36.3066    87.2856
  195.0000     9.2048     7.9341   121.2776   -36.3081    85.8952
  195.5000     9.2350     8.0090   121.2551   -36.1597    84.2702
  196.0000     9.2353     7.9341   122.7364   -36.1616    82.6452
  196.5000     9.1906     7.8593   124.2177   -36.0136    85.4844
  197.0000     9.1147     7.7096   125.6989   -36.0151    95.3177
  197.5000     9.0105     7.5599   127.1805   -36.0166   101.1331
  198.0000     8.8263     7.4102   129.4135   -36.0181   103.5259
  198.5000     8.6688     7.3353   130.8946   -36.0196    98.6271
  199.0000     8.5944     7.1856   132.3758   -36.0211    95.8116
  199.5000     8.5796     7.1108   133.1053   -36.0226    96.1211
  200.0000     8.5651     7.1086   133.8346   -36.0301    98.7831
  200.5000     8.5503     7.0818   134.5085   -36.0686   100.0111
  201.0000     8.5806     7.0550   135.1824   -36.1072    97.9410
  201.5000     8.5958     7.0313   134.5865   -36.1457   102.4219
  202.0000     8.5662     7.1050   134.5865   -36.1854   103.3280
  202.5000     8.5217     7.1032   134.5865   -36.1884   102.2996
  203.0000     8.5220     7.2514   134.5865   -36.0419    93.6815
  203.5000     8.5821     7.2499   134.5865   -36.0448    96.0761
  204.0000     8.6427     7.2484   134.5865   -35.8983    89.5418
  204.5000     8.6873     7.3218   134.5865   -35.7300    88.5105
  205.0000     8.6876     7.3203   133.8346   -35.6052    94.4841
  205.5000     8.6906     7.3188   132.3308   -35.4594    93.4091
  206.0000     8.7032     7.3174   131.5789   -35.4624    91.9758
  206.5000     8.7334     7.3159   130.8271   -35.4653    92.5215
  207.0000     8.7785     7.3893   130.0752   -35.4683    99.4939
  207.5000     8.8237     7.4015   130.0752   -35.4712   102.4323
  208.0000     8.8837     7.5360   129.3233   -35.6237   108.1037
  208.5000     8.9438     7.6094   127.8195   -35.7761   106.0336
  209.0000     8.9740     7.6075   127.0677   -35.7791   107.0885
  209.5000     9.0491     7.6809   126.3158   -35.7820   110.5244
  210.0000     9.1091     7.6794   125.5639   -35.9344   116.3413
  210.5000     9.1842     7.7532   124.8120   -35.9374   116.0569
  211.0000     9.2443     7.9014   123.3083   -35.9403   114.5821
  211.5000     9.2595     7.9748   122.5564   -35.9433   115.6370
  212.0000     9.3196     7.9729   120.3008   -35.7968   117.7303
  212.5000     9.4544     8.1215   118.7970   -35.7997   113.8779
  213.0000     9.6341     8.1949   117.2932   -35.8027   112.9950
  213.5000     9.8138     8.2680   116.5414   -35.8057   114.3508
  214.0000     9.9785     8.3413   114.2857   -35.8087   114.8072
  214.5000     9.9190     8.4895   113.5338   -35.8122   115.5679
  215.0000     9.9193     8.6377   113.5338   -35.8152   116.4707
  215.5000     9.9196     8.7178   113.5338   -35.8181   109.9396
  216.0000     9.9348     8.8593   113.5338   -35.8211   106.5060
  216.5000     9.9351     8.9327   113.5338   -35.8240   106.3948
  217.0000     9.9653     8.9309   113.5338   -35.6768   103.8783
  217.5000    10.0553     8.9294   112.7820   -35.8299   101.6295
  218.0000    10.1756     9.0031   112.0301   -35.8329   104.6488
  218.5000    10.2951     9.0765   110.5263   -35.9853   101.3883
  219.0000     9.8768     9.0747   109.0226   -35.9883   104.7468
  219.5000    10.0266     9.1484   107.5188   -35.9912   110.1182
  220.0000    10.1017     9.1466   105.2632   -35.9942   112.9068
  220.5000    10.1019     9.2203   103.7594   -35.9971   112.2290
  221.0000    10.1770     9.3685   102.2556   -36.0001   107.7080
  221.5000    10.2520     9.5912   101.5038   -36.0030   106.9739
  222.0000    10.2563     9.7396   100.0000   -36.0060   105.5024
  222.5000    10.4021    10.0374    97.7444   -36.0090   100.7538
  223.0000    10.5629    10.2605    95.4887   -35.8624    96.0051
  223.5000    10.7764    10.4835    93.2331   -35.8654    97.9529
  224.0000    10.9262    10.7066    90.9774   -35.7188   100.7936
  224.5000    11.1507    10.9379    89.4737   -35.7225    99.3187
  225.0000    11.2258    11.0903    89.4737   -35.7255    97.0966
  225.5000    11.2261    11.2261    88.7218   -35.5789    98.8989
  226.0000    11.3010    11.2995    88.7218   -35.5819   102.6324
  226.5000    11.1519    11.2977    89.4737   -35.5848   102.7911
  227.0000    11.0027    11.1465    90.9774   -35.5878   104.8911
  227.5000    10.9282    10.9205    93.2331   -35.5907   107.7317
  228.0000    10.7791    10.5447    94.7368   -35.5937   105.8105
  228.5000    10.6299    10.2439    96.2406   -35.5966   105.2285
  229.0000    10.4807    10.0927    96.9925   -35.5996   100.0334
  229.5000    10.4062    10.0912    97.7444   -35.6025   102.5765
  230.0000    10.3318    10.0897    97.7444   -35.6055   104.7321
  230.5000    10.2574    10.0134    98.4962   -35.6084   103.3470
  231.0000    10.2577    10.0119    98.4962   -35.7609   104.2532
  231.5000    10.2580    10.0104    99.2481   -35.7638   106.3498
  232.0000    10.2583    10.0090    98.4962   -35.7669   115.0037
  232.5000    10.2586    10.0075    98.4962   -35.7698   113.1325
  233.0000    10.1841    10.0060    98.4962   -35.7728   105.4456
  233.5000    10.1844     9.9296    99.2481   -35.6261   107.6103
  234.0000    10.1100     9.9142    99.2481   -35.4796   112.6607
  234.5000    10.1104     9.7767   100.0000   -35.3338   111.0458
  235.0000    10.1107     9.7752   100.7519   -35.3368   106.8924
  235.5000    10.0362     9.7737   101.5038   -35.1902   109.5843
  236.0000    10.0365     9.7722   102.2556   -35.1932   104.8356
  236.5000    10.0368     9.7708   102.3643   -35.1961   109.1644
  237.0000    10.0371     9.6944   102.6466   -35.1991   112.3027
  237.5000    10.0374     9.6930   102.6313   -35.2020   115.4409
  238.0000    10.0377     9.6166   101.8645   -35.2050   118.5792
  238.5000    10.0380     9.6152   101.8496   -35.3574   124.2439
  239.0000     9.9636     9.6137   101.8346   -35.5098   121.1355
  239.5000     9.9639     9.6122   101.8196   -35.8117   116.0892
  240.0000     9.8893     9.6107   102.5569   -35.9642   114.0159
  240.5000     9.8149     9.5344   103.2939   -35.9671   114.1813
  241.0000     9.8153     9.5329   104.0309   -35.9701   116.4267
  241.5000     9.7408     9.5315   104.7642   -35.9731   120.0114
  242.0000     9.7411     9.4551   105.5049   -35.9761   117.4949
  242.5000     9.7414     9.3787   107.7419   -35.8294   112.5975
  243.0000     9.7417     9.0776   109.9827   -35.8331   113.0571
  243.5000     9.7465     8.8515   112.2235   -35.8361   111.4335
