~VERSION INFORMATION
 VERS.                2.0:   CWLS LOG ASCII STANDARD - VERSION 2.0
 WRAP.                 NO:   ONE LINE PER DEPTH STEP
~WELL INFORMATION
#MNEM.UNIT      DATA TYPE    INFORMATION
#----------   ------------   ------------------------------
 STRT.F           40.0000:   START DEPTH
 STOP.F          534.0000:   STOP DEPTH
 STEP.F            0.5000:   STEP LENGTH
 NULL.          -999.2500:   NO VALUE
 COMP. LAWRENCE/ALLISON INC:   COMPANY
 WELL.   55-41 SX FI #3-3:   WELL
 FLD .             TEAPOT:   FIELD
 LOC .       S3 T38N R78W:   LOCATION
 CNTY.            NATRONA:   COUNTY
 STAT.            WYOMING:   STATE
 CTRY. UNITED STATES OF AMERICA:   COUNTRY
 SRVC.      Dresser Atlas:   SERVICE COMPANY
 DATE.        12-DEC-1983:   LOGDATE
 API .       490251089400:   API NUMBER
~CURVE INFORMATION
#MNEM.UNIT       API CODE    CURVE DESCRIPTION
#----------   ------------   ------------------------------
 DEPT.F                  :   
 RILD.OHMM   07 120 46 00:   INDUCTION LOG DEEP RESISTIVITY
 RILM.OHMM   07 120 44 00:   INDUCTION LOG MEDIUM RESISTIVITY
 RFOC.OHMM   07 220 04 00:   RESISTIVITY FOCUSED LOG
 CALD.IN     45 280 60 00:   CALIPER FROM DENSITY LOG
 GRD .GAPI   45 310 01 00:   GAMMA RAY FROM DENSITY LOG
 CORR.G/C3   45 356 01 00:   DENSITY CORRECTION
 DPHI.DEC    45 890 12 00:   DENSITY POROSITY SANDSTONE
 RHOB.G/C3   45 350 01 00:   BULK DENSITY
~PARAMETER INFORMATION
#MNEM.UNIT          VALUE    DESCRIPTION
#----------   ------------   ------------------------------
 PD  .                 GL:   PERMANENT DATUM
 EPD .F              5161:   ELEVATION PERMANENT DATUM
 LMF .                 KB:   LOG MEASURED FROM
 DAPD.F                10:   FEET ABOVE PERMANENT DATUM
 DMF .                 KB:   DRILLING MEASURED FROM
 EKB .F              5171:   KELLING BUSHING
 EGL .F              5161:   GROUND LEVEL
 DATE.        12-DEC-1983:   RUN DATE
 RUN .                  1:   RUN NUMBER
 DD  .F               490:   DEPTH DRILLER
 DL  .F               489:   DEPTH LOGGER
 BLI .F               487:   BOTTOM LOG INTERVAL
 CS  .IN            10.75:   CASING SIZE
 CBD .F                52:   CASING BOTTOM DRILLER
 CBL .F                46:   CASING BOTTOM LOGGER
 BS  .IN             8.75:   BIT SIZE
 BSD .F               490:   BIT SIZE AT DEPTH
 DFT .           AIR FOAM:   DRILLING FLUID TYPE
 TCS .HRS               3:   TIME CURCULATED STOPPED
 MRT .F                72:   MAXIMUM RECORDED TEMPERATURE
 LUN .               6274:   LOGGING UNIT NUMBER
 LUL .               GLTE:   LOGGING UNIT LOCATION
 ENGI.             RAUTIO:   RECORDING ENGINEER
 WITN.             GROOMS:   WITNESSED BY
 CLNT.            A2DTECH:   CLIENT CODE
 ORIG.           5" PRINT:   ORIGIN OF DATA
 UWI .       490251089400:   UNIQUE WELL ID
 DICO. A2D Technologies, Inc.:   DIGITIZING COMPANY
~OTHER INFORMATION
~A   DEPT     RILD       RILM       RFOC       CALD         GRD      CORR       DPHI       RHOB   
# ...
  283.0000     8.1561     8.1364  -999.2500    11.7490    78.4852     0.0307     0.1192     2.4811
  283.5000     7.9936     8.1414  -999.2500    11.7407    81.1580     0.0539     0.1195     2.4759
  284.0000     7.6742     7.9250  -999.2500    11.7415    84.7211     0.0637     0.1267     2.4439
  284.5000     6.4636     7.0051  -999.2500    11.7271    87.3939     0.0600     0.1652     2.3738
  285.0000     5.7922     6.2779  -999.2500    11.7279    87.4557     0.0211     0.1999     2.3484
  285.5000     5.4096     5.4646  -999.2500    11.7285    82.9474     0.0002     0.1984     2.3530
  286.0000     5.2654     4.5430  -999.2500    11.7291    78.4986     0.0047     0.1831     2.4179
  286.5000     5.2314     4.4876  -999.2500    11.7297    74.0498     0.0160     0.1299     2.4539
  287.0000     5.2712     4.9249  -999.2500    11.7302    72.4940     0.0146     0.1095     2.4831
  287.5000     5.3472     5.4307  -999.2500    11.7308    74.9445     0.0153     0.1044     2.5014
  288.0000     5.5759     6.0887  -999.2500    11.7314    76.9497     0.0215     0.1059     2.4998
  288.5000     5.9358     6.6632  -999.2500    11.7320    78.7323     0.0297     0.1065     2.4941
  289.0000     6.5404     7.2920  -999.2500    11.7177    80.5150     0.0344     0.1037     2.4936
  289.5000     7.3570     7.8708  -999.2500    11.7184    80.7398     0.0388     0.0945     2.5132
  290.0000     8.3328     8.6135  -999.2500    11.7190    80.5194     0.0410     0.0882     2.5251
  290.5000     8.9351     9.0446  -999.2500    11.7196    80.2986     0.0287     0.1091     2.5094
  291.0000     9.1863     9.1127  -999.2500    11.7202    79.1886     0.0040     0.1216     2.4859
  291.5000     9.1087     9.0557  -999.2500    11.7208    76.7428     0.0022     0.1183     2.4752
  292.0000     8.8127     8.8746  -999.2500    11.7213    74.5195     0.0165     0.1126     2.4823
  292.5000     9.0142     9.3202  -999.2500    11.7219    72.0736     0.0248     0.1096     2.4910
  293.0000     9.2075     9.3904  -999.2500    11.7225    66.0670     0.0271     0.1194     2.4812
  293.5000     9.4049     9.5265  -999.2500    11.7231    58.0574     0.0219     0.1254     2.4731
  294.0000    10.2210    10.2828  -999.2500    11.7237    49.1575     0.0279     0.1260     2.4657
  294.5000    11.1079    11.1758  -999.2500    11.7243    42.7057     0.0377     0.1265     2.4542
  295.0000    12.0718    12.6590  -999.2500    11.7249    44.7109     0.0430     0.1319     2.4266
  295.5000    13.3013    14.0457  -999.2500    11.7255    48.7191     0.0438     0.1618     2.3984
  296.0000    14.6560    15.0566  -999.2500    11.7261    51.3920     0.0281     0.1907     2.3641
  296.5000    16.1487    16.1403  -999.2500    11.7266    52.5070     0.0161     0.2120     2.3264
  297.0000    17.0730    17.0653  -999.2500    11.7273    51.8415     0.0282     0.2071     2.3304
  297.5000    17.9263    18.1679  -999.2500    11.7269    48.0604     0.0342     0.2035     2.3333
  298.0000    18.5646    18.8162  -999.2500    11.7211    44.7244     0.0193     0.2062     2.3116
  298.5000    18.7032    18.8278  -999.2500    11.7359    43.8358     0.0156     0.2430     2.2856
  299.0000    18.3306    18.5816  -999.2500    11.7359    44.5063     0.0282     0.2391     2.2745
  299.5000    17.8422    18.5930  -999.2500    11.7359    45.3987     0.0342     0.2325     2.2917
  300.0000    17.9142    18.8625  -999.2500    11.7359    46.3596     0.0379     0.2266     2.2918
  300.5000    18.3644    19.4016  -999.2500    11.7359    47.6969     0.0209     0.2379     2.2754
  301.0000    18.7606    19.9707  -999.2500    11.7359    48.8113     0.0098     0.2433     2.2680
  301.5000    19.4313    20.8572  -999.2500    11.7211    50.3715     0.0031     0.2397     2.2785
  302.0000    20.2650    22.1585  -999.2500    11.7211    49.4799     0.0158     0.2364     2.2883
  302.5000    21.1345    23.1077  -999.2500    11.7211    45.6909     0.0255     0.2372     2.2846
  303.0000    22.1937    23.9321  -999.2500    11.7211    43.2392     0.0181     0.2511     2.2571
  303.5000    23.3060    24.6158  -999.2500    11.7211    41.2333     0.0115     0.2655     2.2242
  304.0000    24.3060    25.1452  -999.2500    11.7062    41.6791     0.0056     0.2730     2.2190
  304.5000    25.0020    25.5096  -999.2500    11.7062    44.1308     0.0026     0.2674     2.2197
  305.0000    24.8472    25.3461  -999.2500    11.7062    46.8053     0.0057     0.2537     2.2625
  305.5000    24.5239    24.8467  -999.2500    11.6914    49.0342     0.0131     0.2336     2.2940
  306.0000    24.0386    24.3496  -999.2500    11.6914    50.3715     0.0229     0.2200     2.3202
  306.5000    23.5573    23.7060  -999.2500    11.6914    47.9198     0.0311     0.2157     2.3241
  307.0000    22.9214    23.0758  -999.2500    11.6914    45.9138     0.0334     0.2144     2.3248
  307.5000    22.3024    22.6176  -999.2500    11.6914    44.3536     0.0275     0.2125     2.3270
  308.0000    21.5884    21.8652  -999.2500    11.6914    44.1308     0.0201     0.2040     2.3338
  308.5000    20.5896    21.1378  -999.2500    11.6914    46.5825     0.0223     0.1886     2.3631
  309.0000    20.0436    20.4346  -999.2500    11.6914    50.1486     0.0246     0.1746     2.4020
  309.5000    19.6469    19.6175  -999.2500    11.6914    52.8232     0.0269     0.1685     2.4066
  310.0000    19.3913    18.9581  -999.2500    11.6914    54.8291     0.0225     0.1678     2.3931
  310.5000    19.2712    18.4324  -999.2500    11.6914    55.2749     0.0203     0.1848     2.3669
  311.0000    18.7602    17.8274  -999.2500    11.6766    53.0461     0.0181     0.2012     2.3392
  311.5000    18.2627    17.4938  -999.2500    11.6766    51.4859     0.0159     0.2072     2.3310
  312.0000    17.8983    17.2650  -999.2500    11.6766    49.9257     0.0122     0.2069     2.3288
  312.5000    17.7875    17.6390  -999.2500    11.6766    48.5884     0.0167     0.2081     2.3371
  313.0000    17.8026    17.8947  -999.2500    11.6766    48.1426     0.0265     0.2200     2.3274
  313.5000    17.9378    18.1540  -999.2500    11.6766    48.5884     0.0243     0.2310     2.2989
  314.0000    18.3248    18.4171  -999.2500    11.6766    49.9257     0.0132     0.2340     2.2847
  314.5000    18.7202    18.8132  -999.2500    11.6766    51.0401     0.0035     0.2211     2.2960
  315.0000    18.9973    19.2178  -999.2500    11.6766    52.1545     0.0028     0.2137     2.3230
  315.5000    19.4150    19.6311  -999.2500    11.6766    52.8232     0.0088     0.1975     2.3410
  316.0000    19.5505    19.9157  -999.2500    11.6766    54.8291     0.0178     0.1832     2.3762
  316.5000    19.7018    20.2043  -999.2500    11.6914    57.0579     0.0253     0.1715     2.4017
  317.0000    19.7152    20.3564  -999.2500    11.6914    58.6181     0.0209     0.1668     2.4070
  317.5000    19.7286    20.0902  -999.2500    11.6914    59.2868     0.0150     0.1742     2.3973
  318.0000    19.6065    19.4218  -999.2500    11.7062    58.1724     0.0113     0.1894     2.3696
  318.5000    19.2185    18.7757  -999.2500    11.7062    57.5037     0.0106     0.1987     2.3472
  319.0000    18.7089    18.1413  -999.2500    11.6914    57.9495     0.0084     0.2004     2.3435
  319.5000    18.3386    17.5379  -999.2500    11.6914    57.5037     0.0032     0.1948     2.3495
  320.0000    17.8523    17.3178  -999.2500    11.6914    56.6122     0.0137     0.1843     2.3690
  320.5000    17.6200    17.3289  -999.2500    11.6914    55.4978     0.0204     0.1777     2.3892
  321.0000    17.6320    17.3417  -999.2500    11.6914    54.8291     0.0227     0.1765     2.3900
  321.5000    17.7660    17.3523  -999.2500    11.6914    55.7207     0.0235     0.1831     2.3676
  322.0000    17.9009    17.3629  -999.2500    11.6914    57.0579     0.0161     0.1878     2.3586
  322.5000    18.0369    17.4936  -999.2500    11.6914    58.1724     0.0102     0.1866     2.3646
  323.0000    18.0492    17.6253  -999.2500    11.6914    59.2868     0.0214     0.1797     2.3812
