~VERSION INFORMATION
 VERS.                2.0:   CWLS LOG ASCII STANDARD - VERSION 2.0
 WRAP.                 NO:   ONE LINE PER DEPTH STEP
~WELL INFORMATION
#MNEM.UNIT      DATA TYPE    INFORMATION
#----------   ------------   ------------------------------
 STRT.F           42.0000:   START DEPTH
 STOP.F         3145.0000:   STOP DEPTH
 STEP.F            0.5000:   STEP LENGTH
 NULL.          -999.2500:   NO VALUE
 COMP. LAWRENCE/ALLISON INC:   COMPANY
 WELL.      46 STX #34-34:   WELL
 FLD .             TEAPOT:   FIELD
 LOC .      S34 T39N R78W:   LOCATION
 CNTY.            NATRONA:   COUNTY
 STAT.            WYOMING:   STATE
 CTRY. UNITED STATES OF AMERICA:   COUNTRY
 SRVC.              Welex:   SERVICE COMPANY
 DATE.        01-MAY-1977:   LOGDATE
 API .       490251104800:   API NUMBER
~CURVE INFORMATION
#MNEM.UNIT       API CODE    CURVE DESCRIPTION
#----------   ------------   ------------------------------
 DEPT.F                  :   
 ILD .OHMM   07 120 46 00:   INDUCTION LOG DEEP
 ILM .OHMM   07 120 44 00:   INDUCTION LOG MEDIUM
 SGRD.OHMM   07 221 05 00:   SHALLOW SHORT GUARD RESISTIVITY
 SPR .MV     07 010 01 00:   SPONTANEOUS POTENTIAL
 GR  .GAPI   81 310 01 00:   GAMMA RAY
~PARAMETER INFORMATION
#MNEM.UNIT          VALUE    DESCRIPTION
#----------   ------------   ------------------------------
 PD  .                 GL:   PERMANENT DATUM
 EPD .F              5120:   ELEVATION PERMANENT DATUM
 LMF .                 GL:   LOG MEASURED FROM
 DMF .                 GL:   DRILLING MEASURED FROM
 EGL .F              5120:   GROUND LEVEL
 DATE.        01-MAY-1977:   RUN DATE
 RUN .                  1:   RUN NUMBER
 DD  .F               660:   DEPTH DRILLER
 DL  .F               661:   DEPTH LOGGER
 BLI .F               659:   BOTTOM LOG INTERVAL
 TLI .F                40:   TOP LOG INTERVAL
 CS  .IN            8.625:   CASING SIZE
 CBD .F                40:   CASING BOTTOM DRILLER
 CBL .F                42:   CASING BOTTOM LOGGER
 BS  .IN            7.875:   BIT SIZE
 BSD .F               660:   BIT SIZE AT DEPTH
 DFT .             KCLMUD:   DRILLING FLUID TYPE
 DFD .                8.7:   DRILLING FLUID DENSITY
 DFV .                 31:   DRILLING FLUID VISCOSITY
 DFPH.                  9:   DRILLING FLUID PH
 DFL .                  5:   DRILLING FLUID LOSS
 MSS .           FLOWLINE:   MUD SAMPLE SOURCE
 RMS .OHMM            .23:   RESISTIVITY MUD SAMPLE
 MST .F                62:   MUD SAMPLE TEMPERATURE
 RMF .OHMM            .17:   RESISTIVITY MUD FILTRATE SAMPLE
 MFST.F                62:   MUD FILTRATE SAMPLE TEMPERATURE
 RMC .OHMM            .32:   RESISTIVITY MUD CAKE
 MCST.F                62:   MUD CAKE SAMPLE TEMPERATURE
 MFSS.           MEASURED:   MUD FILTRATE SAMPLE SOURCE
 MCSS.           MEASURED:   MUD CAKE SAMPLE SOURCE
 RMB .OHMM             .2:   RESISTIVITY MUD AT BHT
 BHT .F                71:   BOTTOM HOLE TEMPERATURE
 TCS .HRS             1.5:   TIME CURCULATED STOPPED
 MRT .F                71:   MAXIMUM RECORDED TEMPERATURE
 LUL .             CASPER:   LOGGING UNIT LOCATION
 ENGI.          T. JOYNER:   RECORDING ENGINEER
 WITN.            R. LYON:   WITNESSED BY
 CLNT.            A2DTECH:   CLIENT CODE
 ORIG.        2" 5" PRINT:   ORIGIN OF DATA
 UWI .       490251104800:   UNIQUE WELL ID
 DICO. A2D Technologies, Inc.:   DIGITIZING COMPANY
~OTHER INFORMATION
~A   DEPT      ILD        ILM       SGRD        SPR         GR   
# ...
  286.0000    13.0971    14.1506    14.8674   -37.6741  -999.2500
  286.5000    13.0002    13.9523    14.6400   -37.6846  -999.2500
  287.0000    12.9041    13.8500    14.4333   -37.6951  -999.2500
  287.5000    12.8087    13.7484    14.2377   -37.8550  -999.2500
  288.0000    12.5388    13.5532    14.0338   -37.8656  -999.2500
  288.5000    12.2746    13.3607    14.0260   -37.8761  -999.2500
  289.0000    12.0160    13.3551    13.9213   -37.8867  -999.2500
  289.5000    11.7628    13.2572    13.9135   -37.8973  -999.2500
  290.0000    11.5149    13.1600    13.8096   -38.0573  -999.2500
  290.5000    11.3507    13.1544    13.8019   -38.2174  -999.2500
  291.0000    11.2667    13.1489    13.6989   -38.2279  -999.2500
  291.5000    11.1834    13.0525    13.6912   -38.2385  -999.2500
  292.0000    11.1779    13.0470    13.6836   -38.3986  -999.2500
  292.5000    11.1724    13.1337    13.5814   -38.4100  -999.2500
  293.0000    11.1669    13.1268    13.5738   -38.2676  -999.2500
  293.5000    11.2405    13.1213    13.5662   -38.2808  -999.2500
  294.0000    11.3132    13.1158    13.5586   -38.4408  -999.2500
  294.5000    11.4642    13.0196    13.5511   -38.4514  -999.2500
  295.0000    11.4586    13.0141    13.5435   -38.6115  -999.2500
  295.5000    11.6129    12.9187    13.5359   -38.6220  -999.2500
  296.0000    11.6894    12.8239    13.5284   -38.6326  -999.2500
  296.5000    11.7650    12.6418    13.5208   -38.6432  -999.2500
  297.0000    11.6766    12.4623    13.5132   -38.6517  -999.2500
  297.5000    11.4158    12.1860    13.5057   -38.8120  -999.2500
  298.0000    11.0244    11.8624    13.4981   -38.8221  -999.2500
  298.5000    10.7117    11.5153    13.4906   -39.0000  -999.2500
  299.0000    10.3530    11.0522    13.3899   -39.1540  -999.2500
  299.5000     9.9981    10.8199    13.2899   -39.3019  -999.2500
  300.0000     9.7225    10.5246    13.1474   -39.4619  -999.2500
  300.5000     9.4575    10.4013    12.5595   -39.9920  -999.2500
  301.0000     9.1900    10.2229    12.1255   -40.5324  -999.2500
  301.5000     8.8730    10.0059    11.5310   -40.5444  -999.2500
  302.0000     8.6266     9.8618    11.0480   -40.7060  -999.2500
  302.5000     8.6230     9.7874    10.3094   -40.8675  -999.2500
  303.0000     8.6194     9.7812    10.5394   -41.0291  -999.2500
  303.5000     8.6766     9.7074    10.9030   -41.0412  -999.2500
  304.0000     8.7932     9.7704    11.2811   -41.1997  -999.2500
  304.5000     8.8516     9.8306    11.6735   -41.0623  -999.2500
  305.0000     8.9705     9.9056    11.8309   -41.0774  -999.2500
  305.5000     9.0929     9.9649    11.7432   -41.0895  -999.2500
  306.0000     9.2792    10.0944    11.8205   -40.9521  -999.2500
  306.5000     9.3408    10.2244    11.8970   -40.9641  -999.2500
  307.0000     9.4663    10.2891    11.9739   -40.9762  -999.2500
  307.5000     9.5955    10.4264    12.1352   -40.9883  -999.2500
  308.0000     9.7244    10.4925    12.2121   -41.0004  -999.2500
  308.5000     9.8571    10.5590    12.2926   -41.0124  -999.2500
  309.0000     9.9324    10.5520    12.4566   -41.0245  -999.2500
  309.5000    10.0559    10.6205    12.5372   -41.1861  -999.2500
  310.0000    10.1216    10.6877    12.7076   -41.1981  -999.2500
  310.5000    10.1878    10.7553    12.7898   -41.2078  -999.2500
  311.0000    10.2544    10.8987    12.8724   -41.2203  -999.2500
  311.5000    10.3215    11.0441    13.0458   -41.3812  -999.2500
  312.0000    10.3170    11.2676    13.1302   -41.5426  -999.2500
  312.5000    10.3127    11.4178    13.2151   -41.5546  -999.2500
  313.0000    10.3083    11.4106    13.2084   -41.7160  -999.2500
  313.5000    10.2328    11.4828    13.1107   -41.7281  -999.2500
  314.0000    10.1578    11.5555    13.0114   -41.8896  -999.2500
  314.5000    10.0833    11.5482    12.7396   -41.9017  -999.2500
  315.0000    10.0791    11.6231    12.4711   -41.7623  -999.2500
  315.5000    10.0748    11.6155    12.2083   -41.9258  -999.2500
  316.0000    10.0706    11.6892    12.0343   -41.9379  -999.2500
  316.5000    10.0664    11.6818    12.1124   -41.9500  -999.2500
  317.0000     9.9926    11.6745    12.1919   -41.9621  -999.2500
  317.5000     9.9884    11.7485    12.3561   -41.9741  -999.2500
  318.0000     9.9842    11.8229    12.6097   -42.1357  -999.2500
  318.5000     9.9800    11.8152    12.6912   -41.9963  -999.2500
  319.0000     9.9068    11.7261    12.7717   -42.0103  -999.2500
  319.5000     9.9035    11.5571    12.7654   -42.0224  -999.2500
  320.0000     9.8994    11.3906    12.6709   -42.0329  -999.2500
  320.5000     9.8953    11.3046    12.4903   -42.0466  -999.2500
  321.0000     9.8912    11.2194    12.3978   -42.0586  -999.2500
  321.5000     9.8187    11.2123    12.3061   -42.2202  -999.2500
  322.0000     9.7467    11.2052    12.2150   -42.2323  -999.2500
  322.5000     9.7426    11.1206    12.2091   -42.3938  -999.2500
  323.0000     9.6044    11.0367    12.1199   -42.5554  -999.2500
  323.5000     9.5340    10.9535    12.1140   -42.5947  -999.2500
  324.0000     9.3337    10.8708    12.1082   -42.7265  -999.2500
  324.5000     9.2013    10.8639    12.0186   -42.8879  -999.2500
  325.0000     8.9458    10.7088    11.9298   -42.8999  -999.2500
  325.5000     8.7579    10.5546    11.8415   -43.0613  -999.2500
  326.0000     8.5739    10.3978    11.5920   -43.0732  -999.2500
  326.5000     8.3358    10.1807    11.4267   -43.3843  -999.2500
  327.0000     8.0483     9.8968    11.1086   -43.5458  -999.2500
  327.5000     7.7170     9.4872    10.8745   -43.5579  -999.2500
  328.0000     7.3482     9.1578    10.4261   -43.7194  -999.2500
  328.5000     7.0948     9.0258     9.9272   -44.0305  -999.2500
  329.0000     6.8978     8.8342     9.4521   -44.1920  -999.2500
  329.5000     6.7062     8.6467     9.2529   -44.5030  -999.2500
  330.0000     6.6025     8.6412     9.5085   -44.5151  -999.2500
  330.5000     6.5632     8.6959     9.7712   -44.3747  -999.2500
  331.0000     6.6110     8.9351    10.1110   -44.2373  -999.2500
  331.5000     6.7450     9.1808    10.5355   -43.9534  -999.2500
  332.0000     6.9290     9.4990    10.8265   -43.6665  -999.2500
  332.5000     7.1209     9.6927    11.1256   -43.5291  -999.2500
  333.0000     7.3691     9.8904    11.1989   -43.3887  -999.2500
  333.5000     7.5732     9.9530    11.1931   -43.2513  -999.2500
  334.0000     7.7829     9.9467    11.2658   -43.1139  -999.2500
  334.5000     7.9440     9.9404    11.2601   -43.1290  -999.2500
  335.0000     8.1632     9.8667    11.2546   -43.1411  -999.2500
  335.5000     8.2174     9.8605    11.2492   -43.0007  -999.2500
  336.0000     8.2131     9.7185    11.2437   -43.0157  -999.2500
  336.5000     8.1529     9.5786    11.2381   -43.0254  -999.2500
  337.0000     7.9817     9.5726    11.1550   -43.0374  -999.2500
  337.5000     7.8140     9.5665    10.9959   -43.0493  -999.2500
  338.0000     7.5970     9.4287    10.7642   -43.2108  -999.2500
  338.5000     7.2843     9.2928    10.4646   -43.2299  -999.2500
  339.0000     6.8883     9.1589    10.3153   -43.5336  -999.2500
  339.5000     6.5591     9.0269    10.0980   -43.6952  -999.2500
  340.0000     6.1596     8.7742     9.9540   -43.8567  -999.2500
  340.5000     5.7047     8.2950     9.7442   -43.8688  -999.2500
  341.0000     5.3758     7.8420     9.4730   -43.8808  -999.2500
  341.5000     5.0576     7.4138     8.8339   -43.7429  -999.2500
  342.0000     4.8917     7.1564     7.5277   -43.7555  -999.2500
  342.5000     4.8212     6.9575     6.3703   -43.7676  -999.2500
  343.0000     4.8203     7.7148     5.8182   -43.7797  -999.2500
  343.5000     4.9196     8.5559     6.6806   -43.6393  -999.2500
  344.0000     5.0911     9.2288     8.4541   -43.5018  -999.2500
  344.5000     5.3421    10.0241     8.6276   -43.3644  -999.2500
  345.0000     5.6445    10.2998     8.8823   -43.3795  -999.2500
  345.5000     6.0055    10.6567     9.2492   -43.2391  -999.2500
  346.0000     6.3454    10.9498     9.6285   -43.1017  -999.2500
  346.5000     6.7983    11.0976     9.9607   -42.9643  -999.2500
