~VERSION INFORMATION
 VERS.                2.0:   CWLS LOG ASCII STANDARD - VERSION 2.0
 WRAP.                 NO:   ONE LINE PER DEPTH STEP
~WELL INFORMATION
#MNEM.UNIT      DATA TYPE    INFORMATION
#----------   ------------   ------------------------------
 STRT.F           32.0000:   START DEPTH
 STOP.F          707.0000:   STOP DEPTH
 STEP.F            0.5000:   STEP LENGTH
 NULL.          -999.2500:   NO VALUE
 COMP. FENIX & SCISSON INC:   COMPANY
 WELL.     NPR 3 #28SX-11:   WELL
 FLD .             TEAPOT:   FIELD
 LOC .      S11 T38N R78W:   LOCATION
 CNTY.            NATRONA:   COUNTY
 STAT.            WYOMING:   STATE
 CTRY. UNITED STATES OF AMERICA:   COUNTRY
 SRVC.              Welex:   SERVICE COMPANY
 DATE.        26-APR-1977:   LOGDATE
 API .       490251034400:   API NUMBER
~CURVE INFORMATION
#MNEM.UNIT       API CODE    CURVE DESCRIPTION
#----------   ------------   ------------------------------
 DEPT.F                  :   
 CALD.IN     45 280 60 00:   CALIPER FROM DENSITY LOG
 GRD .GAPI   45 310 01 00:   GAMMA RAY FROM DENSITY LOG
 CORR.G/C3   45 356 01 00:   DENSITY CORRECTION
 DPHI.DEC    45 890 12 00:   DENSITY POROSITY SANDSTONE
 RHOB.G/C3   45 350 01 00:   BULK DENSITY
~PARAMETER INFORMATION
#MNEM.UNIT          VALUE    DESCRIPTION
#----------   ------------   ------------------------------
 PD  .                 GL:   PERMANENT DATUM
 EPD .F              5203:   ELEVATION PERMANENT DATUM
 LMF .                 GL:   LOG MEASURED FROM
 DMF .                 GL:   DRILLING MEASURED FROM
 EGL .F              5203:   GROUND LEVEL
 DATE.        26-APR-1977:   RUN DATE
 RUN .                  1:   RUN NUMBER
 DD  .F               714:   DEPTH DRILLER
 DL  .F               709:   DEPTH LOGGER
 BLI .F               707:   BOTTOM LOG INTERVAL
 TLI .F                32:   TOP LOG INTERVAL
 CS  .IN            8.625:   CASING SIZE
 BS  .IN               12:   BIT SIZE
 BSD .F               714:   BIT SIZE AT DEPTH
 DFT .            KCL MUD:   DRILLING FLUID TYPE
 DFD .                8.7:   DRILLING FLUID DENSITY
 TCS .HRS            0100:   TIME CURCULATED STOPPED
 MRT .F                74:   MAXIMUM RECORDED TEMPERATURE
 ENGI.            C. DOAK:   RECORDING ENGINEER
 WITN.           ROB LYON:   WITNESSED BY
 CLNT.            A2DTECH:   CLIENT CODE
 ORIG.           5" PRINT:   ORIGIN OF DATA
 UWI .       490251034400:   UNIQUE WELL ID
 DICO. A2D Technologies, Inc.:   DIGITIZING COMPANY
~OTHER INFORMATION
~A   DEPT       CALD      GRD        CORR      DPHI       RHOB   
# ...
  581.0000     7.9601    89.9168     0.0323     0.1217     2.4740
  581.5000     7.9600    88.4536     0.0385     0.1192     2.4802
  582.0000     7.9600    87.1383     0.0477     0.1213     2.4751
  582.5000     7.9599    86.2628     0.0554     0.1257     2.4707
  583.0000     7.9598    89.8333     0.0617     0.1251     2.4663
  583.5000     7.9597    91.0288     0.0663     0.1292     2.4514
  584.0000     7.9597    85.4276     0.0680     0.1392     2.4269
  584.5000     7.9596    81.0058     0.0682     0.1569     2.4031
  585.0000     7.9595    76.8799     0.0654     0.1721     2.3861
  585.5000     7.9594    73.6416     0.0580     0.1831     2.3712
  586.0000     7.9594    72.0264     0.0507     0.1941     2.3542
  586.5000     7.9593    74.7093     0.0403     0.2031     2.3401
  587.0000     7.9592    77.0922     0.0315     0.2102     2.3297
  587.5000     7.9592    79.0314     0.0226     0.2185     2.3164
  588.0000     7.9591    80.6747     0.0258     0.2197     2.3105
  588.5000     7.9590    80.0971     0.0410     0.2074     2.3367
  589.0000     7.9580    77.5798     0.0487     0.1942     2.3524
  589.5000     7.9569    75.6535     0.0399     0.2007     2.3600
  590.0000     7.9559    74.0631     0.0310     0.1959     2.3526
  590.5000     7.9549    75.0915     0.0282     0.1905     2.3444
  591.0000     7.9539    78.4085     0.0359     0.1860     2.3624
  591.5000     7.9528    80.1997     0.0482     0.1815     2.3759
  592.0000     7.9518    81.8430     0.0513     0.1773     2.3805
  592.5000     7.9508    83.4863     0.0500     0.1764     2.3776
  593.0000     7.9498    85.5734     0.0502     0.1838     2.3657
  593.5000     7.9488    88.9919     0.0504     0.1897     2.3546
  594.0000     7.9477    91.8187     0.0506     0.1954     2.3443
  594.5000     7.9467    94.9413     0.0492     0.1923     2.3533
  595.0000     7.9457    96.1368     0.0494     0.1872     2.3677
  595.5000     7.9447    94.0859     0.0496     0.1797     2.3760
  596.0000     7.9437    93.2144     0.0498     0.1746     2.3851
  596.5000     7.9133    94.5619     0.0500     0.1710     2.3912
  597.0000     7.9123    95.9093     0.0501     0.1680     2.3970
  597.5000     7.9113    97.2568     0.0503     0.1769     2.3859
  598.0000     7.9102    97.7167     0.0475     0.1939     2.3599
  598.5000     7.9092    96.2535     0.0432     0.1926     2.3652
  599.0000     7.9082    93.6069     0.0418     0.1857     2.3704
  599.5000     7.9072    90.0727     0.0435     0.1779     2.3668
  600.0000     7.9355    85.9467     0.0495     0.1704     2.3860
  600.5000     7.9406    90.1049     0.0576     0.1650     2.3916
  601.0000     7.9456    85.3872     0.0621     0.1659     2.3973
  601.5000     7.9507    89.2176     0.0458     0.1745     2.3888
  602.0000     7.9558    91.4845     0.0428     0.1847     2.3665
  602.5000     7.9608    85.5875     0.0432     0.1804     2.3771
  603.0000     7.9648    84.6725     0.0494     0.1676     2.3973
  603.5000     7.9516    83.2258     0.0526     0.1595     2.4064
  604.0000     7.9355    80.8755     0.0544     0.1547     2.4206
  604.5000     7.9355    78.8226     0.0560     0.1588     2.4133
  605.0000     7.9502    78.2543     0.0564     0.1612     2.4007
  605.5000     7.9648    80.0660     0.0579     0.1540     2.4187
  606.0000     7.9648    82.4438     0.0564     0.1504     2.4300
  606.5000     7.9355    84.5373     0.0520     0.1569     2.4218
  607.0000     7.9355    87.6744     0.0464     0.1605     2.4048
  607.5000     7.9355    90.6360     0.0421     0.1578     2.4265
  608.0000     7.9355    91.9525     0.0406     0.1488     2.4371
  608.5000     7.9355    89.8545     0.0380     0.1446     2.4282
  609.0000     7.9355    85.8549     0.0400     0.1538     2.4201
  609.5000     7.9355    83.0747     0.0477     0.1544     2.4172
  610.0000     7.9355    84.4080     0.0567     0.1490     2.4233
  610.5000     7.9355    87.9367     0.0584     0.1447     2.4293
  611.0000     7.9355    90.9016     0.0571     0.1417     2.4339
  611.5000     7.9355    92.3518     0.0542     0.1410     2.4385
  612.0000     7.9355    90.5206     0.0529     0.1447     2.4386
  612.5000     7.9355    85.8855     0.0501     0.1494     2.4312
  613.0000     7.9355    83.0381     0.0473     0.1527     2.4246
  613.5000     7.9355    81.4512     0.0430     0.1528     2.4195
  614.0000     7.9355    80.1063     0.0386     0.1487     2.4151
  614.5000     7.9355    78.1825     0.0358     0.1514     2.4115
  615.0000     7.9648    76.1538     0.0330     0.1558     2.4093
  615.5000     7.9648    74.3926     0.0332     0.1609     2.4109
  616.0000     7.9648    73.3866     0.0379     0.1552     2.4215
  616.5000     7.9648    73.2688     0.0426     0.1480     2.4305
  617.0000     7.9648    75.5534     0.0458     0.1438     2.4388
  617.5000     7.9355    77.3448     0.0460     0.1425     2.4374
  618.0000     7.9062    78.9705     0.0447     0.1500     2.4293
  618.5000     7.8768    80.1696     0.0404     0.1583     2.4219
  619.0000     7.8768    81.5167     0.0361     0.1568     2.4101
  619.5000     7.8768    83.4747     0.0332     0.1645     2.4035
  620.0000     7.8768    85.0790     0.0319     0.1633     2.4133
  620.5000     7.8768    86.2979     0.0291     0.1588     2.4205
  621.0000     7.8475    88.0031     0.0278     0.1552     2.4090
  621.5000     7.8475    90.5138     0.0265     0.1521     2.4225
  622.0000     7.8475    92.6016     0.0252     0.1557     2.4196
  622.5000     7.8475    95.5989     0.0254     0.1601     2.4078
  623.0000     7.8475    97.9154     0.0256     0.1610     2.4124
  623.5000     7.8475    99.3870     0.0273     0.1592     2.4199
  624.0000     7.8475   100.1184     0.0290     0.1565     2.4260
  624.5000     7.8475   100.4290     0.0292     0.1517     2.4291
  625.0000     7.8475    99.3097     0.0294     0.1463     2.4269
  625.5000     7.8475    97.1539     0.0296     0.1388     2.4322
  626.0000     7.8475    95.6884     0.0298     0.1498     2.4443
  626.5000     7.8768    93.9011     0.0284     0.1428     2.4533
  627.0000     7.8768    92.2602     0.0302     0.1306     2.4535
  627.5000     7.8768    90.4579     0.0304     0.1438     2.4446
  628.0000     7.8768    96.6213     0.0321     0.1467     2.4417
  628.5000     7.8768    96.2650     0.0338     0.1363     2.4433
  629.0000     7.8768    91.9584     0.0370     0.1244     2.4568
  629.5000     7.8768    90.3691     0.0372     0.1178     2.4778
  630.0000     7.8768    94.3817     0.0374     0.1167     2.4831
  630.5000     7.8768    96.9112     0.0330     0.1189     2.4780
  631.0000     7.8768    98.4053     0.0317     0.1214     2.4721
  631.5000     7.8768    98.2721     0.0334     0.1217     2.4670
  632.0000     7.8475    96.6597     0.0457     0.1211     2.4782
  632.5000     7.8353    94.7514     0.0564     0.1189     2.4873
  633.0000     7.8055    93.4311     0.0521     0.1152     2.4934
  633.5000     7.7889    96.2603     0.0433     0.1129     2.4860
  634.0000     7.7595    97.1626     0.0389     0.1257     2.4764
  634.5000     7.7595    96.1419     0.0421     0.1213     2.4679
  635.0000     7.7595    94.6749     0.0438     0.1125     2.4781
  635.5000     7.7595    93.6542     0.0470     0.1049     2.4961
  636.0000     7.7595    92.1897     0.0503     0.1019     2.5044
  636.5000     7.7595    91.3169     0.0489     0.1008     2.5060
  637.0000     7.7595    90.8876     0.0401     0.1039     2.5023
  637.5000     7.7595    92.5299     0.0298     0.1081     2.4905
  638.0000     7.7595    99.6453     0.0269     0.1252     2.4697
  638.5000     7.7595   101.7310     0.0347     0.1215     2.4690
  639.0000     7.7595   100.5624     0.0393     0.1184     2.4766
  639.5000     7.7595    98.3582     0.0365     0.1151     2.4879
  640.0000     7.7595    95.1186     0.0352     0.1143     2.4984
  640.5000     7.7595    94.0603     0.0339     0.1194     2.4873
  641.0000     7.7595    96.3316     0.0341     0.1238     2.4725
  641.5000     7.7595    99.6008     0.0343     0.1184     2.4793
