~VERSION INFORMATION
 VERS.                2.0:   CWLS LOG ASCII STANDARD - VERSION 2.0
 WRAP.                 NO:   ONE LINE PER DEPTH STEP
~WELL INFORMATION
#MNEM.UNIT      DATA TYPE    INFORMATION
#----------   ------------   ------------------------------
 STRT.F          660.0000:   START DEPTH
 STOP.F         2899.5000:   STOP DEPTH
 STEP.F            0.5000:   STEP LENGTH
 NULL.          -999.2500:   NO VALUE
 COMP. LAWRENCE/ALLISON INC:   COMPANY
 WELL. NPR #3 22 X 10 #22-10:   WELL
 FLD .             TEAPOT:   FIELD
 LOC .      S10 T38N R78W:   LOCATION
 CNTY.            NATRONA:   COUNTY
 STAT.            WYOMING:   STATE
 CTRY. UNITED STATES OF AMERICA:   COUNTRY
 SRVC.            Unknown:   SERVICE COMPANY
 DATE.        11-SEP-1986:   LOGDATE
 API .       490251106200:   API NUMBER
~CURVE INFORMATION
#MNEM.UNIT       API CODE    CURVE DESCRIPTION
#----------   ------------   ------------------------------
 DEPT.F                  :   
 ROP .MIN/FT 91 810 01 00:   RATE OF DRILLING PENETRATION
 TGAS.UNITS  91 830 01 00:   TOTAL GAS FROM HOTWIRE
~PARAMETER INFORMATION
#MNEM.UNIT          VALUE    DESCRIPTION
#----------   ------------   ------------------------------
 DATE.          9-11-1986:   RUN DATE
 DD  .F              2900:   DEPTH DRILLER
 TLI .F              1380:   TOP LOG INTERVAL
 WITN. R. HUSK/K. FREDERICK:   WITNESSED BY
 CLNT.            A2DTECH:   CLIENT CODE
 ORIG.           5" PRINT:   ORIGIN OF DATA
 UWI .       490251106200:   UNIQUE WELL ID
 DICO. A2D Technologies, Inc.:   DIGITIZING COMPANY
~OTHER INFORMATION
~A   DEPT      ROP         TGAS 
# ...
 1753.5000     1.1432   342.3690
 1754.0000     1.1735   319.8178
 1754.5000     1.2039   287.0159
 1755.0000     1.2343   253.5287
 1755.5000     1.2752   220.3439
 1756.0000     1.2848   200.9112
 1756.5000     1.2303   202.9613
 1757.0000     1.1854   202.9613
 1757.5000     1.1357   201.8725
 1758.0000     1.1258   191.6825
 1758.5000     1.1250   169.7527
 1759.0000     1.1268   160.8483
 1759.5000     1.1490   158.4781
 1760.0000     1.1992   159.8341
 1760.5000     1.2458   159.6026
 1761.0000     1.2923   159.3711
 1761.5000     1.3389   159.1396
 1762.0000     1.3701   158.9081
 1762.5000     1.3695   158.6767
 1763.0000     1.3690   158.4452
 1763.5000     1.3734   158.2137
 1764.0000     1.3999   157.9822
 1764.5000     1.4427   157.7507
 1765.0000     1.4856   157.5192
 1765.5000     1.5218   157.2878
 1766.0000     1.4963   157.0563
 1766.5000     1.4415   156.8248
 1767.0000     1.3867   156.5933
 1767.5000     1.3227   156.3618
 1768.0000     1.2806   156.1304
 1768.5000     1.2801   155.8989
 1769.0000     1.2900   155.6674
 1769.5000     1.2791   155.4359
 1770.0000     1.2348   155.2044
 1770.5000     1.1810   154.9729
 1771.0000     1.1384   154.7415
 1771.5000     1.1108   154.5100
 1772.0000     1.1698   154.2785
 1772.5000     1.2479   154.0470
 1773.0000     1.3048   153.8155
 1773.5000     1.3658   153.5841
 1774.0000     1.3992   153.3526
 1774.5000     1.3986   153.1211
 1775.0000     1.3981   152.8896
 1775.5000     1.3976   152.6581
 1776.0000     1.3971   152.4267
 1776.5000     1.4029   152.1952
 1777.0000     1.4064   151.9637
 1777.5000     1.3769   151.7322
 1778.0000     1.3253   151.5007
 1778.5000     1.2542   151.2692
 1779.0000     1.1548   151.0378
 1779.5000     1.0607   150.7973
 1780.0000     1.0291   191.6753
 1780.5000     1.0341   279.7059
 1781.0000     1.0395   362.8616
 1781.5000     1.0449   412.0514
 1782.0000     1.0920   406.7778
 1782.5000     1.1558   393.6428
 1783.0000     1.2306   378.7149
 1783.5000     1.2712   313.7710
 1784.0000     1.2806   297.2458
 1784.5000     1.2692   282.7708
 1785.0000     1.2786   274.4460
 1785.5000     1.2774   266.1214
 1786.0000     1.2662   265.9971
 1786.5000     1.2930   265.8729
 1787.0000     1.3662   265.7486
 1787.5000     1.4281   267.8817
 1788.0000     1.4608   271.8109
 1788.5000     1.4112   274.2666
 1789.0000     1.3484   280.4808
 1789.5000     1.3003   286.3322
 1790.0000     1.2786   290.0054
 1790.5000     1.2775   292.4823
 1791.0000     1.2812   296.0276
 1791.5000     1.3013   298.0137
 1792.0000     1.3382   300.6834
 1792.5000     1.3804   304.7835
 1793.0000     1.4226   308.0722
 1793.5000     1.4647   310.0582
 1794.0000     1.4997   311.1048
 1794.5000     1.4779   310.9767
 1795.0000     1.4256   307.6448
 1795.5000     1.3397   303.4381
 1796.0000     1.4323   298.8041
 1796.5000     1.6392   293.5929
 1797.0000     1.7109   289.2361
 1797.5000     1.7619   286.2682
 1798.0000     1.7609   284.0259
 1798.5000     1.7599   283.3001
 1799.0000     1.7579   283.1720
 1799.5000     1.7461   283.0193
 1800.0000     1.7273   283.0629
 1800.5000     1.6701   283.1169
 1801.0000     1.5991   283.1709
 1801.5000     1.5281   283.2249
 1802.0000     1.5385   283.2789
 1802.5000     1.5385   283.3329
 1803.0000     1.5385   283.3869
 1803.5000     1.5385   283.4409
 1804.0000     1.5369   283.4949
 1804.5000     1.5041   283.5490
 1805.0000     1.4614   283.6029
 1805.5000     1.4187   283.6570
 1806.0000     1.3825   283.7110
 1806.5000     1.3845   283.7650
 1807.0000     1.3951   283.8190
 1807.5000     1.4058   283.8730
 1808.0000     1.4054   283.9270
 1808.5000     1.3581   283.9810
 1809.0000     1.2693   284.0350
 1809.5000     1.1769   284.0890
 1810.0000     1.0798   284.1430
 1810.5000     0.9958   284.1970
 1811.0000     0.9816   284.2510
 1811.5000     0.9875   284.3050
 1812.0000     0.9775   284.3590
 1812.5000     0.9296   284.4130
 1813.0000     0.8660   284.4670
 1813.5000     0.8127   284.5210
 1814.0000     0.7900   284.5750
 1814.5000     0.8222   284.6290
 1815.0000     0.8689   284.6830
 1815.5000     0.9186   284.7370
 1816.0000     0.9574   284.7910
 1816.5000     0.9743   284.8451
 1817.0000     0.9771   284.8990
 1817.5000     0.9853   284.9531
 1818.0000     1.0499   285.0071
 1818.5000     1.1123   285.0611
 1819.0000     1.1642   283.2056
 1819.5000     1.2162   277.9822
 1820.0000     1.2578   267.5399
 1820.5000     1.2578   242.0864
 1821.0000     1.2578   200.7923
 1821.5000     1.2578   168.5977
 1822.0000     1.2695   157.2779
 1822.5000     1.3256   154.2923
 1823.0000     1.4323   153.4510
 1823.5000     1.5303   153.3953
 1824.0000     1.5489   153.4625
 1824.5000     1.5472   153.5362
 1825.0000     1.5385   153.6099
 1825.5000     1.5407   153.6836
 1826.0000     1.5589   153.7573
 1826.5000     1.6072   153.8310
 1827.0000     1.6682   153.9046
 1827.5000     1.7182   153.9783
 1828.0000     1.7391   154.0520
 1828.5000     1.7021   154.1257
 1829.0000     1.6464   154.1994
 1829.5000     1.5902   154.2731
 1830.0000     1.5441   154.3468
 1830.5000     1.5385   154.4205
 1831.0000     1.5385   154.4942
 1831.5000     1.5385   154.5679
 1832.0000     1.5149   154.6415
 1832.5000     1.4598   154.7152
 1833.0000     1.4022   154.7889
 1833.5000     1.3421   154.8626
 1834.0000     1.3272   154.9363
 1834.5000     1.3525   155.0100
 1835.0000     1.3921   155.0837
 1835.5000     1.4505   155.1573
 1836.0000     1.5308   155.2310
 1836.5000     1.6216   155.3047
 1837.0000     1.6944   155.3784
 1837.5000     1.7775   155.4521
 1838.0000     1.8087   155.5258
 1838.5000     1.8191   155.5995
 1839.0000     1.8191   155.6732
 1839.5000     1.8191   155.7469
 1840.0000     1.8191   155.8785
 1840.5000     1.7985   156.3115
 1841.0000     1.7286   156.7445
 1841.5000     1.6499   157.1776
 1842.0000     1.5957   157.6105
 1842.5000     1.5843   158.0436
 1843.0000     1.5728   158.4766
 1843.5000     1.5419   158.9096
 1844.0000     1.4896   159.3426
 1844.5000     1.4334   159.7756
 1845.0000     1.3591   160.2086
 1845.5000     1.3173   160.6416
 1846.0000     1.3383   161.0746
 1846.5000     1.3958   161.5076
 1847.0000     1.4705   161.9406
 1847.5000     1.5237   162.3736
 1848.0000     1.5551   162.8066
 1848.5000     1.5548   163.2396
 1849.0000     1.5546   163.6726
 1849.5000     1.5258   174.1476
 1850.0000     1.4696   223.8177
 1850.5000     1.4061   278.7383
 1851.0000     1.3467   328.6769
 1851.5000     1.2934   382.6978
 1852.0000     1.2931   394.2690
 1852.5000     1.2825   370.4500
 1853.0000     1.2849   342.7613
 1853.5000     1.3234   306.8256
 1854.0000     1.3878   293.6960
 1854.5000     1.4435   293.1663
 1855.0000     1.4869   289.0661
 1855.5000     1.4992   272.6652
 1856.0000     1.4990   246.0137
 1856.5000     1.5052   225.3243
 1857.0000     1.5088   216.9875
 1857.5000     1.5086   212.9343
 1858.0000     1.5083   210.7689
 1858.5000     1.5184   208.6035
 1859.0000     1.5286   207.0615
 1859.5000     1.5293   206.3224
 1860.0000     1.5385   205.1309
 1860.5000     1.5382   205.4337
 1861.0000     1.5379   205.7366
 1861.5000     1.5377   206.0395
 1862.0000     1.5118   206.3424
 1862.5000     1.4486   206.6452
 1863.0000     1.3875   206.9481
 1863.5000     1.3191   207.2510
 1864.0000     1.3278   207.5538
 1864.5000     1.3862   207.8567
 1865.0000     1.4419   208.1596
 1865.5000     1.4940   208.4625
 1866.0000     1.5145   208.7654
 1866.5000     1.5247   209.0682
 1867.0000     1.5140   209.3711
 1867.5000     1.5138   209.6740
 1868.0000     1.5135   209.9768
 1868.5000     1.5133   210.2797
 1869.0000     1.5130   210.5826
 1869.5000     1.5127   210.8855
 1870.0000     1.5099   211.1883
 1870.5000     1.4752   211.4912
 1871.0000     1.4229   211.7941
 1871.5000     1.3816   212.0969
 1872.0000     1.3472   212.3998
 1872.5000     1.3113   212.7027
 1873.0000     1.3003   213.0056
 1873.5000     1.2924   213.3084
 1874.0000     1.2921   213.6113
 1874.5000     1.2882   213.9142
