~VERSION INFORMATION
 VERS.                2.0:   CWLS LOG ASCII STANDARD - VERSION 2.0
 WRAP.                 NO:   ONE LINE PER DEPTH STEP
~WELL INFORMATION
#MNEM.UNIT      DATA TYPE    INFORMATION
#----------   ------------   ------------------------------
 STRT.F          588.0000:   START DEPTH
 STOP.F         1583.5000:   STOP DEPTH
 STEP.F            0.5000:   STEP LENGTH
 NULL.          -999.2500:   NO VALUE
 COMP.   FENIX & SCISSONS:   COMPANY
 WELL.   NPR 3 #23STX1-11:   WELL
 FLD .             TEAPOT:   FIELD
 LOC .      S11 T38N R78W:   LOCATION
 CNTY.            NATRONA:   COUNTY
 STAT.            WYOMING:   STATE
 CTRY. UNITED STATES OF AMERICA:   COUNTRY
 SRVC.            Unknown:   SERVICE COMPANY
 DATE.        15-JUN-1979:   LOGDATE
 API .       490251078300:   API NUMBER
~CURVE INFORMATION
#MNEM.UNIT       API CODE    CURVE DESCRIPTION
#----------   ------------   ------------------------------
 DEPT.F                  :   
 RHOB.G/C3   45 350 01 00:   BULK DENSITY
 DPHI.DEC    45 890 10 00:   DENSITY POROSITY LIMESTONE
 CORR.G/C3   45 356 01 00:   DENSITY CORRECTION
 GRD .GAPI   45 310 01 00:   GAMMA RAY FROM DENSITY LOG
 CALD.IN     45 280 60 00:   CALIPER FROM DENSITY LOG
~PARAMETER INFORMATION
#MNEM.UNIT          VALUE    DESCRIPTION
#----------   ------------   ------------------------------
 PD  .                 GL:   PERMANENT DATUM
 EPD .F              5168:   ELEVATION PERMANENT DATUM
 LMF .                 KB:   LOG MEASURED FROM
 DAPD.F                10:   FEET ABOVE PERMANENT DATUM
 DMF .                 KB:   DRILLING MEASURED FROM
 EKB .F              5178:   KELLING BUSHING
 EGL .F              5168:   GROUND LEVEL
 DATE.            6-15-79:   RUN DATE
 RUN .                  1:   RUN NUMBER
 DD  .F              1580:   DEPTH DRILLER
 DL  .F              1580:   DEPTH LOGGER
 BLI .F              1578:   BOTTOM LOG INTERVAL
 TLI .F               680:   TOP LOG INTERVAL
 CS  .IN            9.625:   CASING SIZE
 CBD .F               660:   CASING BOTTOM DRILLER
 CBL .F               670:   CASING BOTTOM LOGGER
 BS  .IN             8.75:   BIT SIZE
 BSD .F              1580:   BIT SIZE AT DEPTH
 DFT .                OIL:   DRILLING FLUID TYPE
 TCS .HRS               4:   TIME CURCULATED STOPPED
 MRT .F                80:   MAXIMUM RECORDED TEMPERATURE
 LUN .               3029:   LOGGING UNIT NUMBER
 LUL .             CASPER:   LOGGING UNIT LOCATION
 ENGI.            MULLINS:   RECORDING ENGINEER
 CLNT.            A2DTECH:   CLIENT CODE
 ORIG.     1", 2.5" PRINT:   ORIGIN OF DATA
 UWI .       490251078300:   UNIQUE WELL ID
 DICO. A2D Technologies, Inc.:   DIGITIZING COMPANY
~OTHER INFORMATION
~A   DEPT     RHOB       DPHI       CORR         GRD      CALD   
# ...
 1503.0000     2.5592    -0.0026     0.0012    95.9976     9.1911
 1503.5000     2.5557    -0.0018     0.0043    95.7263     9.1911
 1504.0000     2.5519    -0.0009     0.0080    96.9292     9.1911
 1504.5000     2.5615     0.0000     0.0118    95.9489     9.1911
 1505.0000     2.5581     0.0008     0.0086    94.1770     9.1911
 1505.5000     2.5494     0.0057     0.0044    93.8246     9.1911
 1506.0000     2.5409     0.0103    -0.0002    94.9763     9.1911
 1506.5000     2.5321     0.0154    -0.0043    95.9518     9.1911
 1507.0000     2.5362     0.0124    -0.0076    96.7273     9.1911
 1507.5000     2.5411     0.0092    -0.0044    95.0131     9.1911
 1508.0000     2.5464     0.0060    -0.0008    94.4598     9.1911
 1508.5000     2.5516     0.0050    -0.0114    95.7877     9.1911
 1509.0000     2.5473     0.0074    -0.0096    95.1262     9.1911
 1509.5000     2.5401     0.0097    -0.0056    93.3995     9.1911
 1510.0000     2.5443     0.0081    -0.0053    92.4035     9.1911
 1510.5000     2.5487     0.0051    -0.0079    92.3993     9.1911
 1511.0000     2.5533     0.0022    -0.0048    96.1870     9.1911
 1511.5000     2.5573    -0.0009    -0.0016   103.7429     9.1911
 1512.0000     2.5598    -0.0004    -0.0014   106.8500     9.1911
 1512.5000     2.5528     0.0030    -0.0061   105.2227     9.1911
 1513.0000     2.5489     0.0065    -0.0107   100.4282     9.1911
 1513.5000     2.5422     0.0099    -0.0111    96.0267     9.1911
 1514.0000     2.5348     0.0133    -0.0088    96.2541     9.1911
 1514.5000     2.5277     0.0167    -0.0067    95.2030     9.1911
 1515.0000     2.5221     0.0197    -0.0046    93.6149     9.1911
 1515.5000     2.5311     0.0168    -0.0024    92.7869     9.1911
 1516.0000     2.5392     0.0110    -0.0001    93.1578     9.1911
 1516.5000     2.5417     0.0094     0.0023    93.2801     9.1911
 1517.0000     2.5417     0.0089     0.0038    93.5482     9.1911
 1517.5000     2.5408     0.0084     0.0026    91.5533     9.1911
 1518.0000     2.5481     0.0061     0.0016    87.1476     9.1911
 1518.5000     2.5608    -0.0017     0.0003    83.4319     9.1911
 1519.0000     2.5594    -0.0034     0.0007    87.2904     9.1911
 1519.5000     2.5447     0.0154     0.0020    90.7451     9.1911
 1520.0000     2.5312     0.0138     0.0031    92.4569     9.1911
 1520.5000     2.5355     0.0110     0.0040    94.3184     9.1911
 1521.0000     2.5409     0.0081     0.0028    95.9551     9.1911
 1521.5000     2.5413     0.0069     0.0012    97.8988     9.1911
 1522.0000     2.5445     0.0048    -0.0005    96.1124     9.1911
 1522.5000     2.5501     0.0025    -0.0019    93.8467     9.1911
 1523.0000     2.5512    -0.0019    -0.0035    91.4749     9.1911
 1523.5000     2.5556    -0.0068     0.0043    90.3288     9.1911
 1524.0000     2.5799    -0.0130     0.0171    90.0053     9.1911
 1524.5000     2.5750    -0.0084     0.0141    91.0438     9.1911
 1525.0000     2.5492     0.0041     0.0047    96.4125     9.1911
 1525.5000     2.5348     0.0130    -0.0013   101.0719     9.1911
 1526.0000     2.5362     0.0119    -0.0030    97.9816     9.1910
 1526.5000     2.5456     0.0071    -0.0025    98.9461     9.1910
 1527.0000     2.5550     0.0023     0.0016   102.5003     9.1911
 1527.5000     2.5640    -0.0032     0.0059   102.6964     9.1910
 1528.0000     2.5610    -0.0013     0.0076    99.5825     9.1911
 1528.5000     2.5535     0.0026     0.0052    98.4084     9.1911
 1529.0000     2.5484     0.0065     0.0033    99.2775     9.1919
 1529.5000     2.5470     0.0071     0.0017    98.1981     9.1925
 1530.0000     2.5426     0.0081    -0.0001    95.8994     9.1933
 1530.5000     2.5349     0.0135    -0.0018    95.2442     9.1940
 1531.0000     2.5297     0.0162    -0.0035    94.6345     9.1947
 1531.5000     2.5314     0.0135    -0.0036    92.9361     9.1954
 1532.0000     2.5360     0.0110    -0.0023    93.2653     9.1961
 1532.5000     2.5414     0.0085    -0.0002    95.3587     9.1968
 1533.0000     2.5457     0.0065    -0.0019    97.2519     9.1975
 1533.5000     2.5489     0.0054    -0.0060    98.1820     9.1982
 1534.0000     2.5517     0.0045    -0.0019    98.7333     9.1989
 1534.5000     2.5553     0.0050     0.0068    99.1852     9.1996
 1535.0000     2.5509     0.0070    -0.0016    97.6555     9.2003
 1535.5000     2.5436     0.0091    -0.0030    96.1215     9.2010
 1536.0000     2.5380     0.0105     0.0006    96.3806     9.2017
 1536.5000     2.5472     0.0067     0.0033    96.6329     9.2024
 1537.0000     2.5496     0.0041     0.0041    95.9061     9.2031
 1537.5000     2.5497     0.0045     0.0041    95.5107     9.2038
 1538.0000     2.5495     0.0048     0.0040    96.3155     9.2045
 1538.5000     2.5506     0.0041     0.0040    94.2922     9.2052
 1539.0000     2.5550     0.0029     0.0042    95.9293     9.2059
 1539.5000     2.5561     0.0016     0.0027    94.5357     9.2066
 1540.0000     2.5503     0.0040     0.0001    92.2368     9.2073
 1540.5000     2.5447     0.0087    -0.0022    94.2666     9.2080
 1541.0000     2.5391     0.0134    -0.0039    98.0354     9.2087
 1541.5000     2.5336     0.0163    -0.0043    98.4147     9.2094
 1542.0000     2.5349     0.0147    -0.0009    98.7845     9.2101
 1542.5000     2.5413     0.0108     0.0065    98.6738     9.2108
 1543.0000     2.5477     0.0069     0.0044    97.2912     9.2115
 1543.5000     2.5535     0.0022    -0.0043    94.1251     9.2122
 1544.0000     2.5541    -0.0034    -0.0043    93.7279     9.2129
 1544.5000     2.5677    -0.0091     0.0123    94.6496     9.2135
 1545.0000     2.5763    -0.0087     0.0184    91.7094     9.2142
 1545.5000     2.5668    -0.0063     0.0094    92.4519     9.2149
 1546.0000     2.5585    -0.0013     0.0019    92.3512     9.2156
 1546.5000     2.5484     0.0065    -0.0034    90.9621     9.2163
 1547.0000     2.5475     0.0064    -0.0007    93.5380     9.2170
 1547.5000     2.5489     0.0043     0.0016    97.0315     9.2177
 1548.0000     2.5521     0.0022     0.0032   100.0862     9.2184
 1548.5000     2.5544     0.0000     0.0003    98.6089     9.2191
 1549.0000     2.5569     0.0008     0.0019    94.6043     9.2198
 1549.5000     2.5554     0.0043     0.0028    95.4914     9.2205
 1550.0000     2.5498     0.0073     0.0038    97.1292     9.2212
 1550.5000     2.5425     0.0103     0.0049    94.5612     9.2219
 1551.0000     2.5375     0.0102     0.0060    94.9090     9.2226
 1551.5000     2.5406     0.0084     0.0070    96.7514     9.2233
 1552.0000     2.5439     0.0066     0.0080    97.2385     9.2240
 1552.5000     2.5475     0.0049     0.0075    95.6456     9.2247
 1553.0000     2.5511     0.0031     0.0069    95.7044     9.2254
 1553.5000     2.5529     0.0028     0.0062    95.9732     9.2261
 1554.0000     2.5494     0.0042     0.0055    96.7376     9.2268
 1554.5000     2.5484     0.0057     0.0048    98.9512     9.2275
 1555.0000     2.5519     0.0042     0.0043    99.0043     9.2282
 1555.5000     2.5555     0.0014     0.0040    96.4089     9.2289
 1556.0000     2.5540     0.0013     0.0037    98.9193     9.2296
 1556.5000     2.5446     0.0113    -0.0025    98.0984     9.2303
 1557.0000     2.5312     0.0154    -0.0114    96.0829     9.2310
 1557.5000     2.5357     0.0124    -0.0075    96.6070     9.2317
 1558.0000     2.5436     0.0041    -0.0020    98.3995     9.2317
 1558.5000     2.5501     0.0074    -0.0025    97.2195     9.2317
 1559.0000     2.5375     0.0133    -0.0083    99.7043     9.2317
 1559.5000     2.5281     0.0164    -0.0138   104.0300     9.2317
 1560.0000     2.5289     0.0178    -0.0159   100.3552     9.2317
 1560.5000     2.5304     0.0161    -0.0144    95.4443     9.2317
 1561.0000     2.5325     0.0145    -0.0133    90.5838     9.2317
 1561.5000     2.5336     0.0130    -0.0124    92.0943     9.2317
 1562.0000     2.5367     0.0114    -0.0102    95.0458     9.2317
 1562.5000     2.5419     0.0089    -0.0064    93.6725     9.2317
 1563.0000     2.5471     0.0070    -0.0037    91.8568     9.2317
 1563.5000     2.5523     0.0033    -0.0027    95.9949     9.2317
