~VERSION INFORMATION
 VERS.                2.0:   CWLS LOG ASCII STANDARD - VERSION 2.0
 WRAP.                 NO:   ONE LINE PER DEPTH STEP
~WELL INFORMATION
#MNEM.UNIT      DATA TYPE    INFORMATION
#----------   ------------   ------------------------------
 STRT.F          660.0000:   START DEPTH
 STOP.F         2899.5000:   STOP DEPTH
 STEP.F            0.5000:   STEP LENGTH
 NULL.          -999.2500:   NO VALUE
 COMP. LAWRENCE/ALLISON INC:   COMPANY
 WELL. NPR #3 22 X 10 #22-10:   WELL
 FLD .             TEAPOT:   FIELD
 LOC .      S10 T38N R78W:   LOCATION
 CNTY.            NATRONA:   COUNTY
 STAT.            WYOMING:   STATE
 CTRY. UNITED STATES OF AMERICA:   COUNTRY
 SRVC.            Unknown:   SERVICE COMPANY
 DATE.        11-SEP-1986:   LOGDATE
 API .       490251106200:   API NUMBER
~CURVE INFORMATION
#MNEM.UNIT       API CODE    CURVE DESCRIPTION
#----------   ------------   ------------------------------
 DEPT.F                  :   
 ROP .MIN/FT 91 810 01 00:   RATE OF DRILLING PENETRATION
 TGAS.UNITS  91 830 01 00:   TOTAL GAS FROM HOTWIRE
~PARAMETER INFORMATION
#MNEM.UNIT          VALUE    DESCRIPTION
#----------   ------------   ------------------------------
 DATE.          9-11-1986:   RUN DATE
 DD  .F              2900:   DEPTH DRILLER
 TLI .F              1380:   TOP LOG INTERVAL
 WITN. R. HUSK/K. FREDERICK:   WITNESSED BY
 CLNT.            A2DTECH:   CLIENT CODE
 ORIG.           5" PRINT:   ORIGIN OF DATA
 UWI .       490251106200:   UNIQUE WELL ID
 DICO. A2D Technologies, Inc.:   DIGITIZING COMPANY
~OTHER INFORMATION
~A   DEPT      ROP         TGAS 
# ...
 1024.5000     0.7790     7.0804
 1025.0000     0.7791     6.5140
 1025.5000     0.7793     9.2458
 1026.0000     0.7795    11.4717
 1026.5000     0.7797    10.6540
 1027.0000     0.7799     7.5275
 1027.5000     0.7801     5.8882
 1028.0000     0.7803     5.8744
 1028.5000     0.7805     5.8605
 1029.0000     0.7807     5.6435
 1029.5000     0.7888     5.0616
 1030.0000     0.8425     4.7095
 1030.5000     0.8890     4.7990
 1031.0000     0.9423     4.8964
 1031.5000     0.9776     4.9939
 1032.0000     0.9815     5.0913
 1032.5000     0.9854     5.1887
 1033.0000     0.9893     5.2862
 1033.5000     0.9933     5.3836
 1034.0000     0.9972     5.4810
 1034.5000     1.0011     5.5785
 1035.0000     1.0050     5.6759
 1035.5000     1.0090     5.7733
 1036.0000     1.0132     5.8708
 1036.5000     1.0898     5.9682
 1037.0000     1.1443     6.0656
 1037.5000     1.2209     6.1631
 1038.0000     1.2976     6.2605
 1038.5000     1.3189     6.3579
 1039.0000     1.3070     6.4554
 1039.5000     1.3061     6.5528
 1040.0000     1.3053     6.6502
 1040.5000     1.3042     6.6403
 1041.0000     1.3031     6.6303
 1041.5000     1.3020     6.6203
 1042.0000     1.3009     6.6103
 1042.5000     1.3546     6.6003
 1043.0000     1.4410     6.5903
 1043.5000     1.5138     6.5803
 1044.0000     1.5634     6.5703
 1044.5000     1.4943     6.5603
 1045.0000     1.4268     6.5503
 1045.5000     1.3483     6.5403
 1046.0000     1.2919     6.5303
 1046.5000     1.2798     6.5203
 1047.0000     1.2795     6.5103
 1047.5000     1.2791     6.5003
 1048.0000     1.2788     6.4903
 1048.5000     1.2785     6.4803
 1049.0000     1.2781     6.4704
 1049.5000     1.2778     6.4604
 1050.0000     1.2775     6.4504
 1050.5000     1.2771     6.4404
 1051.0000     1.2768     6.4304
 1051.5000     1.2765     6.4204
 1052.0000     1.2761     6.4104
 1052.5000     1.2758     6.4004
 1053.0000     1.2755     6.3904
 1053.5000     1.2751     6.3804
 1054.0000     1.3016     6.3704
 1054.5000     1.3530     6.3604
 1055.0000     1.4159     6.3504
 1055.5000     1.4752     6.3404
 1056.0000     1.5308    25.4170
 1056.5000     1.4387    42.8143
 1057.0000     1.2563    51.7776
 1057.5000     1.0449    33.9386
 1058.0000     0.7896    11.1898
 1058.5000     0.7885     5.0667
 1059.0000     0.7875     5.0396
 1059.5000     0.7864     5.0125
 1060.0000     0.7964     4.4312
 1060.5000     0.7952     4.4690
 1061.0000     0.7939     4.5249
 1061.5000     0.7926     4.5808
 1062.0000     0.7914     4.6368
 1062.5000     0.7901     4.6927
 1063.0000     0.7888     4.7486
 1063.5000     0.7875     4.8046
 1064.0000     0.7862     4.8605
 1064.5000     0.7850     4.9164
 1065.0000     0.7837     4.9724
 1065.5000     0.7824     5.0283
 1066.0000     0.7811     5.0842
 1066.5000     0.7798     5.1401
 1067.0000     0.7785     5.1961
 1067.5000     0.7773     5.2520
 1068.0000     0.7760     5.3079
 1068.5000     0.7747     5.3639
 1069.0000     0.7734     5.4198
 1069.5000     0.7721     5.4757
 1070.0000     0.7709     5.5317
 1070.5000     0.7696     5.5876
 1071.0000     0.7683     5.6435
 1071.5000     0.7670     5.6994
 1072.0000     0.7657     5.7554
 1072.5000     0.7448     5.8113
 1073.0000     0.6976     5.8672
 1073.5000     0.6444     5.9232
 1074.0000     0.5922     5.9791
 1074.5000     0.5804     6.0350
 1075.0000     0.6216     6.0909
 1075.5000     0.6787     6.1469
 1076.0000     0.7358     6.2028
 1076.5000     0.7579     6.2587
 1077.0000     0.7682     6.3147
 1077.5000     0.7784     6.3706
 1078.0000     0.7776     6.4265
 1078.5000     0.7768     6.4825
 1079.0000     0.7761     6.5384
 1079.5000     0.7863     6.5943
 1080.0000     0.7854     6.6502
 1080.5000     0.7612     6.6087
 1081.0000     0.7169     6.5671
 1081.5000     0.6538     6.5256
 1082.0000     0.5841     6.4840
 1082.5000     0.5778     6.4424
 1083.0000     0.6343     6.4009
 1083.5000     0.6975     6.3593
 1084.0000     0.7445     6.3177
 1084.5000     0.7632     6.2762
 1085.0000     0.7660     6.2346
 1085.5000     0.7652     6.1930
 1086.0000     0.7658     6.1515
 1086.5000     0.7667     6.1038
 1087.0000     0.7677     9.3890
 1087.5000     0.7687    12.1199
 1088.0000     0.7697    12.0800
 1088.5000     0.7707     9.8095
 1089.0000     0.7717     7.5393
 1089.5000     0.7727     6.8744
 1090.0000     0.7737     5.8190
 1090.5000     0.7746     5.7774
 1091.0000     0.7756     5.7358
 1091.5000     0.7766     5.6943
 1092.0000     0.7776     5.6527
 1092.5000     0.7786     5.6111
 1093.0000     0.7796     5.5696
 1093.5000     0.7806     5.5280
 1094.0000     0.7816     5.4865
 1094.5000     0.7826     5.4449
 1095.0000     0.7835     5.4033
 1095.5000     0.7845     5.3618
 1096.0000     0.7855     5.3202
 1096.5000     0.7865     5.2786
 1097.0000     0.7875     5.2371
 1097.5000     0.7885     5.1955
 1098.0000     0.8175     5.1539
 1098.5000     0.8855     5.1124
 1099.0000     0.9479     5.0708
 1099.5000     0.9984     5.0292
 1100.0000     1.0510     4.9877
 1100.5000     0.9641     5.0245
 1101.0000     0.8837     5.0613
 1101.5000     0.8033     5.0981
 1102.0000     0.7718     5.1350
 1102.5000     0.7740     5.1718
 1103.0000     0.7761     5.2086
 1103.5000     0.7783     5.2454
 1104.0000     0.7804     5.2823
 1104.5000     0.7825     5.3191
 1105.0000     0.7847     5.3559
 1105.5000     0.7868     5.3927
 1106.0000     0.7890     5.4295
 1106.5000     0.7911     5.4664
 1107.0000     0.7932     5.5032
 1107.5000     0.7954     5.5400
 1108.0000     0.7975     5.5768
 1108.5000     0.7997     5.6136
 1109.0000     0.8018     5.6505
 1109.5000     0.8039     5.6873
 1110.0000     0.8061     5.7241
 1110.5000     0.7630     5.7609
 1111.0000     0.6836     5.7977
 1111.5000     0.6042     5.8346
 1112.0000     0.5248     5.8714
 1112.5000     0.5607     5.9082
 1113.0000     0.6370     5.9450
 1113.5000     0.7134     5.9818
 1114.0000     0.7804     6.0187
 1114.5000     0.7978     6.0555
 1115.0000     0.7965     6.0923
 1115.5000     0.7982     6.1291
 1116.0000     0.8053     6.1659
 1116.5000     0.8042    32.9514
 1117.0000     0.8031   174.0493
 1117.5000     0.8020   224.5151
 1118.0000     0.8875   224.1087
 1118.5000     1.0812   216.5553
 1119.0000     1.2180   159.6869
 1119.5000     1.3523    87.5728
 1120.0000     1.5042    17.1776
 1120.5000     1.2870     4.4531
 1121.0000     1.1235     4.4955
 1121.5000     0.9444     4.5378
 1122.0000     0.8025     4.5801
 1122.5000     0.7468     4.6224
 1123.0000     0.7378     4.6648
 1123.5000     0.7373     4.7071
 1124.0000     0.7404     4.7494
 1124.5000     0.7472     4.7918
 1125.0000     0.7467     4.8341
 1125.5000     0.7509     4.8764
 1126.0000     0.7566     4.9188
 1126.5000     0.7561     4.9611
 1127.0000     0.7555     5.0034
 1127.5000     0.7611     5.0457
 1128.0000     0.7784     5.0881
 1128.5000     0.8278     5.1304
 1129.0000     0.8957     5.1727
 1129.5000     0.9486     5.2151
 1130.0000     0.9624     5.2574
 1130.5000     0.9618     5.2997
 1131.0000     0.9613     5.3421
 1131.5000     0.9606     5.3844
 1132.0000     0.9601     5.4267
 1132.5000     0.9596     5.4690
 1133.0000     0.9701     5.5114
 1133.5000     0.9695     5.5537
 1134.0000     0.9690     5.5960
 1134.5000     0.9906     5.6384
 1135.0000     0.9900     5.6807
 1135.5000     0.9895     5.7230
 1136.0000     0.9889     5.7653
 1136.5000     0.9897     5.8077
 1137.0000     0.9990     5.8500
 1137.5000     0.9983     5.8923
 1138.0000     0.9978     5.9347
 1138.5000     0.9972     5.9770
 1139.0000     0.9967     6.0193
 1139.5000     0.9961     6.0617
 1140.0000     0.9952     6.1006
 1140.5000     0.9929     6.0406
 1141.0000     0.9906     5.9852
 1141.5000     0.9884     5.9298
 1142.0000     0.9861     5.8744
 1142.5000     0.9839     5.8190
 1143.0000     0.9816     5.7635
 1143.5000     0.9794     5.7081
 1144.0000     1.0205     5.6527
 1144.5000     1.0928     5.5973
 1145.0000     1.1534     5.5419
 1145.5000     1.2024     5.4865
