~VERSION INFORMATION
 VERS.                2.0:   CWLS LOG ASCII STANDARD - VERSION 2.0
 WRAP.                 NO:   ONE LINE PER DEPTH STEP
~WELL INFORMATION
#MNEM.UNIT      DATA TYPE    INFORMATION
#----------   ------------   ------------------------------
 STRT.F           15.0000:   START DEPTH
 STOP.F         5640.0000:   STOP DEPTH
 STEP.F            0.5000:   STEP LENGTH
 NULL.          -999.2500:   NO VALUE
 COMP.       F D SERV INC:   COMPANY
 WELL. NAVAL PETROLEUM RESERVE 3 SX-1 #43-10:   WELL
 FLD .         N.P.R. #.3:   FIELD
 LOC .      S10 T38N R78W:   LOCATION
 CNTY.            NATRONA:   COUNTY
 STAT.            WYOMING:   STATE
 CTRY. UNITED STATES OF AMERICA:   COUNTRY
 SRVC.      Dresser Atlas:   SERVICE COMPANY
 DATE.        05-JUL-1986:   LOGDATE
 API .       490251101800:   API NUMBER
~CURVE INFORMATION
#MNEM.UNIT       API CODE    CURVE DESCRIPTION
#----------   ------------   ------------------------------
 DEPT.F                  :   
 GRR .GAPI   07 310 01 00:   GAMMA RAY
 ILD .OHMM   07 120 46 00:   INDUCTION LOG DEEP
 ILM .OHMM   07 120 44 00:   INDUCTION LOG MEDIUM
 CALS.IN     60 280 50 00:   CALIPER FROM SONIC LOG
 GRS .GAPI   60 310 01 00:   GAMMA RAY FROM SONIC LOG
 AC  .US/F   60 520 00 00:   ACCOUSTIC
~PARAMETER INFORMATION
#MNEM.UNIT          VALUE    DESCRIPTION
#----------   ------------   ------------------------------
 PD  .                 GL:   PERMANENT DATUM
 EPD .F              5205:   ELEVATION PERMANENT DATUM
 LMF .                 KB:   LOG MEASURED FROM
 DAPD.F                 5:   FEET ABOVE PERMANENT DATUM
 DMF .                 KB:   DRILLING MEASURED FROM
 EKB .F              5210:   KELLING BUSHING
 EGL .F              5205:   GROUND LEVEL
 DATE.        05-JUL-1986:   RUN DATE
 RUN .                  1:   RUN NUMBER
 DD  .F               560:   DEPTH DRILLER
 DL  .F               560:   DEPTH LOGGER
 BLI .F               550:   BOTTOM LOG INTERVAL
 TLI .F                15:   TOP LOG INTERVAL
 CS  .IN            8.625:   CASING SIZE
 CBD .F                47:   CASING BOTTOM DRILLER
 CBL .F                47:   CASING BOTTOM LOGGER
 BS  .IN            7.875:   BIT SIZE
 BSD .F               560:   BIT SIZE AT DEPTH
 DFT .                AIR:   DRILLING FLUID TYPE
 BHT .F                83:   BOTTOM HOLE TEMPERATURE
 TCS .HRS            2100:   TIME CURCULATED STOPPED
 TLAB.HRS            2230:   TIME LOGGER AT BOTTOM
 MRT .F                83:   MAXIMUM RECORDED TEMPERATURE
 LUN .               7609:   LOGGING UNIT NUMBER
 LUL .           GILLETTE:   LOGGING UNIT LOCATION
 ENGI.              BAURT:   RECORDING ENGINEER
 CLNT.            A2DTECH:   CLIENT CODE
 ORIG. 1" 2" 2.5", 5" PRINT:   ORIGIN OF DATA
 UWI .       490251101800:   UNIQUE WELL ID
 DICO. A2D Technologies, Inc.:   DIGITIZING COMPANY
 R2  . HEADER NOT CLEARLY VISIBLE:   REMARKS 2
~OTHER INFORMATION
~A   DEPT       GRR       ILD        ILM       CALS        GRS         AC   
# ...
 3655.0000  -999.2500  -999.2500  -999.2500     9.4848   138.2732   101.3801
 3655.5000  -999.2500  -999.2500  -999.2500     9.4697   132.5244   102.4351
 3656.0000  -999.2500  -999.2500  -999.2500     9.4697   127.9877   103.4902
 3656.5000  -999.2500  -999.2500  -999.2500     9.4848   132.5441    99.6431
 3657.0000  -999.2500  -999.2500  -999.2500     9.5000   135.8862    94.7404
 3657.5000  -999.2500  -999.2500  -999.2500     9.4697   137.1071    87.0474
 3658.0000  -999.2500  -999.2500  -999.2500     9.3333   133.4795    76.7149
 3658.5000  -999.2500  -999.2500  -999.2500     9.1364   111.0640    71.6613
 3659.0000  -999.2500  -999.2500  -999.2500     8.8485    83.1940    71.2017
 3659.5000  -999.2500  -999.2500  -999.2500     8.7576    53.5600    72.0669
 3660.0000  -999.2500  -999.2500  -999.2500     8.7273    38.0622    74.2231
 3660.5000  -999.2500  -999.2500  -999.2500     8.7273    36.5558    75.1273
 3661.0000  -999.2500  -999.2500  -999.2500     8.7727    35.0494    75.6547
 3661.5000  -999.2500  -999.2500  -999.2500     8.8030    28.9976    75.5784
 3662.0000  -999.2500  -999.2500  -999.2500     8.8030    25.6731    75.1251
 3662.5000  -999.2500  -999.2500  -999.2500     8.8030    25.3788    74.4457
 3663.0000  -999.2500  -999.2500  -999.2500     8.8182    25.9939    74.1341
 3663.5000  -999.2500  -999.2500  -999.2500     8.8333    27.2167    73.3128
 3664.0000  -999.2500  -999.2500  -999.2500     8.8485    29.0437    71.9546
 3664.5000  -999.2500  -999.2500  -999.2500     8.8788    31.7797    71.5768
 3665.0000  -999.2500  -999.2500  -999.2500     8.9242    40.8794    73.9140
 3665.5000  -999.2500  -999.2500  -999.2500     8.9888    54.8275    77.3069
 3666.0000  -999.2500  -999.2500  -999.2500     9.1515    74.6131    85.6018
 3666.5000  -999.2500  -999.2500  -999.2500     9.3030    89.9988    93.4492
 3667.0000  -999.2500  -999.2500  -999.2500     9.5000   102.7348    97.5157
 3667.5000  -999.2500  -999.2500  -999.2500     9.5909   113.9557    96.3083
 3668.0000  -999.2500  -999.2500  -999.2500     9.5909   116.3887    89.5957
 3668.5000  -999.2500  -999.2500  -999.2500     9.5758   111.8520    84.5422
 3669.0000  -999.2500  -999.2500  -999.2500     9.5758   107.3154    81.3740
 3669.5000  -999.2500  -999.2500  -999.2500     9.5606   101.1520    79.1863
 3670.0000  -999.2500  -999.2500  -999.2500     9.5606    91.5775    77.5062
 3670.5000  -999.2500  -999.2500  -999.2500     9.5455    82.1923    76.3189
 3671.0000  -999.2500  -999.2500  -999.2500     9.5132    80.6838    75.4886
 3671.5000  -999.2500  -999.2500  -999.2500     9.4848    79.4826    75.1108
 3672.0000  -999.2500  -999.2500  -999.2500     9.4545    77.3702    74.8838
 3672.5000  -999.2500  -999.2500  -999.2500     9.4545    71.9244    75.7126
 3673.0000  -999.2500  -999.2500  -999.2500     9.4394    71.6301    76.6169
 3673.5000  -999.2500  -999.2500  -999.2500     9.4394    79.5199    76.9178
 3674.0000  -999.2500  -999.2500  -999.2500     9.4394    96.1953    76.9925
 3674.5000  -999.2500  -999.2500  -999.2500     9.4545   117.1132    79.7065
 3675.0000  -999.2500  -999.2500  -999.2500     9.5000   126.2129    91.4705
 3675.5000  -999.2500  -999.2500  -999.2500     9.6970   129.5550    99.0112
 3676.0000  -999.2500  -999.2500  -999.2500    10.1818   128.3516   106.6274
 3676.5000  -999.2500  -999.2500  -999.2500    10.5342   122.6785   113.1124
 3677.0000  -999.2500  -999.2500  -999.2500    10.7801   112.3107   115.0834
 3677.5000  -999.2500  -999.2500  -999.2500    11.0909    95.9559   114.6944
 3678.0000  -999.2500  -999.2500  -999.2500    11.4091    92.3283   112.2050
 3678.5000  -999.2500  -999.2500  -999.2500    11.4697    94.1552   109.1877
 3679.0000  -999.2500  -999.2500  -999.2500    11.5325    95.3761   106.0195
 3679.5000  -999.2500  -999.2500  -999.2500    11.6970    94.1728   101.8710
 3680.0000  -999.2500  -999.2500  -999.2500    11.5606    90.3431    95.6108
 3680.5000  -999.2500  -999.2500  -999.2500    11.1667    87.5236    89.8264
 3681.0000  -999.2500  -999.2500  -999.2500    10.1970    90.5649    83.9953
 3681.5000  -999.2500  -999.2500  -999.2500     9.9545    92.6949    84.2963
 3682.0000  -999.2500  -999.2500  -999.2500    10.0589    91.1885    88.1417
 3682.5000  -999.2500  -999.2500  -999.2500    11.1364    88.1670    95.3808
 3683.0000  -999.2500  -999.2500  -999.2500    11.6818    87.2666   100.9607
 3683.5000  -999.2500  -999.2500  -999.2500    12.2731    88.8881   102.9208
 3684.0000  -999.2500  -999.2500  -999.2500    12.2273    92.7409   102.8264
 3684.5000  -999.2500  -999.2500  -999.2500    11.8030    95.4770   101.5617
 3685.0000  -999.2500  -999.2500  -999.2500    11.6818    98.8191    99.9018
 3685.5000  -999.2500  -999.2500  -999.2500    11.5303   100.0399    96.9599
 3686.0000  -999.2500  -999.2500  -999.2500    10.8939   100.3517    91.6048
 3686.5000  -999.2500  -999.2500  -999.2500    10.4663    99.7423    89.1153
 3687.0000  -999.2500  -999.2500  -999.2500    10.1212    99.4602    92.2820
 3687.5000  -999.2500  -999.2500  -999.2500    10.2273   100.0772    98.4397
 3688.0000  -999.2500  -999.2500  -999.2500    10.5000    98.2678   103.9697
 3688.5000  -999.2500  -999.2500  -999.2500    10.9091    94.3372   102.0082
 3689.0000  -999.2500  -999.2500  -999.2500    10.8785    94.9520    99.2171
 3689.5000  -999.2500  -999.2500  -999.2500    10.5000    99.2032    95.4456
 3690.0000  -999.2500  -999.2500  -999.2500    10.3182   101.3333    91.2217
 3690.5000  -999.2500  -999.2500  -999.2500    10.3485   101.3442    91.1370
 3691.0000  -999.2500  -999.2500  -999.2500    10.5606   100.7469    94.8465
 3691.5000  -999.2500  -999.2500  -999.2500    10.8030    97.7253   100.4953
 3692.0000  -999.2500  -999.2500  -999.2500    11.0691    99.8553   104.4162
 3692.5000  -999.2500  -999.2500  -999.2500    11.6212   101.9853   105.6975
 3693.0000  -999.2500  -999.2500  -999.2500    11.7273   102.0105   105.2443
 3693.5000  -999.2500  -999.2500  -999.2500    11.7424    97.1262   103.3582
 3694.0000  -999.2500  -999.2500  -999.2500    11.6212    97.4683   100.7934
 3694.5000  -999.2500  -999.2500  -999.2500    11.3180    97.7801    98.4966
 3695.0000  -999.2500  -999.2500  -999.2500    10.9697    96.5768    97.0964
 3695.5000  -999.2500  -999.2500  -999.2500    11.0303    90.5249    96.9898
 3696.0000  -999.2500  -999.2500  -999.2500    11.2727    88.1095    97.3966
 3696.5000  -999.2500  -999.2500  -999.2500    11.6061    84.4818    99.8846
 3697.0000  -999.2500  -999.2500  -999.2500    11.8636    89.7894    99.8084
 3697.5000  -999.2500  -999.2500  -999.2500    12.3513    93.5925    99.8039
 3698.0000  -999.2500  -999.2500  -999.2500    12.9242    96.9346   101.3223
 3698.5000  -999.2500  -999.2500  -999.2500    13.2121    98.7616   101.0127
 3699.0000  -999.2500  -999.2500  -999.2500    13.3939    97.5582   100.7859
 3699.5000  -999.2500  -999.2500  -999.2500    13.4091    92.1124   101.6145
 3700.0000  -999.2500  -999.2500  -999.2500    12.6364    94.8485   104.2967
 3700.5000  -999.2500  -999.2500  -999.2500    11.6970    95.7576   107.6471
 3701.0000  -999.2500  -999.2500  -999.2500    10.8030    89.3939   111.0084
 3701.5000  -999.2500  -999.2500  -999.2500    10.8939    82.7273   114.1327
 3702.0000  -999.2500  -999.2500  -999.2500    11.6611    83.5025   109.9095
 3702.5000  -999.2500  -999.2500  -999.2500    12.1061    93.3333   103.2730
 3703.0000  -999.2500  -999.2500  -999.2500    12.1364    99.0909   101.3122
 3703.5000  -999.2500  -999.2500  -999.2500    12.0000   106.3636   100.5581
 3704.0000  -999.2500  -999.2500  -999.2500    11.5758   110.6061    98.8528
 3704.5000  -999.2500  -999.2500  -999.2500    11.1061   108.4736    93.0920
 3705.0000  -999.2500  -999.2500  -999.2500    10.5746   103.3333    87.5867
 3705.5000  -999.2500  -999.2500  -999.2500    10.0000    96.9697    85.3243
 3706.0000  -999.2500  -999.2500  -999.2500     9.7727    95.1515    85.3997
 3706.5000  -999.2500  -999.2500  -999.2500     9.7424    98.4848    85.6259
