~VERSION INFORMATION
 VERS.                2.0:   CWLS LOG ASCII STANDARD - VERSION 2.0
 WRAP.                 NO:   ONE LINE PER DEPTH STEP
~WELL INFORMATION
#MNEM.UNIT      DATA TYPE    INFORMATION
#----------   ------------   ------------------------------
 STRT.F           34.0000:   START DEPTH
 STOP.F          662.0000:   STOP DEPTH
 STEP.F            0.5000:   STEP LENGTH
 NULL.          -999.2500:   NO VALUE
 COMP. FENIX & SCISSON INC:   COMPANY
 WELL.     55 S 34 #34-34:   WELL
 FLD .          N.P.R. #3:   FIELD
 LOC .      S34 T39N R78W:   LOCATION
 CNTY.            NATRONA:   COUNTY
 STAT.            WYOMING:   STATE
 CTRY. UNITED STATES OF AMERICA:   COUNTRY
 SRVC.       Schlumberger:   SERVICE COMPANY
 DATE.        15-MAR-1977:   LOGDATE
 API .       490251030500:   API NUMBER
~CURVE INFORMATION
#MNEM.UNIT       API CODE    CURVE DESCRIPTION
#----------   ------------   ------------------------------
 DEPT.F                  :   
 GRD .GAPI   45 310 01 00:   GAMMA RAY FROM DENSITY LOG
 CORR.G/C3   45 356 01 00:   DENSITY CORRECTION
 RHOB.G/C3   45 350 01 00:   BULK DENSITY
 DPOR.DEC    45 890 12 00:   DENSITY POROSITY SANDSTONE
 SPR .MV     07 010 01 00:   SPONTANEOUS POTENTIAL
 LL8 .OHMM   07 220 08 00:   LATEROLOG-8 RES.
 ILD .OHMM   07 120 46 00:   INDUCTION LOG DEEP
 ILM .OHMM   07 120 44 00:   INDUCTION LOG MEDIUM
 CALD.IN     45 280 60 00:   CALIPER
~PARAMETER INFORMATION
#MNEM.UNIT          VALUE    DESCRIPTION
#----------   ------------   ------------------------------
 PD  .                 GL:   PERMANENT DATUM
 EPD .F              5087:   ELEVATION PERMANENT DATUM
 LMF .                 GL:   LOG MEASURED FROM
 DMF .                 GL:   DRILLING MEASURED FROM
 EKB .F              5091:   KELLING BUSHING
 EGL .F              5087:   GROUND LEVEL
 DATE.            3-15-77:   RUN DATE
 RUN .                  1:   RUN NUMBER
 DD  .F               670:   DEPTH DRILLER
 DL  .F               663:   DEPTH LOGGER
 BLI .F               657:   BOTTOM LOG INTERVAL
 TLI .F                40:   TOP LOG INTERVAL
 CS  .IN            8.625:   CASING SIZE
 CBD .F                40:   CASING BOTTOM DRILLER
 CBL .F                40:   CASING BOTTOM LOGGER
 BS  .IN            7.875:   BIT SIZE
 BSD .F               670:   BIT SIZE AT DEPTH
 DFT .                KCL:   DRILLING FLUID TYPE
 DFD .                8.6:   DRILLING FLUID DENSITY
 DFV .                 31:   DRILLING FLUID VISCOSITY
 DFPH.                  8:   DRILLING FLUID PH
 DFL .                8.8:   DRILLING FLUID LOSS
 MSS .                PIT:   MUD SAMPLE SOURCE
 RMS .OHMM           .246:   RESISTIVITY MUD SAMPLE
 MST .F                76:   MUD SAMPLE TEMPERATURE
 RMF .OHMM           .243:   RESISTIVITY MUD FILTRATE SAMPLE
 MFST.F                76:   MUD FILTRATE SAMPLE TEMPERATURE
 MFSS.                  M:   MUD FILTRATE SAMPLE SOURCE
 RMB .OHMM           .267:   RESISTIVITY MUD AT BHT
 BHT .F                70:   BOTTOM HOLE TEMPERATURE
 TCS .HRS            1800:   TIME CURCULATED STOPPED
 TLAB.HRS            2200:   TIME LOGGER AT BOTTOM
 MRT .F                70:   MAXIMUM RECORDED TEMPERATURE
 LUN .               5642:   LOGGING UNIT NUMBER
 LUL .               CSPR:   LOGGING UNIT LOCATION
 ENGI.             MARTIN:   RECORDING ENGINEER
 WITN.              BURKE:   WITNESSED BY
 CLNT.            A2DTECH:   CLIENT CODE
 ORIG. 2", 2.5", 5" PRINT:   ORIGIN OF DATA
 UWI .       490251030500:   UNIQUE WELL ID
 DICO. A2D Technologies, Inc.:   DIGITIZING COMPANY
~OTHER INFORMATION
~A   DEPT       GRD      CORR       RHOB       DPOR        SPR        LL8        ILD        ILM       CALD   
# ...
  289.5000   110.8282     0.0203     2.4847     0.0972   -56.5002    10.1953     8.5448     8.9282     8.2763
  290.0000   112.2545     0.0126     2.4720     0.1012   -56.5003     9.6468     8.4473     8.8263     8.2763
  290.5000   113.9136     0.0046     2.4592     0.1118   -56.3299     9.8000     8.3509     8.7256     8.2763
  291.0000   115.8094    -0.0012     2.4468     0.1152   -56.0066     9.9623     8.2556     8.6260     8.2763
  291.5000   117.7282    -0.0051     2.4485     0.1135   -55.7037    10.0980     8.1719     8.5574     8.2763
  292.0000   119.6324     0.0018     2.4688     0.1044   -55.6569     9.8245     8.3710     8.8097     8.2763
  292.5000   120.6146     0.0111     2.4853     0.0971   -55.6182     9.9382     8.5924     9.0428     8.2763
  293.0000   117.9118     0.0203     2.4934     0.0910   -55.5785    10.5220     8.8198     9.2830     8.2763
  293.5000   115.7226     0.0291     2.4861     0.0934   -55.5386    11.0772     9.0531     9.5262     8.2763
  294.0000   113.7304    -0.0056     2.4795     0.0978   -55.4987    10.8879     9.2122     9.6498     8.2763
  294.5000   111.9230     0.0075     2.4844     0.0982   -55.4589    10.6288     9.1292     9.5414     8.2763
  295.0000   110.8150     0.0189     2.4931     0.0941   -55.4190    10.3845     9.0409     9.4498     8.2763
  295.5000   114.0350     0.0093     2.4941     0.0910   -55.3791    10.5063     8.9539     9.3589     8.2763
  296.0000   115.4453     0.0197     2.4926     0.0882   -55.3392    10.5782     8.8678     9.2691     8.2763
  296.5000   116.8529     0.0100     2.4912     0.0924   -55.2994    10.2476     8.7830     9.1802     8.2763
  297.0000   117.0121     0.0213     2.4908     0.0966   -55.2595    10.0035     8.7156     9.1277     8.2763
  297.5000   116.2216     0.0346     2.4924     0.0891   -55.2196     9.8263     8.7568     9.1794     8.2763
  298.0000   114.5168     0.0128     2.4898     0.1099   -55.1799     9.9733     8.8053     9.2303     8.2763
  298.5000   112.5914     0.0103     2.4801     0.1016   -55.1412    10.1920     8.8541     9.2814     8.2763
  299.0000   110.6787     0.0072     2.4708     0.1045   -55.0946    10.4155     8.9032     9.3328     8.2763
  299.5000   109.6642     0.0043     2.4621     0.1078   -54.8587    10.6439     8.9525     9.3845     8.2763
  300.0000   112.8329     0.0159     2.4719     0.0988   -54.6149    10.7751     9.0002     9.4365     8.2763
  300.5000   115.9462     0.0370     2.4835     0.0946   -54.3729    10.3480     9.0440     9.5540     8.2763
  301.0000   116.0511     0.0257     2.4818     0.0970   -54.1491    10.5636     9.2239     9.6846     8.2763
  301.5000   111.3150     0.0128     2.4811     0.0971   -53.4441    10.6762     9.3472     9.8124     8.2764
  302.0000   107.8064     0.0182     2.4836     0.0945   -52.6919    10.3854     9.4722     9.9436     8.2766
  302.5000   104.3088     0.0286     2.4778     0.0985   -51.9393    10.0975     9.5988    10.0765     8.3025
  303.0000   100.8289     0.0445     2.4679     0.1049   -51.1911    10.0957     9.7272    10.2112     8.3559
  303.5000    99.6175     0.0091     2.4559     0.1093   -50.4515    11.2582     9.8572    10.3477     8.4001
  304.0000    99.8949     0.0130     2.4545     0.1110   -50.3281    12.4874     9.9890    10.4860     8.4025
  304.5000   100.2530     0.0188     2.4625     0.1062   -50.8227    12.0773    10.1018    10.5782     8.3530
  305.0000   101.8127     0.0152     2.4587     0.1122   -51.0606    11.6359    10.1018    10.4778     8.3151
  305.5000   103.3477     0.0104     2.4509     0.1166   -51.2848    11.1755     9.9618    10.4847     8.3161
  306.0000   103.0431     0.0144     2.4470     0.1152   -51.5084    11.1765     9.8636    10.3098     8.3161
  306.5000   101.5936     0.0238     2.4534     0.1143   -51.7326    11.3176     9.7665    10.2083     8.3161
  307.0000   100.9794     0.0318     2.4531     0.1145   -51.9518    11.3878     9.6703    10.1077     8.3161
  307.5000   102.3275     0.0253     2.4523     0.1138   -52.1725    10.9594     9.5750    10.0082     8.3161
  308.0000   104.3738     0.0361     2.4522     0.1098   -52.3882    10.5928     9.4807     9.9095     8.3161
  308.5000   106.2384     0.0382     2.4305     0.1180   -52.4771    10.2897     9.3873     9.8119     8.3161
  309.0000   106.6098     0.0111     2.4111     0.1279   -52.4299    10.1953     9.2955     9.7153     8.3161
  309.5000   105.6645     0.0153     2.4192     0.1266   -52.3831    10.2571     9.2085     9.5583     8.3161
  310.0000   101.8151     0.0153     2.4268     0.1239   -52.3357    10.4770     9.1277     9.5787     8.3161
  310.5000    97.9894     0.0052     2.4326     0.1223   -52.2823    10.7017     9.1768     9.6167     8.3161
  311.0000    99.2662     0.0103     2.4385     0.1204   -52.2013    10.9311     9.2132     9.6549     8.3161
  311.5000   100.8436     0.0231     2.4442     0.1186   -52.1221    11.1798     9.2497     9.6932     8.3161
  312.0000   102.4182     0.0286     2.4432     0.1170   -52.0427    10.7383     9.2863     9.7317     8.3161
  312.5000   103.6679     0.0092     2.4339     0.1189   -51.9634    10.3150     9.2977     9.7496     8.3161
  313.0000   102.3294     0.0108     2.4432     0.1202   -51.8840     9.9172     9.3857     9.8466     8.3161
  313.5000    99.9498     0.0141     2.4588     0.1119   -51.8047     9.8263     9.4791     9.9445     8.3161
  314.0000    97.5837     0.0216     2.4746     0.1019   -51.7250    10.5197     9.5734    10.0435     8.3161
  314.5000    95.4419     0.0282     2.4843     0.0938   -51.7236    11.5645     9.6687    10.1434     8.3161
  315.0000    94.8386     0.0227     2.4612     0.1056   -51.7704    12.2659     9.7649    10.2443     8.3161
  315.5000    94.1864     0.0139     2.4344     0.1176   -51.8176    12.2008     9.8620    10.3462     8.3161
  316.0000    93.5360     0.0050     2.4168     0.1203   -51.8647    12.1247     9.9172    10.3868     8.3161
  316.5000    94.1171     0.0043     2.4254     0.1243   -51.9006    12.0286     9.7937    10.2332     8.3161
  317.0000    97.4745     0.0159     2.4369     0.1207   -51.9004    11.3114     9.6790    10.1139     8.3161
  317.5000   100.8268     0.0300     2.4453     0.1142   -51.8978    10.6737     9.5656     9.9938     8.3161
  318.0000   101.7384     0.0125     2.4467     0.1148   -52.0669    10.3543     9.4705     9.8646     8.3161
  318.5000   103.7885     0.0192     2.4472     0.1163   -52.3102    10.2643     9.1432     9.5097     8.3161
  319.0000   105.1114     0.0182     2.4460     0.1183   -52.5571    10.1750     8.8166     9.1700     8.3161
  319.5000   104.8567     0.0054     2.4366     0.1208   -52.8036    10.1018     8.5013     8.8421     8.3161
  320.0000   105.4263     0.0038     2.4272     0.1234   -53.0500     9.5375     8.1972     8.5260     8.3161
  320.5000   106.2307     0.0078     2.4177     0.1255   -53.2967     8.9989     7.9044     8.2214     8.3161
  321.0000   105.9509     0.0120     2.4160     0.1250   -53.5424     8.4817     7.6219     7.9275     8.3161
  321.5000   105.7312     0.0161     2.4367     0.1213   -53.7897     8.3303     7.5213     7.8038     8.3161
  322.0000   106.5805     0.0179     2.4352     0.1154   -53.8181     8.1019     7.4523     7.8038     8.3161
  322.5000   105.7315     0.0166     2.4306     0.1177   -53.6764     8.7309     7.4805     7.8373     8.3161
  323.0000   104.7597     0.0153     2.4347     0.1203   -53.5262     9.2168     7.5129     7.8658     8.3161
  323.5000   105.2320     0.0107     2.4465     0.1177   -53.5784     9.2095     7.5118     7.9524     8.3161
  324.0000   105.7614     0.0050     2.4516     0.1145   -53.6791     9.2826     7.5910     8.0172     8.3161
  324.5000   104.5923     0.0204     2.4386     0.1182   -53.7805     9.3836     7.7234     8.1039     8.3161
  325.0000   102.9472     0.0019     2.4483     0.1186   -53.8814     9.3274     7.8070     8.1916     8.3161
  325.5000   101.7895     0.0146     2.4585     0.1138   -53.9822     9.2674     7.8921     8.2802     8.3161
