~VERSION INFORMATION
 VERS.                2.0:   CWLS LOG ASCII STANDARD - VERSION 2.0
 WRAP.                 NO:   ONE LINE PER DEPTH STEP
~WELL INFORMATION
#MNEM.UNIT      DATA TYPE    INFORMATION
#----------   ------------   ------------------------------
 STRT.F           24.0000:   START DEPTH
 STOP.F          487.5000:   STOP DEPTH
 STEP.F            0.5000:   STEP LENGTH
 NULL.          -999.2500:   NO VALUE
 COMP. FENIX & SCISSON INC:   COMPANY
 WELL.       NPR #35-SX-3:   WELL
 FLD .        TEAPOT DOME:   FIELD
 LOC .       S3 T38N R78W:   LOCATION
 CNTY.            NATRONA:   COUNTY
 STAT.            WYOMING:   STATE
 CTRY. UNITED STATES OF AMERICA:   COUNTRY
 SRVC.       Schlumberger:   SERVICE COMPANY
 DATE.        26-MAR-1977:   LOGDATE
 API .       490251030700:   API NUMBER
~CURVE INFORMATION
#MNEM.UNIT       API CODE    CURVE DESCRIPTION
#----------   ------------   ------------------------------
 DEPT.F                  :   
 SPR .MV     07 010 01 00:   SPONTANEOUS POTENTIAL
 LL8 .OHMM   07 220 08 00:   LATEROLOG-8 RES.
 ILD .OHMM   07 120 46 00:   INDUCTION LOG DEEP
 ILM .OHMM   07 120 44 00:   INDUCTION LOG MEDIUM
 CALD.IN     45 280 60 00:   CALIPER FROM DENSITY LOG
 RHOB.G/C3   45 350 01 00:   BULK DENSITY
 DPOR.DEC    45 890 12 00:   DENSITY POROSITY SANDSTONE
 CORR.G/C3   45 356 01 00:   DENSITY CORRECTION
 GRD .GAPI   45 310 01 00:   GAMMA RAY FROM DENSITY LOG
~PARAMETER INFORMATION
#MNEM.UNIT          VALUE    DESCRIPTION
#----------   ------------   ------------------------------
 PD  .                 GL:   PERMANENT DATUM
 EPD .F          EST 5200:   ELEVATION PERMANENT DATUM
 LMF .                 GL:   LOG MEASURED FROM
 DMF .                 KB:   DRILLING MEASURED FROM
 EKB .F              5205:   KELLING BUSHING
 EGL .F          EST 5200:   GROUND LEVEL
 DATE.            3-26-77:   RUN DATE
 RUN .                  1:   RUN NUMBER
 DD  .F               524:   DEPTH DRILLER
 DL  .F               489:   DEPTH LOGGER
 BLI .F               483:   BOTTOM LOG INTERVAL
 TLI .F                39:   TOP LOG INTERVAL
 CS  .IN            8.625:   CASING SIZE
 CBD .F                40:   CASING BOTTOM DRILLER
 CBL .F                39:   CASING BOTTOM LOGGER
 BS  .IN            7.875:   BIT SIZE
 BSD .F               524:   BIT SIZE AT DEPTH
 DFT .                KCL:   DRILLING FLUID TYPE
 DFD .                8.8:   DRILLING FLUID DENSITY
 DFV .                 31:   DRILLING FLUID VISCOSITY
 DFPH.                  8:   DRILLING FLUID PH
 DFL .                9.1:   DRILLING FLUID LOSS
 MSS .          FLOW LINE:   MUD SAMPLE SOURCE
 RMS .OHMM            .18:   RESISTIVITY MUD SAMPLE
 MST .F                76:   MUD SAMPLE TEMPERATURE
 RMF .OHMM            .15:   RESISTIVITY MUD FILTRATE SAMPLE
 MFST.F                76:   MUD FILTRATE SAMPLE TEMPERATURE
 RMC .OHMM             .1:   RESISTIVITY MUD CAKE
 MCST.F                76:   MUD CAKE SAMPLE TEMPERATURE
 MFSS.                  M:   MUD FILTRATE SAMPLE SOURCE
 MCSS.                  C:   MUD CAKE SAMPLE SOURCE
 RMB .OHMM            .25:   RESISTIVITY MUD AT BHT
 BHT .F                55:   BOTTOM HOLE TEMPERATURE
 TCS .HRS               6:   TIME CURCULATED STOPPED
 MRT .F            EST 55:   MAXIMUM RECORDED TEMPERATURE
 LUN .               5642:   LOGGING UNIT NUMBER
 LUL .               CSPR:   LOGGING UNIT LOCATION
 ENGI.     LOHBECK/MARTIN:   RECORDING ENGINEER
 WITN.         STUEBINGER:   WITNESSED BY
 CLNT.            A2DTECH:   CLIENT CODE
 ORIG.       2", 5" PRINT:   ORIGIN OF DATA
 UWI .       490251030700:   UNIQUE WELL ID
 DICO. A2D Technologies, Inc.:   DIGITIZING COMPANY
~OTHER INFORMATION
~A   DEPT      SPR        LL8        ILD        ILM       CALD       RHOB       DPOR       CORR        GRD   
# ...
  206.5000   -61.1339     9.2430     5.7019     6.1329     8.2750     2.4488     0.1174     0.0215   108.6700
  207.0000   -60.6676     9.1715     5.9027     6.3175     8.2834     2.4541     0.1078     0.0367   108.1881
  207.5000   -60.3249     9.0663     6.2184     6.7257     8.2922     2.4535     0.1150     0.0121   109.1204
  208.0000   -60.3125     8.9901     6.6743     7.1604     8.3135     2.4527     0.1150     0.0304   110.0896
  208.5000   -60.2932     9.6854     7.1636     7.4783     8.3349     2.4571     0.1144     0.0185   112.5061
  209.0000   -60.2735    10.2274     7.4031     7.7660     8.3473     2.4550     0.1158     0.0245   114.8080
  209.5000   -60.2542     9.7850     7.5063     8.0459     8.3264     2.4596     0.1115     0.0317   117.0215
  210.0000   -60.2347     9.3322     7.6110     8.1215     8.3064     2.4718     0.1080     0.0382   119.1497
  210.5000   -60.2152     9.6796     7.7170     8.2102     8.2893     2.4696     0.1133     0.0290   116.7060
  211.0000   -60.1957    10.2440     7.8447     8.2998     8.2801     2.4664     0.1234     0.0191   114.1652
  211.5000   -60.1767    10.3385     7.9852     8.3904     8.2717     2.4801     0.1016     0.0434   113.8961
  212.0000   -60.1589    10.3549     8.1206     8.4820     8.2772     2.4829     0.0986     0.0486   113.5499
  212.5000   -60.1289    10.3714     8.1612     8.5746     8.2833     2.4665     0.1158     0.0282   112.6153
  213.0000   -59.8846    10.3879     8.1999     8.6639     8.2895     2.4517     0.1225     0.0117   112.4026
  213.5000   -59.6483    10.4045     8.2388     8.7339     8.2956     2.4670     0.1184     0.0236   113.9868
  214.0000   -59.4047    10.4210     8.2779     8.8013     8.3017     2.4664     0.1150     0.0199   116.5846
  214.5000   -59.4328    10.8374     8.3171     8.8692     8.3079     2.4614     0.1183     0.0146   118.5417
  215.0000   -59.5541    11.2239     8.3566     8.9376     8.3140     2.4630     0.1201     0.0162   118.5410
  215.5000   -59.6782    10.9927     8.3967     9.0067     8.3201     2.4652     0.1152     0.0199   116.3131
  216.0000   -59.7243    10.8164     8.4272     9.0738     8.3262     2.4609     0.1130     0.0238   113.9435
  216.5000   -59.6595    11.0516     8.4944     9.1440     8.3312     2.4549     0.1156     0.0221   112.0221
  217.0000   -59.5943    11.2835     8.5598     9.2122     8.3294     2.4484     0.1178     0.0189   111.0389
  217.5000   -59.5621    11.5202     8.6260     9.2810     8.3277     2.4588     0.1107     0.0237   110.5193
  218.0000   -60.0162    11.7550     8.6930     9.3503     8.3260     2.4733     0.1062     0.0281   110.2007
  218.5000   -60.4599    11.6775     8.7437     9.4201     8.3243     2.4879     0.1195     0.0143   110.5325
  219.0000   -60.9166    11.6026     8.6645     9.5030     8.3226     2.4998     0.0915     0.0236   112.7891
  219.5000   -61.0762    11.5281     8.6000     9.4485     8.3209     2.4972     0.0973     0.0207   117.2500
  220.0000   -61.2250    11.4541     8.5361     9.3617     8.3192     2.4763     0.1046     0.0178   120.4136
  220.5000   -61.3298    11.3806     8.4726     9.2757     8.3175     2.4687     0.1102     0.0246   120.8444
  221.0000   -61.3089    11.3076     8.4096     9.1905     8.3158     2.4718     0.1074     0.0256   119.4638
  221.5000   -61.2912    11.2350     8.3471     9.1060     8.3141     2.4734     0.1078     0.0217   117.1490
  222.0000   -61.2735    11.1629     8.2850     9.0223     8.3124     2.4733     0.1086     0.0304   115.2501
  222.5000   -61.2557    11.0428     8.2234     8.9408     8.3115     2.4749     0.0992     0.0281   116.4253
  223.0000   -61.2379    10.8557     8.1622     8.8218     8.3115     2.5064     0.0882     0.0655   118.0289
  223.5000   -61.2202    10.6718     8.1015     8.7044     8.3115     2.5231     0.0772     0.0612   118.9242
  224.0000   -61.2024    10.4909     8.0413     8.5886     8.3115     2.5262     0.0742     0.0702   117.7296
  224.5000   -61.1847    10.3121     7.9815     8.4743     8.3115     2.5043     0.0954     0.0523   116.9120
  225.0000   -61.1665    10.1369     7.9221     8.3615     8.3115     2.4578     0.1121     0.0324   116.6536
  225.5000   -61.1473     9.5123     7.6973     8.1773     8.3115     2.4546     0.1229     0.0434   114.5036
  226.0000   -61.1413     8.9266     7.3728     7.7151     8.3115     2.4496     0.1234     0.0506   112.4394
  226.5000   -61.3451     8.3763     7.0620     7.2793     8.3116     2.4335     0.1338     0.0381   110.9271
  227.0000   -61.5519     7.8598     6.6065     6.8679     8.3153     2.4171     0.1443     0.0287   111.0071
  227.5000   -62.0929     7.3751     6.0876     6.4795     8.3194     2.4028     0.1532     0.0374   113.0566
  228.0000   -62.6130     6.9071     5.6090     6.1014     8.3234     2.3778     0.1622     0.0411   114.9829
  228.5000   -63.1284     6.4156     5.1614     5.5655     8.3275     2.3326     0.1933     0.0283   116.4745
  229.0000   -63.6437     5.8801     4.4239     4.8919     8.3316     2.2922     0.2216     0.0202   116.5189
  229.5000   -64.1706     5.0674     3.7837     4.1893     8.3357     2.2504     0.2421     0.0226   114.8664
  230.0000   -64.5457     4.3010     3.2361     3.5877     8.3398     2.2058     0.2627     0.0181   112.5794
  230.5000   -64.8773     3.6395     2.8644     3.0724     8.3439     2.1974     0.2789     0.0345   110.2598
  231.0000   -65.0757     3.0798     2.6772     2.6312     8.3479     2.2067     0.2717     0.0309   109.8786
  231.5000   -64.8863     2.4863     2.6706     2.4635     8.3504     2.2625     0.2428     0.0284   115.4457
  232.0000   -64.2907     2.6653     2.6637     2.4635     8.3455     2.3110     0.2098     0.0123   119.9253
  232.5000   -63.7191     3.5838     2.6535     2.6005     8.3407     2.3469     0.1842     0.0228   121.5648
  233.0000   -63.2535     5.1620     2.7191     2.8629     8.3359     2.3779     0.1641     0.0312   120.7352
  233.5000   -63.0425     4.5333     2.9818     3.1621     8.3312     2.3928     0.1467     0.0136   119.1090
  234.0000   -62.8288     3.8044     3.2808     3.5156     8.3264     2.4422     0.1297     0.0258   117.6816
  234.5000   -62.4741     5.8771     3.7775     4.0375     8.3217     2.4695     0.1174     0.0201   118.4217
  235.0000   -61.9777     8.6051     4.3718     4.6369     8.3169     2.4499     0.1238     0.0113   120.4039
  235.5000   -61.4719     8.7441     4.8970     5.3565     8.3121     2.4383     0.1298     0.0060   123.4021
  236.0000   -61.1030     8.6754     5.3457     5.7037     8.3074     2.4385     0.1322     0.0064   125.2304
  236.5000   -60.9347     8.6042     5.8355     6.0902     8.3026     2.4384     0.1293     0.0104   123.9666
  237.0000   -60.9346     8.5336     6.3702     6.5029     8.2978     2.4403     0.1294     0.0143   123.0951
  237.5000   -60.9340     8.4636     6.6525     6.8870     8.2931     2.4557     0.1231     0.0182   122.6160
  238.0000   -60.9343     8.3941     6.7011     6.9663     8.2883     2.4666     0.1150     0.0221   123.2085
  238.5000   -60.9344     8.3491     6.7502     7.0421     8.2836     2.4624     0.1170     0.0246   125.6806
  239.0000   -60.9344     8.6107     6.8122     7.1199     8.2788     2.4425     0.1244     0.0157   126.9059
  239.5000   -60.9343     8.8456     6.6348     7.1996     8.2740     2.4365     0.1330     0.0064   126.8885
  240.0000   -60.9344     8.9455     6.4035     7.2585     8.2727     2.4318     0.1306     0.0071   128.2455
  240.5000   -60.9343     9.0477     6.1803     7.1458     8.2742     2.4204     0.1390     0.0246   130.7765
  241.0000   -60.9301     9.4749     5.9646     6.8859     8.2758     2.4089     0.1479     0.0371   132.0935
  241.5000   -61.1148     9.6804     5.7566     6.3549     8.2774     2.4088     0.1518     0.0515   132.0528
  242.0000   -61.3699     7.2682     5.5562     5.8639     8.2789     2.4100     0.1467     0.0366   130.0864
  242.5000   -61.6269     5.2583     5.3630     5.5207     8.2805     2.4176     0.1437     0.0244   125.7785
