~VERSION INFORMATION
 VERS.                2.0:   CWLS LOG ASCII STANDARD - VERSION 2.0
 WRAP.                 NO:   ONE LINE PER DEPTH STEP
~WELL INFORMATION
#MNEM.UNIT      DATA TYPE    INFORMATION
#----------   ------------   ------------------------------
 STRT.F            0.0000:   START DEPTH
 STOP.F         1340.0000:   STOP DEPTH
 STEP.F            0.5000:   STEP LENGTH
 NULL.          -999.2500:   NO VALUE
 COMP. U S NAVY-INTEX OIL:   COMPANY
 WELL. NAVAL PETROLEUM RESERVE 3 S #81-14:   WELL
 FLD .             TEAPOT:   FIELD
 LOC .      S14 T38N R78W:   LOCATION
 CNTY.            NATRONA:   COUNTY
 STAT.            WYOMING:   STATE
 CTRY. UNITED STATES OF AMERICA:   COUNTRY
 SRVC.       Schlumberger:   SERVICE COMPANY
 DATE.        20-AUG-1966:   LOGDATE
 API .       490250971600:   API NUMBER
~CURVE INFORMATION
#MNEM.UNIT       API CODE    CURVE DESCRIPTION
#----------   ------------   ------------------------------
 DEPT.F                  :   
 SPR .MV     07 010 01 00:   SPONTANEOUS POTENTIAL
 CILD.MMHO   07 110 46 00:   CONDUCTIVITY INDUCTION LOG DEEP
 ILD .OHMM   07 120 46 00:   INDUCTION LOG DEEP
 ASN .OHMM   01 041 16 00:   AMPLIFIED SHORT NORMAL 16"
 CALD.IN     45 280 60 00:   CALIPER
 RHOB.G/C3   45 350 01 00:   BULK DENSITY
 DPHI.DEC    45 890 12 00:   DENSITY POROSITY SANDSTONE
 GRD .GAPI   45 310 01 00:   GAMMA RAY FROM DENSITY LOG
 CORR.G/C3   45 356 01 00:   DENSITY CORRECTION
~PARAMETER INFORMATION
#MNEM.UNIT          VALUE    DESCRIPTION
#----------   ------------   ------------------------------
 PD  .                 GL:   PERMANENT DATUM
 EPD .F              5283:   ELEVATION PERMANENT DATUM
 LMF .                 KB:   LOG MEASURED FROM
 DAPD.F                 5:   FEET ABOVE PERMANENT DATUM
 DMF .                 KB:   DRILLING MEASURED FROM
 EKB .F              5288:   KELLING BUSHING
 EGL .F              5283:   GROUND LEVEL
 DATE.            8-20-66:   RUN DATE
 RUN .                  1:   RUN NUMBER
 DD  .F              1340:   DEPTH DRILLER
 DL  .F              1337:   DEPTH LOGGER
 BLI .F              1336:   BOTTOM LOG INTERVAL
 TLI .F                17:   TOP LOG INTERVAL
 CS  .IN            8.625:   CASING SIZE
 CBD .F                15:   CASING BOTTOM DRILLER
 CBL .F                17:   CASING BOTTOM LOGGER
 BS  .IN            7.875:   BIT SIZE
 BSD .F              1340:   BIT SIZE AT DEPTH
 DFT .           GEL-CHEM:   DRILLING FLUID TYPE
 DFD .                9.8:   DRILLING FLUID DENSITY
 DFV .                 70:   DRILLING FLUID VISCOSITY
 DFL .                  8:   DRILLING FLUID LOSS
 MSS .          FLOW LINE:   MUD SAMPLE SOURCE
 RMS .OHMM           1.26:   RESISTIVITY MUD SAMPLE
 MST .F                71:   MUD SAMPLE TEMPERATURE
 RMF .OHMM            .71:   RESISTIVITY MUD FILTRATE SAMPLE
 MFST.F                71:   MUD FILTRATE SAMPLE TEMPERATURE
 MFSS.                  M:   MUD FILTRATE SAMPLE SOURCE
 RMB .OHMM           1.04:   RESISTIVITY MUD AT BHT
 BHT .F                86:   BOTTOM HOLE TEMPERATURE
 TCS .HRS               2:   TIME CURCULATED STOPPED
 MRT .F                86:   MAXIMUM RECORDED TEMPERATURE
 LUN .               3527:   LOGGING UNIT NUMBER
 LUL .               CSPR:   LOGGING UNIT LOCATION
 ENGI.          TOLLEFSON:   RECORDING ENGINEER
 WITN.                MAY:   WITNESSED BY
 CLNT.            A2DTECH:   CLIENT CODE
 ORIG.        2" 5" PRINT:   ORIGIN OF DATA
 UWI .       490250971600:   UNIQUE WELL ID
 DICO. A2D Technologies, Inc.:   DIGITIZING COMPANY
~OTHER INFORMATION
~A    DEPT     SPR       CILD        ILD        ASN         CALD     RHOB       DPHI          GRD     CORR   
# ...
  803.0000   -47.1507   167.4060     5.9413     7.3621     7.9914     2.5111     0.0838   110.6040     0.0383
  803.5000   -47.0892   171.3349     5.8725     7.1941     7.9925     2.5311     0.0695   113.3113     0.0422
  804.0000   -47.0268   175.2639     5.7831     7.0719     7.9936     2.5336     0.0687   114.8432     0.0584
  804.5000   -46.9645   179.1928     5.6929     6.9468     7.9947     2.4995     0.0875   114.7528     0.0765
  805.0000   -46.9022   182.4306     5.6033     6.8217     7.9958     2.4753     0.1007   113.3727     0.0716
  805.5000   -46.8399   183.6055     5.5376     6.7457     7.9969     2.4647     0.1090   112.0199     0.0548
  806.0000   -46.7776   184.7804     5.5183     6.7236     7.9980     2.4551     0.1126   110.7309     0.0421
  806.5000   -46.7153   185.9554     5.4953     6.7005     7.9991     2.4471     0.1133   110.1189     0.0350
  807.0000   -46.6527   187.1257     5.4723     6.7126     8.0002     2.4727     0.1018   109.5359     0.0325
  807.5000   -46.5943   188.4591     5.4493     6.7333     8.0013     2.4939     0.0938   108.7564     0.0295
  808.0000   -46.5928   188.8754     5.4264     6.7544     8.0018     2.5151     0.0754   106.9170     0.0410
  808.5000   -46.5931   189.2889     5.4034     6.7452     8.0011     2.5331     0.0730   105.1819     0.0555
  809.0000   -46.5929   189.7053     5.3803     6.7214     8.0005     2.5189     0.0840   106.3708     0.0710
  809.5000   -46.5898   190.1183     5.3568     6.6743     7.9998     2.4902     0.0947   107.5248     0.0781
  810.0000   -46.7299   189.1943     5.3415     6.6277     7.9992     2.4776     0.1034   106.7698     0.0660
  810.5000   -46.9025   188.2544     5.4237     6.5815     7.9985     2.4901     0.0959   106.8814     0.0536
  811.0000   -46.9998   185.6200     5.5076     6.5731     7.9979     2.5006     0.0914   107.4911     0.0431
  811.5000   -47.0236   182.7121     5.5911     6.6330     7.9973     2.5111     0.0858   106.9627     0.0434
  812.0000   -47.0468   179.8041     5.6745     6.7513     7.9966     2.5178     0.0759   105.2158     0.0489
  812.5000   -47.0697   176.7761     5.7582     6.8691     7.9960     2.5070     0.0873   104.5490     0.0544
  813.0000   -47.0928   173.7126     5.8374     6.9866     7.9953     2.4994     0.0974   105.4329     0.0596
  813.5000   -47.1158   170.6491     5.8565     7.0970     7.9947     2.5035     0.0862   105.9018     0.0655
  814.0000   -47.1390   167.5856     5.8734     7.1542     7.9940     2.5241     0.0769   105.8815     0.0696
  814.5000   -47.1620   164.5221     5.8905     7.2085     7.9934     2.5462     0.0669   106.9037     0.0711
  815.0000   -47.1849   163.1736     5.9071     7.2627     7.9928     2.5495     0.0632   108.2414     0.0732
  815.5000   -47.1764   163.6826     5.9274     7.3084     7.9921     2.5415     0.0674   109.6050     0.0749
  816.0000   -47.1311   164.3250     6.0160     7.3401     7.9915     2.5258     0.0753   108.6952     0.0768
  816.5000   -47.0860   164.9705     5.9824     7.3727     7.9908     2.5130     0.0834   107.1682     0.0813
  817.0000   -47.0406   166.8656     5.9121     7.3278     7.9902     2.5154     0.0834   105.8121     0.0919
  817.5000   -46.9959   169.3026     5.8436     7.2602     7.9895     2.5422     0.0647   105.6907     0.0848
  818.0000   -46.9824   171.7354     5.7755     7.1922     7.9889     2.5327     0.0694   106.6052     0.0670
  818.5000   -46.9681   174.1681     5.7075     7.1242     7.9882     2.5181     0.0760   107.6248     0.0518
  819.0000   -46.9535   176.6047     5.6395     7.0565     7.9876     2.5045     0.0822   105.8510     0.0606
  819.5000   -46.9389   179.0248     5.5713     6.9886     7.9870     2.5780     0.0841   104.2369     0.0836
  820.0000   -46.9243   181.1602     5.5466     6.9515     7.9863     2.5782     0.0868   103.2198     0.0767
  820.5000   -46.9096   181.1377     5.6005     6.9409     7.9857     2.5476     0.0941   102.1952     0.0735
  821.0000   -46.8950   180.1397     5.6549     6.9311     7.9850     2.5203     0.1002   101.3086     0.0681
  821.5000   -46.8804   178.3513     5.7083     6.9219     7.9844     2.5053     0.1034   101.8432     0.0773
  822.0000   -46.8658   174.2156     5.7449     6.9466     7.9837     2.5137     0.1002   101.9939     0.0809
  822.5000   -46.8512   170.4528     5.8832     7.0128     7.9831     2.5373     0.0951   100.7371     0.0659
  823.0000   -46.8366   167.0603     6.0190     7.1180     7.9825     2.5585     0.0902   101.0197     0.0503
  823.5000   -46.8219   163.6677     6.1543     7.3040     7.9819     2.5625     0.0910   104.3555     0.0346
  824.0000   -46.8073   160.2751     6.2937     7.4892     7.9819     2.5545     0.0922   107.7622     0.0400
  824.5000   -46.7941   156.8825     6.4455     7.6283     7.9819     2.5127     0.0889   107.9267     0.0626
  825.0000   -46.7823   153.4899     6.4727     7.7426     7.9819     2.4997     0.0872   106.0197     0.0517
  825.5000   -46.7694   151.5492     6.5041     7.8575     7.9819     2.4997     0.0889   104.1933     0.0559
  826.0000   -46.7564   152.5533     6.5350     7.9707     7.9819     2.5138     0.0877   102.9261     0.0675
  826.5000   -46.7434   153.5966     6.4787     7.9872     7.9819     2.5273     0.0784   104.3901     0.0584
  827.0000   -46.7304   154.5997     6.3267     7.9650     7.9819     2.5404     0.0696   106.9409     0.0522
  827.5000   -46.7174   157.3914     6.1762     7.8748     7.9819     2.5476     0.0595   108.8282     0.0443
  828.0000   -46.7045   162.0529     6.0240     7.7056     7.9819     2.5240     0.0705   107.4728     0.0398
  828.5000   -46.6915   166.7665     5.8750     7.5412     7.9819     2.5066     0.0836   105.0502     0.0477
  829.0000   -46.6785   171.4662     5.6966     7.3765     7.9819     2.4893     0.0944   102.6178     0.0635
  829.5000   -46.6655   176.0812     5.6039     7.2281     7.9819     2.4823     0.1002   102.7276     0.0778
  830.0000   -46.6526   180.3892     5.5043     7.0790     7.9841     2.4908     0.0978   104.6369     0.0852
  830.5000   -46.6396   184.6973     5.4072     6.9330     7.9883     2.4816     0.1034   106.3230     0.0748
  831.0000   -46.6266   185.1297     5.3380     6.8937     7.9925     2.4776     0.0984   107.1366     0.0594
  831.5000   -46.6135   184.6344     5.4011     6.9160     7.9967     2.5019     0.0889   107.5310     0.0435
  832.0000   -46.6002   181.5796     5.5122     6.9659     8.0012     2.5122     0.0854   106.3609     0.0427
  832.5000   -46.5959   178.5248     5.6241     7.0310     7.9951     2.4953     0.0930   106.7906     0.0463
  833.0000   -46.6701   175.4700     5.7359     7.0950     7.9856     2.4865     0.0966   107.5393     0.0490
  833.5000   -46.7441   172.1557     5.8478     7.2060     7.9760     2.5004     0.0930   107.3762     0.0345
  834.0000   -46.7767   170.2150     5.9597     7.3328     7.9665     2.5184     0.0814   106.6146     0.0546
  834.5000   -46.6452   168.0941     6.0705     7.4303     7.9629     2.5383     0.0709   107.9377     0.0684
  835.0000   -46.5154   165.9732     6.1393     7.4688     7.9646     2.5566     0.0610   109.4114     0.0514
  835.5000   -46.3923   163.8523     6.1679     7.5082     7.9664     2.5565     0.0599   111.0109     0.0485
  836.0000   -46.5687   161.7311     6.1980     7.5473     7.9682     2.5415     0.0659   109.0811     0.0578
  836.5000   -46.8225   159.6101     6.2278     7.5865     7.9701     2.5468     0.0633   109.0073     0.0622
  837.0000   -46.9763   157.4808     6.2576     7.6255     7.9719     2.5564     0.0564   110.6351     0.0453
  837.5000   -46.9157   155.8405     6.2874     7.6917     7.9737     2.5280     0.0696   112.3240     0.0519
  838.0000   -46.8588   154.9414     6.3172     7.7656     7.9755     2.4934     0.0827   111.6718     0.0830
  838.5000   -46.8047   154.0423     6.3471     7.8394     7.9774     2.5031     0.0890   112.2011     0.0791
  839.0000   -46.6538   153.1433     6.3769     7.9163     7.9792     2.5177     0.0862   111.3808     0.0723
