~VERSION INFORMATION
 VERS.                2.0:   CWLS LOG ASCII STANDARD - VERSION 2.0
 WRAP.                 NO:   ONE LINE PER DEPTH STEP
~WELL INFORMATION
#MNEM.UNIT      DATA TYPE    INFORMATION
#----------   ------------   ------------------------------
 STRT.F           10.0000:   START DEPTH
 STOP.F          481.0000:   STOP DEPTH
 STEP.F            0.5000:   STEP LENGTH
 NULL.          -999.2500:   NO VALUE
 COMP. BROWN JOHN E&C INC:   COMPANY
 WELL.         SX 67 #1-3:   WELL
 FLD .        TEAPOT DOME:   FIELD
 LOC .       S3 T38N R78W:   LOCATION
 CNTY.            NATRONA:   COUNTY
 STAT.            WYOMING:   STATE
 CTRY. UNITED STATES OF AMERICA:   COUNTRY
 SRVC.       Schlumberger:   SERVICE COMPANY
 DATE.        12-OCT-1990:   LOGDATE
 API .       490251132900:   API NUMBER
~CURVE INFORMATION
#MNEM.UNIT       API CODE    CURVE DESCRIPTION
#----------   ------------   ------------------------------
 DEPT.F                  :   
 CALD.IN     45 280 60 00:   CALIPER FROM DENSITY LOG
 DRHO.G/C3   45 356 01 00:   DENSITY CORRECTION
 GRD .GAPI   45 310 01 00:   GAMMA RAY FROM DENSITY LOG
 RHOB.G/C3   45 350 01 00:   BULK DENSITY
 DPHI.DEC    45 890 12 00:   DENSITY POROSITY SANDSTONE
~PARAMETER INFORMATION
#MNEM.UNIT          VALUE    DESCRIPTION
#----------   ------------   ------------------------------
 PD  .                 GL:   PERMANENT DATUM
 EPD .F              5174:   ELEVATION PERMANENT DATUM
 LMF .                 KB:   LOG MEASURED FROM
 DAPD.F                10:   FEET ABOVE PERMANENT DATUM
 DMF .                 KB:   DRILLING MEASURED FROM
 EKB .F              5184:   KELLING BUSHING
 EGL .F              5174:   GROUND LEVEL
 DATE.           10-12-90:   RUN DATE
 RUN .                  1:   RUN NUMBER
 DD  .F               486:   DEPTH DRILLER
 DL  .F               486:   DEPTH LOGGER
 BLI .F               483:   BOTTOM LOG INTERVAL
 TLI .F                10:   TOP LOG INTERVAL
 CS  .IN            8.625:   CASING SIZE
 CBD .F                50:   CASING BOTTOM DRILLER
 CBL .F                50:   CASING BOTTOM LOGGER
 BS  .IN            7.875:   BIT SIZE
 BSD .F               486:   BIT SIZE AT DEPTH
 DFT .      DISPERSED GEL:   DRILLING FLUID TYPE
 DFD .                 15:   DRILLING FLUID DENSITY
 DFV .                 44:   DRILLING FLUID VISCOSITY
 DFPH.                  8:   DRILLING FLUID PH
 DFL .                7.2:   DRILLING FLUID LOSS
 MSS .           FLOWLINE:   MUD SAMPLE SOURCE
 RMS .OHMM              1:   RESISTIVITY MUD SAMPLE
 MST .F                60:   MUD SAMPLE TEMPERATURE
 RMF .OHMM             .7:   RESISTIVITY MUD FILTRATE SAMPLE
 MFST.F                60:   MUD FILTRATE SAMPLE TEMPERATURE
 RMC .OHMM            1.5:   RESISTIVITY MUD CAKE
 MCST.F                60:   MUD CAKE SAMPLE TEMPERATURE
 MFSS.               MEAS:   MUD FILTRATE SAMPLE SOURCE
 MCSS.               CALC:   MUD CAKE SAMPLE SOURCE
 RMB .OHMM           .753:   RESISTIVITY MUD AT BHT
 BHT .F                82:   BOTTOM HOLE TEMPERATURE
 TCS .HRS            1230:   TIME CURCULATED STOPPED
 MRT .F                82:   MAXIMUM RECORDED TEMPERATURE
 LUN .               8116:   LOGGING UNIT NUMBER
 LUL .             CASPER:   LOGGING UNIT LOCATION
 ENGI.            S. PEEL:   RECORDING ENGINEER
 WITN.        GARY STRONG:   WITNESSED BY
 CLNT.            A2DTECH:   CLIENT CODE
 ORIG.           5" PRINT:   ORIGIN OF DATA
 UWI .       490251132900:   UNIQUE WELL ID
 DICO. A2D Technologies, Inc.:   DIGITIZING COMPANY
~OTHER INFORMATION
~A   DEPT     CALD       DRHO         GRD      RHOB       DPHI   
# ...
  132.0000     7.5744     0.0176    81.1119     2.4349     0.1309
  132.5000     7.5861     0.0163    79.2774     2.4378     0.1284
  133.0000     7.6040     0.0150    79.5799     2.4375     0.1288
  133.5000     7.6223     0.0142    80.2729     2.4371     0.1292
  134.0000     7.6501     0.0132    80.4902     2.4374     0.1292
  134.5000     7.6942     0.0123    79.8855     2.4381     0.1285
  135.0000     7.7380     0.0114    79.2933     2.4443     0.1255
  135.5000     7.7819     0.0104    79.9033     2.4510     0.1207
  136.0000     7.8204     0.0095    82.7162     2.4576     0.1159
  136.5000     7.8466     0.0086    86.5547     2.4643     0.1123
  137.0000     7.8726     0.0075    88.1913     2.4652     0.1126
  137.5000     7.8718     0.0088    86.4016     2.4631     0.1134
  138.0000     7.8692     0.0079    82.7030     2.4587     0.1156
  138.5000     7.8668     0.0069    80.3816     2.4544     0.1171
  139.0000     7.8644     0.0059    80.2408     2.4585     0.1152
  139.5000     7.8620     0.0049    79.8041     2.4631     0.1131
  140.0000     7.8597     0.0054    79.5969     2.4649     0.1116
  140.5000     7.8573     0.0069    82.0555     2.4666     0.1108
  141.0000     7.8549     0.0083    85.6286     2.4685     0.1100
  141.5000     7.8326     0.0098    87.5595     2.4751     0.1061
  142.0000     7.7917     0.0113    86.4213     2.4816     0.1018
  142.5000     7.7507     0.0112    84.2642     2.4881     0.0993
  143.0000     7.7480     0.0107    84.3101     2.4864     0.1000
  143.5000     7.7859     0.0102    85.7570     2.4803     0.1037
  144.0000     7.8238     0.0097    85.2003     2.4716     0.1083
  144.5000     7.8618     0.0102    81.8302     2.4635     0.1127
  145.0000     7.8998     0.0110    80.1696     2.4664     0.1123
  145.5000     7.9370     0.0118    80.8295     2.4696     0.1090
  146.0000     7.9678     0.0126    83.6632     2.4693     0.1092
  146.5000     7.9943     0.0134    85.9027     2.4650     0.1127
  147.0000     7.9907     0.0130    87.0429     2.4668     0.1113
  147.5000     7.9875     0.0119    89.5513     2.4702     0.1089
  148.0000     7.9845     0.0106    90.2643     2.4737     0.1064
  148.5000     7.9815     0.0093    87.6277     2.4741     0.1065
  149.0000     7.9785     0.0080    82.1217     2.4686     0.1100
  149.5000     7.9755     0.0067    79.0658     2.4628     0.1135
  150.0000     7.9725     0.0068    78.1377     2.4645     0.1119
  150.5000     7.9695     0.0071    81.1749     2.4692     0.1096
  151.0000     7.9665     0.0076    83.9068     2.4736     0.1074
  151.5000     7.9635     0.0074    84.7651     2.4754     0.1054
  152.0000     7.9605     0.0086    85.8338     2.4773     0.1050
  152.5000     7.9575     0.0068    87.3805     2.4811     0.1040
  153.0000     7.9550     0.0050    88.0904     2.4849     0.1007
  153.5000     7.9324     0.0032    87.4838     2.4851     0.1006
  154.0000     7.9058     0.0018    85.3117     2.4791     0.1042
  154.5000     7.8790     0.0033    83.3463     2.4709     0.1095
  155.0000     7.8525     0.0048    82.4818     2.4702     0.1089
  155.5000     7.8337     0.0081    83.8535     2.4729     0.1073
  156.0000     7.8359     0.0135    86.7623     2.4702     0.1073
  156.5000     7.8376     0.0125    89.8495     2.4583     0.1151
  157.0000     7.8394     0.0110    90.9144     2.4448     0.1246
  157.5000     7.8411     0.0095    88.2018     2.4360     0.1304
  158.0000     7.8428     0.0092    82.4638     2.4419     0.1238
  158.5000     7.8446     0.0108    76.8690     2.4578     0.1151
  159.0000     7.8463     0.0123    77.7947     2.4736     0.1065
  159.5000     7.8480     0.0118    81.6112     2.4813     0.1023
  160.0000     7.8497     0.0098    85.2170     2.4793     0.1040
  160.5000     7.8518     0.0079    86.0083     2.4747     0.1071
  161.0000     7.8546     0.0060    84.9484     2.4723     0.1072
  161.5000     7.8344     0.0039    82.5172     2.4723     0.1069
  162.0000     7.8338     0.0049    79.7001     2.4722     0.1073
  162.5000     7.8336     0.0056    77.9678     2.4703     0.1093
  163.0000     7.8337     0.0064    77.5059     2.4682     0.1111
  163.5000     7.8337     0.0064    78.6949     2.4691     0.1124
  164.0000     7.8300     0.0062    81.0956     2.4718     0.1126
  164.5000     7.8092     0.0060    84.3614     2.4701     0.1134
  165.0000     7.7888     0.0058    86.4158     2.4655     0.1145
  165.5000     7.7684     0.0055    87.1722     2.4613     0.1155
  166.0000     7.7479     0.0053    87.8704     2.4617     0.1157
  166.5000     7.7278     0.0051    88.6039     2.4622     0.1159
  167.0000     7.7132     0.0049    90.0829     2.4590     0.1170
  167.5000     7.7135     0.0047    91.4898     2.4553     0.1185
  168.0000     7.7134     0.0051    91.9473     2.4529     0.1200
  168.5000     7.7135     0.0070    89.4492     2.4506     0.1212
  169.0000     7.7131     0.0088    86.6437     2.4463     0.1227
  169.5000     7.7459     0.0097    85.2909     2.4389     0.1290
  170.0000     7.7999     0.0099    85.8281     2.4281     0.1363
  170.5000     7.8554     0.0102    86.3380     2.4153     0.1437
  171.0000     7.8402     0.0104    84.6210     2.4024     0.1506
  171.5000     7.7901     0.0105    83.4488     2.4086     0.1456
  172.0000     7.7389     0.0132    86.1040     2.4287     0.1306
  172.5000     7.6858     0.0161    89.2812     2.4516     0.1158
  173.0000     7.6816     0.0187    90.9446     2.4657     0.1122
  173.5000     7.7080     0.0176    89.1766     2.4694     0.1087
  174.0000     7.7344     0.0149    85.0053     2.4698     0.1089
  174.5000     7.7608     0.0102    81.1583     2.4701     0.1093
  175.0000     7.7872     0.0076    81.6071     2.4731     0.1079
  175.5000     7.8136     0.0050    84.3839     2.4772     0.1052
  176.0000     7.8333     0.0052    87.3355     2.4773     0.1048
  176.5000     7.8088     0.0069    88.9419     2.4746     0.1065
  177.0000     7.7842     0.0085    88.0751     2.4685     0.1106
  177.5000     7.7595     0.0101    84.7465     2.4625     0.1143
  178.0000     7.7349     0.0119    82.1600     2.4588     0.1150
  178.5000     7.7713     0.0147    81.6465     2.4625     0.1119
  179.0000     7.8135     0.0175    84.0620     2.4722     0.1078
  179.5000     7.8559     0.0204    86.3810     2.4822     0.1033
  180.0000     7.8609     0.0228    87.8630     2.4893     0.0989
  180.5000     7.8326     0.0205    87.6785     2.4932     0.0966
  181.0000     7.8376     0.0176    86.1315     2.4869     0.0984
  181.5000     7.8422     0.0147    85.2001     2.4799     0.1035
  182.0000     7.8464     0.0113    85.2411     2.4733     0.1069
  182.5000     7.8506     0.0077    84.4727     2.4713     0.1077
  183.0000     7.8537     0.0041    83.0735     2.4723     0.1071
  183.5000     7.8531     0.0015    82.7182     2.4732     0.1068
  184.0000     7.8865     0.0015    84.5140     2.4725     0.1073
  184.5000     7.9319     0.0018    87.5165     2.4757     0.1058
  185.0000     7.9255     0.0043    89.1977     2.4853     0.1023
  185.5000     7.9010     0.0096    88.5217     2.5014     0.0921
  186.0000     7.8839     0.0097    85.9271     2.5177     0.0744
  186.5000     7.8805     0.0128    82.9812     2.5578     0.0536
  187.0000     7.8980     0.0164    80.5094     2.5837     0.0349
  187.5000     7.9125     0.0134    80.7079     2.5915     0.0448
  188.0000     7.8874     0.0103    83.8231     2.5444     0.0640
  188.5000     7.8613     0.0099    87.3307     2.5133     0.0853
  189.0000     7.8538     0.0127    88.3372     2.5015     0.0906
  189.5000     7.8537     0.0155    89.0768     2.4961     0.0941
  190.0000     7.8537     0.0160    89.3638     2.4922     0.0959
  190.5000     7.8537     0.0164    89.1379     2.4898     0.0978
  191.0000     7.8537     0.0165    88.9147     2.4874     0.0997
  191.5000     7.8537     0.0156    89.2790     2.4819     0.1018
  192.0000     7.8537     0.0147    90.0475     2.4737     0.1062
  192.5000     7.8537     0.0138    89.7647     2.4672     0.1107
