~VERSION INFORMATION
 VERS.                2.0:   CWLS LOG ASCII STANDARD - VERSION 2.0
 WRAP.                 NO:   ONE LINE PER DEPTH STEP
~WELL INFORMATION
#MNEM.UNIT      DATA TYPE    INFORMATION
#----------   ------------   ------------------------------
 STRT.F           40.0000:   START DEPTH
 STOP.F          534.0000:   STOP DEPTH
 STEP.F            0.5000:   STEP LENGTH
 NULL.          -999.2500:   NO VALUE
 COMP. LAWRENCE/ALLISON INC:   COMPANY
 WELL.   55-41 SX FI #3-3:   WELL
 FLD .             TEAPOT:   FIELD
 LOC .       S3 T38N R78W:   LOCATION
 CNTY.            NATRONA:   COUNTY
 STAT.            WYOMING:   STATE
 CTRY. UNITED STATES OF AMERICA:   COUNTRY
 SRVC.      Dresser Atlas:   SERVICE COMPANY
 DATE.        12-DEC-1983:   LOGDATE
 API .       490251089400:   API NUMBER
~CURVE INFORMATION
#MNEM.UNIT       API CODE    CURVE DESCRIPTION
#----------   ------------   ------------------------------
 DEPT.F                  :   
 RILD.OHMM   07 120 46 00:   INDUCTION LOG DEEP RESISTIVITY
 RILM.OHMM   07 120 44 00:   INDUCTION LOG MEDIUM RESISTIVITY
 RFOC.OHMM   07 220 04 00:   RESISTIVITY FOCUSED LOG
 CALD.IN     45 280 60 00:   CALIPER FROM DENSITY LOG
 GRD .GAPI   45 310 01 00:   GAMMA RAY FROM DENSITY LOG
 CORR.G/C3   45 356 01 00:   DENSITY CORRECTION
 DPHI.DEC    45 890 12 00:   DENSITY POROSITY SANDSTONE
 RHOB.G/C3   45 350 01 00:   BULK DENSITY
~PARAMETER INFORMATION
#MNEM.UNIT          VALUE    DESCRIPTION
#----------   ------------   ------------------------------
 PD  .                 GL:   PERMANENT DATUM
 EPD .F              5161:   ELEVATION PERMANENT DATUM
 LMF .                 KB:   LOG MEASURED FROM
 DAPD.F                10:   FEET ABOVE PERMANENT DATUM
 DMF .                 KB:   DRILLING MEASURED FROM
 EKB .F              5171:   KELLING BUSHING
 EGL .F              5161:   GROUND LEVEL
 DATE.        12-DEC-1983:   RUN DATE
 RUN .                  1:   RUN NUMBER
 DD  .F               490:   DEPTH DRILLER
 DL  .F               489:   DEPTH LOGGER
 BLI .F               487:   BOTTOM LOG INTERVAL
 CS  .IN            10.75:   CASING SIZE
 CBD .F                52:   CASING BOTTOM DRILLER
 CBL .F                46:   CASING BOTTOM LOGGER
 BS  .IN             8.75:   BIT SIZE
 BSD .F               490:   BIT SIZE AT DEPTH
 DFT .           AIR FOAM:   DRILLING FLUID TYPE
 TCS .HRS               3:   TIME CURCULATED STOPPED
 MRT .F                72:   MAXIMUM RECORDED TEMPERATURE
 LUN .               6274:   LOGGING UNIT NUMBER
 LUL .               GLTE:   LOGGING UNIT LOCATION
 ENGI.             RAUTIO:   RECORDING ENGINEER
 WITN.             GROOMS:   WITNESSED BY
 CLNT.            A2DTECH:   CLIENT CODE
 ORIG.           5" PRINT:   ORIGIN OF DATA
 UWI .       490251089400:   UNIQUE WELL ID
 DICO. A2D Technologies, Inc.:   DIGITIZING COMPANY
~OTHER INFORMATION
~A   DEPT     RILD       RILM       RFOC       CALD         GRD      CORR       DPHI       RHOB   
# ...
  121.0000    11.2227    11.4072  -999.2500    12.5444    74.1499     0.0492     0.1332     2.4563
  121.5000    11.0775    11.2638  -999.2500    12.5296    73.2672     0.0507     0.1318     2.4570
  122.0000    10.8590    11.1070  -999.2500    12.4852    71.2701     0.0515     0.1333     2.4586
  122.5000    10.7923    10.9756  -999.2500    12.4112    69.4959     0.0493     0.1285     2.4601
  123.0000    10.7265    10.9868  -999.2500    12.3521    68.3881     0.0411     0.1294     2.4602
  123.5000    10.6608    10.9180  -999.2500    12.3225    69.0678     0.0269     0.1341     2.4549
  124.0000    10.6689    10.8541  -999.2500    12.3225    66.8478     0.0142     0.1407     2.4406
  124.5000    10.6770    10.9381  -999.2500    12.3225    64.6279     0.0096     0.1425     2.4370
  125.0000    10.6851    11.0226  -999.2500    12.3669    63.7430     0.0277     0.1401     2.4451
  125.5000    10.7687    11.0316  -999.2500    12.4112    63.8724     0.0734     0.1317     2.4566
  126.0000    10.7768    11.0406  -999.2500    12.4556    64.9852     0.0944     0.1287     2.4626
  126.5000    10.8594    11.0496  -999.2500    12.5296    65.4303     0.0997     0.1310     2.4552
  127.0000    10.8675    11.0586  -999.2500    12.5888    65.6528     0.0817     0.1531     2.4148
  127.5000    10.8756    11.0677  -999.2500    12.6331    66.5430     0.0576     0.1681     2.3968
  128.0000    10.8091    11.0002  -999.2500    12.6775    69.2137     0.0397     0.1687     2.3954
  128.5000    10.7409    10.7844  -999.2500    12.7219    70.7834     0.0369     0.1665     2.4014
  129.0000    10.6038    10.6455  -999.2500    12.7663    68.9911     0.0459     0.1614     2.4127
  129.5000    10.4646    10.5084  -999.2500    12.7959    66.5430     0.0527     0.1557     2.4202
  130.0000    10.3292    10.3731  -999.2500    12.7515    67.2555     0.0505     0.1502     2.4315
  130.5000    10.1954    10.2395  -999.2500    12.6183    69.7063     0.0490     0.1473     2.4308
  131.0000    10.0654    10.1775  -999.2500    12.4399    72.1722     0.0498     0.1513     2.4188
  131.5000     9.9351    10.0464  -999.2500    12.2614    72.5519     0.0535     0.1643     2.3994
  132.0000     9.8740     9.9856  -999.2500    12.1255    70.5490     0.0730     0.1775     2.3805
  132.5000     9.8138     9.9958  -999.2500    12.0244    68.5460     0.0993     0.1867     2.3684
  133.0000     9.7536     9.8670  -999.2500    11.9675    67.4332     0.1045     0.1909     2.3572
  133.5000     9.6940     9.8751  -999.2500    11.9675    68.1009     0.0941     0.1915     2.3583
  134.0000     9.7014     9.8831  -999.2500    12.0414    70.5490     0.0716     0.1900     2.3681
  134.5000     9.7165     9.8912  -999.2500    12.1893    71.6617     0.0513     0.1819     2.3824
  135.0000     9.8509     9.8993  -999.2500    12.5148    70.3264     0.0507     0.1699     2.3921
  135.5000     9.9280     9.9073  -999.2500    12.7811    68.5460     0.0710     0.1582     2.4124
  136.0000    10.0041     9.9154  -999.2500    12.9586    68.1009     0.0815     0.1516     2.4282
  136.5000     9.9428     9.9235  -999.2500    12.9290    71.2166     0.0860     0.1495     2.4207
  137.0000     9.8141     9.7954  -999.2500    12.6775    70.5490     0.0883     0.1552     2.4148
  137.5000     9.6206     9.6695  -999.2500    12.4260    69.2137     0.0838     0.1581     2.4215
  138.0000     9.3661     9.5449  -999.2500    12.3225    68.1009     0.0696     0.1527     2.4276
  138.5000     9.1814     9.3574  -999.2500    12.2781    74.5549     0.0502     0.1527     2.4209
  139.0000     9.1889     9.3007  -999.2500    12.2781    79.0059     0.0383     0.1577     2.4097
  139.5000     9.1303     9.2444  -999.2500    12.3373    81.2315     0.0233     0.1670     2.3977
  140.0000     9.0138     9.1272  -999.2500    12.3817    79.2285     0.0202     0.1631     2.3948
  140.5000     9.0206     9.1346  -999.2500    12.4112    76.7804     0.0324     0.1488     2.4106
  141.0000     9.0273     9.0775  -999.2500    12.3521    75.2225     0.0414     0.1443     2.4345
  141.5000     9.0341     9.0856  -999.2500    12.2633    76.1128     0.0482     0.1431     2.4466
  142.0000     9.0408     9.0931  -999.2500    12.2041    78.7893     0.0536     0.1365     2.4586
  142.5000     9.0476     9.1006  -999.2500    12.1299    79.8961     0.0579     0.1391     2.4444
  143.0000     8.9922     9.1084  -999.2500    12.0701    79.4035     0.0602     0.1382     2.4407
  143.5000     8.8748     8.9911  -999.2500    12.0873    77.8278     0.0625     0.1346     2.4535
  144.0000     8.6373     8.6937  -999.2500    12.1472    76.0297     0.0640     0.1298     2.4625
  144.5000     8.3993     8.4762  -999.2500    12.2097    73.8872     0.0588     0.1304     2.4550
  145.0000     8.1247     8.2985  -999.2500    12.2781    72.5519     0.0364     0.1393     2.4438
  145.5000     7.9201     8.0796  -999.2500    12.3225    71.2166     0.0192     0.1483     2.4319
  146.0000     7.8701     7.9753  -999.2500    12.3225    70.3264     0.0177     0.1435     2.4319
  146.5000     7.7697     7.9271  -999.2500    12.3077    70.1039     0.0417     0.1345     2.4582
  147.0000     7.7207     7.8792  -999.2500    12.3225    71.8843     0.0537     0.1255     2.4732
  147.5000     7.7279     7.8857  -999.2500    12.3225    74.3323     0.0590     0.1225     2.4762
  148.0000     7.7337     7.9468  -999.2500    12.3225    76.1128     0.0326     0.1257     2.4519
  148.5000     7.7930     8.0084  -999.2500    12.3225    77.2255     0.0201     0.1524     2.4231
  149.0000     7.9070     8.0717  -999.2500    12.2929    77.0030     0.0231     0.1535     2.4224
  149.5000     7.9677     8.0782  -999.2500    12.2485    76.1128     0.0389     0.1505     2.4307
  150.0000     8.0981     8.1449  -999.2500    12.1746    74.8075     0.0472     0.1338     2.4500
  150.5000     8.1915     8.2157  -999.2500    12.2323    73.6412     0.0438     0.1293     2.4652
  151.0000     8.2849     8.2865  -999.2500    12.1302    72.0802     0.0398     0.1308     2.4608
  151.5000     8.3847     8.3809  -999.2500    12.0266    69.8568     0.0323     0.1427     2.4533
  152.0000     8.4485     8.4481  -999.2500    12.0858    71.9762     0.0249     0.1469     2.4437
  152.5000     8.5715     8.5124  -999.2500    12.2041    74.6439     0.0212     0.1475     2.4317
  153.0000     8.6964     8.6889  -999.2500    12.3077    76.4110     0.0213     0.1468     2.4318
  153.5000     8.8841     8.7538  -999.2500    12.3669    77.5000     0.0303     0.1441     2.4356
  154.0000     9.0135     8.8899  -999.2500    12.4408    77.4658     0.0393     0.1375     2.4461
  154.5000     9.1448     9.0083  -999.2500    12.5000    77.0234     0.0454     0.1310     2.4612
  155.0000     9.1511     9.1393  -999.2500    12.5444    75.4678     0.0452     0.1294     2.4627
  155.5000     9.1574     9.1443  -999.2500    12.5888    73.6896     0.0315     0.1360     2.4575
  156.0000     8.9762     8.9622  -999.2500    12.6183    71.6888     0.0137     0.1503     2.4433
  156.5000     8.6783     8.5450  -999.2500    12.6627    70.1332     0.0034     0.1584     2.4164
  157.0000     8.4482     8.3748  -999.2500    12.7219    68.3550    -0.0008     0.1581     2.4127
  157.5000     8.3959     8.2636  -999.2500    12.7663    68.1341     0.0015     0.1566     2.4158
  158.0000     8.2867     8.2113  -999.2500    12.7959    69.2496     0.0098     0.1524     2.4256
  158.5000     8.2355     8.1034  -999.2500    12.8107    74.1480     0.0181     0.1470     2.4346
  159.0000     8.2411     8.1090  -999.2500    12.8107    74.8173     0.0271     0.1422     2.4392
  159.5000     8.1902     8.1134  -999.2500    12.8107    70.5916     0.0369     0.1392     2.4437
  160.0000     8.1959     8.1740  -999.2500    12.7643    66.5878     0.0490     0.1401     2.4415
  160.5000     8.2064     8.2919  -999.2500    12.6588    68.1479     0.0790     0.1451     2.4386
  161.0000     8.2639     8.2959  -999.2500    12.4968    69.4854     0.0962     0.1460     2.4356
