~VERSION INFORMATION
 VERS.                2.0:   CWLS LOG ASCII STANDARD - VERSION 2.0
 WRAP.                 NO:   ONE LINE PER DEPTH STEP
~WELL INFORMATION
#MNEM.UNIT      DATA TYPE    INFORMATION
#----------   ------------   ------------------------------
 STRT.F           20.0000:   START DEPTH
 STOP.F         1363.5000:   STOP DEPTH
 STEP.F            0.5000:   STEP LENGTH
 NULL.          -999.2500:   NO VALUE
 COMP.   FLUOR DANIEL INC:   COMPANY
 WELL.   NPR 3 "S" #83-14:   WELL
 FLD .             TEAPOT:   FIELD
 LOC .      S14 T38N R78W:   LOCATION
 CNTY.            NATRONA:   COUNTY
 STAT.            WYOMING:   STATE
 CTRY. UNITED STATES OF AMERICA:   COUNTRY
 SRVC. Schlumberger Well Surveying Corp:   SERVICE COMPANY
 DATE.        22-AUG-1966:   LOGDATE
 API .       490250971000:   API NUMBER
~CURVE INFORMATION
#MNEM.UNIT       API CODE    CURVE DESCRIPTION
#----------   ------------   ------------------------------
 DEPT.F                  :   
 SPR .MV     05 010 01 00:   SPONTANEOUS POTENTIAL FROM RES.
 ASN .OHMM   05 041 16 00:   AMPLIFIED SHORT NORMAL 16"
 CILD.MMHO   05 110 00 00:   CONDUCTIVITY INDUCTION LOG
 ILD .OHMM   05 120 46 00:   INDUCTION LOG DEEP
 CALD.IN     45 280 60 00:   CALIPER
 GRD .GAPI   45 310 01 00:   GAMMA RAY FROM DENSITY LOG
 CORR.G/C3   45 356 01 00:   DENSITY CORRECTION
 RHOB.G/C3   45 350 01 00:   BULK DENSITY
 DPOR.DEC    45 890 12 00:   DENSITY POROSITY SANDSTONE
~PARAMETER INFORMATION
#MNEM.UNIT          VALUE    DESCRIPTION
#----------   ------------   ------------------------------
 PD  .                 GL:   PERMANENT DATUM
 EPD .F              5300:   ELEVATION PERMANENT DATUM
 LMF .                 KB:   LOG MEASURED FROM
 DAPD.F                 5:   FEET ABOVE PERMANENT DATUM
 DMF .                 KB:   DRILLING MEASURED FROM
 EKB .F              5305:   KELLING BUSHING
 EGL .F              5300:   GROUND LEVEL
 DATE.          8-22-1966:   RUN DATE
 RUN .                  1:   RUN NUMBER
 DD  .F              1365:   DEPTH DRILLER
 DL  .F              1363:   DEPTH LOGGER
 BLI .F              1362:   BOTTOM LOG INTERVAL
 TLI .F                20:   TOP LOG INTERVAL
 CS  .IN            8.625:   CASING SIZE
 CBD .F                15:   CASING BOTTOM DRILLER
 CBL .F                20:   CASING BOTTOM LOGGER
 BS  .IN            7.875:   BIT SIZE
 BSD .F              1365:   BIT SIZE AT DEPTH
 DFT .           GEL-CHEM:   DRILLING FLUID TYPE
 DFD .                 10:   DRILLING FLUID DENSITY
 DFV .                 55:   DRILLING FLUID VISCOSITY
 DFL .                  8:   DRILLING FLUID LOSS
 MSS .          FLOW LINE:   MUD SAMPLE SOURCE
 RMS .OHMM           1.86:   RESISTIVITY MUD SAMPLE
 MST .F                73:   MUD SAMPLE TEMPERATURE
 RMF .OHMM           1.13:   RESISTIVITY MUD FILTRATE SAMPLE
 MFST.F                70:   MUD FILTRATE SAMPLE TEMPERATURE
 MFSS.                  M:   MUD FILTRATE SAMPLE SOURCE
 RMB .OHMM           1.32:   RESISTIVITY MUD AT BHT
 BHT .F               102:   BOTTOM HOLE TEMPERATURE
 TCS .HRS               1:   TIME CURCULATED STOPPED
 MRT .F               102:   MAXIMUM RECORDED TEMPERATURE
 LUN .               3527:   LOGGING UNIT NUMBER
 LUL .               CSPR:   LOGGING UNIT LOCATION
 ENGI.          TOLLEFSON:   RECORDING ENGINEER
 WITN.         MAY/TUTTLE:   WITNESSED BY
 CLNT.            A2DTECH:   CLIENT CODE
 ORIG.       2", 5" PRINT:   ORIGIN OF DATA
 UWI .       490250971000:   UNIQUE WELL ID
 DICO. A2D Technologies, Inc.:   DIGITIZING COMPANY
~OTHER INFORMATION
~A   DEPT       SPR       ASN         CILD      ILD         CALD       GRD       CORR        RHOB     DPOR   
# ...
  713.5000   -52.7118     3.1532   439.5626     2.8690     8.1777   103.3560     0.0406     2.4275     0.1418
  714.0000   -52.6006     2.9892   480.1888     2.7385     8.1639   105.3521     0.0440     2.4120     0.1471
  714.5000   -52.5312     2.8269   508.8471     2.6776     8.1508   105.1310     0.0511     2.3985     0.1554
  715.0000   -52.4568     2.7310   510.3271     2.6144     8.1372   107.3565     0.0510     2.3716     0.1694
  715.5000   -52.4048     2.7200   498.3113     2.5542     8.1238   108.3159     0.0474     2.3397     0.1938
  716.0000   -52.4776     2.8271   481.2024     2.7111     8.1117   102.8546     0.0449     2.3435     0.1892
  716.5000   -52.5563     2.9311   456.9056     2.8840     8.1200    99.8149     0.0411     2.3550     0.1818
  717.0000   -52.6351     3.0299   426.4500     3.2372     8.1314    94.2784     0.0486     2.3623     0.1815
  717.5000   -52.7137     3.2811   386.0796     3.6825     8.1424    93.4467     0.0951     2.3758     0.1694
  718.0000   -52.7923     3.7909   327.3375     4.1308     8.1535    92.7535     0.0907     2.4469     0.1371
  718.5000   -52.8713     4.3436   288.6620     4.5823     8.1646    95.4484     0.0626     2.5179     0.1022
  719.0000   -52.9511     4.6217   243.4892     4.7806     8.1756    95.9052     0.0360     2.5064     0.1052
  719.5000   -52.9976     4.7433   232.9175     4.8354     8.1868    95.6698     0.0597     2.4742     0.1110
  720.0000   -52.7982     4.8613   229.1082     4.8870     8.1977    97.1655     0.0509     2.4395     0.1189
  720.5000   -52.6049     4.9800   226.4768     4.9363     8.2085    97.5946     0.0080     2.4249     0.1254
  721.0000   -52.8424     5.1182   223.9701     5.1116     8.2006    96.3132     0.0166     2.4299     0.1200
  721.5000   -53.1436     5.3576   215.8571     5.3151     8.1889    96.8362     0.0167     2.4497     0.1152
  722.0000   -53.4157     5.5931   207.9852     5.5172     8.1776    99.3329     0.0216     2.4727     0.1082
  722.5000   -53.4007     5.8280   200.1252     5.6795     8.1665   101.6789     0.0239     2.4688     0.1093
  723.0000   -53.2186     6.0399   192.8858     5.7590     8.1547   102.2021     0.0278     2.4624     0.1106
  723.5000   -53.3997     6.2548   188.6448     5.8407     8.1495   100.0806     0.0390     2.4750     0.1010
  724.0000   -53.5970     6.4771   185.8717     5.8243     8.1502    96.5985     0.0450     2.4828     0.1025
  724.5000   -53.5024     6.6072   186.2765     5.7941     8.1498    95.2351     0.0374     2.4762     0.1052
  725.0000   -53.3837     6.6111   186.8380     5.7638     8.1500    95.1122     0.0285     2.4689     0.1078
  725.5000   -53.2744     6.6094   187.3977     5.7337     8.1499    94.9288     0.0198     2.4741     0.0999
  726.0000   -53.6118     6.5841   187.9579     5.7037     8.1500    93.7566     0.0240     2.4848     0.0938
  726.5000   -53.7029     6.5661   188.5539     5.6736     8.1499    93.9740     0.0415     2.4723     0.1058
  727.0000   -53.5541     6.5479   189.8212     5.6436     8.1500    94.1860     0.0357     2.4584     0.1102
  727.5000   -53.4031     6.5304   191.0387     5.6135     8.1502    98.2665     0.0152     2.4615     0.1089
  728.0000   -53.2491     6.5304   192.4440     5.5834     8.1542   103.7384     0.0181     2.4764     0.1051
  728.5000   -53.3296     6.5259   193.0750     5.5534     8.1593   104.1177     0.0291     2.4865     0.0994
  729.0000   -53.5006     6.4787   194.6970     5.5233     8.1642   101.3532     0.0393     2.4709     0.1034
  729.5000   -53.6044     6.4349   196.3191     5.4933     8.1692   102.8428     0.0335     2.4816     0.0981
  730.0000   -53.4830     6.3916   197.9411     5.4632     8.1741   105.4879     0.0259     2.4998     0.0872
  730.5000   -53.3592     6.3483   199.5632     5.4331     8.1791   102.6488     0.0393     2.5185     0.0786
  731.0000   -53.2356     6.3055   201.1852     5.4030     8.1840   101.2127     0.0491     2.5331     0.0718
  731.5000   -53.1121     6.2650   202.8073     5.3730     8.1893    99.3267     0.0679     2.5244     0.0814
  732.0000   -52.9888     6.2223   204.4293     5.3530     8.1911    99.1091     0.0632     2.5335     0.0690
  732.5000   -52.8664     6.1869   205.9118     5.3714     8.1930    99.0713     0.0544     2.5540     0.0766
  733.0000   -52.8770     6.1520   205.9618     5.3889     8.1948    99.9121     0.0676     2.5392     0.0598
  733.5000   -53.1021     6.1161   204.2072     5.4062     8.1966   101.2043     0.0711     2.5195     0.0815
  734.0000   -53.3212     6.1114   203.0324     5.4237     8.1985   105.7736     0.0633     2.5252     0.0870
  734.5000   -53.1310     6.1553   201.8183     5.4412     8.2003   109.1367     0.0533     2.4982     0.0931
  735.0000   -52.8636     6.2318   200.6089     5.5335     8.2022   113.0875     0.0445     2.4759     0.1019
  735.5000   -52.7991     6.3720   199.3996     5.7016     8.2040   111.0380     0.0320     2.4973     0.0990
  736.0000   -53.1003     6.4908   194.5348     5.8697     8.2060   103.2335     0.0351     2.4921     0.0963
  736.5000   -53.4859     6.5959   188.5457     6.0382     8.2076    99.1611     0.0419     2.4764     0.1026
  737.0000   -53.6061     6.7005   182.5565     6.2065     8.2099   100.2351     0.0379     2.4946     0.0966
  737.5000   -53.6080     6.8045   176.5674     6.3617     8.2070   103.6175     0.0367     2.5103     0.0769
  738.0000   -53.6077     6.8844   169.8397     6.4133     8.2015   102.8681     0.0533     2.5259     0.0785
  738.5000   -53.6066     6.9106   166.8566     6.4680     8.1969    99.7173     0.0651     2.5133     0.0842
  739.0000   -53.6156     6.8769   163.8620     6.5231     8.1919    97.0280     0.0616     2.4983     0.0910
  739.5000   -53.2463     6.7677   161.8237     6.4829     8.1872    96.6405     0.0430     2.5176     0.0835
  740.0000   -53.0336     6.6525   164.5691     6.3531     8.1823    98.1248     0.0337     2.5361     0.0726
  740.5000   -52.6831     6.5372   167.7134     6.2195     8.1775   100.3959     0.0449     2.5199     0.0809
  741.0000   -52.8500     6.4224   170.8577     5.9883     8.1726   102.0410     0.0603     2.5062     0.0902
  741.5000   -53.0280     6.3074   177.4964     5.6283     8.1678    97.9516     0.0634     2.4910     0.1018
  742.0000   -53.1937     6.1670   189.0381     5.2675     8.1629    94.0919     0.0548     2.5070     0.0918
  742.5000   -52.8976     5.8924   206.8492     4.7918     8.1583    94.6342     0.0555     2.4989     0.0941
  743.0000   -52.5754     5.6171   223.9657     4.1289     8.1529    93.9251     0.0616     2.4756     0.1038
  743.5000   -52.4968     5.3421   279.4437     3.4659     8.1494    93.0773     0.0332     2.4829     0.1026
  744.0000   -52.6845     4.8138   339.7827     3.0458     8.1467    93.3067     0.0371     2.4857     0.0986
  744.5000   -52.7097     4.0553   404.0138     2.8302     8.1434    94.7061     0.0466     2.4746     0.1044
  745.0000   -52.4441     3.5293   486.9394     2.6214     8.1404    95.3694     0.0495     2.4509     0.1117
  745.5000   -52.1856     3.0615   553.5333     2.4093     8.1373    95.1893     0.0394     2.4237     0.1150
  746.0000   -51.9612     2.7566   600.1763     2.3890     8.1343    97.0053     0.0261     2.3911     0.1272
  746.5000   -51.8301     2.5912   646.7655     2.4428     8.1313   100.5944     0.0247     2.3599     0.1370
  747.0000   -51.7515     2.5132   651.8036     2.4969     8.1286   105.8484     0.0213     2.3300     0.1816
  747.5000   -51.6860     2.5390   643.7876     2.5594     8.1261   110.3046     0.0247     2.2753     0.2239
  748.0000   -51.6136     2.6508   573.8978     2.7962     8.1237   115.0282     0.0369     2.2227     0.2633
  748.5000   -51.8333     2.9409   505.3668     3.0303     8.1212   113.4933     0.0490     2.1890     0.2830
  749.0000   -52.1479     3.2619   449.6013     3.2542     8.1189   106.8786     0.0612     2.2031     0.2794
  749.5000   -52.4643     3.7415   389.4547     3.6926     8.1163   102.5746     0.0717     2.1967     0.2750
