~VERSION INFORMATION
 VERS.                2.0:   CWLS LOG ASCII STANDARD - VERSION 2.0
 WRAP.                 NO:   ONE LINE PER DEPTH STEP
~WELL INFORMATION
#MNEM.UNIT      DATA TYPE    INFORMATION
#----------   ------------   ------------------------------
 STRT.F            8.0000:   START DEPTH
 STOP.F          500.0000:   STOP DEPTH
 STEP.F            0.5000:   STEP LENGTH
 NULL.          -999.2500:   NO VALUE
 COMP. FENIX & SCISSON INC:   COMPANY
 WELL. 65 12 SX 3FI #65-3:   WELL
 FLD .             TEAPOT:   FIELD
 LOC .       S3 T38N R78W:   LOCATION
 CNTY.            NATRONA:   COUNTY
 STAT.            WYOMING:   STATE
 CTRY. UNITED STATES OF AMERICA:   COUNTRY
 SRVC.              Welex:   SERVICE COMPANY
 DATE.        01-JUN-1980:   LOGDATE
 API .       490251082400:   API NUMBER
~CURVE INFORMATION
#MNEM.UNIT       API CODE    CURVE DESCRIPTION
#----------   ------------   ------------------------------
 DEPT.F                  :   
 GRD .GAPI   45 310 01 00:   GAMMA RAY FROM DENSITY LOG
 CALD.IN     45 280 60 00:   CALIPER
 RHOB.G/C3   45 350 01 00:   BULK DENSITY
 CORR.G/C3   45 356 01 00:   DENSITY CORRECTION
 DPHI.DEC    45 890 12 00:   DENSITY POROSITY SANDSTONE
 NPHI.DEC    42 890 03 00:   NEUTRON POROSITY SANDSTONE
 SPR .MV     07 010 01 00:   SPONTANEOUS POTENTIAL
 SGRD.OHMM   07 220 05 00:   SHALLOW GUARD RESISTIVITY
 ILD .OHMM   07 120 46 00:   INDUCTION LOG DEEP
 ILM .OHMM   07 120 44 00:   INDUCTION LOG MEDIUM
~PARAMETER INFORMATION
#MNEM.UNIT          VALUE    DESCRIPTION
#----------   ------------   ------------------------------
 PD  .                 GL:   PERMANENT DATUM
 EPD .F              5155:   ELEVATION PERMANENT DATUM
 LMF .                 KB:   LOG MEASURED FROM
 DAPD.F                 4:   FEET ABOVE PERMANENT DATUM
 DMF .                 KB:   DRILLING MEASURED FROM
 EKB .F              5159:   KELLING BUSHING
 EGL .F              5155:   GROUND LEVEL
 DATE.             6-1-80:   RUN DATE
 RUN .                  1:   RUN NUMBER
 DD  .F               505:   DEPTH DRILLER
 DL  .F               502:   DEPTH LOGGER
 BLI .F               500:   BOTTOM LOG INTERVAL
 TLI .F                20:   TOP LOG INTERVAL
 BS  .IN            9.875:   BIT SIZE
 BSD .F               505:   BIT SIZE AT DEPTH
 DFT .      OIL BASED MUD:   DRILLING FLUID TYPE
 MSS .            MUD PIT:   MUD SAMPLE SOURCE
 RMS .OHMM             .9:   RESISTIVITY MUD SAMPLE
 MST .F                65:   MUD SAMPLE TEMPERATURE
 RMF .OHMM            .72:   RESISTIVITY MUD FILTRATE SAMPLE
 MFST.F                65:   MUD FILTRATE SAMPLE TEMPERATURE
 RMC .OHMM           1.08:   RESISTIVITY MUD CAKE
 MCST.F                65:   MUD CAKE SAMPLE TEMPERATURE
 MFSS.           MEASURED:   MUD FILTRATE SAMPLE SOURCE
 MCSS.           MEASURED:   MUD CAKE SAMPLE SOURCE
 RMB .OHMM            .71:   RESISTIVITY MUD AT BHT
 BHT .F                76:   BOTTOM HOLE TEMPERATURE
 TCS .HRS               2:   TIME CURCULATED STOPPED
 MRT .F                76:   MAXIMUM RECORDED TEMPERATURE
 LUN .               9685:   LOGGING UNIT NUMBER
 LUL .             CASPER:   LOGGING UNIT LOCATION
 ENGI.               REIN:   RECORDING ENGINEER
 WITN.            RHOADES:   WITNESSED BY
 CLNT.            A2DTECH:   CLIENT CODE
 ORIG.        2" 5" PRINT:   ORIGIN OF DATA
 UWI .       490251082400:   UNIQUE WELL ID
 DICO. A2D Technologies, Inc.:   DIGITIZING COMPANY
~OTHER INFORMATION
~A    DEPT     GRD       CALD       RHOB       CORR       DPHI       NPHI        SPR        SGRD         ILD        ILM 
# ...
  242.5000   108.0947     9.9465     2.5047     0.0376     0.1079     0.3131   -22.5289     9.1287     6.6824     7.8147
  243.0000   109.4666     9.9305     2.4980     0.0322     0.1035     0.3215   -22.4579     9.0847     6.6352     7.7966
  243.5000   108.7271     9.9143     2.5058     0.0379     0.0988     0.3272   -22.3869     9.0523     6.5943     7.7786
  244.0000   108.5452     9.9008     2.5096     0.0437     0.1056     0.3283   -22.3160     9.0201     6.5537     7.7606
  244.5000   110.3187     9.9189     2.4998     0.0402     0.1134     0.3268   -22.2449     8.9881     6.5134     7.7430
  245.0000   112.0231     9.9370     2.4883     0.0303     0.1174     0.3272   -22.1691     8.9561     6.4733     7.6823
  245.5000   113.7321     9.9357     2.4852     0.0131     0.1114     0.3318   -22.0707     8.9242     6.4334     7.6115
  246.0000   115.4540     9.9318     2.4957     0.0212     0.1032     0.3334   -21.9732     8.8925     6.3938     7.5413
  246.5000   114.5231     9.9278     2.5005     0.0353     0.1083     0.3343   -21.8757     8.8608     6.3544     7.4717
  247.0000   114.5574     9.9238     2.4930     0.0353     0.1107     0.3398   -21.7782     8.8293     6.3153     7.4028
  247.5000   115.9679     9.9199     2.4884     0.0342     0.1150     0.3360   -21.6808     8.7979     6.2764     7.3345
  248.0000   116.6322     9.9160     2.4761     0.0343     0.1239     0.3311   -21.5833     8.7666     6.2377     7.2669
  248.5000   115.8933     9.9120     2.4610     0.0244     0.1327     0.3358   -21.4858     8.7346     6.1531     7.1999
  249.0000   118.0103     9.9081     2.4492     0.0165     0.1416     0.3410   -21.3879     8.6578     5.9465     7.1335
  249.5000   117.5983     9.9042     2.4403     0.0157     0.1504     0.3446   -21.2892     8.4018     5.7469     6.9975
  250.0000   116.2800     9.9002     2.4303     0.0161     0.1592     0.3374   -21.2127     8.4161     5.5539     6.8625
  250.5000   114.9221     9.8963     2.4132     0.0040     0.1669     0.3340   -21.3867     7.2624     5.3675     5.9884
  251.0000   116.2588     9.8924     2.3960     0.0098     0.1745     0.3367   -21.5573     5.4938     5.1872     5.2752
  251.5000   116.6317     9.8884     2.3849     0.0190     0.1746     0.3414   -21.7264     4.3266     5.0129     4.4654
  252.0000   115.1898     9.8844     2.3838     0.0333     0.1625     0.3403   -21.8951     6.1008     4.8438     5.1623
  252.5000   115.4378     9.8806     2.4069     0.0599     0.1493     0.3346   -22.0639     7.9827     4.6709     5.8688
  253.0000   115.8800     9.8897     2.4245     0.0736     0.1408     0.3308   -22.2327     8.0009     4.6733     5.9975
  253.5000   115.6638     9.9004     2.4429     0.0159     0.1233     0.3303   -22.4016     8.0680     4.6726     6.1283
  254.0000   113.7810     9.9111     2.4832     0.0261     0.1127     0.3343   -22.5705     8.1021     4.6726     6.2668
  254.5000   111.9322     9.9218     2.4832     0.0379     0.1235     0.3347   -22.7390     7.7952     4.6726     6.1973
  255.0000   110.0499     9.9325     2.4712     0.0378     0.1312     0.3340   -22.9086     7.5840     4.6234     6.1261
  255.5000   109.9145     9.9431     2.4538     0.0263     0.1384     0.3376   -22.9556     6.3690     4.5734     5.7288
  256.0000   112.1580     9.9538     2.4361     0.0149     0.1412     0.3456   -22.8990     5.1476     4.5239     5.1448
  256.5000   110.7607     9.9645     2.4320     0.0117     0.1456     0.3533   -22.8417     4.3419     4.5042     4.6329
  257.0000   109.3232     9.9754     2.4326     0.0181     0.1437     0.3500   -22.7842     5.2768     4.5184     5.1722
  257.5000   109.7574     9.9724     2.4345     0.0211     0.1456     0.3402   -22.7268     7.6823     4.5740     5.7702
  258.0000   106.7876     9.9640     2.4310     0.0046     0.1477     0.3306   -22.6695     8.0614     4.7117     5.9311
  258.5000   108.0359     9.9555     2.4340    -0.0144     0.1408     0.3267   -22.6121     8.1959     4.8522     6.0932
  259.0000   109.8235     9.9471     2.4600    -0.0111     0.1250     0.3267   -22.5548     8.2263     4.9972     6.2841
  259.5000   110.7895     9.9386     2.4727    -0.0026     0.1210     0.3287   -22.4973     8.2568     5.1464     6.4951
  260.0000   109.6585     9.9301     2.4752     0.0037     0.1191     0.3224   -22.4398     8.2874     5.3766     6.7132
  260.5000   111.1598     9.9216     2.4768     0.0044     0.1222     0.3158   -22.3873     8.3282     5.6311     6.9386
  261.0000   112.9522     9.9132     2.4617     0.0019     0.1283     0.3121   -22.3863     8.2677     5.9312     7.1256
  261.5000   113.9232     9.9047     2.4468    -0.0095     0.1411     0.3081   -22.3865     8.1782     5.8834     6.9790
  262.0000   110.4158     9.8962     2.4302    -0.0208     0.1559     0.3054   -22.3866     8.0897     5.8296     6.8661
  262.5000   111.0904     9.8877     2.4197    -0.0282     0.1497     0.3064   -22.3866     7.9681     5.7702     6.7440
  263.0000   112.6602     9.8802     2.4285    -0.0102     0.1476     0.3054   -22.3866     7.7697     5.5839     6.4689
  263.5000   114.0320     9.8844     2.4216    -0.0054     0.1532     0.3157   -22.3866     7.4119     5.3842     6.1640
  264.0000   110.5881     9.8893     2.4211     0.0074     0.1488     0.3337   -22.3868     5.9734     5.1916     5.7818
  264.5000   111.4505     9.8942     2.4247     0.0213     0.1544     0.3483   -22.3875     4.5457     5.0058     5.2644
  265.0000   109.3226     9.8990     2.4221     0.0230     0.1500     0.3578   -22.3840     5.3699     4.8268     5.4208
  265.5000   108.1160     9.9038     2.4347     0.0465     0.1451     0.3597   -22.2174     7.4601     4.6541     5.7252
  266.0000   111.4780     9.9087     2.4347     0.0357     0.1445     0.3473   -22.0362     6.9961     4.5457     5.9450
  266.5000   111.1339     9.9135     2.4475     0.0201     0.1413     0.3365   -21.8551     7.5058     4.7249     5.9858
  267.0000   109.4199     9.9183     2.4736     0.0187     0.1372     0.3273   -21.6744     8.3773     4.8722     6.2746
  267.5000   109.6241     9.9232     2.4864     0.0282     0.1331     0.3256   -21.4936     8.9693     5.0578     6.5933
  268.0000   109.8799     9.9280     2.4611     0.0048     0.1289     0.3285   -21.3128     8.7246     5.2748     6.9322
  268.5000   108.9717     9.9328     2.4747    -0.0023     0.1175     0.3297   -21.1313     8.5606     5.5014     7.1738
  269.0000   109.8763     9.9377     2.4845     0.0071     0.1131     0.3249   -20.9514     8.7782     5.7376     7.3703
  269.5000   111.1665     9.9397     2.4791     0.0044     0.1199     0.3205   -20.8393     8.9646     5.9840     7.6010
  270.0000   112.8682     9.9405     2.4727    -0.0041     0.1408     0.3248   -21.0288     9.1550     6.2407     7.8390
  270.5000   114.5723     9.9413     2.4767    -0.0117     0.1267     0.3217   -21.2122     9.3495     6.5010     8.0371
  271.0000   114.5510     9.9422     2.4887     0.0020     0.1115     0.3181   -21.3948     9.3831     6.6563     8.0705
  271.5000   112.8027     9.9430     2.4642    -0.0055     0.1274     0.3146   -21.5774     9.3831     6.8484     8.1050
  272.0000   111.0586     9.9438     2.4644    -0.0302     0.1231     0.3125   -21.7600     9.3831     6.9971     8.1398
  272.5000   109.3102     9.9446     2.4745    -0.0224     0.1162     0.3097   -21.9426     9.3831     7.0145     8.1747
  273.0000   107.5626     9.9454     2.4798    -0.0087     0.1194     0.3113   -22.1253     9.5203     7.0320     8.2098
  273.5000   105.8136     9.9463     2.4735    -0.0109     0.1258     0.3137   -22.3078     9.6516     7.0496     8.2450
  274.0000   104.0778     9.9471     2.4590    -0.0257     0.1396     0.3132   -22.4905     9.7847     7.0673     8.2804
  274.5000   103.0009     9.9479     2.4549    -0.0215     0.1325     0.3127   -22.5946     9.9197     7.0850     8.3160
  275.0000   103.6498     9.9487     2.4471    -0.0167     0.1394     0.3122   -22.6160    10.0976     7.1027     8.3523
  275.5000   104.2676     9.9496     2.4391    -0.0279     0.1436     0.3117   -22.6377     9.7994     7.1205     8.4004
