~VERSION INFORMATION
 VERS.                2.0:   CWLS LOG ASCII STANDARD - VERSION 2.0
 WRAP.                 NO:   ONE LINE PER DEPTH STEP
~WELL INFORMATION
#MNEM.UNIT      DATA TYPE    INFORMATION
#----------   ------------   ------------------------------
 STRT.F           24.5000:   START DEPTH
 STOP.F          576.0000:   STOP DEPTH
 STEP.F            0.5000:   STEP LENGTH
 NULL.          -999.2500:   NO VALUE
 COMP. FENIX & SCISSON INC:   COMPANY
 WELL.    NPR-3 SX #61-15:   WELL
 FLD .             TEAPOT:   FIELD
 LOC .      S15 T38N R78W:   LOCATION
 CNTY.            NATRONA:   COUNTY
 STAT.            WYOMING:   STATE
 CTRY. UNITED STATES OF AMERICA:   COUNTRY
 SRVC.            Unknown:   SERVICE COMPANY
 DATE.        29-MAY-1978:   LOGDATE
 API .       490251062300:   API NUMBER
~CURVE INFORMATION
#MNEM.UNIT       API CODE    CURVE DESCRIPTION
#----------   ------------   ------------------------------
 DEPT.F                  :   
 GRD .GAPI   45 310 01 00:   GAMMA RAY FROM DENSITY LOG
 CALD.IN     45 280 60 00:   CALIPER FROM DENSITY LOG
 SN  .OHMM   05 040 16 00:   SHORT NORMAL 16'
 SPR .MV     05 010 01 00:   SPONTANEOUS POTENTIAL
 ILD .OHMM   05 120 46 00:   INDUCTION LOG DEEP
 RHOB.G/C3   45 350 01 00:   BULK DENSITY
 DPHI.DEC    45 890 12 00:   DENSITY POROSITY SANDSTONE
 CORR.G/C3   45 356 01 00:   DENSITY CORRECTION
~PARAMETER INFORMATION
#MNEM.UNIT          VALUE    DESCRIPTION
#----------   ------------   ------------------------------
 PD  .                 GL:   PERMANENT DATUM
 EPD .F              5221:   ELEVATION PERMANENT DATUM
 LMF .                 KB:   LOG MEASURED FROM
 DAPD.F                 4:   FEET ABOVE PERMANENT DATUM
 DMF .                 KB:   DRILLING MEASURED FROM
 EKB .F              5225:   KELLING BUSHING
 EGL .F              5221:   GROUND LEVEL
 DATE.          5-29-1978:   RUN DATE
 RUN .                  1:   RUN NUMBER
 DD  .F               565:   DEPTH DRILLER
 DL  .F               578:   DEPTH LOGGER
 BLI .F               570:   BOTTOM LOG INTERVAL
 TLI .F                40:   TOP LOG INTERVAL
 CS  .IN            8.625:   CASING SIZE
 CBD .F                40:   CASING BOTTOM DRILLER
 CBL .F                40:   CASING BOTTOM LOGGER
 BS  .IN            7.875:   BIT SIZE
 BSD .F               565:   BIT SIZE AT DEPTH
 DFT .                KCL:   DRILLING FLUID TYPE
 DFD .                8.7:   DRILLING FLUID DENSITY
 DFV .                 34:   DRILLING FLUID VISCOSITY
 DFPH.                9.5:   DRILLING FLUID PH
 DFL .               10.4:   DRILLING FLUID LOSS
 BHT .F                76:   BOTTOM HOLE TEMPERATURE
 TCS .HRS               3:   TIME CURCULATED STOPPED
 MRT .F                76:   MAXIMUM RECORDED TEMPERATURE
 LUN .               2958:   LOGGING UNIT NUMBER
 LUL .              CASP.:   LOGGING UNIT LOCATION
 ENGI.             MILLER:   RECORDING ENGINEER
 WITN.           MCGINLEY:   WITNESSED BY
 CLNT.            A2DTECH:   CLIENT CODE
 ORIG.      2" , 5" PRINT:   ORIGIN OF DATA
 UWI .       490251062300:   UNIQUE WELL ID
 DICO. A2D Technologies, Inc.:   DIGITIZING COMPANY
~OTHER INFORMATION
~A   DEPT       GRD      CALD         SN        SPR        ILD       RHOB       DPHI       CORR   
# ...
  227.0000    78.1227     7.6880     9.0006   -30.5777     9.7804     2.4695     0.1212     0.1187
  227.5000    78.2291     7.5996     8.9387   -30.5777     9.5871     2.4621     0.1378     0.0955
  228.0000    75.7555     7.5232     8.8773   -30.5777     9.3977     2.4423     0.1545     0.0387
  228.5000    70.3443     7.4471     8.8163   -30.5777     9.2121     2.4207     0.1571     0.0342
  229.0000    66.9957     7.3710     8.7557   -30.5777     9.0651     2.4024     0.1540     0.0369
  229.5000    68.5920     7.2963     8.6954   -30.5777     8.9821     2.4065     0.1525     0.0395
  230.0000    72.4723     7.2823     8.6355   -30.5776     8.9821     2.4135     0.1470     0.0421
  230.5000    74.6359     7.3209     8.5783   -30.5770     8.9821     2.4204     0.1411     0.0446
  231.0000    75.9888     7.3897     8.5781   -30.5717     8.9821     2.4271     0.1353     0.0467
  231.5000    77.8437     7.4398     8.5828   -30.7217     9.0009     2.4380     0.1294     0.0464
  232.0000    77.1335     7.4766     8.6010   -30.9201     9.0193     2.4486     0.1246     0.0490
  232.5000    76.2731     7.5128     8.6192   -31.5793     9.0376     2.4594     0.1200     0.0534
  233.0000    76.4917     7.5489     8.6375   -31.8930     9.0559     2.4642     0.1196     0.0578
  233.5000    77.3490     7.5844     8.6558   -32.0688     9.0743     2.4649     0.1205     0.0618
  234.0000    78.0840     7.6253     8.6741   -32.2425     9.0927     2.4643     0.1220     0.0685
  234.5000    76.9763     7.7724     8.6925   -32.4172     9.1111     2.4603     0.1232     0.0814
  235.0000    75.9069     7.9168     8.7109   -32.6704     9.1297     2.4558     0.1260     0.0983
  235.5000    76.5580     8.0389     8.7375   -33.4082     9.1494     2.4513     0.1314     0.1150
  236.0000    78.5042     8.1026     8.6781   -33.6532     9.0481     2.4468     0.1364     0.1350
  236.5000    80.2479     8.1439     8.5724   -33.7717     8.9160     2.4420     0.1364     0.1560
  237.0000    80.2824     8.1793     8.4680   -33.8865     8.7858     2.4409     0.1344     0.1756
  237.5000    79.5924     8.2147     8.3649   -34.0024     8.6575     2.4421     0.1209     0.2088
  238.0000    80.7521     8.2499     8.2630   -34.1200     8.5312     2.4557     0.0980     0.2459
  238.5000    84.7637     8.2706     8.1622   -34.1391     8.4067     2.4808     0.0868     0.2822
  239.0000    85.9964     8.2355     8.0626   -34.1021     8.2840     2.5059     0.0935     0.2856
  239.5000    82.1745     8.2047     7.9663   -34.0639     8.1631     2.5100     0.0912     0.2568
  240.0000    79.2534     8.0811     8.0467   -34.0258     8.0439     2.5083     0.0986     0.2187
  240.5000    78.6220     7.9490     8.0396   -33.9877     7.9265     2.5027     0.1159     0.1804
  241.0000    78.4082     7.8165     8.0824   -33.9497     7.8108     2.4897     0.1239     0.1421
  241.5000    77.7087     7.6844     8.1192   -33.9117     7.7525     2.4777     0.1183     0.1039
  242.0000    75.8834     7.5520     8.1561   -33.8735     7.7525     2.4657     0.1160     0.0694
  242.5000    75.1302     7.4215     8.1933   -33.8339     7.7525     2.4534     0.1320     0.0461
  243.0000    77.3113     7.3345     8.2306   -33.7955     7.7525     2.4482     0.1311     0.0442
  243.5000    78.4025     7.3058     8.2680   -33.8625     7.8088     2.4480     0.1303     0.0445
  244.0000    78.1511     7.2878     8.3057   -34.6060     7.8696     2.4470     0.1311     0.0424
  244.5000    77.3017     7.2701     8.3447   -34.7999     7.9309     2.4470     0.1328     0.0427
  245.0000    77.5817     7.2648     8.3447   -34.8539     7.9922     2.4477     0.1317     0.0403
  245.5000    81.1570     7.2812     8.3447   -34.9038     8.1181     2.4498     0.1233     0.0448
  246.0000    85.0777     7.2967     8.3454   -34.9553     8.1166     2.4580     0.1198     0.0513
  246.5000    85.7470     7.3120     8.3438   -35.0070     8.2952     2.4673     0.1183     0.0567
  247.0000    84.6061     7.3279     8.4308   -35.0587     8.4460     2.4769     0.1104     0.0580
  247.5000    83.6721     7.3752     8.5025   -35.1107     8.5996     2.4781     0.1139     0.0593
  248.0000    83.4216     7.5710     8.5748   -35.1580     8.7560     2.4739     0.1161     0.0605
  248.5000    83.0191     7.7397     8.6477   -35.1444     8.9139     2.4688     0.1155     0.0638
  249.0000    81.5145     7.8213     8.7212   -35.1294     9.1532     2.4662     0.1239     0.0740
  249.5000    80.7341     7.9038     8.7953   -35.1147     9.1459     2.4675     0.1284     0.0855
  250.0000    80.9878     8.0375     8.8183   -35.1000     9.1489     2.4516     0.1304     0.0971
  250.5000    82.0483     8.1763     8.7732   -35.0854     9.0750     2.4431     0.1300     0.1285
  251.0000    84.0416     8.2186     8.7096   -35.0707     9.0184     2.4469     0.1267     0.1679
  251.5000    86.4284     8.2226     8.6465   -35.0561     8.9622     2.4558     0.1173     0.2076
  252.0000    88.8408     8.2379     8.5839   -35.0414     8.9063     2.4653     0.0993     0.2474
  252.5000    90.7144     8.2155     8.5217   -35.0268     8.8508     2.4748     0.1088     0.2847
  253.0000    89.6682     8.1788     8.4600   -35.0121     8.7956     2.4818     0.1022     0.2822
  253.5000    87.9543     8.0700     8.3987   -34.9973     8.7407     2.4820     0.0972     0.2162
  254.0000    87.2740     7.9632     8.3379   -34.9826     8.6862     2.4808     0.1073     0.1671
  254.5000    86.6584     7.8935     8.2775   -34.9694     8.6575     2.4795     0.1144     0.1368
  255.0000    85.0368     7.8830     8.2175   -35.0301     8.6575     2.4783     0.1244     0.1193
  255.5000    81.5582     7.8738     8.1580   -35.1866     8.6575     2.4771     0.1308     0.0795
  256.0000    77.1936     7.7781     8.0989   -35.3417     8.6575     2.4661     0.1290     0.0479
  256.5000    76.2716     7.6417     8.0402   -35.4971     8.6575     2.4488     0.1256     0.0466
  257.0000    78.6511     7.5331     7.9689   -35.6537     8.6578     2.4506     0.1275     0.0438
  257.5000    81.1471     7.4327     7.9697   -35.9308     8.6575     2.4520     0.1321     0.0393
  258.0000    81.4859     7.3723     7.9766   -36.4677     8.6575     2.4476     0.1368     0.0364
  258.5000    80.3932     7.3668     8.0097   -36.9999     8.4576     2.4427     0.1304     0.0400
  259.0000    81.3589     7.3901     8.0429   -37.5350     8.2660     2.4450     0.1206     0.0441
  259.5000    84.6560     7.4129     8.0763   -37.8808     8.0787     2.4559     0.1144     0.0482
  260.0000    86.7300     7.4356     8.1098   -38.1080     7.8956     2.4666     0.1114     0.0422
  260.5000    84.1565     7.4582     8.1435   -38.3329     7.7167     2.4741     0.1092     0.0325
  261.0000    83.4276     7.4810     8.1935   -38.5584     7.5419     2.4719     0.1158     0.0305
  261.5000    82.5951     7.5224     8.1937   -38.7817     7.3710     2.4690     0.1216     0.0302
  262.0000    79.5519     7.6603     7.9656   -38.9063     7.2040     2.4660     0.1240     0.0368
  262.5000    77.1212     7.7971     7.7347   -38.7235     7.0710     2.4629     0.1218     0.0527
  263.0000    80.0969     7.9130     7.5111   -38.5505     7.0710     2.4599     0.1212     0.0693
  263.5000    85.2195     7.9967     7.4039   -38.3776     7.1364     2.4599     0.1240     0.0892
  264.0000    88.5773     8.0809     7.4039   -38.2048     7.2164     2.4600     0.1245     0.1118
  264.5000    90.2548     8.1648     7.4910   -38.0319     7.2976     2.4599     0.1249     0.1343
  265.0000    91.0297     8.1977     7.5742   -37.8582     7.3796     2.4599     0.1184     0.1565
  265.5000    91.8254     8.2213     7.6582   -37.6858     7.4625     2.4608     0.1081     0.1769
  266.0000    91.7299     8.2443     7.7433   -37.5876     7.5464     2.4690     0.0856     0.2291
  266.5000    88.3203     8.2187     7.8292   -37.8246     7.6312     2.4863     0.0891     0.2591
  267.0000    84.9452     8.1382     7.9162   -38.2123     7.7169     2.5035     0.0933     0.2449
