~VERSION INFORMATION
 VERS.                2.0:   CWLS LOG ASCII STANDARD - VERSION 2.0
 WRAP.                 NO:   ONE LINE PER DEPTH STEP
~WELL INFORMATION
#MNEM.UNIT      DATA TYPE    INFORMATION
#----------   ------------   ------------------------------
 STRT.F            0.0000:   START DEPTH
 STOP.F          984.0000:   STOP DEPTH
 STEP.F            0.5000:   STEP LENGTH
 NULL.          -999.2500:   NO VALUE
 COMP. LAWRENCE/ALLISON INC:   COMPANY
 WELL.     NPR 3 #51-X-11:   WELL
 FLD .             TEAPOT:   FIELD
 LOC .      S11 T38N R78W:   LOCATION
 CNTY.            NATRONA:   COUNTY
 STAT.            WYOMING:   STATE
 CTRY. UNITED STATES OF AMERICA:   COUNTRY
 SRVC.           Gearhart:   SERVICE COMPANY
 DATE.        22-AUG-1988:   LOGDATE
 API .       490251125400:   API NUMBER
~CURVE INFORMATION
#MNEM.UNIT       API CODE    CURVE DESCRIPTION
#----------   ------------   ------------------------------
 DEPT.F                  :   
 GRR .GAPI   07 310 01 00:   GAMMA RAY FROM RES. LOG.
 ILM .OHMM   07 120 44 00:   INDUCTION LOG MEDIUM
 ILD .OHMM   07 120 46 00:   INDUCTION LOG DEEP
~PARAMETER INFORMATION
#MNEM.UNIT          VALUE    DESCRIPTION
#----------   ------------   ------------------------------
 PD  .                 GL:   PERMANENT DATUM
 EPD .F              5187:   ELEVATION PERMANENT DATUM
 LMF .                 KB:   LOG MEASURED FROM
 DAPD.F                10:   FEET ABOVE PERMANENT DATUM
 DMF .                 KB:   DRILLING MEASURED FROM
 EKB .F              5197:   KELLING BUSHING
 EGL .F              5187:   GROUND LEVEL
 DATE.            8-22-88:   RUN DATE
 RUN .                  1:   RUN NUMBER
 DD  .F              1000:   DEPTH DRILLER
 DL  .F               992:   DEPTH LOGGER
 BLI .F             983.5:   BOTTOM LOG INTERVAL
 CS  .IN            9.625:   CASING SIZE
 CBD .F                49:   CASING BOTTOM DRILLER
 CBL .F                49:   CASING BOTTOM LOGGER
 BS  .IN             8.75:   BIT SIZE
 BSD .F              1000:   BIT SIZE AT DEPTH
 DFT .                AIR:   DRILLING FLUID TYPE
 BHT .F                70:   BOTTOM HOLE TEMPERATURE
 TLAB.HRS            0300:   TIME LOGGER AT BOTTOM
 MRT .F                70:   MAXIMUM RECORDED TEMPERATURE
 LUN .               7609:   LOGGING UNIT NUMBER
 LUL .           GILLETTE:   LOGGING UNIT LOCATION
 ENGI.          HUCKFELDT:   RECORDING ENGINEER
 WITN.             STRONG:   WITNESSED BY
 CLNT.            A2DTECH:   CLIENT CODE
 ORIG.      1" 2.5" PRINT:   ORIGIN OF DATA
 UWI .       490251125400:   UNIQUE WELL ID
 DICO. A2D Technologies, Inc.:   DIGITIZING COMPANY
~OTHER INFORMATION
~A    DEPT      GRR       ILM        ILD   
# ...
  364.0000    99.2344     2.7958     3.0424
  364.5000    96.4031     3.0730     3.2341
  365.0000    94.7843     3.3777     3.4383
  365.5000    94.7675     3.6233     3.6552
  366.0000    95.9763     3.7276     3.8858
  366.5000    97.2795     3.7925     3.9368
  367.0000    98.5818     3.8044     3.9368
  367.5000    99.9112     3.8245     3.9368
  368.0000   100.6953     3.8446     3.9368
  368.5000   100.9583     3.8640     3.9368
  369.0000   102.4240     3.7474     3.7792
  369.5000   104.6508     3.5744     3.6336
  370.0000   106.2525     3.4094     3.4818
  370.5000   106.7143     3.2520     3.3306
  371.0000   107.1075     3.1018     3.1855
  371.5000   107.4255     2.9586     3.0466
  372.0000   107.8057     2.8220     2.9141
  372.5000   109.2829     2.6918     2.7889
  373.0000   110.9483     2.5694     2.7094
  373.5000   112.8383     2.3718     2.7094
  374.0000   114.0125     2.3818     2.7696
  374.5000   116.2364     2.4274     2.8126
  375.0000   107.2852     2.9041     3.0880
  375.5000   102.9873     3.3143     3.3410
  376.0000    98.6759     3.5235     3.6149
  376.5000    97.8641     3.7461     3.9112
  377.0000   100.2959     3.9826     4.2436
  377.5000    99.9729     4.2365     4.6204
  378.0000    99.7274     4.4869     4.8886
  378.5000    99.2990     4.6574     5.0055
  379.0000    98.8881     4.8225     5.1252
  379.5000   100.7469     4.9934     5.2478
  380.0000   102.6201     5.1704     5.3733
  380.5000   103.1735     5.3536     5.5743
  381.0000   101.1655     5.5433     5.8101
  381.5000    99.3549     5.7398     6.0558
  382.0000    97.4000     5.8800     6.1668
  382.5000    96.1781     5.9436     6.2045
  383.0000    96.9056     5.9584     6.2367
  383.5000    97.9710     5.9733     6.2690
  384.0000    99.1550     5.9882     6.2792
  384.5000   100.9968     6.0031     6.2689
  385.0000   102.7505     6.0181     6.2588
  385.5000   104.3686     6.0329     6.2488
  386.0000   103.7888     6.0499     6.2389
  386.5000   103.2709     6.0499     6.2291
  387.0000   102.5432     6.0500     6.2192
  387.5000   101.8909     6.0500     6.2094
  388.0000    99.2573     6.0500     6.1997
  388.5000    97.0870     6.0501     6.1901
  389.0000    96.2984     6.0501     6.1801
  389.5000    96.3539     6.0500     6.1701
  390.0000    98.7521     6.0500     6.1641
  390.5000   101.9769     6.0496     6.1644
  391.0000   105.1580     6.0496     6.1647
  391.5000   105.8778     6.0502     6.1656
  392.0000   106.8884     6.0478     6.1631
  392.5000   104.9858     6.0510     6.1630
  393.0000   101.2537     6.0485     6.2214
  393.5000    97.7899     6.1885     6.3605
  394.0000    94.2211     6.3246     6.5029
  394.5000    93.6158     6.4636     6.6486
  395.0000    96.0082     6.6059     6.7974
  395.5000    98.2420     6.7674     6.9492
  396.0000   100.5933     6.8636     7.0414
  396.5000   100.5113     7.0254     7.0713
  397.0000    97.9601     7.0138     7.1014
  397.5000    95.2395     6.9918     7.1325
  398.0000    92.6725     6.9698     7.1603
  398.5000    89.9426     6.9478     6.9497
  399.0000    90.3283     6.9260     6.7723
  399.5000    91.2498     6.9042     6.5988
  400.0000    92.1752     6.8953     6.0759
  400.5000    92.9614     6.5287     5.3949
  401.0000    92.2560     6.0989     4.7681
  401.5000    91.5638     5.7203     4.1511
  402.0000    90.5243     4.5587     3.6139
  402.5000    92.4661     3.6790     3.1462
  403.0000    96.6860     2.9197     2.7094
  403.5000   101.6026     2.6161     2.5554
  404.0000   107.4735     2.3227     2.3981
  404.5000   113.1631     1.9699     2.3333
  405.0000   118.8514     1.9713     2.3333
  405.5000   121.7662     1.9696     2.4471
  406.0000   121.7544     2.1311     2.6198
  406.5000   118.1278     2.4412     2.9197
  407.0000   105.8074     2.7665     3.3945
  407.5000    97.7161     3.7456     4.0424
  408.0000    92.9580     4.9589     4.8140
  408.5000    89.5959     6.5637     5.8184
  409.0000    86.1100     7.8799     7.2439
  409.5000    84.1448     8.7327     8.4982
  410.0000    84.8035     9.4845     9.1256
  410.5000    86.3951     9.8518     9.1256
  411.0000    85.4341    10.2153     8.6328
  411.5000    84.2580     9.9098     7.9018
  412.0000    83.2284     9.2398     7.2327
  412.5000    82.3235     7.8724     6.6203
  413.0000    83.8665     6.7076     6.0598
  413.5000    89.7772     5.7146     5.6144
  414.0000    99.2297     4.8684     5.5105
  414.5000   108.5016     4.0115     5.4085
  415.0000   114.3532     4.1666     5.4763
  415.5000   110.5818     4.6069     5.5346
  416.0000    99.4398     5.0942     5.5935
  416.5000    90.6632     5.7123     5.8071
  417.0000    85.3175     6.3320     6.6287
  417.5000    85.2340     7.1349     7.5665
  418.0000    85.3898     8.0396     8.6371
  418.5000    85.7529     9.0588     9.3359
  419.0000    86.5700    10.0169     9.8876
  419.5000    87.2297    10.0744    10.1615
  420.0000    86.8167    10.1225    10.3475
  420.5000    85.8764    10.1709    10.5366
  421.0000    84.6573    10.2769    10.7291
  421.5000    83.4219    10.5749    10.9253
  422.0000    83.3564    10.8815    11.1252
  422.5000    84.4271    11.1970    11.3290
  423.0000    86.1379    11.4188    11.5352
  423.5000    85.7464    11.4768    11.6725
  424.0000    84.5698    11.5330    11.7453
  424.5000    83.2528    11.5895    11.8185
  425.0000    84.9832    11.6465    11.8921
  425.5000    88.1539    11.7041    11.9663
  426.0000    89.4601    11.7625    12.0409
  426.5000    90.6228    11.8213    12.1159
  427.0000    91.2864    11.9229    12.1914
  427.5000    90.5747    12.0735    12.2674
  428.0000    88.4662    12.2259    12.3882
  428.5000    86.3391    12.3804    12.5532
  429.0000    87.1824    12.5367    12.7204
  429.5000    89.4576    12.6950    12.8898
  430.0000    90.7573    12.8552    13.0616
  430.5000    90.5840    13.0174    13.2356
  431.0000    88.3521    13.1816    13.4118
  431.5000    85.4767    13.3479    13.5905
  432.0000    82.5222    13.5163    13.7716
  432.5000    83.8999    13.6868    13.9551
  433.0000    86.4597    13.8595    14.1411
  433.5000    88.4778    14.0343    14.3298
  434.0000    88.1325    14.2114    14.5207
  434.5000    85.9256    14.4670    14.7136
  435.0000    84.3017    14.7863    14.9483
  435.5000    85.1091    15.1127    15.2480
  436.0000    85.5512    15.4464    15.5537
  436.5000    83.3307    15.7873    15.8656
  437.0000    81.7998    16.1358    16.1836
  437.5000    81.7157    16.4920    16.6695
  438.0000    81.6854    16.8561    17.2465
  438.5000    81.7952    17.2282    17.8729
  439.0000    82.2267    17.5483    19.0320
  439.5000    82.3071    19.7481    20.3452
  440.0000    78.6560    21.8705    21.7488
  440.5000    75.1866    24.9969    23.2380
  441.0000    71.5641    30.7357    23.1050
  441.5000    68.0824    31.2313    22.9242
  442.0000    67.0457    30.4344    22.5147
  442.5000    71.4414    27.4298    21.5239
  443.0000    76.7335    24.7219    20.5769
  443.5000    80.8706    22.2813    19.6716
  444.0000    81.6605    20.0000    18.8062
  444.5000    82.5750    18.6729    17.9788
  445.0000    84.4889    17.3851    17.1878
  445.5000    87.2187    16.5918    16.5445
  446.0000    87.5099    16.6320    16.3270
  446.5000    87.6923    16.7255    16.1115
  447.0000    87.7662    16.8195    15.8969
  447.5000    87.9748    16.9140    15.6835
  448.0000    87.9995    17.0091    15.4725
  448.5000    88.0767    17.1047    15.2654
  449.0000    85.8155    17.2008    15.0948
  449.5000    87.8065    16.3671    13.5470
  450.0000    90.3303    15.1122    12.3509
  450.5000    92.8869    13.6017    11.2479
  451.0000    94.9217    11.9317    10.2434
  451.5000    96.4802    10.4668     9.3286
  452.0000    97.8003     9.1817     8.4955
  452.5000   102.3392     8.2452     7.7368
  453.0000   106.7530     7.5626     7.0254
  453.5000   108.2855     6.9364     6.8784
  454.0000   111.0561     6.3621     6.7299
  454.5000   113.6337     6.1642     6.5846
