~VERSION INFORMATION
 VERS.                2.0:   CWLS LOG ASCII STANDARD - VERSION 2.0
 WRAP.                 NO:   ONE LINE PER DEPTH STEP
~WELL INFORMATION
#MNEM.UNIT      DATA TYPE    INFORMATION
#----------   ------------   ------------------------------
 STRT.F           35.0000:   START DEPTH
 STOP.F          601.0000:   STOP DEPTH
 STEP.F            0.5000:   STEP LENGTH
 NULL.          -999.2500:   NO VALUE
 COMP. FENIX & SCISSON INC:   COMPANY
 WELL. NPR #3 71SX #71-15:   WELL
 FLD .             TEAPOT:   FIELD
 LOC .      S15 T38N R78W:   LOCATION
 CNTY.            NATRONA:   COUNTY
 STAT.            WYOMING:   STATE
 CTRY. UNITED STATES OF AMERICA:   COUNTRY
 SRVC.              Welex:   SERVICE COMPANY
 DATE.        10-MAR-1977:   LOGDATE
 API .       490251031200:   API NUMBER
~CURVE INFORMATION
#MNEM.UNIT       API CODE    CURVE DESCRIPTION
#----------   ------------   ------------------------------
 DEPT.F                  :   
 SPR .MV     07 010 01 00:   SPONTANEOUS POTENTIAL
 SGRD.OHMM   07 220 05 00:   SHALLOW RESISTIVITY
 DRES.OHMM   07 120 46 00:   INDUCTION LOG DEEP
 MRES.OHMM   07 120 44 00:   INDUCTION LOG MEDIUM
 GRD .GAPI   45 310 01 00:   GAMMA RAY FROM DENSITY LOG
 CALD.IN     45 280 60 00:   CALIPER
 RHOB.G/C3   45 350 01 00:   BULK DENSITY
 DPHI.DEC    45 890 12 00:   DENSITY POROSITY
 CORR.G/C3   45 356 01 00:   DENSITY CORRECTION
~PARAMETER INFORMATION
#MNEM.UNIT          VALUE    DESCRIPTION
#----------   ------------   ------------------------------
 PD  .                 GL:   PERMANENT DATUM
 EPD .F              5241:   ELEVATION PERMANENT DATUM
 LMF .                 GL:   LOG MEASURED FROM
 DMF .                 GL:   DRILLING MEASURED FROM
 EGL .F              5241:   GROUND LEVEL
 DATE.            3-10-77:   RUN DATE
 RUN .                  1:   RUN NUMBER
 DD  .F               600:   DEPTH DRILLER
 DL  .F               603:   DEPTH LOGGER
 BLI .F               601:   BOTTOM LOG INTERVAL
 TLI .F                35:   TOP LOG INTERVAL
 CS  .IN            8.625:   CASING SIZE
 CBD .F                40:   CASING BOTTOM DRILLER
 CBL .F                40:   CASING BOTTOM LOGGER
 BS  .IN            7.875:   BIT SIZE
 BSD .F               600:   BIT SIZE AT DEPTH
 DFT .            KCL MUD:   DRILLING FLUID TYPE
 DFD .                8.6:   DRILLING FLUID DENSITY
 DFV .                 10:   DRILLING FLUID VISCOSITY
 DFPH.                7.2:   DRILLING FLUID PH
 DFL .                  8:   DRILLING FLUID LOSS
 MSS .            MUD PIT:   MUD SAMPLE SOURCE
 RMS .OHMM            .36:   RESISTIVITY MUD SAMPLE
 MST .F                47:   MUD SAMPLE TEMPERATURE
 RMF .OHMM            .35:   RESISTIVITY MUD FILTRATE SAMPLE
 MFST.F                47:   MUD FILTRATE SAMPLE TEMPERATURE
 RMC .OHMM            .40:   RESISTIVITY MUD CAKE
 MCST.F                47:   MUD CAKE SAMPLE TEMPERATURE
 MFSS.           FANN KIT:   MUD FILTRATE SAMPLE SOURCE
 MCSS.           FANN KIT:   MUD CAKE SAMPLE SOURCE
 RMB .OHMM            .31:   RESISTIVITY MUD AT BHT
 BHT .F                53:   BOTTOM HOLE TEMPERATURE
 TCS .HRS             1.5:   TIME CURCULATED STOPPED
 MRT .F                53:   MAXIMUM RECORDED TEMPERATURE
 LUN .               8611:   LOGGING UNIT NUMBER
 LUL .           GILLETTE:   LOGGING UNIT LOCATION
 ENGI.               DOAK:   RECORDING ENGINEER
 WITN.         STUEBINGER:   WITNESSED BY
 CLNT.            A2DTECH:   CLIENT CODE
 ORIG.       2", 5" PRINT:   ORIGIN OF DATA
 UWI .       490251031200:   UNIQUE WELL ID
 DICO. A2D Technologies, Inc.:   DIGITIZING COMPANY
~OTHER INFORMATION
~A   DEPT      SPR       SGRD       DRES       MRES         GRD      CALD       RHOB       DPHI       CORR   
# ...
  144.5000   -36.6541    12.1136     7.4480     9.5702   116.6958     7.8854     2.4194     0.1349     0.0368
  145.0000   -36.6567    12.4870     7.5417     9.8482   115.7272     7.8841     2.4206     0.1350     0.0373
  145.5000   -36.6594    12.0849     7.6365     9.9109   113.7365     7.8828     2.4241     0.1331     0.0414
  146.0000   -36.6620    11.8139     7.7326     9.9109   111.6175     7.8815     2.4320     0.1267     0.0453
  146.5000   -36.6646    12.8367     7.8029     9.9109   110.1650     7.8802     2.4484     0.1203     0.0492
  147.0000   -36.6673    12.6168     7.8258     9.9015   110.4177     7.8789     2.4632     0.1138     0.0507
  147.5000   -36.6699    12.3310     7.8487     9.8384   109.6164     7.8776     2.4693     0.1079     0.0514
  148.0000   -36.6725    12.1445     7.8717     9.7756   107.8396     7.8763     2.4679     0.1054     0.0521
  148.5000   -36.6752    16.6261     7.8948     9.7133   107.3573     7.8750     2.4660     0.1088     0.0507
  149.0000   -36.6778    14.8907     7.9179     9.6513   109.7249     7.8738     2.4628     0.1136     0.0484
  149.5000   -36.6804    11.8126     7.9411     9.5898   112.4299     7.8724     2.4591     0.1184     0.0461
  150.0000   -36.6830    11.3840     7.9644     9.5286   112.3999     7.8712     2.4563     0.1201     0.0439
  150.5000   -36.6857    11.6617     7.9878     9.4679   111.5479     7.8699     2.4582     0.1204     0.0416
  151.0000   -36.6883    11.8203     8.0112     9.3765   111.5349     7.8686     2.4616     0.1185     0.0393
  151.5000   -36.6909    12.0328     8.0835     9.4664   111.5265     7.8673     2.4661     0.1116     0.0400
  152.0000   -36.6936    11.9953     8.2291     9.6546   111.2387     7.8660     2.4706     0.1042     0.0434
  152.5000   -36.6962    11.9222     8.3774     9.8464   110.0324     7.8647     2.4747     0.1023     0.0469
  153.0000   -36.6988    12.2398     8.5283    10.0421   107.8306     7.8634     2.4786     0.1004     0.0517
  153.5000   -36.7015    12.9768     8.6819    10.2416   105.9187     7.8621     2.4824     0.0985     0.0564
  154.0000   -36.7041    14.5295     8.8383    10.4758   106.6683     7.8608     2.4811     0.0981     0.0613
  154.5000   -36.7067    16.7342     8.9996    10.4543   108.1272     7.8595     2.4715     0.1027     0.0623
  155.0000   -36.7094    14.4373     9.1232    10.4064   109.4662     7.8582     2.4661     0.1073     0.0607
  155.5000   -36.7120    12.8367     8.9600    10.3587   109.9324     7.8569     2.4625     0.1120     0.0581
  156.0000   -36.7146    12.7558     8.7679    10.3112   110.6807     7.8556     2.4520     0.1165     0.0554
  156.5000   -36.7173    12.6757     8.5820    10.2640   112.9089     7.8543     2.4414     0.1206     0.0527
  157.0000   -36.7199    12.5995     8.4001    10.2170   116.8170     7.8530     2.4413     0.1198     0.0527
  157.5000   -36.7225    12.0437     8.2220    10.1702   119.1526     7.8517     2.4516     0.1157     0.0532
  158.0000   -36.7252    12.1002     8.0477    10.1236   120.1613     7.8504     2.4564     0.1118     0.0538
  158.5000   -36.7278    12.2118     8.0107    10.0772   119.4342     7.8491     2.4545     0.1141     0.0542
  159.0000   -36.7304    12.3244     8.0068    10.0311   117.8221     7.8478     2.4501     0.1163     0.0515
  159.5000   -36.7331    12.4858     8.0029     9.9851   116.5881     7.8465     2.4455     0.1185     0.0488
  160.0000   -36.7357    12.4474     7.9991     9.9394   119.1354     7.8467     2.4418     0.1207     0.0462
  160.5000   -36.7383    12.3829     7.9952     9.8938   119.4185     7.8473     2.4512     0.1169     0.0452
  161.0000   -36.7410    12.3187     7.9914     9.8485   119.0199     7.8478     2.4606     0.1122     0.0494
  161.5000   -36.7436    12.2545     7.9875     9.8034   118.7066     7.8483     2.4699     0.1075     0.0534
  162.0000   -36.7462    12.1908     7.9836     9.7585   119.1070     7.8488     2.4766     0.1027     0.0574
  162.5000   -36.7489    12.1273     7.9798     9.7223   119.5234     7.8493     2.4722     0.0994     0.0591
  163.0000   -36.7515    12.0642     7.9759     9.7018   120.6225     7.8499     2.4636     0.1083     0.0542
  163.5000   -36.7541    12.0014     7.9721     9.6813   120.2147     7.8504     2.4525     0.1166     0.0494
  164.0000   -36.7568    11.9228     7.9682     9.6609   119.3018     7.8509     2.4572     0.1130     0.0503
  164.5000   -36.7594    12.0216     7.9644     9.6405   118.0643     7.8514     2.4662     0.1079     0.0530
  165.0000   -36.7620    12.1606     7.9605     9.6202   114.8364     7.8519     2.4660     0.1076     0.0530
  165.5000   -36.7647    12.3710     7.9567     9.5999   111.5822     7.8524     2.4653     0.1078     0.0507
  166.0000   -36.7673    12.3111     7.9528     9.5797   109.7805     7.8530     2.4645     0.1070     0.0483
  166.5000   -36.7699    12.1947     7.9490     9.5595   109.7276     7.8535     2.4638     0.1089     0.0459
  167.0000   -36.7726    12.0794     7.9451     9.5393   110.9815     7.8540     2.4604     0.1085     0.0436
  167.5000   -36.7752    11.9652     7.9423     9.5192   114.3821     7.8545     2.4551     0.1123     0.0412
  168.0000   -36.7778    11.8521     7.8886     9.4991   117.6303     7.8550     2.4497     0.1175     0.0410
  168.5000   -36.7805    11.7039     7.8144     9.4791   118.5107     7.8555     2.4444     0.1194     0.0422
  169.0000   -36.7831    11.7881     7.7409     9.4591   117.4678     7.8561     2.4516     0.1162     0.0434
  169.5000   -36.7857    11.9136     7.6681     9.4392   117.8472     7.8566     2.4648     0.1101     0.0446
  170.0000   -36.7884    12.0328     7.5959     9.4193   118.7185     7.8571     2.4771     0.1041     0.0459
  170.5000   -36.7910    11.8873     7.5245     9.3994   119.5682     7.8576     2.4806     0.0994     0.0471
  171.0000   -36.7936    11.7516     7.4429     9.3796   119.3534     7.8581     2.4874     0.0948     0.0482
  171.5000   -36.7963    11.5963     7.4729     9.2919   117.6881     7.8586     2.4989     0.0872     0.0459
  172.0000   -36.7989    11.8987     7.5085     9.1920   116.5201     7.8592     2.5080     0.0825     0.0436
  172.5000   -36.8015    12.2572     7.5442     9.0370   116.7732     7.8597     2.4960     0.0921     0.0413
  173.0000   -36.8042    11.5963     7.5802     9.0767   116.5734     7.8602     2.4781     0.1033     0.0389
  173.5000   -36.8068    11.4897     7.6162     9.1700   115.8760     7.8607     2.4560     0.1154     0.0388
  174.0000   -36.8094    11.9489     7.6521     9.2649   115.7504     7.8612     2.4625     0.1125     0.0395
  174.5000   -36.8121    12.2572     7.7328     9.3607   116.2701     7.8617     2.4695     0.1087     0.0403
  175.0000   -36.8147    11.9435     7.8134     9.4575   118.4523     7.8623     2.4720     0.1048     0.0411
  175.5000   -36.8173    12.0471     7.8948     9.5554   117.9592     7.8628     2.4744     0.1010     0.0419
  176.0000   -36.8199    12.3667     7.9771     9.6542   115.8077     7.8633     2.4804     0.0972     0.0426
  176.5000   -36.8227    12.8358     8.0602     9.7541   113.3468     7.8638     2.4882     0.0957     0.0434
  177.0000   -36.8254    12.7905     8.1632     9.8550   112.4175     7.8643     2.4834     0.0986     0.0442
  177.5000   -36.8518    12.7129     8.1477     9.9571   112.8644     7.8648     2.4737     0.1025     0.0432
  178.0000   -36.8951    12.6018     8.1277    10.0602   113.4173     7.8654     2.4659     0.1064     0.0421
  178.5000   -36.9385    12.6158     8.1077    10.1899   114.4075     7.8659     2.4692     0.1066     0.0410
  179.0000   -36.9822    12.6549     8.0878    10.1704   115.3666     7.8664     2.4726     0.1052     0.0399
  179.5000   -37.0258    12.6945     8.0679    10.1350   116.3099     7.8669     2.4654     0.1076     0.0389
  180.0000   -37.0694    12.7174     8.0481    10.1002   116.9838     7.8674     2.4561     0.1130     0.0378
  180.5000   -37.1130    12.4834     8.0283    10.0655   116.1148     7.8679     2.4504     0.1182     0.0367
