~VERSION INFORMATION
 VERS.                2.0:   CWLS LOG ASCII STANDARD - VERSION 2.0
 WRAP.                 NO:   ONE LINE PER DEPTH STEP
~WELL INFORMATION
#MNEM.UNIT      DATA TYPE    INFORMATION
#----------   ------------   ------------------------------
 STRT.F           14.0000:   START DEPTH
 STOP.F          500.0000:   STOP DEPTH
 STEP.F            0.1000:   STEP LENGTH
 NULL.          -999.2500:   NO VALUE
 COMP. LAWRENCE/ALLISON INC:   COMPANY
 WELL.    72-46 SX #10-10:   WELL
 FLD .             TEAPOT:   FIELD
 LOC .      S10 T38N R78W:   LOCATION
 CNTY.            NATRONA:   COUNTY
 STAT.            WYOMING:   STATE
 CTRY. UNITED STATES OF AMERICA:   COUNTRY
 SRVC.           Gearhart:   SERVICE COMPANY
 DATE.        22-MAY-1988:   LOGDATE
 API .       490251122600:   API NUMBER
~CURVE INFORMATION
#MNEM.UNIT       API CODE    CURVE DESCRIPTION
#----------   ------------   ------------------------------
 DEPT.F                  :   
 GRR .GAPI   07 310 01 00:   GAMMA RAY
 RILD.OHMM   07 120 46 00:   INDUCTION LOG DEEP RESISTIVITY
 RILM.OHMM   07 120 44 00:   INDUCTION LOG MEDIUM RESISTIVITY
~PARAMETER INFORMATION
#MNEM.UNIT          VALUE    DESCRIPTION
#----------   ------------   ------------------------------
 PD  .                 GL:   PERMANENT DATUM
 EPD .F              5173:   ELEVATION PERMANENT DATUM
 LMF .                 KB:   LOG MEASURED FROM
 DAPD.F              10.2:   FEET ABOVE PERMANENT DATUM
 DMF .                 KB:   DRILLING MEASURED FROM
 EKB .F            5183.2:   KELLING BUSHING
 EGL .F              5173:   GROUND LEVEL
 DATE.        22-MAY-1988:   RUN DATE
 RUN .                  1:   RUN NUMBER
 DD  .F               505:   DEPTH DRILLER
 DL  .F               504:   DEPTH LOGGER
 BLI .F               500:   BOTTOM LOG INTERVAL
 TLI .F                50:   TOP LOG INTERVAL
 CS  .IN            9.625:   CASING SIZE
 CBD .F                52:   CASING BOTTOM DRILLER
 CBL .F                50:   CASING BOTTOM LOGGER
 BS  .IN             8.75:   BIT SIZE
 BSD .F               505:   BIT SIZE AT DEPTH
 DFT .                AIR:   DRILLING FLUID TYPE
 TLAB.HRS            1339:   TIME LOGGER AT BOTTOM
 LUN .               7597:   LOGGING UNIT NUMBER
 LUL .           GILLETTE:   LOGGING UNIT LOCATION
 ENGI.          HUCKFELDT:   RECORDING ENGINEER
 WITN.             STRONG:   WITNESSED BY
 CLNT.            A2DTECH:   CLIENT CODE
 ORIG.           5" PRINT:   ORIGIN OF DATA
 UWI .       490251122600:   UNIQUE WELL ID
 DICO. A2D Technologies, Inc.:   DIGITIZING COMPANY
~OTHER INFORMATION
~A   DEPT       GRR      RILD       RILM   
# ...
  287.0000    77.4958    21.1955    21.8312
  287.1000    75.9029    21.6474    22.3420
  287.2000    74.5547    22.0406    22.8640
  287.3000    72.3686    22.5987    23.3683
  287.4000    70.5303    22.9595    23.7759
  287.5000    68.8742    23.3601    24.1926
  287.6000    67.2409    23.7676    24.6160
  287.7000    65.5528    24.1819    25.0464
  287.8000    64.0651    24.5916    25.4270
  287.9000    62.6458    24.9135    25.7485
  288.0000    61.7716    25.2924    26.2128
  288.1000    61.1004    25.7338    26.6571
  288.2000    60.7139    26.2521    26.8849
  288.3000    60.5881    26.7868    27.2150
  288.4000    60.8341    27.1022    27.6349
  288.5000    60.8377    27.6577    27.9781
  288.6000    61.0484    28.0572    28.5015
  288.7000    61.4589    28.4442    28.8096
  288.8000    61.9657    28.8425    29.1444
  288.9000    62.4220    29.3106    29.5716
  289.0000    62.6789    29.6524    30.0343
  289.1000    63.1815    29.9935    30.3830
  289.2000    63.6880    30.4793    30.7744
  289.3000    64.1949    30.8048    31.2544
  289.4000    64.7018    31.1147    31.5495
  289.5000    65.2479    31.5700    31.5582
  289.6000    66.0458    31.5689    31.4242
  289.7000    66.5264    31.3959    31.4128
  289.8000    67.2195    31.3477    31.2045
  289.9000    67.9780    31.2511    31.0510
  290.0000    68.7364    31.0703    30.8716
  290.1000    69.4663    30.9107    30.6932
  290.2000    70.0216    30.9098    30.5157
  290.3000    70.7079    30.7481    30.3393
  290.4000    71.4663    30.6932    30.1313
  290.5000    72.1023    30.6062    29.9899
  290.6000    72.6795    30.4781    29.9209
  290.7000    73.4204    30.4772    29.7837
  290.8000    73.9974    30.4763    29.4728
  290.9000    74.4340    30.4755    29.2994
  291.0000    75.1051    30.4747    29.2990
  291.1000    75.6399    30.4738    29.1678
  291.2000    76.0130    30.4730    28.9993
  291.3000    76.7584    30.4721    28.8317
  291.4000    77.0599    30.4711    28.6900
  291.5000    77.2684    30.4704    28.6896
  291.6000    77.6765    30.4696    28.5332
  291.7000    78.1833    30.4687    28.3684
  291.8000    78.6419    30.5017    28.2905
  291.9000    78.9011    30.6803    28.2902
  292.0000    79.1516    30.6795    28.2714
  292.1000    79.4066    30.6787    28.0925
  292.2000    79.6615    30.6778    28.0921
  292.3000    79.9164    30.7403    27.9788
  292.4000    80.1713    30.8910    27.8958
  292.5000    80.4416    30.8899    27.8955
  292.6000    80.4445    31.0573    27.8951
  292.7000    80.4475    31.1045    27.8946
  292.8000    80.0563    31.1977    27.8943
  292.9000    79.3826    31.3774    27.8939
  293.0000    78.8817    31.5391    27.8935
  293.1000    78.3291    31.5380    27.8931
  293.2000    78.1062    31.5373    27.8983
  293.3000    77.6842    31.6619    28.0877
  293.4000    77.3041    31.7563    28.0874
  293.5000    77.0553    31.8051    28.1880
  293.6000    76.8217    31.9769    28.2834
  293.7000    76.8254    31.9759    28.2830
  293.8000    76.8280    32.1330    28.2826
  293.9000    76.6689    32.3182    28.4458
  294.0000    76.5297    32.4226    28.4800
  294.1000    76.5327    32.4642    28.5756
  294.2000    76.5358    32.6478    28.8037
  294.3000    76.5394    32.6467    29.1098
  294.4000    76.5419    32.7990    29.2851
  294.5000    76.6961    32.9880    29.4474
  294.6000    76.8524    33.1029    29.6178
  294.7000    76.8094    33.1371    29.7891
  294.8000    76.5541    33.3328    30.0199
  294.9000    76.5571    33.3319    30.3683
  295.0000    76.1744    33.4788    30.7495
  295.1000    75.8141    33.5634    30.9131
  295.2000    75.4777    33.6301    31.0920
  295.3000    74.9421    33.8238    31.3636
  295.4000    74.1372    34.0322    31.6731
  295.5000    73.2023    34.2148    31.8563
  295.6000    72.0165    34.2686    32.0624
  295.7000    71.0186    34.3696    32.3909
  295.8000    70.2659    34.5066    32.6395
  295.9000    69.5135    34.5057    32.8283
  296.0000    68.6761    34.5046    33.0678
  296.1000    68.2318    34.6810    33.4417
  296.2000    67.9021    34.7444    33.6657
  296.3000    67.5350    34.8380    33.8299
  296.4000    67.1002    34.9857    34.1514
  296.5000    66.8515    34.9953    34.4622
  296.6000    66.5636    35.2285    34.6175
  296.7000    66.5662    35.2277    34.6214
  296.8000    66.5692    35.2268    35.1032
  296.9000    66.5723    35.2258    35.2665
  297.0000    66.5754    35.2248    35.3483
  297.1000    66.5807    35.2238    35.4274
  297.2000    66.8355    35.2228    35.5951
  297.3000    67.0903    35.2218    35.5945
  297.4000    67.3452    35.1010    35.5940
  297.5000    67.6002    34.9750    35.5935
  297.6000    67.8988    34.9390    35.4788
  297.7000    68.4232    34.7298    35.3448
  297.8000    68.4262    34.7288    35.2867
  297.9000    68.6198    34.5767    34.8537
  298.0000    68.7367    34.3768    34.6657
  298.1000    68.7397    34.2447    34.4654
  298.2000    68.7428    34.2182    34.2662
  298.3000    68.7461    34.0046    34.0074
  298.4000    68.7488    33.8235    33.6555
  298.5000    68.5722    33.6279    33.6550
  298.6000    68.4505    33.4334    33.4810
  298.7000    68.4536    33.2966    33.1561
  298.8000    68.4567    33.2624    32.8649
  298.9000    68.4600    32.8332    32.6749
  299.0000    68.4627    32.6666    32.4980
  299.1000    68.4658    32.4777    32.4975
  299.2000    68.4688    32.3756    32.3367
  299.3000    68.4718    32.2811    32.1499
  299.4000    68.4859    31.9171    31.9641
  299.5000    68.7829    31.7021    31.7794
  299.6000    68.7854    31.7014    31.6002
  299.7000    68.9462    31.5863    31.5997
  299.8000    69.0959    31.4036    31.4504
  299.9000    69.1516    31.2220    31.2686
  300.0000    69.4064    31.0412    31.0789
  300.1000    69.3611    30.9708    30.8767
  300.2000    69.3158    30.9003    30.6745
  300.3000    69.2705    30.8299    30.4723
  300.4000    69.2252    30.7595    30.2701
  300.5000    69.1799    30.6891    30.0910
  300.6000    69.1282    30.6111    30.0910
  300.7000    69.1318    30.6111    30.0910
  300.8000    69.1361    30.4942    30.0910
  300.9000    69.0411    30.3982    30.0910
  301.0000    68.7975    30.3982    30.0910
  301.1000    68.5403    30.3972    30.0910
  301.2000    68.3105    30.2241    30.0910
  301.3000    67.8896    30.1869    30.0910
  301.4000    67.5189    30.1869    30.0910
  301.5000    67.2755    30.1869    30.0910
  301.6000    67.0391    30.1663    30.0704
  301.7000    67.0444    29.9770    29.8816
  301.8000    66.8493    29.9770    29.8816
  301.9000    66.8895    29.9770    29.8816
  302.0000    67.0563    29.8992    29.8816
  302.1000    67.0891    29.7685    29.8816
  302.2000    67.3697    29.7685    29.8816
  302.3000    67.8132    29.7685    29.8816
  302.4000    68.1498    29.7685    29.7469
  302.5000    68.4018    29.7685    29.6737
  302.6000    68.7036    29.7685    29.6737
  302.7000    69.2172    29.7469    29.6737
  302.8000    69.4623    29.5615    29.6737
  302.9000    69.8989    29.5615    29.5206
  303.0000    70.3989    29.4464    29.4672
  303.1000    70.8275    29.3560    29.3895
  303.2000    71.0795    29.3157    29.2220
  303.3000    71.3742    29.1519    29.0553
  303.4000    71.7893    29.1519    28.8898
  303.5000    72.1400    29.0195    28.7253
  303.6000    72.2996    28.9492    28.5615
  303.7000    72.3398    28.8907    28.4562
  303.8000    72.6128    28.7261    28.4347
  303.9000    72.6168    28.5480    28.2582
  304.0000    72.7916    28.3998    28.1113
  304.1000    73.0436    28.3495    27.9511
  304.2000    73.2384    28.2738    27.7917
  304.3000    73.2433    28.1127    27.6723
  304.4000    73.4953    27.9525    27.6682
  304.5000    73.5556    27.7622    27.4798
  304.6000    73.6949    27.6351    27.4798
  304.7000    73.8685    27.5692    27.3886
  304.8000    73.8948    27.5125    27.2886
  304.9000    74.1820    27.3775    27.2668
  305.0000    74.3987    27.3775    27.0987
  305.1000    74.4944    27.2343    27.0987
