~VERSION INFORMATION
 VERS.                2.0:   CWLS LOG ASCII STANDARD - VERSION 2.0
 WRAP.                 NO:   ONE LINE PER DEPTH STEP
~WELL INFORMATION
#MNEM.UNIT      DATA TYPE    INFORMATION
#----------   ------------   ------------------------------
 STRT.F           24.0000:   START DEPTH
 STOP.F          609.0000:   STOP DEPTH
 STEP.F            0.5000:   STEP LENGTH
 NULL.          -999.2500:   NO VALUE
 COMP. FENIX & SCISSON INC:   COMPANY
 WELL.        S 34 #48-34:   WELL
 FLD .            NPR - 3:   FIELD
 LOC .      S34 T39N R78W:   LOCATION
 CNTY.            NATRONA:   COUNTY
 STAT.            WYOMING:   STATE
 CTRY. UNITED STATES OF AMERICA:   COUNTRY
 SRVC.              Welex:   SERVICE COMPANY
 DATE.        03-MAY-1977:   LOGDATE
 API .       490251035700:   API NUMBER
~CURVE INFORMATION
#MNEM.UNIT       API CODE    CURVE DESCRIPTION
#----------   ------------   ------------------------------
 DEPT.F                  :   
 CALD.IN     45 280 60 00:   CALIPER FROM DENSITY LOG
 CORR.G/C3   45 356 01 00:   DENSITY CORRECTION
 DPHI.DEC    45 890 12 00:   DENSITY POROSITY SANDSTONE
 GRD .GAPI   45 310 01 00:   GAMMA RAY FROM DENSITY LOG
 RHOB.G/C3   45 350 01 00:   BULK DENSITY
 GURD.OHMM   07 220 05 00:   SHALLOW GUARD RESISTIVITY
 ILD .OHMM   07 120 46 00:   INDUCTION LOG DEEP
 ILM .OHMM   07 120 44 00:   INDUCTION LOG MEDIUM
 SPR .MV     07 010 01 00:   SPONTANEOUS POTENTIAL FROM RES.
~PARAMETER INFORMATION
#MNEM.UNIT          VALUE    DESCRIPTION
#----------   ------------   ------------------------------
 PD  .                 GL:   PERMANENT DATUM
 EPD .F              5160:   ELEVATION PERMANENT DATUM
 LMF .                 GL:   LOG MEASURED FROM
 DMF .                 GL:   DRILLING MEASURED FROM
 EGL .F              5160:   GROUND LEVEL
 DATE.        03-MAY-1977:   RUN DATE
 RUN .                  1:   RUN NUMBER
 DD  .F               610:   DEPTH DRILLER
 DL  .F               611:   DEPTH LOGGER
 BLI .F               609:   BOTTOM LOG INTERVAL
 TLI .F                30:   TOP LOG INTERVAL
 CS  .IN            8.625:   CASING SIZE
 CBD .F                40:   CASING BOTTOM DRILLER
 CBL .F                32:   CASING BOTTOM LOGGER
 BS  .IN            7.875:   BIT SIZE
 BSD .F               610:   BIT SIZE AT DEPTH
 DFT .            KCL GEL:   DRILLING FLUID TYPE
 DFD .                8.9:   DRILLING FLUID DENSITY
 DFV .                 33:   DRILLING FLUID VISCOSITY
 DFPH.                8.0:   DRILLING FLUID PH
 DFL .                7.2:   DRILLING FLUID LOSS
 MSS .            MUD PIT:   MUD SAMPLE SOURCE
 RMS .OHMM           0.19:   RESISTIVITY MUD SAMPLE
 MST .F                65:   MUD SAMPLE TEMPERATURE
 RMF .OHMM           0.16:   RESISTIVITY MUD FILTRATE SAMPLE
 MFST.F                65:   MUD FILTRATE SAMPLE TEMPERATURE
 RMC .OHMM           0.24:   RESISTIVITY MUD CAKE
 MCST.F                65:   MUD CAKE SAMPLE TEMPERATURE
 MFSS.               MEAS:   MUD FILTRATE SAMPLE SOURCE
 MCSS.               MEAS:   MUD CAKE SAMPLE SOURCE
 RMB .OHMM           0.17:   RESISTIVITY MUD AT BHT
 BHT .F                72:   BOTTOM HOLE TEMPERATURE
 TCS .HRS               2:   TIME CURCULATED STOPPED
 MRT .F                72:   MAXIMUM RECORDED TEMPERATURE
 LUN .               8766:   LOGGING UNIT NUMBER
 LUL .             CASPER:   LOGGING UNIT LOCATION
 ENGI.          T. JOYNER:   RECORDING ENGINEER
 WITN.           ROB LYON:   WITNESSED BY
 CLNT.            A2DTECH:   CLIENT CODE
 ORIG.           5" PRINT:   ORIGIN OF DATA
 UWI .       490251035700:   UNIQUE WELL ID
 DICO. A2D Technologies, Inc.:   DIGITIZING COMPANY
~OTHER INFORMATION
~A   DEPT       CALD      CORR        DPHI      GRD         RHOB     GURD        ILD        ILM        SPR   
# ...
   97.0000     7.8213     0.0078     0.1204   112.8374     2.4794    11.6861     5.9984     8.8662   -32.3988
   97.5000     7.8074     0.0064     0.1197   115.6680     2.4818    11.9396     6.0858     9.1202   -32.2321
   98.0000     7.7936     0.0095     0.1191   111.6737     2.4826    12.1986     6.1744     9.3168   -32.2143
   98.5000     7.7949     0.0142     0.1191   109.3022     2.4849    12.4632     6.3516     9.5838   -32.1964
   99.0000     7.7959     0.0173     0.1190   108.7295     2.4857    12.7335     6.4440     9.9269   -32.3284
   99.5000     7.7969     0.0219     0.1190   109.3375     2.4851    12.7422     6.5833    10.0014   -32.4552
  100.0000     7.7979     0.0220     0.1193   113.5034     2.4821    12.4026     6.7255     9.9364   -32.5908
  100.5000     7.7993     0.0221     0.1196   117.0759     2.4814    12.4204     6.7296     9.7575   -32.7219
  101.0000     7.8004     0.0222     0.1201   118.7195     2.4815    13.0366     6.7805     9.5466   -32.6999
  101.5000     7.8016     0.0224     0.1207   122.4599     2.4794    12.7771     6.8318     9.4202   -32.6822
  102.0000     7.8027     0.0180     0.1225   123.6598     2.4757    12.6100     6.8360     9.4283   -32.6646
  102.5000     7.8039     0.0106     0.1248   121.0109     2.4713    12.7967     6.8402     9.4348   -32.4982
  103.0000     7.8051     0.0092     0.1272   115.3902     2.4668    12.8055     6.8444     9.5069   -32.4805
  103.5000     7.8062     0.0094     0.1305   112.8853     2.4617    12.6380     6.8487     9.6461   -32.4629
  104.0000     7.8077     0.0095     0.1325   112.5875     2.4580    12.6466     6.8529     9.8554   -32.4453
  104.5000     7.8237     0.0051     0.1334   113.9585     2.4543    12.7432     6.8098     9.9997   -32.5764
  105.0000     7.8100     0.0052     0.1331   116.7062     2.4566    12.7519     6.7670    10.0066   -32.5588
  105.5000     7.8111     0.0038     0.1324   120.2289     2.4597    12.5851     6.6791     9.8076   -32.5412
  106.0000     7.8123     0.0054     0.1318   123.6587     2.4613    12.3348     6.6390     9.5463   -32.5235
  106.5000     7.8134     0.0086     0.1306   125.3081     2.4621    12.1714     6.6512     9.3564   -32.5059
  107.0000     7.8146     0.0117     0.1281   123.2483     2.4645    12.0122     6.6634     9.1071   -32.6371
  107.5000     7.8158     0.0148     0.1234   120.0015     2.4706    11.7752     6.6773     8.9880   -32.6190
  108.0000     7.8169     0.0164     0.1192   117.9417     2.4774    11.7017     6.6357     8.7485   -32.6018
  108.5000     7.8181     0.0165     0.1170   114.9917     2.4828    11.7913     6.5519     8.5153   -32.7594
  109.0000     7.8195     0.0122     0.1161   113.8220     2.4872    11.9640     6.5111     8.4025   -32.8641
  109.5000     7.8207     0.0108     0.1158   115.7270     2.4888    12.2235     6.4720     8.2915   -32.8421
  110.0000     7.8218     0.0064     0.1158   120.0882     2.4874    12.2318     6.3888     8.1857   -32.8244
  110.5000     7.8230     0.0050     0.1164   112.8354     2.4867    11.9058     6.3504     8.1301   -32.7798
  111.0000     7.8241     0.0021     0.1164   114.0441     2.4860    11.7500     6.3123     8.0842   -32.7114
  111.5000     7.8253     0.0023     0.1157   118.3641     2.4853    11.5983     6.3194     8.0900   -32.6429
  112.0000     7.8265     0.0054     0.1133   120.4585     2.4892    11.6063     6.3251     8.0956   -32.5702
  112.5000     7.8276     0.0074     0.1097   112.7622     2.4960    11.6142     6.3307     8.1012   -32.5509
  113.0000     7.8291     0.0135     0.1055   109.2187     2.5028    11.7029     6.3364     8.2413   -32.5315
  113.5000     7.8302     0.0137     0.1010   106.2643     2.4947    11.9567     6.3862     8.5757   -32.5122
  114.0000     7.8314     0.0138     0.1186   108.6599     2.4782    12.0768     6.4363     8.8840   -32.3441
  114.5000     7.8325     0.0139     0.1264   115.7988     2.4686    12.1897     6.5318     9.0767   -32.3247
  115.0000     7.8188     0.0141     0.1303   115.8210     2.4626    14.6066     6.5831     9.0830   -32.3054
  115.5000     7.8048     0.0142     0.1314   115.2400     2.4597    15.3417     6.5890     8.8409   -32.1373
  116.0000     7.7914     0.0128     0.1293   119.4160     2.4635    12.7386     6.6407     8.5459   -32.1180
  116.5000     7.7777     0.0115     0.1278   122.8458     2.4666    11.7325     6.6929     8.2038   -32.0986
  117.0000     7.7789     0.0101     0.1272   126.4196     2.4659    11.9060     6.7454     7.9851   -32.0793
  117.5000     7.7803     0.0087     0.1274   124.2157     2.4645    12.4215     6.7514     7.9341   -31.9112
  118.0000     7.7815     0.0089     0.1274   120.6722     2.4631    12.6901     6.8044     8.0517   -31.8918
  118.5000     7.7825     0.0075     0.1274   118.9092     2.4662    12.2684     6.8105     8.2836   -31.8725
  119.0000     7.7838     0.0046     0.1256   118.3323     2.4700    12.6261     6.8640     8.6410   -31.8532
  119.5000     7.7850     0.0032     0.1231   120.1308     2.4746    12.9019     6.8702     8.8898   -31.6850
  120.0000     7.7861     0.0034     0.1207   124.8959     2.4827    12.5599     6.9241     9.0200   -31.5169
  120.5000     7.7873     0.0035     0.1183   122.3828     2.4858    12.3974     6.9784     9.1521   -31.4976
  121.0000     7.7884     0.0037     0.1162   117.8132     2.4891    12.3195     6.9847     9.3506   -31.3294
  121.5000     7.7896     0.0098     0.1147   116.7919     2.4934    12.4180     7.0884     9.3571   -31.1613
  122.0000     7.8056     0.0190     0.1134   119.4799     2.4980    12.7774     7.1936     9.4286   -30.9931
  122.5000     7.8219     0.0266     0.1122   123.2064     2.5011    13.1472     7.2501     9.4351   -30.8250
  123.0000     7.8379     0.0282     0.1122   126.0427     2.4922    13.4344     7.3578     9.3748   -30.5081
  123.5000     7.8391     0.0284     0.1125   128.2856     2.4862    13.5362     7.4155     9.3829   -30.4887
  124.0000     7.8402     0.0285     0.1134   129.7866     2.4885    13.0891     7.4222     9.3246   -30.1718
  124.5000     7.8262     0.0286     0.1148   129.7369     2.4909    12.7421     7.4804     9.3310   -30.1525
  125.0000     7.7979     0.0272     0.1151   125.5193     2.4864    12.6620     7.5391     9.3374   -29.9843
  125.5000     7.7843     0.0229     0.1163   122.4245     2.4820    12.5851     7.5459     9.3439   -29.9650
  126.0000     7.7706     0.0170     0.1192   120.9581     2.4783    12.5982     7.6051     9.4153   -29.9457
  126.5000     7.7693     0.0127     0.1213   119.7885     2.4747    12.6087     7.6120     9.4218   -30.2247
  127.0000     7.7432     0.0098     0.1210   118.0254     2.4778    12.7068     7.6188     9.4938   -30.2046
  127.5000     7.7446     0.0054     0.1192   116.7075     2.4839    12.8948     7.6786     9.7672   -30.3348
  128.0000     7.7458     0.0040     0.1197   115.0927     2.4809    13.0855     7.6855    10.1183   -30.3148
  128.5000     7.7469     0.0027     0.1215   113.6264     2.4779    13.5578     7.7996    10.4974   -30.2954
  129.0000     7.7481     0.0013     0.1227   113.4953     2.4750    14.0471     7.9704    10.9342   -30.1273
  129.5000     7.7492     0.0015     0.1239   114.6449     2.4721    14.3539     8.1449    11.2491   -30.1080
  130.0000     7.7504     0.0016     0.1244   116.9468     2.4722    14.8720     8.3810    11.5730   -30.0886
  130.5000     7.7516     0.0033     0.1232   118.1511     2.4760    15.1968     8.5054    11.6615   -30.0693
  131.0000     7.7527     0.0064     0.1211   117.1298     2.4813    15.1013     8.6317    11.7506   -30.0500
  131.5000     7.7539     0.0095     0.1184   114.9216     2.4889    14.9091     8.8207    11.8404   -29.8818
  132.0000     7.7553     0.0172     0.1147   114.0444     2.4949    14.8154     8.9516    11.9309   -29.8625
  132.5000     7.7565     0.0248     0.1116   114.6595     2.4995    14.6268     9.1476    12.2745   -29.8432
  133.0000     7.7576     0.0249     0.1093   116.4573     2.5026    14.6390     9.2834    12.6279   -29.8239
