~VERSION INFORMATION
 VERS.                2.0:   CWLS LOG ASCII STANDARD - VERSION 2.0
 WRAP.                 NO:   ONE LINE PER DEPTH STEP
~WELL INFORMATION
#MNEM.UNIT      DATA TYPE    INFORMATION
#----------   ------------   ------------------------------
 STRT.F           20.0000:   START DEPTH
 STOP.F          488.0000:   STOP DEPTH
 STEP.F            0.5000:   STEP LENGTH
 NULL.          -999.2500:   NO VALUE
 COMP.    FENIX & SCISSON:   COMPANY
 WELL.  SX-3 NPR #3-3 #43:   WELL
 FLD .             TEAPOT:   FIELD
 LOC .       S3 T38N R78W:   LOCATION
 CNTY.            NATRONA:   COUNTY
 STAT.            WYOMING:   STATE
 CTRY. UNITED STATES OF AMERICA:   COUNTRY
 SRVC.           BIRDWELL:   SERVICE COMPANY
 DATE.        04-JAN-1978:   LOGDATE
 API .       490251044800:   API NUMBER
~CURVE INFORMATION
#MNEM.UNIT       API CODE    CURVE DESCRIPTION
#----------   ------------   ------------------------------
 DEPT.F                  :   
 ILD .OHMM   05 120 46 00:   INDUCTION LOG DEEP
 SN  .OHMM   05 040 16 00:   SHORT NORMAL 16"
 SPR .MV     05 010 01 00:   SPONTANEOUS POTENTIAL FROM RES.
 CALD.IN     45 280 60 00:   CALIPER FROM DENSITY LOG
 DPHI.DEC    45 890 12 00:   DENSITY POROSITY SANDSTONE
 DRHO.G/C3   45 356 01 00:   DENSITY CORRECTION
 GRD .GAPI   45 310 01 00:   GAMMA RAY FROM DENSITY LOG
 RHOB.G/C3   45 350 01 00:   BULK DENSITY
~PARAMETER INFORMATION
#MNEM.UNIT          VALUE    DESCRIPTION
#----------   ------------   ------------------------------
 PD  .                 GL:   PERMANENT DATUM
 LMF .                 KB:   LOG MEASURED FROM
 DAPD.F                 4:   FEET ABOVE PERMANENT DATUM
 DMF .                 KB:   DRILLING MEASURED FROM
 EKB .F              5163:   KELLING BUSHING
 EGL .F              5159:   GROUND LEVEL
 DATE.        04-JAN-1978:   RUN DATE
 RUN .                  1:   RUN NUMBER
 DD  .F               490:   DEPTH DRILLER
 DL  .F               490:   DEPTH LOGGER
 BLI .F               485:   BOTTOM LOG INTERVAL
 TLI .F                20:   TOP LOG INTERVAL
 CS  .IN            8.625:   CASING SIZE
 CBD .F                40:   CASING BOTTOM DRILLER
 CBL .F                44:   CASING BOTTOM LOGGER
 BS  .IN            7.875:   BIT SIZE
 BSD .F               490:   BIT SIZE AT DEPTH
 DFT .                KCL:   DRILLING FLUID TYPE
 DFD .                8.4:   DRILLING FLUID DENSITY
 DFV .                 32:   DRILLING FLUID VISCOSITY
 DFPH.                 11:   DRILLING FLUID PH
 DFL .                  8:   DRILLING FLUID LOSS
 MSS .                PIT:   MUD SAMPLE SOURCE
 RMS .OHMM           0.32:   RESISTIVITY MUD SAMPLE
 MST .F                62:   MUD SAMPLE TEMPERATURE
 RMF .OHMM           0.30:   RESISTIVITY MUD FILTRATE SAMPLE
 MFST.F                62:   MUD FILTRATE SAMPLE TEMPERATURE
 RMC .OHMM           0.35:   RESISTIVITY MUD CAKE
 MCST.F                62:   MUD CAKE SAMPLE TEMPERATURE
 MFSS.               MEAS:   MUD FILTRATE SAMPLE SOURCE
 MCSS.               MEAS:   MUD CAKE SAMPLE SOURCE
 RMB .OHMM           0.26:   RESISTIVITY MUD AT BHT
 BHT .F                75:   BOTTOM HOLE TEMPERATURE
 TCS .HRS               2:   TIME CURCULATED STOPPED
 MRT .F                75:   MAXIMUM RECORDED TEMPERATURE
 LUN .               2958:   LOGGING UNIT NUMBER
 LUL .             CASPER:   LOGGING UNIT LOCATION
 ENGI.             HUGHES:   RECORDING ENGINEER
 WITN.         HARRINGTON:   WITNESSED BY
 CLNT.            A2DTECH:   CLIENT CODE
 ORIG.           5" PRINT:   ORIGIN OF DATA
 UWI .       490251044800:   UNIQUE WELL ID
 DICO. A2D Technologies, Inc.:   DIGITIZING COMPANY
~OTHER INFORMATION
~A   DEPT      ILD         SN        SPR       CALD       DPHI       DRHO         GRD      RHOB   
# ...
  303.5000    35.7778    21.2769   -32.9112     8.2774     0.1569     0.0418    84.1398     2.3593
  304.0000    35.5260    20.4307   -33.2085     8.2774     0.1688     0.0448    87.6413     2.3721
  304.5000    34.7888    20.2909   -33.5072     8.2774     0.1694     0.0385    85.5941     2.3752
  305.0000    34.3052    20.0139   -33.2029     8.2628     0.1634     0.0306    83.6496     2.3677
  305.5000    33.8283    19.8709   -33.3505     8.2628     0.1598     0.0231    84.2740     2.3730
  306.0000    33.5684    19.6056   -33.4981     8.2628     0.1607     0.0164    86.8989     2.3798
  306.5000    33.1221    19.6072   -33.4946     8.2628     0.1679     0.0217    89.2319     2.3791
  307.0000    32.8890    19.6084   -33.7919     8.2628     0.1702     0.0277    91.8569     2.3761
  307.5000    32.8847    19.4746   -33.9395     8.2628     0.1621     0.0397    95.4672     2.3715
  308.0000    32.8794    19.6113   -34.0871     8.2628     0.1585     0.0464    93.1645     2.3695
  308.5000    32.8752    19.4771   -34.0836     8.2628     0.1567     0.0487    88.9282     2.3897
  309.0000    32.8710    19.4787   -34.0808     8.2628     0.1583     0.0426    86.5896     2.3973
  309.5000    32.8657    19.3457   -34.0781     8.2628     0.1639     0.0330    84.5431     2.3882
  310.0000    32.8615    19.3775   -34.0752     8.2628     0.1680     0.0270    91.1089     2.3749
  310.5000    32.8573    19.4807   -34.5229     8.2628     0.1656     0.0263    95.3397     2.3742
  311.0000    32.6249    19.5300   -34.5201     8.2628     0.1614     0.0323    96.7968     2.3780
  311.5000    32.3953    19.5268   -34.5017     8.2628     0.1644     0.0443    94.7503     2.3803
  312.0000    31.9449    19.5243   -34.5146     8.2628     0.1752     0.0503    86.5723     2.3818
  312.5000    32.1620    19.5217   -34.6622     8.2628     0.1704     0.0511    90.5104     2.3819
  313.0000    32.3817    19.6546   -35.2602     8.2628     0.1688     0.0391    96.2011     2.3812
  313.5000    32.3775    19.6514   -35.8582     8.2628     0.1748     0.0277    99.1180     2.3752
  314.0000    32.5987    19.6489   -35.8554     8.2628     0.1826     0.0227    96.4875     2.3586
  314.5000    32.8213    19.6577   -36.1534     8.2628     0.1766     0.0339    90.8584     2.3559
  315.0000    32.8161    19.6431   -35.8492     8.2628     0.1700     0.0437    87.1382     2.3589
  315.5000    33.7349    19.6406   -35.8464     8.2628     0.1664     0.0505    84.7997     2.3769
  316.0000    33.7294    19.5027   -35.8436     8.2628     0.1559     0.0478    87.7166     2.3882
  316.5000    33.7251    19.5001   -35.8401     8.2628     0.1619     0.0220    91.0715     2.3890
  317.0000    33.4877    19.6329   -35.8374     8.2482     0.1625     0.0138    90.0467     2.3875
  317.5000    33.2509    19.6297   -35.8346     8.2482     0.1582     0.0183    89.6054     2.3950
  318.0000    33.0168    19.6271   -35.8311     8.2482     0.1522     0.0439    91.5004     2.4228
  318.5000    32.7844    19.6246   -35.8283     8.2482     0.1453     0.0581    94.7093     2.4520
  319.0000    32.7792    19.4862   -35.2240     8.2482     0.1322     0.0513    97.6263     2.4730
  319.5000    32.7749    19.3494   -34.6190     8.2336     0.1247     0.0424    98.3534     2.4700
  320.0000    31.8741    18.9497   -34.6163     8.2336     0.1533     0.0319    92.2186     2.4304
  320.5000    30.5700    18.4303   -34.6135     8.2336     0.1812     0.0282    90.0260     2.3855
  321.0000    30.1450    18.1743   -34.6100     8.2482     0.1773     0.0394    91.9210     2.3617
  321.5000    29.9328    17.9223   -34.6072     8.2336     0.1716     0.0372    93.9621     2.3528
  322.0000    29.4921    17.6739   -34.6044     8.2336     0.1773     0.0185    89.7250     2.3580
  322.5000    29.3085    17.5498   -34.6010     8.2336     0.1796     0.0245    89.4310     2.3551
  323.0000    29.3042    17.5469   -34.8989     8.2336     0.1757     0.0320    91.1793     2.3514
  323.5000    29.0979    17.5447   -35.1969     8.2482     0.1730     0.0335    93.9503     2.3574
  324.0000    28.4942    17.6641   -35.1934     8.2482     0.1709     0.0328    93.4278     2.3642
  324.5000    28.4905    17.6618   -35.3417     8.2482     0.1703     0.0291    88.9805     2.3665
  325.0000    28.2900    17.6589   -35.7901     8.2482     0.1721     0.0245    88.3938     2.3650
  325.5000    28.2854    17.7791   -35.9363     8.2482     0.1775     0.0149    88.9750     2.3606
  326.0000    28.2821    17.7768   -36.0845     8.2482     0.1807     0.0127    96.8554     2.3532
  326.5000    28.2781    17.8979   -36.0811     8.2628     0.1810     0.0202   101.0350     2.3510
  327.0000    28.2736    17.8949   -36.0782     8.2628     0.1771     0.0254   103.4185     2.3543
  327.5000    28.2700    17.8926   -35.7741     8.2628     0.1723     0.0329   105.1676     2.3630
  328.0000    28.2663    17.8903   -35.7713     8.2628     0.1747     0.0389   105.7494     2.3653
  328.5000    28.4594    17.7647   -35.7684     8.2628     0.1762     0.0352    98.3007     2.3624
  329.0000    28.4548    17.7618   -35.6146     8.2628     0.1775     0.0278    88.0783     2.3572
  329.5000    28.4511    17.7595   -35.4615     8.2482     0.1842     0.0202    84.1339     2.3460
  330.0000    28.4212    17.7572   -35.1579     8.2482     0.1890     0.0128    81.7953     2.3401
  330.5000    28.2463    17.7549   -35.1545     8.2482     0.1869     0.0158    85.8802     2.3393
  331.0000    27.6611    17.6296   -34.8509     8.2482     0.1820     0.0248    95.5563     2.3484
  331.5000    27.6575    17.7497   -34.5474     8.2336     0.1746     0.0338   103.2462     2.3619
  332.0000    27.2722    17.7473   -35.7469     8.2336     0.1662     0.0212   108.2069     2.3732
  332.5000    27.2687    17.8682   -36.4960     8.2482     0.1686     0.0114   107.4742     2.3612
  333.0000    27.2652    17.8653   -37.2472     8.2482     0.1704     0.0137    97.3984     2.3556
  333.5000    27.6425    17.9875   -37.5431     8.2482     0.1599     0.0212    86.6366     2.3767
  334.0000    28.0241    17.9845   -37.5396     8.2336     0.1419     0.0294    85.5681     2.4040
  334.5000    29.2111    18.2326   -37.8376     8.2336     0.1347     0.0197    90.2361     2.4205
  335.0000    30.8727    18.3567   -38.7364     8.2336     0.1248     0.0093    91.6939     2.4303
  335.5000    30.8687    18.4811   -38.8839     8.2336     0.1023     0.0010    91.6905     2.4415
  336.0000    30.8647    18.7366   -39.3323     8.2336     0.0901     0.0078    91.7051     2.4536
  336.5000    30.8598    18.9945   -39.3288     8.2336     0.0721     0.0247    92.5601     2.4805
  337.0000    30.8558    19.3894   -39.3263     8.2336     0.0467     0.0408    94.0172     2.5105
  337.5000    30.4268    19.2533   -39.3233     8.2336     0.0517     0.0505    94.7450     2.5405
  338.0000    29.5896    19.2508   -39.3198     8.2336     0.0607     0.0550    87.0044     2.5565
  338.5000    27.6034    18.8531   -39.1666     8.2336     0.0786     0.0476    80.7242     2.5607
  339.0000    25.7505    17.9594   -38.7127     8.2336     0.0972     0.0401    85.1003     2.4935
  339.5000    24.6829    17.2273   -38.7092     8.2336     0.1019     0.0379    89.0391     2.5032
  340.0000    23.6873    16.5250   -38.5561     8.2336     0.1195     0.0327    87.5765     2.4579
  340.5000    23.0362    15.7422   -38.5533     8.2336     0.1363     0.0259    84.6540     2.4195
  341.0000    22.7076    15.1000   -38.3994     8.2336     0.1393     0.0222    89.9060     2.4256
  341.5000    22.3995    14.7880   -38.2463     8.2336     0.1444     0.0275    93.4069     2.4181
  342.0000    22.0881    14.5830   -38.2435     8.2336     0.1477     0.0267    92.2362     2.4062
  342.5000    22.0852    14.3809   -38.5408     8.2336     0.1506     0.0238    96.0291     2.4055
  343.0000    21.9291    14.1811   -38.8387     8.2336     0.1515     0.0185   101.0247     2.4070
  343.5000    21.4747    14.0815   -39.2878     8.2336     0.1515     0.0111   103.1768     2.4034
