~VERSION INFORMATION
 VERS.                2.0:   CWLS LOG ASCII STANDARD - VERSION 2.0
 WRAP.                 NO:   ONE LINE PER DEPTH STEP
~WELL INFORMATION
#MNEM.UNIT      DATA TYPE    INFORMATION
#----------   ------------   ------------------------------
 STRT.F          610.5000:   START DEPTH
 STOP.F         2311.0000:   STOP DEPTH
 STEP.F            0.5000:   STEP LENGTH
 NULL.          -999.2500:   NO VALUE
 COMP. BROWN JOHN E&C INC:   COMPANY
 WELL.  48-1SHX-34 #48-34:   WELL
 FLD .             TEAPOT:   FIELD
 LOC .      S34 T39N R78W:   LOCATION
 CNTY.            NATRONA:   COUNTY
 STAT.            WYOMING:   STATE
 CTRY. UNITED STATES OF AMERICA:   COUNTRY
 SRVC.            Unknown:   SERVICE COMPANY
 DATE.        16-SEP-1991:   LOGDATE
 API .       490251109000:   API NUMBER
~CURVE INFORMATION
#MNEM.UNIT       API CODE    CURVE DESCRIPTION
#----------   ------------   ------------------------------
 DEPT.F                  :   
 ROP .MIN/FT 91 810 01 00:   RAT OF DRILLING PENETRATION
 TGAS.UNITS  91 830 01 00:   TOTAL GAS FROM HOTWIRE
~PARAMETER INFORMATION
#MNEM.UNIT          VALUE    DESCRIPTION
#----------   ------------   ------------------------------
 EKB .F              5163:   KELLING BUSHING
 EGL .F              5152:   GROUND LEVEL
 DATE.            9-16-91:   RUN DATE
 DD  .F              2311:   DEPTH DRILLER
 TCS .HRS            0200:   TIME CURCULATED STOPPED
 TLAB.HRS            0115:   TIME LOGGER AT BOTTOM
 ENGI.             HENDRY:   RECORDING ENGINEER
 WITN.               HUSK:   WITNESSED BY
 CLNT.            A2DTECH:   CLIENT CODE
 ORIG.           5" PRINT:   ORIGIN OF DATA
 UWI .       490251109000:   UNIQUE WELL ID
 DICO. A2D Technologies, Inc.:   DIGITIZING COMPANY
~OTHER INFORMATION
~A   DEPT        ROP       TGAS 
# ...
  853.5000     1.4186     4.3213
  854.0000     1.4854     4.3394
  854.5000     1.4897     4.3575
  855.0000     1.4910     4.3756
  855.5000     1.4926     4.3936
  856.0000     1.4943     4.4117
  856.5000     1.4960     4.4298
  857.0000     1.4978     4.4479
  857.5000     1.4997     4.4660
  858.0000     1.4982     4.4841
  858.5000     1.4595     4.5022
  859.0000     1.4037     4.5203
  859.5000     1.3483     4.5384
  860.0000     1.2930     4.5565
  860.5000     1.2378     4.5745
  861.0000     1.2427     4.5926
  861.5000     1.3329     4.6107
  862.0000     1.4233     4.6288
  862.5000     1.4640     4.6469
  863.0000     1.4681     4.6650
  863.5000     1.4716     4.6831
  864.0000     1.4749     4.7012
  864.5000     1.4782     4.7193
  865.0000     1.4816     4.7374
  865.5000     1.4850     4.7555
  866.0000     1.4883     4.7737
  866.5000     1.4917     4.7890
  867.0000     1.4950     4.7744
  867.5000     1.4984     4.7599
  868.0000     1.5109     4.7456
  868.5000     1.5718     4.7312
  869.0000     1.6320     4.7169
  869.5000     1.6906     4.7026
  870.0000     1.7519     4.6882
  870.5000     1.9441     4.6739
  871.0000     2.8421     4.6596
  871.5000     3.7331     4.6452
  872.0000     4.9747     4.6309
  872.5000     4.3503     4.6166
  873.0000     3.2326     4.6022
  873.5000     2.1208     4.5879
  874.0000     1.0111     4.5736
  874.5000     0.7852     4.5592
  875.0000     0.8396     4.5449
  875.5000     0.9163     4.5306
  876.0000     1.0084     4.5162
  876.5000     1.5912     4.5019
  877.0000     4.4128     4.4876
  877.5000     5.4711     4.4732
  878.0000     5.9862     4.4589
  878.5000     5.4618     4.4446
  879.0000     4.9797     4.4302
  879.5000     3.3312     4.4159
  880.0000     1.7063     4.4016
  880.5000     1.0766     4.3872
  881.0000     1.1769     4.3729
  881.5000     1.3078     4.3586
  882.0000     1.4137     4.3442
  882.5000     2.2266     4.3299
  883.0000     3.1714     4.3156
  883.5000     4.1160     4.3011
  884.0000     5.0288     4.2864
  884.5000     4.6305     4.2856
  885.0000     4.0468     4.2857
  885.5000     3.4644     4.2857
  886.0000     2.8792     4.2857
  886.5000     2.2943     4.2857
  887.0000     2.0259     4.2857
  887.5000     1.8135     4.2857
  888.0000     1.6148     4.2857
  888.5000     1.5805     4.2857
  889.0000     1.6812     4.2857
  889.5000     1.8023     4.2857
  890.0000     1.9160     4.2857
  890.5000     1.9378     4.2857
  891.0000     1.8477     4.2857
  891.5000     1.6839     4.2857
  892.0000     1.6155     4.2857
  892.5000     1.5478     4.2857
  893.0000     1.5302     4.2857
  893.5000     1.5203     4.2857
  894.0000     1.5108     4.2857
  894.5000     1.4986     4.2857
  895.0000     1.4414     4.2857
  895.5000     1.3851     4.2857
  896.0000     1.3290     4.2857
  896.5000     1.2975     4.2857
  897.0000     1.2920     4.2857
  897.5000     1.2906     4.2857
  898.0000     1.3477     4.2857
  898.5000     1.4038     4.2857
  899.0000     1.4596     4.2857
  899.5000     1.4981     4.2857
  900.0000     1.5034     4.2857
  900.5000     1.4821     4.2857
  901.0000     1.4370     4.2857
  901.5000     1.3815     4.2857
  902.0000     1.3267     4.2857
  902.5000     1.2870     4.2857
  903.0000     1.2878     4.2857
  903.5000     1.2877     4.2857
  904.0000     1.2877     4.2857
  904.5000     1.2877     4.2857
  905.0000     1.2878     4.2857
  905.5000     1.2847     4.2857
  906.0000     1.2597     4.2857
  906.5000     1.2276     4.2857
  907.0000     1.1534     4.2857
  907.5000     1.0773     4.2857
  908.0000     1.0442     4.2857
  908.5000     1.0127     4.2857
  909.0000     1.0110     4.2857
  909.5000     1.0114     4.2857
  910.0000     1.0236     4.2857
  910.5000     1.0619     4.2857
  911.0000     1.1186     4.2857
  911.5000     1.2168     4.2857
  912.0000     1.2142     4.2857
  912.5000     1.1728     4.2857
  913.0000     1.1306     4.2857
  913.5000     1.0886     4.2857
  914.0000     1.0515     4.2857
  914.5000     1.0881     4.2857
  915.0000     1.1705     4.2857
  915.5000     1.2358     4.2857
  916.0000     1.2637     4.2857
  916.5000     1.2884     4.2857
  917.0000     1.2878     4.2857
  917.5000     1.2875     4.2857
  918.0000     1.2717     4.2857
  918.5000     1.2273     4.2857
  919.0000     1.1802     4.2857
  919.5000     1.1276     4.2857
  920.0000     1.0751     4.2857
  920.5000     1.0214     4.2857
  921.0000     1.0113     4.2857
  921.5000     1.0112     4.2857
  922.0000     1.0113     4.2857
  922.5000     1.0113     4.2857
  923.0000     1.0113     4.2857
  923.5000     1.0113     4.2857
  924.0000     1.0113     4.2857
  924.5000     1.0113     4.2857
  925.0000     1.0111     4.2857
  925.5000     1.0239     4.2857
  926.0000     1.0449     4.2857
  926.5000     1.0745     4.2857
  927.0000     1.1430     4.2857
  927.5000     1.2123     4.2857
  928.0000     1.1871     4.2857
  928.5000     1.1030     4.2857
  929.0000     0.9970     4.2857
  929.5000     0.8922     4.2857
  930.0000     0.8071     4.2857
  930.5000     0.8024     4.2857
  931.0000     0.7963     4.2857
  931.5000     0.7900     4.2857
  932.0000     0.7837     4.2857
  932.5000     0.7774     4.2857
  933.0000     0.7711     4.2857
  933.5000     0.7649     4.2857
  934.0000     0.7606     4.2857
  934.5000     0.7639     4.2857
  935.0000     0.7671     4.2857
  935.5000     0.7702     4.2857
  936.0000     0.7734     4.2857
  936.5000     0.7765     4.2857
  937.0000     0.7795     4.2857
  937.5000     0.7829     4.2857
  938.0000     0.7965     4.2857
  938.5000     0.8500     4.2857
  939.0000     0.9020     4.2857
  939.5000     0.9538     4.2857
  940.0000     0.9668     4.2857
  940.5000     0.9735     4.2857
  941.0000     0.9800     4.2857
  941.5000     0.9866     4.2857
  942.0000     0.9932     4.2857
  942.5000     0.9999     4.2857
  943.0000     1.0065     4.2857
  943.5000     1.0143     4.2857
  944.0000     1.0240     4.2857
  944.5000     1.0235     4.2857
  945.0000     1.0232     4.2857
  945.5000     1.0229     4.2857
  946.0000     1.0226     4.2857
  946.5000     1.0223     4.2857
  947.0000     1.0220     4.2857
  947.5000     1.0217     4.2857
  948.0000     1.0214     4.2858
  948.5000     1.0211     4.2853
  949.0000     1.0209     4.2758
  949.5000     1.0206     4.2664
  950.0000     1.0203     4.2570
  950.5000     1.0200     4.2476
  951.0000     1.0197     4.2383
  951.5000     1.0194     4.2289
  952.0000     1.0191     4.2196
  952.5000     1.0188     4.2102
  953.0000     1.0185     4.2008
  953.5000     1.0182     4.1915
  954.0000     1.0179     4.1821
  954.5000     1.0176     4.1728
  955.0000     1.0173     4.1634
  955.5000     1.0170     4.1540
  956.0000     1.0167     4.1447
  956.5000     1.0165     4.1353
  957.0000     1.0162     4.1260
  957.5000     1.0159     4.1166
  958.0000     1.0156     4.1072
  958.5000     1.0153     4.0979
  959.0000     1.0150     4.0885
  959.5000     1.0147     4.0792
  960.0000     1.0144     4.0698
  960.5000     1.0141     4.0605
  961.0000     1.0138     4.0511
  961.5000     1.0135     4.0417
  962.0000     1.0132     4.0324
  962.5000     1.0129     4.0230
  963.0000     1.0126     4.0137
  963.5000     1.0124     4.0043
  964.0000     1.0120     3.9949
  964.5000     1.0117     3.9856
  965.0000     1.0118     3.9762
  965.5000     1.0312     3.9669
  966.0000     1.0750     3.9575
  966.5000     1.2559     3.9481
  967.0000     1.4579     3.9388
  967.5000     1.6351     3.9294
  968.0000     1.7187     3.9201
  968.5000     1.8032     3.9107
  969.0000     1.8879     3.9014
  969.5000     1.9626     3.8920
  970.0000     1.9383     3.8826
  970.5000     1.8998     3.8733
  971.0000     1.7703     3.8639
  971.5000     1.6378     3.8546
  972.0000     1.5709     3.8452
  972.5000     1.5383     3.8358
  973.0000     1.5381     3.8265
  973.5000     1.5428     3.8171
  974.0000     1.6650     3.8078
  974.5000     1.8342     3.7983
