~VERSION INFORMATION
 VERS.                2.0:   CWLS LOG ASCII STANDARD - VERSION 2.0
 WRAP.                 NO:   ONE LINE PER DEPTH STEP
~WELL INFORMATION
#MNEM.UNIT      DATA TYPE    INFORMATION
#----------   ------------   ------------------------------
 STRT.F           22.5000:   START DEPTH
 STOP.F          644.0000:   STOP DEPTH
 STEP.F            0.5000:   STEP LENGTH
 NULL.          -999.2500:   NO VALUE
 COMP.    FELIX & SCISION:   COMPANY
 WELL.     NPR #3 #14-S-2:   WELL
 FLD .             TEAPOT:   FIELD
 LOC .       S2 T38N R78W:   LOCATION
 CNTY.            NATRONA:   COUNTY
 STAT.            WYOMING:   STATE
 CTRY. UNITED STATES OF AMERICA:   COUNTRY
 SRVC.           BIRDWELL:   SERVICE COMPANY
 DATE.        18-JAN-1978:   LOGDATE
 API .       490251055600:   API NUMBER
~CURVE INFORMATION
#MNEM.UNIT       API CODE    CURVE DESCRIPTION
#----------   ------------   ------------------------------
 DEPT.F                  :   
 CALD.IN     45 280 60 00:   CALIPER FROM DENSITY LOG
 CORR.G/C3   45 356 01 00:   DENSITY CORRECTION
 DPHI.DEC    45 890 12 00:   DENSITY POROSITY SANDSTONE
 GRD .GAPI   45 310 01 00:   GAMMA RAY FROM DENSITY LOG
 RHOB.G/C3   45 350 01 00:   BULK DENSITY
 ILD .OHMM   05 120 46 00:   INDUCTION LOG DEEP
 SPR .MV     05 010 01 00:   SPONTANEOUS POTENTIAL FROM RES.
 SN  .OHMM   05 040 16 00:   SHORT NORMAL 16"
~PARAMETER INFORMATION
#MNEM.UNIT          VALUE    DESCRIPTION
#----------   ------------   ------------------------------
 PD  .                 GL:   PERMANENT DATUM
 EPD .F              5121:   ELEVATION PERMANENT DATUM
 LMF .                 KB:   LOG MEASURED FROM
 DAPD.F                 4:   FEET ABOVE PERMANENT DATUM
 DMF .                 KB:   DRILLING MEASURED FROM
 EKB .F              5126:   KELLING BUSHING
 EGL .F              5121:   GROUND LEVEL
 DATE.          1-18-1978:   RUN DATE
 RUN .                  1:   RUN NUMBER
 DD  .F               645:   DEPTH DRILLER
 DL  .F               648:   DEPTH LOGGER
 BLI .F               642:   BOTTOM LOG INTERVAL
 TLI .F                39:   TOP LOG INTERVAL
 CS  .IN            8.625:   CASING SIZE
 CBD .F                39:   CASING BOTTOM DRILLER
 BS  .IN            7.875:   BIT SIZE
 BSD .F               645:   BIT SIZE AT DEPTH
 DFT .                KCL:   DRILLING FLUID TYPE
 DFD .                8.8:   DRILLING FLUID DENSITY
 DFV .                 34:   DRILLING FLUID VISCOSITY
 DFPH.                9.5:   DRILLING FLUID PH
 DFL .                6.4:   DRILLING FLUID LOSS
 MSS .                PIT:   MUD SAMPLE SOURCE
 RMS .OHMM            .38:   RESISTIVITY MUD SAMPLE
 MST .F                43:   MUD SAMPLE TEMPERATURE
 RMF .OHMM            .26:   RESISTIVITY MUD FILTRATE SAMPLE
 MFST.F                70:   MUD FILTRATE SAMPLE TEMPERATURE
 RMC .OHMM            .42:   RESISTIVITY MUD CAKE
 MCST.F                70:   MUD CAKE SAMPLE TEMPERATURE
 MFSS.           MEASURED:   MUD FILTRATE SAMPLE SOURCE
 MCSS.           MEASURED:   MUD CAKE SAMPLE SOURCE
 RMB .OHMM            .24:   RESISTIVITY MUD AT BHT
 BHT .F                69:   BOTTOM HOLE TEMPERATURE
 TCS .HRS               2:   TIME CURCULATED STOPPED
 MRT .F                69:   MAXIMUM RECORDED TEMPERATURE
 LUN .               2958:   LOGGING UNIT NUMBER
 LUL .             CASPER:   LOGGING UNIT LOCATION
 ENGI.           REYNOLDS:   RECORDING ENGINEER
 WITN.         HARRINGTON:   WITNESSED BY
 CLNT.            A2DTECH:   CLIENT CODE
 ORIG.      2" , 5" PRINT:   ORIGIN OF DATA
 UWI .       490251055600:   UNIQUE WELL ID
 DICO. A2D Technologies, Inc.:   DIGITIZING COMPANY
~OTHER INFORMATION
~A   DEPT     CALD       CORR       DPHI         GRD      RHOB        ILD        SPR         SN   
# ...
  103.5000     7.7616     0.0919     0.1569    85.8499     2.3870     7.7557   -28.9757     6.7452
  104.0000     7.8080     0.0866     0.1550    84.1813     2.3946     7.8702   -28.9698     6.7948
  104.5000     7.8543     0.0792     0.1517    80.8534     2.4006     7.8723   -28.9639     6.7976
  105.0000     7.8858     0.0762     0.1493    80.4153     2.4007     7.8745   -28.9580     6.8476
  105.5000     7.9470     0.0763     0.1469    86.0744     2.4090     7.8767   -28.8033     6.8801
  106.0000     8.0082     0.0756     0.1426    86.8276     2.4188     7.9336   -28.3510     6.8820
  106.5000     8.0545     0.0741     0.1411    87.1350     2.4203     7.9909   -28.0475     6.9796
  107.0000     8.0711     0.0764     0.1444    88.3340     2.4084     8.0505   -27.8928     6.9330
  107.5000     8.0878     0.0787     0.1498    90.5730     2.4001     8.1068   -27.5893     6.8872
  108.0000     8.1044     0.0841     0.1540    92.5149     2.3911     7.9974   -27.4336     6.7951
  108.5000     8.1061     0.0947     0.1603    93.7139     2.3844     7.9997   -27.5780     6.7969
  109.0000     8.1079     0.1015     0.1609    93.7241     2.3829     8.0580   -27.7209     6.7988
  109.5000     8.1021     0.1106     0.1602    93.2886     2.3845     8.1162   -27.7135     6.8006
  110.0000     8.0966     0.1189     0.1593    90.4756     2.3861     8.1184   -27.5588     6.8496
  110.5000     8.0984     0.1273     0.1587    87.6627     2.3876     8.1771   -27.4041     6.8515
  111.0000     8.0852     0.1364     0.1575    87.6820     2.3898     8.1793   -27.3983     6.9008
  111.5000     8.0726     0.1448     0.1559    88.4814     2.3952     8.1245   -27.3924     6.9027
  112.0000     8.0743     0.1524     0.1526    89.7737     2.4020     8.0155   -27.2377     6.9046
  112.5000     8.0761     0.1571     0.1478    88.8949     2.4035     7.9618   -27.2318     6.9065
  113.0000     8.0625     0.1599     0.1472    87.5679     2.4066     7.9090   -27.3762     6.9085
  113.5000     8.0494     0.1607     0.1441    84.6063     2.4201     7.8029   -27.3688     6.8627
  114.0000     8.0516     0.1615     0.1366    84.0197     2.4269     7.6977   -27.2141     6.7243
  114.5000     8.0381     0.1616     0.1363    88.6387     2.4277     7.5415   -27.2082     6.5430
  115.0000     8.0250     0.1601     0.1359    90.1323     2.4285     7.3375   -27.3512     6.3227
  115.5000     8.0272     0.1579     0.1356    88.5106     2.4293     7.1885   -27.3453     6.1521
  116.0000     8.0141     0.1557     0.1353    86.1434     2.4292     7.0916   -27.4882     5.9862
  116.5000     8.0309     0.1542     0.1292    86.4509     2.4354     7.0936   -27.4821     6.0293
  117.0000     7.9732     0.1527     0.1247    86.7583     2.4460     7.0955   -27.4762     6.0727
  117.5000     7.9299     0.1475     0.1244    86.4713     2.4513     7.0975   -27.4702     6.0744
  118.0000     7.8430     0.1430     0.1259    84.6985     2.4497     7.0929   -27.6134     6.0761
  118.5000     7.7259     0.1370     0.1280    80.8410     2.4407     7.0435   -27.4573     6.0777
  119.0000     7.6236     0.1273     0.1316    80.2613     2.4355     7.0056   -26.8566     6.0794
  119.5000     7.4768     0.1205     0.1339    82.2174     2.4319     7.0080   -26.5531     6.0392
  120.0000     7.3597     0.1137     0.1363    86.8197     2.4229     7.0099   -26.3984     6.0408
  120.5000     7.3763     0.1029     0.1381    83.8607     2.4192     7.0605   -26.0949     6.0425
  121.0000     7.3929     0.0934     0.1409    81.3424     2.4124     7.0625   -25.9402     6.0441
  121.5000     7.4095     0.0921     0.1497    83.8812     2.3919     7.1135   -25.9343     6.0458
  122.0000     7.4264     0.0944     0.1598    84.3372     2.3868     7.2147   -26.0774     6.0475
  122.5000     7.4586     0.0967     0.1588    84.4960     2.3892     7.4193   -26.0714     6.0491
  123.0000     7.4909     0.0877     0.1567    86.2893     2.3922     7.5249   -25.9167     6.1774
  123.5000     7.5555     0.0870     0.1572    86.7453     2.3810     7.6319   -25.9107     6.3994
  124.0000     7.6416     0.0848     0.1629    84.6753     2.3833     7.6340   -25.9048     6.7184
  124.5000     7.7326     0.0848     0.1590    82.7539     2.3901     7.6361   -25.8988     6.9046
  125.0000     7.8235     0.0848     0.1515    82.7142     2.4029     7.6382   -25.8929     6.9065
  125.5000     7.8847     0.0849     0.1502    84.2603     2.4128     7.6403   -26.0360     6.9088
  126.0000     7.9607     0.0842     0.1457    85.7564     2.4203     7.6424   -26.0287     6.8627
  126.5000     8.0071     0.0827     0.1418    86.0639     2.4256     7.6445   -25.8740     6.8178
  127.0000     8.0237     0.0797     0.1366    86.0872     2.4287     7.6466   -25.8681     6.7723
  127.5000     8.0254     0.0790     0.1351    87.8900     2.4310     7.6487   -25.8622     6.6817
  128.0000     8.0119     0.0799     0.1342    88.6231     2.4333     7.6508   -25.8563     6.6371
  128.5000     8.0141     0.0852     0.1339    91.3054     2.4340     7.6529   -25.8504     6.5932
  129.0000     8.0010     0.0876     0.1329    90.5752     2.4333     7.6554   -25.8445     6.4603
  129.5000     8.0028     0.0890     0.1329    90.2857     2.4334     7.6575   -25.6898     6.4171
  130.0000     7.9896     0.0898     0.1329    89.8528     2.4319     7.6068   -25.5351     6.3747
  130.5000     7.9914     0.0906     0.1332    89.4173     2.4311     7.6088   -25.2316     6.3326
  131.0000     8.0080     0.0990     0.1341    87.1987     2.4288     7.6109   -25.0769     6.2912
  131.5000     8.0247     0.1073     0.1349    83.3456     2.4283     7.6659   -25.0710     6.2929
  132.0000     8.0116     0.1164     0.1310    82.9075     2.4328     7.6680   -25.0651     6.2946
  132.5000     8.0134     0.1217     0.1244    86.0407     2.4419     7.6701   -25.0593     6.2963
  133.0000     8.0300     0.1263     0.1219    87.3882     2.4479     7.7792   -24.9046     6.3417
  133.5000     8.0168     0.1278     0.1198    87.1013     2.4547     7.8354   -24.8987     6.3434
  134.0000     8.0190     0.1279     0.1150    86.8143     2.4578     7.8920   -24.7440     6.3891
  134.5000     8.0055     0.1249     0.1134    88.3323     2.4623     8.0043   -24.8869     6.4351
  135.0000     7.9924     0.1235     0.1191    89.5097     2.4579     8.1181   -24.8810     6.6171
  135.5000     7.9946     0.1235     0.1230    88.6557     2.4496     8.2336   -24.8750     6.6684
  136.0000     7.9924     0.1243     0.1263    87.8954     2.4414     8.2931   -24.8690     6.8062
  136.5000     7.9979     0.1251     0.1290    91.6229     2.4384     8.3530   -25.0121     7.0066
  137.0000     7.9999     0.1251     0.1263    93.1190     2.4415     8.3553   -24.8560     7.2469
  137.5000     7.9863     0.1252     0.1254    92.9807     2.4483     8.3576   -24.7013     7.4519
  138.0000     7.9584     0.1230     0.1256    90.7621     2.4476     8.3022   -24.5466     7.6099
  138.5000     7.9453     0.1185     0.1265    88.0978     2.4453     8.2940   -24.3919     7.7179
  139.0000     7.9325     0.1170     0.1283    86.9193     2.4446     8.1365   -24.3860     7.7200
  139.5000     7.9344     0.1171     0.1277    87.5239     2.4447     8.0820   -24.2318     7.7221
  140.0000     7.9510     0.1171     0.1280    90.0601     2.4455     7.9735   -24.3762     7.6710
  140.5000     7.9379     0.1172     0.1279    91.8534     2.4440     7.8660   -24.2200     7.5674
  141.0000     7.9397     0.1172     0.1276    93.0524     2.4448     7.7059   -24.2141     7.3638
  141.5000     7.9117     0.1180     0.1279    94.1027     2.4456     7.6020   -24.0594     7.1651
  142.0000     7.9135     0.1196     0.1276    93.6672     2.4456     7.5516   -23.9047     6.9719
  142.5000     7.8414     0.1196     0.1276    92.9123     2.4449     7.5541   -23.8988     6.8308
  143.0000     7.7688     0.1181     0.1275    88.4200     2.4449     7.6087   -23.7440     6.7852
  143.5000     7.7256     0.1159     0.1275    87.7544     2.4435     7.6637   -23.5893     6.7875
