~VERSION INFORMATION
 VERS.                2.0:   CWLS LOG ASCII STANDARD - VERSION 2.0
 WRAP.                 NO:   ONE LINE PER DEPTH STEP
~WELL INFORMATION
#MNEM.UNIT      DATA TYPE    INFORMATION
#----------   ------------   ------------------------------
 STRT.F          100.0000:   START DEPTH
 STOP.F          874.0000:   STOP DEPTH
 STEP.F            0.5000:   STEP LENGTH
 NULL.          -999.2500:   NO VALUE
 COMP. U S NAVY-INTEX OIL:   COMPANY
 WELL.     NPR #3 #45-S-2:   WELL
 FLD .             TEAPOT:   FIELD
 LOC .       S2 T38N R78W:   LOCATION
 CNTY.            NATRONA:   COUNTY
 STAT.            WYOMING:   STATE
 CTRY. UNITED STATES OF AMERICA:   COUNTRY
 SRVC.       Schlumberger:   SERVICE COMPANY
 DATE.        15-JUL-1962:   LOGDATE
 API .       490250642400:   API NUMBER
~CURVE INFORMATION
#MNEM.UNIT       API CODE    CURVE DESCRIPTION
#----------   ------------   ------------------------------
 DEPT.F                  :   
 ASN .OHMM   05 041 16 00:   AMPLIFIED SHORT NORMAL 16"
 CILD.MMHO   05 110 46 00:   CONDUCTIVITY INDUCTION LOG DEEP
 ILD .OHMM   05 120 46 00:   INDUCTION LOG DEEP
 SPR .MV     05 010 01 00:   SPONTANEOUS POTENTIAL FROM RES.
 GR  .GAPI   30 310 01 00:   GAMMA RAY
~PARAMETER INFORMATION
#MNEM.UNIT          VALUE    DESCRIPTION
#----------   ------------   ------------------------------
 LMF .                 KB:   LOG MEASURED FROM
 DMF .                 KB:   DRILLING MEASURED FROM
 EKB .F              5149:   KELLING BUSHING
 EGL .F              5144:   GROUND LEVEL
 DATE.        15-JUL-1962:   RUN DATE
 RUN .                  1:   RUN NUMBER
 DD  .F               875:   DEPTH DRILLER
 DL  .F               875:   DEPTH LOGGER
 BLI .F               874:   BOTTOM LOG INTERVAL
 TLI .F               100:   TOP LOG INTERVAL
 BS  .IN             6.75:   BIT SIZE
 BSD .F               875:   BIT SIZE AT DEPTH
 DFT .           OIL EMUL:   DRILLING FLUID TYPE
 DFD .               10.2:   DRILLING FLUID DENSITY
 DFV .                 42:   DRILLING FLUID VISCOSITY
 DFL .                4.6:   DRILLING FLUID LOSS
 RMS .OHMM            6.0:   RESISTIVITY MUD SAMPLE
 MST .F                64:   MUD SAMPLE TEMPERATURE
 RMF .OHMM            5.8:   RESISTIVITY MUD FILTRATE SAMPLE
 MFST.F                64:   MUD FILTRATE SAMPLE TEMPERATURE
 RMC .OHMM            5.2:   RESISTIVITY MUD CAKE
 MCST.F                66:   MUD CAKE SAMPLE TEMPERATURE
 TCS .HRS             0.5:   TIME CURCULATED STOPPED
 LUN .               2503:   LOGGING UNIT NUMBER
 LUL .               CSPR:   LOGGING UNIT LOCATION
 ENGI.           ELLERMAN:   RECORDING ENGINEER
 WITN.          JORGENSON:   WITNESSED BY
 CLNT.            A2DTECH:   CLIENT CODE
 ORIG.           5" PRINT:   ORIGIN OF DATA
 UWI .       490250642400:   UNIQUE WELL ID
 DICO. A2D Technologies, Inc.:   DIGITIZING COMPANY
~OTHER INFORMATION
~A   DEPT        ASN      CILD       ILD        SPR         GR   
  100.0000     5.9880   155.2957  -999.2500   -40.9559  -999.2500
  100.5000     5.8209   184.0504     5.9928   -40.9472  -999.2500
  101.0000     5.7350   184.7637     5.9222   -40.9384  -999.2500
  101.5000     5.7058   186.2235     5.7769   -40.9296  -999.2500
  102.0000     5.7217   187.7055     5.6976   -40.9208  -999.2500
  102.5000     5.7673   189.1667     5.6360   -41.0616  -999.2500
  103.0000     5.8279   189.1211     5.6414   -41.3496  -999.2500
  103.5000     5.8586   187.4040     5.7206   -41.4903  -999.2500
  104.0000     5.8892   182.9610     5.7999   -41.6332  -999.2500
  104.5000     5.9199   180.6440     5.9539   -42.9675  -999.2500
  105.0000     5.9656   178.3271     6.0332   -43.2599  -999.2500
  105.5000     5.9989   176.7677     6.1124   -42.2026  -999.2500
  106.0000     6.0420   175.2083     6.1168   -41.5959  -999.2500
  106.5000     6.0577   174.4065     6.1961   -41.5872  -999.2500
  107.0000     6.0734   173.6047     6.2014   -41.5784  -999.2500
  107.5000     5.9245   173.5604     6.2058   -41.6725  -999.2500
  108.0000     5.8202   173.5152     6.1342   -41.7100  -999.2500
  108.5000     6.0607   173.4609     6.0641   -41.7010  -999.2500
  109.0000     6.1512   175.6894     5.9936   -41.6921  -999.2500
  109.5000     6.1208   178.6754     5.8483   -41.6819  -999.2500
  110.0000     5.7285   183.9342     5.8537   -41.5977  -999.2500
  110.5000     5.5097   188.4354     5.8581   -41.5157  -999.2500
  111.0000     5.6902   190.6639     5.7874   -41.5061  -999.2500
  111.5000     5.6910   193.6500     5.7171   -41.4973  -999.2500
  112.0000     5.5420   195.8785     5.6466   -41.4210  -999.2500
  112.5000     5.5727   197.3494     5.5762   -41.3303  -999.2500
  113.0000     5.5884   197.2941     5.5816   -41.3214  -999.2500
  113.5000     5.5741   196.4923     5.7357   -41.3106  -999.2500
  114.0000     5.5749   194.1753     5.8149   -41.3019  -999.2500
  114.5000     5.6383   191.1008     5.9745   -41.4448  -999.2500
  115.0000     5.7412   186.5111     6.0482   -41.5855  -999.2500
  115.5000     5.8317   183.4366     6.1274   -41.5745  -999.2500
  116.0000     5.7277   180.3620     6.2066   -41.5658  -999.2500
  116.5000     5.6533   178.0450     6.2111   -41.5570  -999.2500
  117.0000     5.8040   177.2424     6.2165   -41.5482  -999.2500
  117.5000     5.8646   177.1879     6.2208   -41.6891  -999.2500
  118.0000     5.8803   177.9123     6.1492   -41.6801  -999.2500
  118.5000     5.8810   178.6257     6.1547   -41.6712  -999.2500
  119.0000     5.8817   179.3390     6.0831   -41.6605  -999.2500
  119.5000     5.8825   180.0523     6.0137   -41.6517  -999.2500
  120.0000     5.8834   181.5122     5.9433   -41.6429  -999.2500
  120.5000     5.8841   182.2273     5.9476   -41.4847  -999.2500
  121.0000     5.8848   182.9394     5.9520   -41.3274  -999.2500
  121.5000     5.8255   182.8946     5.8067   -41.3184  -999.2500
  122.0000     5.7815   184.4949     5.6624   -41.2211  -999.2500
  122.5000     5.7822   186.5940     5.6668   -41.3002  -999.2500
  123.0000     5.7979   188.0539     5.6712   -41.2914  -999.2500
  123.5000     5.7685   188.7783     5.6755   -40.9836  -999.2500
  124.0000     5.7078   188.7230     5.6799   -40.9746  -999.2500
  124.5000     5.6654   188.6788     5.7590   -40.8145  -999.2500
  125.0000     5.6962   187.8770     5.7635   -40.9574  -999.2500
  125.5000     5.7119   187.0751     5.8428   -41.6938  -999.2500
  126.0000     5.7576   186.2727     5.8481   -42.1357  -999.2500
  126.5000     5.8032   185.4697     5.8525   -42.2764  -999.2500
  127.0000     5.9237   183.9010     5.9311   -42.1160  -999.2500
  127.5000     6.0442   183.0992     5.9361   -41.8087  -999.2500
  128.0000     6.1048   182.2974     5.9401   -41.5835  -999.2500
  128.5000     6.1055   179.9805     6.0195   -41.1928  -999.2500
  129.0000     6.0763   177.6635     6.0989   -41.0224  -999.2500
  129.5000     6.0922   173.0738     6.2530   -40.8759  -999.2500
  130.0000     6.1678   168.4841     6.3323   -40.8654  -999.2500
  130.5000     6.3332   163.8611     6.4873   -40.8566  -999.2500
  131.0000     6.7381   158.3130     6.6414   -40.8478  -999.2500
  131.5000     7.0233   150.9161     6.8703   -40.9895  -999.2500
  132.0000     7.2336   145.5688     7.1741   -40.9798  -999.2500
  132.5000     7.3690   141.7367     7.4030   -40.9716  -999.2500
  133.0000     7.3997   140.1773     7.3325   -40.9622  -999.2500
  133.5000     7.3511   142.4058     7.2620   -41.1031  -999.2500
  134.0000     7.1019   145.3919     7.1138   -41.0942  -999.2500
  134.5000     6.9380   149.8931     6.8852   -41.0852  -999.2500
  135.0000     6.8040   155.1768     6.6026   -41.3756  -999.2500
  135.5000     6.5951   158.3536     6.3813   -41.5163  -999.2500
  136.0000     6.4312   164.9008     6.2371   -41.9538  -999.2500
  136.5000     6.3870   170.1596     6.1666   -42.2440  -999.2500
  137.0000     6.3728   173.1457     6.0950   -42.6837  -999.2500
  137.5000     6.3286   173.8701     6.1005   -42.6749  -999.2500
  138.0000     6.2828   172.2996     6.1797   -42.5167  -999.2500
  138.5000     6.2702   169.2251     6.2590   -42.5082  -999.2500
  139.0000     6.3908   165.3930     6.3383   -42.3497  -999.2500
  139.5000     6.5263   161.5429     6.4933   -42.3408  -999.2500
  140.0000     6.7067   156.7677     6.7222   -42.1824  -999.2500
  140.5000     6.9020   150.8553     6.8763   -42.1717  -999.2500
  141.0000     7.1123   144.7504     7.1052   -42.3124  -999.2500
  141.5000     7.2927   140.1607     7.3341   -42.3036  -999.2500
  142.0000     7.5030   135.5710     7.4882   -42.4465  -999.2500
  142.5000     7.7483   130.2238     7.6423   -42.5873  -999.2500
  143.0000     7.9887   126.3916     7.8772   -42.7280  -999.2500
  143.5000     8.0892   124.8323     8.0263   -43.0160  -999.2500
  144.0000     8.0600   124.0303     7.9548   -43.0072  -999.2500
  144.5000     7.9859   126.3511     7.8105   -43.1480  -999.2500
  145.0000     7.8668   131.5067     7.6641   -43.2886  -999.2500
  145.5000     7.7029   135.2503     7.4450   -43.4294  -999.2500
  146.0000     7.5390   141.2667     7.3734   -43.5701  -999.2500
  146.5000     7.3002   146.5255     7.2290   -43.5591  -999.2500
  147.0000     7.1051   151.7843     7.2335   -43.5503  -999.2500
  147.5000     6.9044   154.7703     7.0882   -43.5416  -999.2500
  148.0000     6.6588   156.9988     6.9429   -43.3833  -999.2500
  148.5000     6.5548   158.4697     6.7975   -43.0756  -999.2500
  149.0000     6.5854   158.4242     6.7271   -42.7679  -999.2500
  149.5000     6.6460   159.1388     6.6566   -42.6097  -999.2500
  150.0000     6.6917   159.0835     6.6620   -42.7492  -999.2500
  150.5000     6.6479   155.2557     6.8160   -43.0337  -999.2500
  151.0000     6.7242   152.1817     6.8204   -43.4679  -999.2500
  151.5000     6.8600   151.3788     6.9006   -43.6213  -999.2500
  152.0000     6.8462   152.8518     6.8301   -43.7379  -999.2500
  152.5000     6.7426   155.8275     6.7584   -43.7199  -999.2500
  153.0000     6.6539   158.8141     6.6141   -43.5561  -999.2500
  153.5000     6.5499   161.8007     6.4686   -43.3931  -999.2500
  154.0000     6.4469   164.0297     6.3234   -43.3778  -999.2500
  154.5000     6.3583   164.8233     6.2528   -43.0643  -999.2500
  155.0000     6.2996   166.2150     6.1823   -42.8970  -999.2500
  155.5000     6.2408   166.1604     6.2625   -42.7331  -999.2500
  156.0000     6.2267   166.8852     6.2668   -42.5710  -999.2500
  156.5000     6.3030   167.5991     6.3460   -42.4066  -999.2500
  157.0000     6.3948   167.5444     6.4251   -42.3308  -999.2500
  157.5000     6.4853   168.2583     6.5054   -42.2272  -999.2500
  158.0000     6.4864   168.2037     6.5097   -42.2123  -999.2500
  158.5000     6.3828   168.9285     6.4381   -42.0452  -999.2500
  159.0000     6.2492   170.3999     6.2927   -42.0308  -999.2500
  159.5000     6.1156   171.8604     6.1473   -42.0164  -999.2500
  160.0000     6.0120   172.5758     6.0778   -42.0020  -999.2500
  160.5000     5.9371   173.2882     6.0699   -41.9876  -999.2500
