~VERSION INFORMATION
 VERS.                2.0:   CWLS LOG ASCII STANDARD - VERSION 2.0
 WRAP.                 NO:   ONE LINE PER DEPTH STEP
~WELL INFORMATION
#MNEM.UNIT      DATA TYPE    INFORMATION
#----------   ------------   ------------------------------
 STRT.F           38.0000:   START DEPTH
 STOP.F          517.0000:   STOP DEPTH
 STEP.F            0.5000:   STEP LENGTH
 NULL.          -999.2500:   NO VALUE
 COMP. FENIX & SCISSON U.S. NAVY:   COMPANY
 WELL.     NPR 3 #88 S -3:   WELL
 FLD .             TEAPOT:   FIELD
 LOC .       S3 T38N R78W:   LOCATION
 CNTY.            NATRONA:   COUNTY
 STAT.            WYOMING:   STATE
 CTRY. UNITED STATES OF AMERICA:   COUNTRY
 SRVC.              Welex:   SERVICE COMPANY
 DATE.        10-APR-1977:   LOGDATE
 API .       490251033000:   API NUMBER
~CURVE INFORMATION
#MNEM.UNIT       API CODE    CURVE DESCRIPTION
#----------   ------------   ------------------------------
 DEPT.F                  :   
 GRD .GAPI   45 310 01 00:   GAMMA RAY FROM DENSITY LOG
 CALD.IN     45 280 60 00:   CALIPER FROM DENSITY LOG
 CORR.G/C3   45 356 01 00:   DENSITY CORRECTION
 RHOB.G/C3   45 350 01 00:   BULK DENSITY
 DPHI.DEC    45 890 12 00:   DENSITY POROSITY SANDSTONE
 SPR .MV     07 010 01 00:   SPONTANEOUS POTENTIAL
 ILD .OHMM   07 120 46 00:   INDUCTION LOG DEEP
 ILM .OHMM   07 120 44 00:   INDUCTION LOG MEDIUM
 SGRD.OHMM   07 221 05 00:   SHALLOW SHORT GUARD RESISTIVITY
~PARAMETER INFORMATION
#MNEM.UNIT          VALUE    DESCRIPTION
#----------   ------------   ------------------------------
 PD  .                 GL:   PERMANENT DATUM
 EPD .F              5120:   ELEVATION PERMANENT DATUM
 LMF .                 GL:   LOG MEASURED FROM
 DMF .                 GL:   DRILLING MEASURED FROM
 EGL .F              5120:   GROUND LEVEL
 DATE.        10-APR-1977:   RUN DATE
 RUN .                  1:   RUN NUMBER
 DD  .F               520:   DEPTH DRILLER
 DL  .F               519:   DEPTH LOGGER
 BLI .F               517:   BOTTOM LOG INTERVAL
 TLI .F                40:   TOP LOG INTERVAL
 CS  .IN            8.625:   CASING SIZE
 CBD .F                40:   CASING BOTTOM DRILLER
 CBL .F                42:   CASING BOTTOM LOGGER
 BS  .IN            7.875:   BIT SIZE
 BSD .F               520:   BIT SIZE AT DEPTH
 DFT .           KCL- GEL:   DRILLING FLUID TYPE
 DFD .                8.8:   DRILLING FLUID DENSITY
 DFV .                 38:   DRILLING FLUID VISCOSITY
 DFPH.                8.0:   DRILLING FLUID PH
 DFL .                6.4:   DRILLING FLUID LOSS
 MSS .            MUD PIT:   MUD SAMPLE SOURCE
 RMS .OHMM            .28:   RESISTIVITY MUD SAMPLE
 MST .F                55:   MUD SAMPLE TEMPERATURE
 RMF .OHMM            .23:   RESISTIVITY MUD FILTRATE SAMPLE
 MFST.F                55:   MUD FILTRATE SAMPLE TEMPERATURE
 RMC .OHMM            .32:   RESISTIVITY MUD CAKE
 MCST.F                55:   MUD CAKE SAMPLE TEMPERATURE
 MFSS.               MEAS:   MUD FILTRATE SAMPLE SOURCE
 MCSS.               MEAS:   MUD CAKE SAMPLE SOURCE
 RMB .OHMM            .24:   RESISTIVITY MUD AT BHT
 BHT .F                65:   BOTTOM HOLE TEMPERATURE
 TCS .HRS            0300:   TIME CURCULATED STOPPED
 MRT .F                65:   MAXIMUM RECORDED TEMPERATURE
 LUN .               0716:   LOGGING UNIT NUMBER
 LUL .             VERNAL:   LOGGING UNIT LOCATION
 ENGI.        E. CALLAHAN:   RECORDING ENGINEER
 WITN.            R. LYON:   WITNESSED BY
 CLNT.            A2DTECH:   CLIENT CODE
 ORIG.           5" PRINT:   ORIGIN OF DATA
 UWI .       490251033000:   UNIQUE WELL ID
 DICO. A2D Technologies, Inc.:   DIGITIZING COMPANY
~OTHER INFORMATION
~A   DEPT       GRD        CALD     CORR         RHOB     DPHI        SPR        ILD        ILM       SGRD   
# ...
  147.5000   109.3893     7.7851     0.0091     2.4370     0.1271   -30.8062     9.8279    10.4684    14.9267
  148.0000   108.9570     7.8461     0.0107     2.4310     0.1298   -30.8353     9.6837    10.3944    14.5052
  148.5000   108.9719     7.8921     0.0109     2.4228     0.1331   -30.8328     9.6085    10.2659    14.8005
  149.0000   109.1357     7.9231     0.0095     2.4176     0.1361   -30.8466     9.4018    10.0821    15.3139
  149.5000   109.0015     7.9243     0.0096     2.4177     0.1385   -31.0106     9.2639     9.8645    15.3022
  150.0000   108.2712     7.9254     0.0072     2.4147     0.1414   -30.8765     9.1919     9.7192    14.8710
  150.5000   107.5409     7.9265     0.0024     2.4088     0.1447   -31.0449     9.1849     9.5759    14.4428
  151.0000   108.0029     7.9274     0.0025     2.4036     0.1456   -31.0627     9.1048     9.5673    14.2379
  151.5000   108.6139     7.9433     0.0057     2.4059     0.1450   -31.0805     8.9173     9.5586    14.2236
  152.0000   109.3739     7.9444     0.0088     2.4119     0.1438   -31.0983     8.8486     9.3541    14.2120
  152.5000   109.9848     7.9455     0.0014     2.4082     0.1458   -31.1162     8.8420     9.3464    14.2996
  153.0000   110.5958     7.9466     0.0001     2.4023     0.1500   -30.9789     8.7739     9.3388    14.7948
  153.5000   110.7597     7.9476     0.0047     2.4053     0.1491   -30.6955     8.7673     9.3967    15.3102
  154.0000   110.4765     7.9487     0.0078     2.4182     0.1425   -30.7178     8.6999     9.5871    14.4647
  154.5000   110.0443     7.9497     0.0080     2.4175     0.1372   -30.7356     8.6329     9.7817    14.3524
  155.0000   109.6120     7.9508     0.0096     2.4198     0.1319   -30.7535     8.5665     9.7713    14.2410
  155.5000   108.7327     7.9518     0.0157     2.4348     0.1262   -30.7713     8.5600     9.6233    14.1304
  156.0000   108.1514     7.9529     0.0219     2.4507     0.1187   -30.7892     8.6136     9.4889    13.2600
  156.5000   108.0172     7.9538     0.0235     2.4620     0.1153   -30.8072     8.6069     9.4795    13.5292
  157.0000   109.2243     7.9549     0.0251     2.4666     0.1157   -30.8253     8.6606     9.4717    13.6127
  157.5000   109.8353     7.9559     0.0268     2.4651     0.1176   -30.8434     8.7147     9.5301    13.1217
  158.0000   109.5521     7.9422     0.0254     2.4576     0.1190   -30.8648     8.7078     9.5223    13.5297
  158.5000   107.3315     7.9432     0.0225     2.4539     0.1199   -30.7276     8.6999     9.5144    14.7611
  159.0000   104.5148     7.9443     0.0182     2.4517     0.1205   -30.5993     8.6330     9.5066    14.1447
  159.5000   102.5922     7.9453     0.0138     2.4495     0.1216   -30.6171     8.5665     9.4988    14.0349
  160.0000   101.1167     7.9464     0.0079     2.4451     0.1233   -30.3292     8.5006     9.4251    14.0233
  160.5000   100.6845     7.9474     0.0036     2.4354     0.1256   -30.0503     8.3184     9.2869    14.0118
  161.0000   100.8484     7.9634     0.0022     2.4219     0.1283   -29.7625     8.1970     9.2148    14.0003
  161.5000   102.3536     7.9644    -0.0006     2.4340     0.1308   -29.6297     7.9656     9.0797    13.6040
  162.0000   104.4548     7.9654    -0.0005     2.4250     0.1349   -29.6520     7.7948     8.7598    12.6774
  162.5000   106.4071     7.9665    -0.0019     2.4243     0.1346   -29.6698     7.6277     8.2216    12.3186
  163.0000   107.6142     7.9675    -0.0032     2.4304     0.1304   -29.6876     7.5690     8.0447    11.8042
  163.5000   108.2252     7.9835    -0.0061     2.4357     0.1289   -29.7054     7.5108     7.9809    10.1880
  164.0000   109.1342     7.9845    -0.0090     2.4350     0.1303   -29.7232     7.5050     7.9189    10.1062
  164.5000   109.7452     8.0005    -0.0103     2.4320     0.1321   -29.8917     7.4993     7.9124    12.4557
  165.0000   110.3562     8.0165    -0.0087     2.4283     0.1336   -29.9096     7.5462     7.9059    12.7922
  165.5000   110.6709     8.0175    -0.0056     2.4246     0.1348   -29.9277     7.6450     7.8994    12.7812
  166.0000   110.5367     8.0185    -0.0024     2.4262     0.1312   -29.7945     7.6393     7.8929    12.5917
  166.5000   110.1790     8.0196    -0.0023     2.4345     0.1278   -29.8168     7.6884     7.9432    11.9820
  167.0000   109.9704     8.0206    -0.0022     2.4345     0.1278   -29.9852     7.7363     7.9922    12.1403
  167.5000   109.8362     8.0217    -0.0020     2.4271     0.1320   -30.0030     7.7290     8.0978    12.7370
  168.0000   109.7021     8.0227    -0.0019     2.4196     0.1380   -30.1715     7.7232     8.1463    12.7266
  168.5000   109.8659     8.0088    -0.0033     2.4152     0.1404   -30.1893     7.7174     8.1965    12.5400
  169.0000   109.8808     8.0099    -0.0046     2.4130     0.1403   -30.2071     7.7116     8.1327    12.1851
  169.5000   110.1192     7.9960    -0.0075     2.4168     0.1385   -30.2249     7.8140     8.1829    12.1751
  170.0000   110.4321     7.9821    -0.0096     2.4198     0.1385   -30.0877     7.9732     8.1759    12.6848
  170.5000   110.7450     7.9831    -0.0117     2.4169     0.1409   -30.1100     8.1359     8.3404    13.0332
  171.0000   110.8344     7.9842    -0.0131     2.4154     0.1391   -30.1278     8.3058     8.6292    13.0221
  171.5000   110.8492     7.9703    -0.0130     2.4245     0.1357   -30.1456     8.4115     8.8659    13.5691
  172.0000   110.8640     7.9713    -0.0076     2.4291     0.1336   -30.1634     8.4640     8.9849    14.2419
  172.5000   110.8808     7.9724    -0.0044     2.4291     0.1309   -30.1812     8.4560     9.0403    14.0104
  173.0000   111.1937     7.9734    -0.0021     2.4299     0.1270   -30.0482     8.4496     9.0310    13.7210
  173.5000   111.8047     7.9744    -0.0019     2.4435     0.1224   -30.2169     8.5039     8.9609    13.5199
  174.0000   112.4156     7.9606    -0.0033     2.4496     0.1203   -30.3855     8.4959     8.9535    13.5088
  174.5000   113.1757     7.9616    -0.0046     2.4436     0.1233   -30.5542     8.4306     8.9462    13.4977
  175.0000   114.2337     7.9477    -0.0060     2.4361     0.1275   -30.5722     8.3076     8.9388    13.4866
  175.5000   114.9937     7.9488    -0.0059     2.4272     0.1311   -30.5938     8.2436     8.8694    13.4755
  176.0000   115.6047     7.9498    -0.0042     2.4197     0.1361   -30.6116     8.2374     8.8005    13.2771
  176.5000   114.5763     7.9508    -0.0041     2.4198     0.1388   -30.6295     8.1740     8.7321    12.5465
  177.0000   112.9519     7.9519    -0.0039     2.4236     0.1364   -30.6473     8.1679     8.7180    12.3626
  177.5000   112.0725     7.9678    -0.0053     2.4244     0.1358   -30.3639     8.1050     8.6570    12.3524
  178.0000   111.4913     7.9689    -0.0067     2.4162     0.1391   -30.2267     8.0425     8.7107    12.5156
  178.5000   111.0590     7.9849    -0.0065     2.4102     0.1438   -30.2489     8.0363     8.7018    12.7722
  179.0000   111.0739     7.9859    -0.0049     2.4058     0.1462   -30.1117     8.0290     8.6946    13.1200
  179.5000   110.9397     8.0019    -0.0033     2.4020     0.1483   -29.9789     8.0230     8.6875    13.2036
  180.0000   110.9545     8.0029    -0.0001     2.4029     0.1441   -30.0012     8.0746     8.6803    13.1900
  180.5000   111.1184     8.0039     0.0090     2.4254     0.1302   -30.0190     8.0670     8.7357    12.9064
  181.0000   111.5804     8.0050     0.0196     2.4443     0.1218   -30.1874     8.0609     8.7267    12.8062
  181.5000   112.1914     8.0060     0.0197     2.4586     0.1173   -30.3559     7.9989     8.7805    12.7955
  182.0000   112.9514     7.9921     0.0139     2.4504     0.1224   -30.3737     7.9373     8.9587    12.9776
  182.5000   113.2643     7.9933     0.0095     2.4407     0.1242   -30.3916     7.9313     9.0773    13.1359
  183.0000   112.6830     7.9869     0.0052     2.4452     0.1211   -30.4096     7.9253     9.0066    13.0312
  183.5000   112.2508     7.9804     0.0023     2.4506     0.1205   -30.4271     7.9194     8.8731    12.8402
