~VERSION INFORMATION
 VERS.                2.0:   CWLS LOG ASCII STANDARD - VERSION 2.0
 WRAP.                 NO:   ONE LINE PER DEPTH STEP
~WELL INFORMATION
#MNEM.UNIT      DATA TYPE    INFORMATION
#----------   ------------   ------------------------------
 STRT.F            0.0000:   START DEPTH
 STOP.F         2230.0000:   STOP DEPTH
 STEP.F            0.5000:   STEP LENGTH
 NULL.          -999.2500:   NO VALUE
 COMP. LAWRENCE/ALLISON INC:   COMPANY
 WELL. NPR 3 SH X 34 #48-34:   WELL
 FLD .            WILDCAT:   FIELD
 LOC .      S34 T39N R78W:   LOCATION
 CNTY.            NATRONA:   COUNTY
 STAT.            WYOMING:   STATE
 CTRY. UNITED STATES OF AMERICA:   COUNTRY
 SRVC.            Unknown:   SERVICE COMPANY
 DATE.        02-SEP-1991:   LOGDATE
 API .       490251110600:   API NUMBER
~CURVE INFORMATION
#MNEM.UNIT       API CODE    CURVE DESCRIPTION
#----------   ------------   ------------------------------
 DEPT.F                  :   
 ROP .MIN/FT 91 810 01 00:   RAT OF DRILLING PENETRATION
 TGAS.UNITS  91 830 01 00:   TOTAL GAS FROM HOTWIRE
 C1  .VF     91 831 01 00:   METHANE
 C2  .VF     91 832 01 00:   ETHANE
 C3  .VF     91 833 01 00:   PROPANE
 C4  .VF     91 834 01 00:   BUTANE
 TT  .US/F   81 520 00 00:   TRANSIT TIME
 GR  .GAPI   81 310 01 00:   GAMMA RAY FROM CEMENT BOND LOG
~PARAMETER INFORMATION
#MNEM.UNIT          VALUE    DESCRIPTION
#----------   ------------   ------------------------------
 EKB .F              5145:   KELLING BUSHING
 EGL .F              5135:   GROUND LEVEL
 DATE.          09-2-1991:   RUN DATE
 RUN .                  1:   RUN NUMBER
 BLI .F              2400:   BOTTOM LOG INTERVAL
 TLI .F              2200:   TOP LOG INTERVAL
 ENGI.           C. TOWER:   RECORDING ENGINEER
 WITN.            R. HUSK:   WITNESSED BY
 CLNT.            A2DTECH:   CLIENT CODE
 ORIG.           5" PRINT:   ORIGIN OF DATA
 UWI .       490251110600:   UNIQUE WELL ID
 DICO. A2D Technologies, Inc.:   DIGITIZING COMPANY
~OTHER INFORMATION
~A    DEPT     ROP       TGAS         C1         C2         C3         C4          TT         GR  
# ...
 2025.0000     1.0296     5.7755     8.8087  -999.2500  -999.2500  -999.2500  -999.2500  -999.2500
 2025.5000     1.0291     5.7710     8.8309  -999.2500  -999.2500  -999.2500  -999.2500  -999.2500
 2026.0000     1.0287     5.7665     8.8531  -999.2500  -999.2500  -999.2500  -999.2500  -999.2500
 2026.5000     1.0283     5.7614     8.8754  -999.2500  -999.2500  -999.2500  -999.2500  -999.2500
 2027.0000     1.0278     5.7582     8.8976  -999.2500  -999.2500  -999.2500  -999.2500  -999.2500
 2027.5000     1.0274     5.7703     8.9198  -999.2500  -999.2500  -999.2500  -999.2500  -999.2500
 2028.0000     1.0270     5.7067     8.9421  -999.2500  -999.2500  -999.2500  -999.2500  -999.2500
 2028.5000     1.0266     4.7458     8.9344  -999.2500  -999.2500    10.0372  -999.2500  -999.2500
 2029.0000     1.0261     4.6790     8.8994  -999.2500    10.2708    18.6420  -999.2500  -999.2500
 2029.5000     1.0257     4.7941     9.1465    19.4318    16.8495    17.3997  -999.2500  -999.2500
 2030.0000     1.0252    11.6121    16.1396    19.4318    17.9399    16.3375  -999.2500  -999.2500
 2030.5000     1.0248    45.9753    43.6693    18.2030    17.3918    14.8745  -999.2500  -999.2500
 2031.0000     1.0244    80.1042    80.2665    16.6175    15.5907    13.4183  -999.2500  -999.2500
 2031.5000     1.0240   114.1896   120.7023    15.0416    13.8043    11.9665  -999.2500  -999.2500
 2032.0000     1.0235   146.3878   154.0188    13.4500    12.0140    10.5123  -999.2500  -999.2500
 2032.5000     1.0231   138.6368   138.6289    12.0043    10.2227     9.4106  -999.2500  -999.2500
 2033.0000     1.0227   127.2600   122.1627    10.5182     8.4307     8.3129  -999.2500  -999.2500
 2033.5000     1.0222   115.9682   104.4871     9.3312     6.7222     7.2112  -999.2500  -999.2500
 2034.0000     1.0218   104.6417    81.8655     8.3650     6.0451     6.1062  -999.2500  -999.2500
 2034.5000     1.0213    93.3095    67.4769     7.3868     5.4133     5.0132  -999.2500  -999.2500
 2035.0000     1.0232    81.9472    54.0336     6.8328     4.7782     3.9947  -999.2500  -999.2500
 2035.5000     1.0254    70.5695    40.4616     6.3948     4.1418     3.7307  -999.2500  -999.2500
 2036.0000     1.0277    61.0133    29.3564     5.9757     3.5049     3.4349  -999.2500  -999.2500
 2036.5000     1.0300    60.6799    28.2280     5.6462     2.8723     3.1354  -999.2500  -999.2500
 2037.0000     1.0322    60.0022    27.6945     5.3167     2.3784     2.8378  -999.2500  -999.2500
 2037.5000     1.0345    59.2795    27.1687     4.9872     2.3316     2.5406  -999.2500  -999.2500
 2038.0000     1.0367    58.5753    26.6572     4.6570     2.2743     2.2429  -999.2500  -999.2500
 2038.5000     1.0389    57.8683    26.2563     4.3633     2.2161     2.0797  -999.2500  -999.2500
 2039.0000     1.0413    57.1614    25.8742     4.1349     2.1586     2.0404  -999.2500  -999.2500
 2039.5000     1.0438    56.4551    25.4926     3.9095     2.1008     2.0011  -999.2500  -999.2500
 2040.0000     1.0457    55.7462    25.1110     3.6843     2.0431     1.9626  -999.2500  -999.2500
 2040.5000     1.0185    55.0576    24.7287     3.4590     1.9856     1.9240  -999.2500  -999.2500
 2041.0000     0.8558    54.3699    24.3468     3.2336     1.9276     1.8853  -999.2500  -999.2500
 2041.5000     0.6926    53.6916    23.8260     3.0082     1.8859     1.8466  -999.2500  -999.2500
 2042.0000     0.5266    53.0136    23.1489     2.7827     1.8355     1.8079  -999.2500  -999.2500
 2042.5000     0.5186    52.3352    22.4724     2.5569     1.7867     1.7692  -999.2500  -999.2500
 2043.0000     0.5197    51.6566    21.7987     2.3328     1.7381     1.7305  -999.2500  -999.2500
 2043.5000     0.5200    50.9777    21.1289     2.1428     1.6894     1.6918  -999.2500  -999.2500
 2044.0000     0.5200    50.3013    20.7161     2.0960     1.6407     1.6531  -999.2500  -999.2500
 2044.5000     0.5200    49.6271    20.6712     2.0450     1.5920     1.6145  -999.2500  -999.2500
 2045.0000     0.5200    49.1780    20.6246     1.9937     1.5433     1.5758  -999.2500  -999.2500
 2045.5000     0.5200    49.0107    20.5811     1.9427     1.4946     1.5371  -999.2500  -999.2500
 2046.0000     0.5200    48.8427    20.5375     1.8915     1.4454     1.4984  -999.2500  -999.2500
 2046.5000     0.5200    48.6771    20.4936     1.8403     1.3946     1.4597  -999.2500  -999.2500
 2047.0000     0.5200    48.5120    20.4497     1.7892     1.3919     1.4210  -999.2500  -999.2500
 2047.5000     0.5200    48.3476    20.4058     1.7383     1.3923     1.3823  -999.2500  -999.2500
 2048.0000     0.5200    48.2243    20.3618     1.7065     1.3924     1.3436  -999.2500  -999.2500
 2048.5000     0.5200    48.1607    20.3179     1.7252     1.3924     1.3049  -999.2500  -999.2500
 2049.0000     0.5200    48.0970    20.2741     1.7434     1.3924     1.2663  -999.2500  -999.2500
 2049.5000     0.5200    48.0339    20.2374     1.7615     1.3924     1.2276  -999.2500  -999.2500
 2050.0000     0.5200    47.9708    20.2165     1.7797     1.3924     1.1890  -999.2500  -999.2500
 2050.5000     0.5200    47.9077    20.1957     1.7978     1.3924     1.1510  -999.2500  -999.2500
 2051.0000     0.5200    47.8446    20.1748     1.8160     1.3925     1.1083  -999.2500  -999.2500
 2051.5000     0.5200    47.7814    20.1540     1.8341     1.3926     0.9496  -999.2500  -999.2500
 2052.0000     0.5200    47.7183    20.1332     1.8523     1.4165     0.7841  -999.2500  -999.2500
 2052.5000     0.5202    47.6552    20.1123     1.8704     1.4641     0.6220  -999.2500  -999.2500
 2053.0000     0.5205    47.5921    20.0915     1.8886     1.5118     0.6062  -999.2500  -999.2500
 2053.5000     0.5209    47.5289    20.0706     1.9067     1.5596     0.5971  -999.2500  -999.2500
 2054.0000     0.5212    47.4658    20.0498     1.9248     1.6074     0.5872  -999.2500  -999.2500
 2054.5000     0.5216    47.4027    20.0289     1.9457     1.6551     0.5771  -999.2500  -999.2500
 2055.0000     0.5219    47.3396    20.0081     1.9682     1.7029     0.5670  -999.2500  -999.2500
 2055.5000     0.5222    47.2764    19.9872     1.9907     1.7507     0.5569  -999.2500  -999.2500
 2056.0000     0.5226    47.2133    19.9664     2.0132     1.7985     0.5468  -999.2500  -999.2500
 2056.5000     0.5229    47.1502    19.9456     2.0357     1.8469     0.5367  -999.2500  -999.2500
 2057.0000     0.5233    47.0870    19.9247     2.0582     1.8964     0.5266  -999.2500  -999.2500
 2057.5000     0.5236    47.0239    19.9039     2.0810     1.8716     0.5165  -999.2500  -999.2500
 2058.0000     0.5239    46.9608    19.8830     2.1032     1.8405     0.5064  -999.2500  -999.2500
 2058.5000     0.5243    46.8977    19.8622     2.1215     1.8096     0.4963  -999.2500  -999.2500
 2059.0000     0.5246    46.8345    19.8413     2.1477     1.7788     0.4862  -999.2500  -999.2500
 2059.5000     0.5250    46.7714    19.8205     1.9133     1.7481     0.4761  -999.2500  -999.2500
 2060.0000     0.5253    46.7083    19.7997     1.9538     1.7174     0.4660  -999.2500  -999.2500
 2060.5000     0.5257    46.6451    19.7789     1.9756     1.6867     0.4559  -999.2500  -999.2500
 2061.0000     0.5260    46.5820    19.7564     1.9925     1.6537     0.4458  -999.2500  -999.2500
 2061.5000     0.5263    46.5189    19.6963     2.0108     1.6963     0.4357  -999.2500  -999.2500
 2062.0000     0.5267    46.4557    19.6307     2.0291     1.7712     0.4256  -999.2500  -999.2500
 2062.5000     0.5270    46.3926    19.5650     2.0474     1.8468     0.4155  -999.2500  -999.2500
 2063.0000     0.5274    46.3295    19.4993     2.0657     1.9225     0.4054  -999.2500  -999.2500
 2063.5000     0.5277    46.2664    19.4337     2.0840     1.9982     0.3952  -999.2500  -999.2500
 2064.0000     0.5280    46.2032    19.3680     2.1023     2.0743     0.3851  -999.2500  -999.2500
 2064.5000     0.5284    46.1401    19.3024     2.1207     2.1495     0.3750  -999.2500  -999.2500
 2065.0000     0.5287    46.0770    19.2367     2.1391     2.1525     0.3649  -999.2500  -999.2500
