~VERSION INFORMATION
 VERS.                2.0:   CWLS LOG ASCII STANDARD - VERSION 2.0
 WRAP.                 NO:   ONE LINE PER DEPTH STEP
~WELL INFORMATION
#MNEM.UNIT      DATA TYPE    INFORMATION
#----------   ------------   ------------------------------
 STRT.F           30.0000:   START DEPTH
 STOP.F         1178.5000:   STOP DEPTH
 STEP.F            0.5000:   STEP LENGTH
 NULL.          -999.2500:   NO VALUE
 COMP. FENIX & SCISSON INC:   COMPANY
 WELL.     64-S-14 #14-14:   WELL
 FLD .        TEAPOT DOME:   FIELD
 LOC .      S14 T38N R78W:   LOCATION
 CNTY.            NATRONA:   COUNTY
 STAT.            WYOMING:   STATE
 CTRY. UNITED STATES OF AMERICA:   COUNTRY
 SRVC.            Unknown:   SERVICE COMPANY
 DATE.        19-APR-1978:   LOGDATE
 API .       490251061400:   API NUMBER
~CURVE INFORMATION
#MNEM.UNIT       API CODE    CURVE DESCRIPTION
#----------   ------------   ------------------------------
 DEPT.F                  :   
 SPR .MV     05 010 01 00:   SPONTANEOUS POTENTIAL
 SN  .OHMM   05 040 16 00:   SHORT NORMAL 16'
 ILD .OHMM   05 120 46 00:   INDUCTION LOG DEEP
 CALD.IN     45 280 60 00:   CALIPER
 GRD .GAPI   45 310 01 00:   GAMMA RAY FROM DENSITY LOG
 RHOB.G/C3   45 350 01 00:   BULK DENSITY
 DPHI.DEC    45 890 12 00:   DENSITY POROSITY SANDSTONE
 CORR.G/C3   45 356 01 00:   DENSITY CORRECTION
~PARAMETER INFORMATION
#MNEM.UNIT          VALUE    DESCRIPTION
#----------   ------------   ------------------------------
 PD  .                 GL:   PERMANENT DATUM
 EPD .F              5235:   ELEVATION PERMANENT DATUM
 LMF .                 KB:   LOG MEASURED FROM
 DMF .                 KB:   DRILLING MEASURED FROM
 EKB .F              5299:   KELLING BUSHING
 EGL .F              5295:   GROUND LEVEL
 DATE.          4-19-1978:   RUN DATE
 RUN .                  1:   RUN NUMBER
 DD  .F              1180:   DEPTH DRILLER
 DL  .F              1182:   DEPTH LOGGER
 BLI .F              1176:   BOTTOM LOG INTERVAL
 TLI .F                50:   TOP LOG INTERVAL
 CS  .IN            8.625:   CASING SIZE
 CBD .F                40:   CASING BOTTOM DRILLER
 CBL .F                50:   CASING BOTTOM LOGGER
 BS  .IN            7.875:   BIT SIZE
 BSD .F              1180:   BIT SIZE AT DEPTH
 DFT .                KCL:   DRILLING FLUID TYPE
 DFD .                8.7:   DRILLING FLUID DENSITY
 DFV .                 33:   DRILLING FLUID VISCOSITY
 DFPH.               10.5:   DRILLING FLUID PH
 DFL .               12.3:   DRILLING FLUID LOSS
 MSS .            MUD PIT:   MUD SAMPLE SOURCE
 RMS .OHMM            .54:   RESISTIVITY MUD SAMPLE
 MST .F                62:   MUD SAMPLE TEMPERATURE
 RMF .OHMM            .65:   RESISTIVITY MUD FILTRATE SAMPLE
 MFST.F                60:   MUD FILTRATE SAMPLE TEMPERATURE
 RMC .OHMM            .35:   RESISTIVITY MUD CAKE
 MCST.F                60:   MUD CAKE SAMPLE TEMPERATURE
 MFSS.           MEASURED:   MUD FILTRATE SAMPLE SOURCE
 RMB .OHMM            .42:   RESISTIVITY MUD AT BHT
 BHT .F                80:   BOTTOM HOLE TEMPERATURE
 TCS .HRS               2:   TIME CURCULATED STOPPED
 MRT .F                80:   MAXIMUM RECORDED TEMPERATURE
 LUN .               2955:   LOGGING UNIT NUMBER
 LUL .               CASP:   LOGGING UNIT LOCATION
 ENGI.             MILLER:   RECORDING ENGINEER
 WITN.           MCGINLEY:   WITNESSED BY
 CLNT.            A2DTECH:   CLIENT CODE
 ORIG.      2" & 5" PRINT:   ORIGIN OF DATA
 UWI .       490251061400:   UNIQUE WELL ID
 DICO. A2D Technologies, Inc.:   DIGITIZING COMPANY
~OTHER INFORMATION
~A   DEPT      SPR         SN        ILD       CALD         GRD      RHOB       DPHI       CORR   
# ...
  435.0000   -44.4045     2.9779     2.6010     7.8425    76.6153     2.3237     0.1862     0.0485
  435.5000   -44.2168     2.7020     2.3173     7.8237    73.8299     2.3670     0.1687     0.0310
  436.0000   -44.2307     2.4513     2.1179     7.8137    72.5254     2.4101     0.1505     0.0190
  436.5000   -44.2585     2.2241     2.0794     7.8312    78.4424     2.4159     0.1517     0.0208
  437.0000   -44.2853     2.1165     2.0970     7.8479    80.7653     2.4120     0.1545     0.0223
  437.5000   -44.3116     2.1168     2.1565     7.8645    81.5451     2.4068     0.1553     0.0240
  438.0000   -44.3380     2.1993     2.2178     7.8812    82.3352     2.4088     0.1537     0.0204
  438.5000   -44.3644     2.2702     2.2808     7.8978    84.0641     2.4011     0.1615     0.0141
  439.0000   -44.3908     2.3212     2.5377     7.9145    86.7226     2.3893     0.1692     0.0143
  439.5000   -44.4171     2.8516     2.9206     7.9310    87.6051     2.3799     0.1688     0.0202
  440.0000   -44.4435     3.4384     3.3613     7.9467    84.1899     2.3967     0.1560     0.0261
  440.5000   -44.4699     3.7042     3.5708     7.9871    82.9301     2.4149     0.1448     0.0320
  441.0000   -44.4963     3.6459     3.5100     8.0302    84.4330     2.4267     0.1469     0.0369
  441.5000   -44.5226     3.5822     3.3798     8.0733    85.6763     2.4230     0.1499     0.0378
  442.0000   -44.5490     3.5334     3.3798     8.1101    86.7857     2.4163     0.1530     0.0386
  442.5000   -44.5757     3.5173     3.3798     8.1024    87.8699     2.4096     0.1560     0.0386
  443.0000   -44.6032     3.5012     3.3798     8.0954    87.5460     2.4031     0.1585     0.0386
  443.5000   -44.6046     3.4852     3.3798     8.0841    87.0743     2.3969     0.1601     0.0378
  444.0000   -44.6045     3.4488     3.3798     8.0526    87.0727     2.3922     0.1630     0.0326
  444.5000   -44.6044     3.3662     3.3337     8.0216    87.9191     2.3786     0.1731     0.0282
  445.0000   -44.6044     3.2855     3.2432     7.9906    88.4211     2.3652     0.1798     0.0269
  445.5000   -44.6044     3.1990     3.1152     7.9596    86.4832     2.3517     0.1855     0.0256
  446.0000   -44.6044     3.0813     2.9583     7.9286    84.5917     2.3383     0.1939     0.0242
  446.5000   -44.6044     2.9555     2.7940     7.8968    83.7000     2.3249     0.2024     0.0227
  447.0000   -44.6044     2.8166     2.6397     7.8830    84.2957     2.3113     0.2113     0.0290
  447.5000   -44.6044     2.6768     2.4936     7.8737    83.8976     2.3047     0.2087     0.0379
  448.0000   -44.6044     2.5439     2.3425     7.8645    82.1185     2.3201     0.2015     0.0472
  448.5000   -44.6044     2.4300     2.3425     7.8547    79.1364     2.3594     0.1742     0.0375
  449.0000   -44.6044     2.4078     2.3425     7.8188    77.2781     2.3985     0.1524     0.0340
  449.5000   -44.6044     2.4874     2.4092     7.7483    77.6650     2.4135     0.1521     0.0360
  450.0000   -44.6044     2.5788     2.4855     7.6792    79.3163     2.4135     0.1517     0.0330
  450.5000   -44.6044     2.6736     2.5642     7.6292    80.0868     2.4125     0.1529     0.0280
  451.0000   -44.6044     2.7627     2.6453     7.6307    79.8941     2.4075     0.1556     0.0229
  451.5000   -44.6044     3.1426     2.8218     7.6035    79.4981     2.4019     0.1598     0.0178
  452.0000   -44.6044     3.6312     3.1165     7.5678    79.0957     2.3942     0.1640     0.0127
  452.5000   -44.6044     3.9424     3.4420     7.5321    78.7031     2.3858     0.1662     0.0082
  453.0000   -44.6044     4.0028     3.7727     7.5098    79.6569     2.3831     0.1685     0.0070
  453.5000   -44.6044     4.0226     3.8779     7.5101    82.7390     2.3751     0.1753     0.0058
  454.0000   -44.6044     4.0133     3.9136     7.5098    85.6541     2.3627     0.1839     0.0045
  454.5000   -44.6044     4.0060     3.9136     7.4997    86.4930     2.3433     0.1925     0.0032
  455.0000   -44.6044     3.9987     3.9147     7.4755    87.5762     2.3241     0.2011     0.0019
  455.5000   -44.6044     3.9914     3.9130     7.4512    88.0315     2.3047     0.2109     0.0006
  456.0000   -44.6044     3.9516     3.8066     7.4332    88.2897     2.2854     0.2208     0.0029
  456.5000   -44.6043     3.8186     3.8096     7.4986    89.0913     2.2661     0.2307     0.0055
  457.0000   -44.6045     3.6901     3.3409     7.5198    91.9433     2.2515     0.2354     0.0143
  457.5000   -44.6073     3.5708     3.0552     7.5023    95.0406     2.2524     0.2295     0.0255
  458.0000   -44.5266     3.2474     2.7940     7.4984    96.7654     2.2880     0.2128     0.0241
  458.5000   -44.4350     2.9641     2.5551     7.5236    92.9605     2.3152     0.1961     0.0045
  459.0000   -44.3422     2.7048     2.3425     7.5864    87.8298     2.3424     0.1794     0.0045
  459.5000   -44.2496     2.4285     2.3000     7.6595    83.4076     2.3698     0.1732     0.0104
  460.0000   -44.1577     2.4087     2.2790     7.7258    82.8826     2.3766     0.1704     0.0167
  460.5000   -44.0667     2.4232     2.3008     7.6765    81.9132     2.3875     0.1677     0.0193
  461.0000   -44.0516     2.4527     2.3539     7.7119    80.1287     2.3982     0.1649     0.0121
  461.5000   -44.1506     2.4977     2.4078     7.7462    78.4537     2.3982     0.1621     0.0066
  462.0000   -44.2486     2.7669     2.5997     7.7324    78.4352     2.3978     0.1608     0.0077
  462.5000   -44.3473     3.1409     2.8052     7.7121    82.4780     2.3976     0.1598     0.0087
  463.0000   -44.4458     3.2627     3.0269     7.7086    86.5941     2.3998     0.1589     0.0097
  463.5000   -44.5439     3.4267     3.2662     7.7722    90.7068     2.4045     0.1575     0.0106
  464.0000   -44.6051     3.5977     3.4405     7.8579    90.4946     2.4010     0.1575     0.0117
  464.5000   -44.6043     3.6938     3.5103     7.9381    86.9685     2.3959     0.1610     0.0139
  465.0000   -44.6044     3.7334     3.5175     7.9773    85.2640     2.3907     0.1645     0.0189
  465.5000   -44.6044     3.7738     3.5249     8.0179    84.4737     2.3898     0.1642     0.0295
  466.0000   -44.6044     3.8074     3.5322     8.0586    82.0140     2.3891     0.1637     0.0420
  466.5000   -44.6044     3.8093     3.5383     8.0991    79.5075     2.3884     0.1643     0.0545
  467.0000   -44.6044     3.7751     3.5410     8.1278    78.8334     2.3876     0.1651     0.0668
  467.5000   -44.6044     3.7125     3.4712     8.1129    78.6823     2.3890     0.1644     0.0728
  468.0000   -44.6044     3.5662     3.3381     8.0991    78.9475     2.3907     0.1629     0.0675
  468.5000   -44.6044     3.4253     3.2152     8.0856    80.3216     2.3828     0.1737     0.0628
  469.0000   -44.6044     3.2896     3.0961     8.0701    82.0222     2.3611     0.1847     0.0646
  469.5000   -44.6054     3.1592     2.9811     7.9554    83.5476     2.3396     0.1933     0.0667
  470.0000   -44.5694     3.0339     2.8704     7.7948    83.4969     2.3366     0.1904     0.0680
  470.5000   -44.5228     2.9137     2.7638     7.5598    82.8667     2.3419     0.1858     0.0556
  471.0000   -44.4758     2.7981     2.6611     7.4405    82.1871     2.3465     0.1853     0.0459
  471.5000   -44.4288     2.6868     2.5619     7.3486    81.4473     2.3440     0.1893     0.0426
  472.0000   -44.3819     2.5903     2.4739     7.2573    80.6570     2.3333     0.1933     0.0348
  472.5000   -44.3351     2.5439     2.4300     7.1648    79.9208     2.3167     0.2029     0.0273
  473.0000   -44.2885     2.5207     2.4033     7.1495    80.0392     2.2999     0.2134     0.0198
  473.5000   -44.2406     2.5303     2.3746     7.1692    82.4540     2.2833     0.2239     0.0121
  474.0000   -44.1692     2.5439     2.3463     7.1990    86.1207     2.2665     0.2335     0.0104
  474.5000   -44.0244     2.4568     2.3101     7.2289    87.8197     2.2499     0.2426     0.0107
  475.0000   -43.8837     2.3387     2.2071     7.2588    91.7615     2.2361     0.2445     0.0188
