~VERSION INFORMATION
 VERS.                2.0:   CWLS LOG ASCII STANDARD - VERSION 2.0
 WRAP.                 NO:   ONE LINE PER DEPTH STEP
~WELL INFORMATION
#MNEM.UNIT      DATA TYPE    INFORMATION
#----------   ------------   ------------------------------
 STRT.F           28.5000:   START DEPTH
 STOP.F          781.0000:   STOP DEPTH
 STEP.F            0.5000:   STEP LENGTH
 NULL.          -999.2500:   NO VALUE
 COMP. FENIX & SCISSON INC:   COMPANY
 WELL. NPR 3 23 SX 14 #23-14:   WELL
 FLD .        TEAPOT DOME:   FIELD
 LOC .      S14 T38N R78W:   LOCATION
 CNTY.            NATRONA:   COUNTY
 STAT.            WYOMING:   STATE
 CTRY. UNITED STATES OF AMERICA:   COUNTRY
 SRVC.            Unknown:   SERVICE COMPANY
 DATE.        13-MAY-1978:   LOGDATE
 API .       490251063400:   API NUMBER
~CURVE INFORMATION
#MNEM.UNIT       API CODE    CURVE DESCRIPTION
#----------   ------------   ------------------------------
 DEPT.F                  :   
 RHOB.G/C3   45 350 01 00:   BULK DENSITY
 DPHI.DEC    45 890 12 00:   DENSITY POROSITY SANDSTONE
 GRD .GAPI   45 310 01 00:   GAMMA RAY FROM DENSITY LOG
 CALD.IN     45 280 60 00:   CALIPER FROM DENSITY LOG
 CORR.G/C3   45 356 01 00:   DENSITY CORRECTION
 SN  .OHMM   05 040 16 00:   SHORT NORMAL 16"
 SPR .MV     05 010 01 00:   SPONTANEOUS POTENTIAL FROM RES.
 ILD .OHMM   05 120 46 00:   INDUCTION LOG DEEP
~PARAMETER INFORMATION
#MNEM.UNIT          VALUE    DESCRIPTION
#----------   ------------   ------------------------------
 PD  .                 GL:   PERMANENT DATUM
 EPD .F              5202:   ELEVATION PERMANENT DATUM
 LMF .                 KB:   LOG MEASURED FROM
 DMF .                 KB:   DRILLING MEASURED FROM
 EKB .F              5206:   KELLING BUSHING
 EGL .F              5202:   GROUND LEVEL
 DATE.          5-13-1978:   RUN DATE
 RUN .                  1:   RUN NUMBER
 DD  .F               785:   DEPTH DRILLER
 DL  .F               776:   DEPTH LOGGER
 BLI .F               770:   BOTTOM LOG INTERVAL
 TLI .F                50:   TOP LOG INTERVAL
 CS  .IN            8.625:   CASING SIZE
 CBD .F                40:   CASING BOTTOM DRILLER
 CBL .F                40:   CASING BOTTOM LOGGER
 BS  .IN            7.875:   BIT SIZE
 BSD .F               785:   BIT SIZE AT DEPTH
 DFT .                KCL:   DRILLING FLUID TYPE
 DFD .                8.6:   DRILLING FLUID DENSITY
 DFV .                 30:   DRILLING FLUID VISCOSITY
 DFPH.                 10:   DRILLING FLUID PH
 DFL .                 14:   DRILLING FLUID LOSS
 MSS .           FLOWLINE:   MUD SAMPLE SOURCE
 RMS .OHMM             .4:   RESISTIVITY MUD SAMPLE
 MST .F                69:   MUD SAMPLE TEMPERATURE
 RMF .OHMM            .36:   RESISTIVITY MUD FILTRATE SAMPLE
 MFST.F                72:   MUD FILTRATE SAMPLE TEMPERATURE
 RMC .OHMM            .56:   RESISTIVITY MUD CAKE
 MCST.F                73:   MUD CAKE SAMPLE TEMPERATURE
 MFSS.               MEAS:   MUD FILTRATE SAMPLE SOURCE
 RMB .OHMM            .35:   RESISTIVITY MUD AT BHT
 BHT .F                79:   BOTTOM HOLE TEMPERATURE
 TCS .HRS               2:   TIME CURCULATED STOPPED
 MRT .F                79:   MAXIMUM RECORDED TEMPERATURE
 LUN .               3006:   LOGGING UNIT NUMBER
 LUL .              CASP.:   LOGGING UNIT LOCATION
 ENGI.             MILLER:   RECORDING ENGINEER
 WITN.           MCGINLEY:   WITNESSED BY
 CLNT.            A2DTECH:   CLIENT CODE
 ORIG.           5" PRINT:   ORIGIN OF DATA
 UWI .       490251063400:   UNIQUE WELL ID
 DICO. A2D Technologies, Inc.:   DIGITIZING COMPANY
~OTHER INFORMATION
~A   DEPT     RHOB       DPHI         GRD      CALD       CORR         SN        SPR        ILD   
# ...
  514.5000     2.4810     0.1038    82.1983     7.1763     0.0419     8.2088   -62.8161     6.4371
  515.0000     2.4833     0.0930    80.1804     7.0845     0.0434     8.1924   -62.9241     6.3630
  515.5000     2.4900     0.0921    79.8281     7.0676     0.0448     8.1762   -62.9222     6.2898
  516.0000     2.4978     0.0928    79.4456     7.1513     0.0462     8.1594   -62.9226     6.2428
  516.5000     2.4872     0.1003    79.1109     7.2476     0.0476     8.1489   -62.9229     6.4311
  517.0000     2.4803     0.1074    79.2835     7.3446     0.0491     8.3219   -62.9233     6.5987
  517.5000     2.4785     0.1069    79.4555     7.3892     0.0519     8.4514   -62.9195     6.7706
  518.0000     2.4766     0.1057    79.6335     7.3901     0.0601     8.5320   -62.7066     6.9471
  518.5000     2.4752     0.1071    79.0529     7.3899     0.0683     8.2542   -62.1290     7.1697
  519.0000     2.4694     0.1104    77.9528     7.3909     0.0701     8.0593   -61.5558     7.1711
  519.5000     2.4597     0.1137    77.0918     7.4202     0.0702     7.8689   -60.9840     6.7884
  520.0000     2.4501     0.1171    77.9726     7.4507     0.0701     7.6831   -60.5257     6.2993
  520.5000     2.4405     0.1234    79.8659     7.4801     0.0686     7.5003   -60.5447     5.7578
  521.0000     2.4304     0.1463    84.2596     7.5459     0.0671     7.2284   -60.5676     5.2603
  521.5000     2.4051     0.1689    89.5697     7.6246     0.0681     6.6498   -60.5896     4.8251
  522.0000     2.3628     0.1782    92.7178     7.7043     0.0726     6.1231   -60.6114     4.9114
  522.5000     2.3614     0.1502    93.5133     7.7844     0.0770     5.8540   -60.6332     5.0074
  523.0000     2.3951     0.1181    92.0924     7.8650     0.0787     5.9332   -60.6549     4.9725
  523.5000     2.4408     0.0838    84.2429     7.9265     0.0735     6.1074   -60.6768     4.9397
  524.0000     2.4870     0.0845    77.1086     7.7796     0.0684     7.0414   -60.6987     4.9163
  524.5000     2.5063     0.0843    72.1685     7.6608     0.0640     8.2485   -60.7202     5.6368
  525.0000     2.5026     0.0862    71.9215     7.6308     0.0642     9.1174   -60.7258     6.2716
  525.5000     2.5032     0.0923    73.2601     7.5747     0.0637     9.6144   -60.6836     6.9775
  526.0000     2.4975     0.0985    74.3990     7.4591     0.0503     9.5911   -60.6435     8.0773
  526.5000     2.4834     0.1046    74.2994     7.3443     0.0370     9.5582   -60.6034     8.0744
  527.0000     2.4695     0.1107    73.9492     7.2295     0.0286     9.5255   -60.5633     8.1203
  527.5000     2.4598     0.1154    73.7927     7.1154     0.0261     9.4929   -60.5233     7.9055
  528.0000     2.4554     0.1135    76.6158     7.0508     0.0278     9.4604   -60.4832     7.6964
  528.5000     2.4606     0.1106    79.2693     7.0546     0.0295     9.4395   -60.4431     7.4928
  529.0000     2.4661     0.1123    79.4523     7.0577     0.0311     9.5382   -60.4030     7.3246
  529.5000     2.4653     0.1168    78.8992     7.0610     0.0313     9.6119   -60.3629     7.2982
  530.0000     2.4572     0.1213    77.2533     7.0643     0.0295     9.6869   -60.3159     7.5022
  530.5000     2.4491     0.1259    75.1949     7.0674     0.0288     9.7619   -60.2570     7.5714
  531.0000     2.4409     0.1284    74.3761     7.0662     0.0328    10.1685   -60.1990     7.9981
  531.5000     2.4389     0.1291    73.4048     7.0427     0.0367    10.8365   -60.1345     8.6398
  532.0000     2.4410     0.1288    69.7293     7.0195     0.0401    11.5494   -59.9247     9.3330
  532.5000     2.4425     0.1287    62.6463     6.9964     0.0393    12.3097   -59.7091    10.0664
  533.0000     2.4396     0.1357    55.6358     6.9731     0.0386    13.1179   -59.4942    10.4833
  533.5000     2.4267     0.1433    49.8681     6.9499     0.0382    13.7804   -59.2795    11.0141
  534.0000     2.4114     0.1509    47.1754     6.9369     0.0393    14.0880   -59.0635    11.5718
  534.5000     2.3960     0.1585    44.9190     6.9970     0.0403    14.2757   -58.8340    12.6100
  535.0000     2.3852     0.1661    45.4815     7.0566     0.0413    14.4181   -58.5832    13.8337
  535.5000     2.3771     0.1697    46.0132     7.1505     0.0423    14.5372   -58.3329    14.4044
  536.0000     2.3692     0.1705    46.0085     7.2527     0.0434    14.3046   -58.0823    14.4044
  536.5000     2.3692     0.1696    45.8928     7.3387     0.0447    14.1477   -57.8288    14.4044
  537.0000     2.3712     0.1703    45.7820     7.3684     0.0486    13.9926   -57.7576    14.4044
  537.5000     2.3689     0.1727    45.9100     7.3685     0.0566    13.8767   -57.7712    14.4046
  538.0000     2.3657     0.1750    46.7858     7.2763     0.0646    13.8499   -57.7856    14.4042
  538.5000     2.3625     0.1726    47.5084     6.9814     0.0726    13.8232   -57.7999    14.3693
  539.0000     2.3642     0.1668    47.4004     6.6216     0.0806    13.7966   -57.8140    14.3297
  539.5000     2.3789     0.1644    47.2722     6.5404     0.0880    13.7700   -57.8281    14.2907
  540.0000     2.3794     0.1651    48.9324     6.5171     0.0882    13.6010   -57.8422    14.0444
  540.5000     2.3805     0.1632    50.9721     6.5013     0.0882    13.3134   -57.8563    13.6279
  541.0000     2.3830     0.1619    53.4702     6.4721     0.0882    13.0197   -57.8705    13.2239
  541.5000     2.3852     0.1633    53.7850     6.3914     0.0898    12.9838   -57.8846    12.8318
  542.0000     2.3838     0.1623    54.0465     6.4507     0.0950    12.9462   -57.8987    12.6242
  542.5000     2.3854     0.1565    53.8775     6.6523     0.1000    12.9088   -57.9127    12.5514
  543.0000     2.3894     0.1506    53.5676     6.8536     0.1002    12.8715   -57.9255    12.4789
  543.5000     2.3991     0.1448    53.2248     7.0549     0.1002    12.8343   -57.9422    12.4069
  544.0000     2.4091     0.1401    52.9583     7.2554     0.1002    12.7972   -58.0475    12.3353
  544.5000     2.4190     0.1395    54.4472     7.4265     0.1002    12.7602   -58.5724    12.2641
  545.0000     2.4198     0.1385    55.8863     7.4879     0.1016    12.7234   -58.6007    12.1933
  545.5000     2.4205     0.1362    56.1394     7.5513     0.1046    12.6866   -58.6391    12.1229
  546.0000     2.4253     0.1339    56.3505     7.5778     0.1077    12.6499   -58.6800    12.0530
  546.5000     2.4288     0.1316    56.4806     7.5894     0.1099    12.6134   -58.7209    11.9834
  547.0000     2.4336     0.1311    56.4003     7.6007     0.1067    12.5770   -58.7618    11.9143
  547.5000     2.4347     0.1476    56.3290     7.6100     0.1019    12.5505   -58.8027    11.8455
  548.0000     2.4101     0.1616    55.5293     7.6084     0.0733    12.5787   -58.8442    11.7771
  548.5000     2.3842     0.1651    55.5445     7.6069     0.0424    12.6018   -58.8849    11.7091
  549.0000     2.3767     0.1691    55.6145     7.6055     0.0378    12.6248   -58.9191    11.6416
  549.5000     2.3686     0.1755    55.6836     7.6041     0.0340    12.6479   -58.6636    11.5539
  550.0000     2.3587     0.1776    55.5222     7.6027     0.0341    12.6710   -58.1533    11.6263
  550.5000     2.3582     0.1772    55.2715     7.6012     0.0341    12.6942   -58.4102    11.7314
  551.0000     2.3592     0.1774    55.0130     7.5998     0.0341    12.7174   -58.7028    11.8374
  551.5000     2.3586     0.1777    55.0879     7.5984     0.0340    12.7406   -58.9502    11.9444
  552.0000     2.3582     0.1780    55.4154     7.5970     0.0355    12.7638   -58.7979    12.0524
  552.5000     2.3591     0.1782    56.3006     7.5956     0.0374    12.7819   -58.6410    12.0971
  553.0000     2.3580     0.1784    57.3122     7.5941     0.0392    12.7113   -58.5503    12.0119
  553.5000     2.3570     0.1744    57.7582     7.5927     0.0411    12.6518   -58.6248    11.9069
  554.0000     2.3641     0.1696    57.4077     7.5914     0.0416    12.5927   -58.7002    11.8027
  554.5000     2.3721     0.1649    57.1273     7.5896     0.0405    12.5338   -58.7758    11.6995
