~VERSION INFORMATION
 VERS.                2.0:   CWLS LOG ASCII STANDARD - VERSION 2.0
 WRAP.                 NO:   ONE LINE PER DEPTH STEP
~WELL INFORMATION
#MNEM.UNIT      DATA TYPE    INFORMATION
#----------   ------------   ------------------------------
 STRT.F            0.0000:   START DEPTH
 STOP.F         3315.0000:   STOP DEPTH
 STEP.F            0.5000:   STEP LENGTH
 NULL.          -999.2500:   NO VALUE
 COMP. LAWRENCE/ALLISON INC     84-AX-:   COMPANY
 WELL.          SHX3 #1-3:   WELL
 FLD .            WILDCAT:   FIELD
 LOC .       S3 T38N R78W:   LOCATION
 CNTY.            NATRONA:   COUNTY
 STAT.            WYOMING:   STATE
 CTRY. UNITED STATES OF AMERICA:   COUNTRY
 SRVC.      Dresser Atlas:   SERVICE COMPANY
 DATE.        20-JAN-1986:   LOGDATE
 API .       490251104200:   API NUMBER
~CURVE INFORMATION
#MNEM.UNIT       API CODE    CURVE DESCRIPTION
#----------   ------------   ------------------------------
 DEPT.F                  :   
 SPR .MV     07 010 01 00:   SPONTANEOUS POTENTIAL
 RILD.OHMM   07 120 46 00:   INDUCTION LOG DEEP RESISTIVITY
 RILM.OHMM   07 120 44 00:   INDUCTION LOG MEDIUM RESISTIVITY
 RFOC.OHMM   07 220 04 00:   RESISTIVITY FOCUSED LOG
 AC  .US/F   60 520 00 00:   ACCOUSTIC
 CALD.IN     45 280 60 00:   CALIPER FROM DENSITY
 CORR.G/C3   45 356 01 00:   DENSITY CORRECTION
 DEN .G/C3   45 350 01 00:   COMPENSATED BULK DENSTIY
 PORD.DEC    45 890 12 00:   POROSITY DENSITY SANDSTONE
 CNC .DEC    42 890 03 00:   NEUTRON POROSITY SANDSTONE
 GRR .GAPI   07 310 01 00:   GAMMA RAY
~PARAMETER INFORMATION
#MNEM.UNIT          VALUE    DESCRIPTION
#----------   ------------   ------------------------------
 PD  .                 GL:   PERMANENT DATUM
 EPD .F              5136:   ELEVATION PERMANENT DATUM
 LMF .                 KB:   LOG MEASURED FROM
 DAPD.F                11:   FEET ABOVE PERMANENT DATUM
 DMF .                 KB:   DRILLING MEASURED FROM
 EKB .F              5147:   KELLING BUSHING
 EGL .F              5136:   GROUND LEVEL
 DATE.        26-JAN-1986:   RUN DATE
 RUN .                  1:   RUN NUMBER
 DD  .F              3320:   DEPTH DRILLER
 DL  .F              3317:   DEPTH LOGGER
 BLI .F              3315:   BOTTOM LOG INTERVAL
 CS  .IN            8.625:   CASING SIZE
 CBD .F               550:   CASING BOTTOM DRILLER
 CBL .F               592:   CASING BOTTOM LOGGER
 BS  .IN            7.875:   BIT SIZE
 BSD .F              3320:   BIT SIZE AT DEPTH
 DFT .        POLYMER KCL:   DRILLING FLUID TYPE
 DFD .                9.1:   DRILLING FLUID DENSITY
 DFV .                 38:   DRILLING FLUID VISCOSITY
 DFPH.                 10:   DRILLING FLUID PH
 DFL .                8.5:   DRILLING FLUID LOSS
 MSS .           FLOWLINE:   MUD SAMPLE SOURCE
 RMS .OHMM           .435:   RESISTIVITY MUD SAMPLE
 MST .F                72:   MUD SAMPLE TEMPERATURE
 RMF .OHMM           .352:   RESISTIVITY MUD FILTRATE SAMPLE
 MFST.F                72:   MUD FILTRATE SAMPLE TEMPERATURE
 RMC .OHMM            .54:   RESISTIVITY MUD CAKE
 MCST.F                72:   MUD CAKE SAMPLE TEMPERATURE
 MFSS.               MEAS:   MUD FILTRATE SAMPLE SOURCE
 MCSS.               MEAS:   MUD CAKE SAMPLE SOURCE
 RMB .OHMM            .29:   RESISTIVITY MUD AT BHT
 BHT .F               108:   BOTTOM HOLE TEMPERATURE
 TCS .HRS               3:   TIME CURCULATED STOPPED
 MRT .F               108:   MAXIMUM RECORDED TEMPERATURE
 LUN .               6274:   LOGGING UNIT NUMBER
 LUL .               GLTE:   LOGGING UNIT LOCATION
 ENGI.             RAUTIO:   RECORDING ENGINEER
 WITN.             STRONG:   WITNESSED BY
 CLNT.            A2DTECH:   CLIENT CODE
 ORIG.       2", 5" PRINT:   ORIGIN OF DATA
 UWI .       490251104200:   UNIQUE WELL ID
 DICO. A2D Technologies, Inc.:   DIGITIZING COMPANY
~OTHER INFORMATION
~A    DEPT     SPR       RILD       RILM       RFOC         AC       CALD       CORR        DEN       PORD        CNC        GRR   
# ...
 2409.5000   -52.8068     2.5084     2.6544     3.0659    95.4745     9.1144     0.0390     2.5068     0.0853     0.2728    65.6143
 2410.0000   -52.9506     2.5438     2.7304     3.3298    94.3168     9.1135     0.0254     2.5068     0.0872     0.2733    65.3253
 2410.5000   -52.9412     2.6708     2.7891     3.3304    93.7957     9.1124     0.0299     2.5128     0.0836     0.2761    64.5729
 2411.0000   -52.7824     2.8237     2.8888     3.3574    93.2747     9.0964     0.0509     2.5210     0.0800     0.2752    62.9117
 2411.5000   -52.4723     3.0271     3.0506     3.4491    93.0543     9.0955     0.0599     2.5308     0.0751     0.2689    61.5384
 2412.0000   -52.0110     3.2004     3.2254     3.4498    92.3077     9.0946     0.0553     2.5398     0.0640     0.2590    59.6822
 2412.5000   -51.5496     3.4071     3.3865     3.4504    91.1099     9.0785     0.0553     2.5450     0.0634     0.2578    57.1228
 2413.0000   -51.0882     3.5772     3.5557     4.0198    89.0850     9.0776     0.0537     2.5457     0.0637     0.2557    54.8196
 2413.5000   -50.7781     3.7299     3.7334     4.8822    87.2106     9.0921     0.0416     2.5306     0.0680     0.2684    53.0177
 2414.0000   -50.4681     3.8354     3.8659     5.3069    86.5391     9.0910     0.0160     2.5117     0.0792     0.2777    53.9389
 2414.5000   -50.3093     3.8626     3.9206     5.2711    86.3927     9.0901     0.0070     2.4906     0.0921     0.2756    56.8269
 2415.0000   -50.3018     3.8632     3.9484     5.1277    87.0759     9.0892     0.0237     2.4815     0.1006     0.2708    59.4122
 2415.5000   -50.2942     3.8368     3.8679     4.5267    88.5849     9.0883     0.0449     2.4936     0.0997     0.2666    60.9386
 2416.0000   -50.2861     3.8375     3.8416     3.7284    91.2217     9.0874     0.0595     2.5108     0.0849     0.2660    61.2513
 2416.5000   -50.2792     3.8380     3.8692     3.5276    91.8284     9.1017     0.0519     2.5176     0.0792     0.2702    58.9989
 2417.0000   -50.2711     3.9193     3.9513     3.7556    91.0818     9.1007     0.0458     2.5153     0.0801     0.2745    55.3815
 2417.5000   -50.2642     4.0023     4.0351     4.6897    89.0569     9.0998     0.0443     2.5168     0.0792     0.2739    53.8788
 2418.0000   -50.2561     4.1156     4.1495     5.2409    88.1599     9.0989     0.0518     2.5289     0.0719     0.2709    54.3495
 2418.5000   -50.2492     4.2027     4.2670     4.9934    87.7892     9.0980     0.0682     2.5454     0.0645     0.2673    54.3630
 2419.0000   -50.2417     4.2918     4.3879     4.2876    88.2455     9.0971     0.0817     2.5507     0.0597     0.2643    53.9227
 2419.5000   -50.2342     4.3524     4.4500     4.3785    89.0026     9.1114     0.0667     2.5486     0.0603     0.2639    53.6302
 2420.0000   -50.2267     4.1754     4.3289     4.7593    88.8575     9.1256     0.0501     2.5369     0.0651     0.2643    53.9497
 2420.5000   -50.2192     4.0326     4.2111     5.1374    88.6358     9.1396     0.0455     2.5263     0.0727     0.2646    53.9632
 2421.0000   -50.2117     3.9510     4.1250     5.3196    88.4168     9.1387     0.0500     2.5218     0.0760     0.2673    54.1280
 2421.5000   -50.2042     3.9215     4.0688     5.3949    88.5724     9.1378     0.0635     2.5255     0.0767     0.2749    55.3518
 2422.0000   -50.3480     3.8976     4.0695     5.4333    88.8784     9.1218     0.0740     2.5390     0.0758     0.2767    57.7858
 2422.5000   -50.4917     3.9253     4.1003     4.2927    90.6130     9.1209     0.0784     2.5525     0.0630     0.2722    59.6148
 2423.0000   -50.4842     3.9808     4.2175     3.5841    91.4453     9.1200     0.0769     2.5623     0.0534     0.2626    60.0821
 2423.5000   -50.6280     4.0091     4.3423     3.5609    91.2249     9.1191     0.0843     2.5652     0.0501     0.2490    59.1879
 2424.0000   -50.4690     4.0940     4.5302     4.5011    89.8016     9.1182     0.0950     2.5682     0.0477     0.2484    57.6886
 2424.5000   -50.3101     4.2392     4.7452     5.4580    87.4008     9.1173     0.1038     2.5712     0.0469     0.2511    56.0379
 2425.0000   -50.3026     4.4200     4.8796     5.8839    86.6541     9.1165     0.0870     2.5689     0.0469     0.2629    54.8411
 2425.5000   -50.1422     4.5767     5.0178     5.8308    86.5842     9.1156     0.0360     2.5621     0.0505     0.2653    55.0212
 2426.0000   -50.1347     4.7390     5.0187     5.2556    86.8902     9.0995     0.0195     2.5575     0.0551     0.2614    56.7041
 2426.5000   -49.9759     4.8731     5.0196     4.9726    86.9706     9.0986     0.0435     2.5560     0.0563     0.2512    56.8484
 2427.0000   -49.6658     4.9419     5.0554     5.1850    86.6672     9.0977     0.0720     2.5559     0.0566     0.2539    55.7831
 2427.5000   -49.3558     4.9770     5.0563     5.6359    86.4448     9.0968     0.0855     2.5574     0.0563     0.2548    55.5138
 2428.0000   -48.8944     5.0124     5.0923     5.8358    86.1592     9.0959     0.0749     2.5551     0.0548     0.2530    56.2871
 2428.5000   -48.4330     5.0130     5.1287     5.5218    86.2539     9.0948     0.0523     2.5513     0.0545     0.2524    56.3006
 2429.0000   -48.1229     5.0487     5.2013     5.3716    86.5469     9.0788     0.0447     2.5474     0.0585     0.2582    55.8603
 2429.5000   -47.8129     5.1199     5.2749     5.6008    86.6260     9.0628     0.0567     2.5445     0.0624     0.2705    54.3609
 2430.0000   -47.6541     5.1563     5.3125     5.8805    86.2566     9.0468     0.0898     2.5522     0.0627     0.2736    52.8616
 2430.5000   -47.9491     5.1570     5.3505     5.9636    85.8895     9.0459     0.1093     2.5621     0.0576     0.2709    52.1186
 2431.0000   -48.2461     5.1936     5.3144     5.9232    85.3639     9.0298     0.0987     2.5722     0.0508     0.2645    51.8262
 2431.5000   -48.6924     5.1944     5.2057     5.9245    85.1427     9.0290     0.0460     2.5782     0.0443     0.2609    52.7508
 2432.0000   -48.9856     5.1235     5.0641     5.9667    84.9984     9.0281     0.0444     2.5797     0.0416     0.2597    53.9746
 2432.5000   -49.1313     5.0535     4.9263     6.0932    84.9285     9.0272     0.0716     2.5781     0.0408     0.2595    54.7445
 2433.0000   -49.1219     4.9501     4.8256     6.2224    85.1664     9.0263     0.0942     2.5751     0.0429     0.2598    55.6657
 2433.5000   -48.9631     4.8152     4.7930     6.2665    85.7842     9.0407     0.1049     2.5713     0.0447     0.2601    58.7049
 2434.0000   -48.6530     4.7495     4.8272     5.4940    86.8146     9.0396     0.0830     2.5652     0.0462     0.2593    60.8364
 2434.5000   -48.4942     4.7501     4.8956     4.8165    88.6729     9.0387     0.0352     2.5599     0.0490     0.2365    60.9979
 2435.0000   -48.1841     4.8172     4.8964     4.4635    89.2416     9.0378     0.0277     2.5568     0.0553     0.2333    58.8967
 2435.5000   -48.0253     4.8179     4.7963     4.5899    88.8709     9.0369     0.0336     2.5598     0.0556     0.2408    56.1871
 2436.0000   -48.0178     4.7170     4.6953     5.4220    86.9213     9.0360     0.0441     2.5613     0.0538     0.2604    53.7800
 2436.5000   -48.3129     4.5875     4.5663     6.1449    85.9491     9.0330     0.0531     2.5537     0.0532     0.2671    52.4286
 2437.0000   -48.6080     4.4656     4.4770     6.4062    85.8778     9.0189     0.0561     2.5431     0.0590     0.2701    55.0173
 2437.5000   -48.7519     4.4353     4.4468     6.2214    86.3355     9.0333     0.0545     2.5356     0.0675     0.2722    59.8720
 2438.0000   -49.0468     4.4360     4.4788     5.4412    87.6189     9.0322     0.0515     2.5332     0.0711     0.2695    63.2138
 2438.5000   -49.0393     4.4675     4.5107     4.7365    88.9023     9.0313     0.0454     2.5378     0.0690     0.2443    64.7401
 2439.0000   -49.0318     4.5306     4.6385     4.4081    89.5842     9.0304     0.0318     2.5400     0.0657     0.2391    64.6023
 2439.5000   -48.7216     4.6588     4.8031     4.5017    89.8137     9.0295     0.0167     2.5384     0.0657     0.2420    61.8927
