~VERSION INFORMATION
 VERS.                2.0:   CWLS LOG ASCII STANDARD - VERSION 2.0
 WRAP.                 NO:   ONE LINE PER DEPTH STEP
~WELL INFORMATION
#MNEM.UNIT      DATA TYPE    INFORMATION
#----------   ------------   ------------------------------
 STRT.F           20.0000:   START DEPTH
 STOP.F          600.0000:   STOP DEPTH
 STEP.F            0.5000:   STEP LENGTH
 NULL.          -999.2500:   NO VALUE
 COMP. FENIX & SCISSON INC:   COMPANY
 WELL. TEAPOT DOME #23 SX 3-4:   WELL
 FLD .             TEAPOT:   FIELD
 LOC .       S4 T38N R78W:   LOCATION
 CNTY.            NATRONA:   COUNTY
 STAT.            WYOMING:   STATE
 CTRY. UNITED STATES OF AMERICA:   COUNTRY
 SRVC.            Unknown:   SERVICE COMPANY
 DATE.        31-JUL-1978:   LOGDATE
 API .       490251067600:   API NUMBER
~CURVE INFORMATION
#MNEM.UNIT       API CODE    CURVE DESCRIPTION
#----------   ------------   ------------------------------
 DEPT.F                  :   
 CALD.IN     45 280 60 00:   CALIPER FROM DENSITY LOG
 GRD .GAPI   45 310 01 00:   GAMMA RAY FROM DENSITY LOG
 CORR.G/C3   45 356 01 00:   DENSITY CORRECTION
 DPHI.DEC    45 890 12 00:   DENSITY POROSITY SANDSTONE
 RHOB.G/C3   45 350 01 00:   BULK DENSITY
 SPR .MV     07 010 01 00:   SPONTANEOUS POTENTIAL
 ILD .OHMM   07 120 46 00:   INDUCTION LOG DEEP
 SN  .OHMM   07 040 16 00:   SHORT NORMAL 16"
 CILD.MMHO   07 110 46 00:   CONDUCTIVITY INDUCTION LOG DEEP
~PARAMETER INFORMATION
#MNEM.UNIT          VALUE    DESCRIPTION
#----------   ------------   ------------------------------
 PD  .                 GL:   PERMANENT DATUM
 EPD .F              5181:   ELEVATION PERMANENT DATUM
 LMF .                 KB:   LOG MEASURED FROM
 DAPD.F                 4:   FEET ABOVE PERMANENT DATUM
 DMF .                 KB:   DRILLING MEASURED FROM
 EKB .F              5185:   KELLING BUSHING
 EGL .F              5181:   GROUND LEVEL
 DATE.        31-JUL-1978:   RUN DATE
 RUN .                  1:   RUN NUMBER
 DD  .F               595:   DEPTH DRILLER
 DL  .F               606:   DEPTH LOGGER
 BLI .F               600:   BOTTOM LOG INTERVAL
 TLI .F                40:   TOP LOG INTERVAL
 CBL .F                45:   CASING BOTTOM LOGGER
 BS  .IN            7.875:   BIT SIZE
 BSD .F               595:   BIT SIZE AT DEPTH
 DFT .                KCL:   DRILLING FLUID TYPE
 DFD .                9.0:   DRILLING FLUID DENSITY
 DFV .                 36:   DRILLING FLUID VISCOSITY
 DFPH.                9.0:   DRILLING FLUID PH
 DFL .                8.0:   DRILLING FLUID LOSS
 MSS .           FLOWLINE:   MUD SAMPLE SOURCE
 BHT .F                74:   BOTTOM HOLE TEMPERATURE
 TCS .HRS            0500:   TIME CURCULATED STOPPED
 MRT .F                74:   MAXIMUM RECORDED TEMPERATURE
 LUN .               2958:   LOGGING UNIT NUMBER
 LUL .               CASP:   LOGGING UNIT LOCATION
 ENGI.            POINTER:   RECORDING ENGINEER
 WITN.              AMEND:   WITNESSED BY
 CLNT.            A2DTECH:   CLIENT CODE
 ORIG.           5" PRINT:   ORIGIN OF DATA
 UWI .       490251067600:   UNIQUE WELL ID
 DICO. A2D Technologies, Inc.:   DIGITIZING COMPANY
~OTHER INFORMATION
~A   DEPT     CALD        GRD       CORR       DPHI       RHOB        SPR        ILD         SN       CILD   
# ...
   56.5000     7.8363   114.4832     0.0208     0.1206     2.4469   -22.3014     6.6975     9.1064   136.7481
   57.0000     7.9127   115.9870     0.0209     0.1217     2.4439   -21.9937     6.6300     9.1747   138.9117
   57.5000     7.9140   118.9768     0.0217     0.1253     2.4433   -22.1318     6.5565     9.2434   141.0753
   58.0000     7.8404   117.6574     0.0218     0.1289     2.4434   -22.8642     6.5565     9.3127   143.2599
   58.5000     7.7218   122.2816     0.0218     0.1255     2.4427   -24.1909     6.5565     9.3179   146.1516
   59.0000     7.6182   114.2758     0.0219     0.1285     2.4412   -25.2205     6.5565     9.4528   147.5871
   59.5000     7.5743   113.6950     0.0220     0.1303     2.4399   -25.9529     6.5565     9.5885   148.9807
   60.0000     7.5578   115.0547     0.0220     0.1269     2.4415   -25.9423     6.5565     9.6692   148.1648
   60.5000     7.5320   117.0043     0.0221     0.1290     2.4454   -26.3802     6.5565     9.8000   145.7277
   61.0000     7.5334   115.9822     0.0229     0.1164     2.4650   -26.9640     6.5565     9.8733   141.9425
   61.5000     7.5348   113.7713     0.0245     0.1050     2.4785   -27.5451     6.5565     9.8788   140.4270
   62.0000     7.5361   112.1503     0.0261     0.1005     2.4950   -27.8344     6.5565     9.8844   140.3440
   62.5000     7.5225   113.6586     0.0239     0.1061     2.4659   -28.1210     6.5565     9.8219   141.0112
   63.0000     7.5238   112.1907     0.0172     0.1193     2.4495   -28.1100     6.5565     9.6259   140.9259
   63.5000     7.5252   111.9070     0.0112     0.1291     2.4384   -27.9307     6.6005     9.4992   140.8423
   64.0000     7.5265   112.3952     0.0060     0.1339     2.4382   -27.7922     6.6047     9.3729   140.7588
   64.5000     7.5279   111.7756     0.0069     0.1312     2.4453   -28.5280     6.6088     9.1240   140.6752
   65.0000     7.5292   109.8663     0.0084     0.1275     2.4461   -28.6627     6.6130     8.9420   140.5916
   65.5000     7.5156   109.7501     0.0100     0.1260     2.4447   -28.6521     6.6171     8.6434   140.5080
   66.0000     7.5170   112.5912     0.0108     0.1290     2.4448   -28.6415     6.6213     8.4127   140.4244
   66.5000     7.5033   108.8915     0.0109     0.1302     2.4494   -28.6310     6.6255     8.3583   140.3409
   67.0000     7.4897   108.3150     0.0109     0.1265     2.4495   -29.0662     6.6296     8.4221   140.2573
   67.5000     7.4610   112.1993     0.0110     0.1265     2.4518   -29.5014     6.6798     8.4268   140.9436
   68.0000     7.4473   114.1489     0.0103     0.1226     2.4564   -29.7907     6.6840     8.4306   140.8392
   68.5000     7.4337   108.3720     0.0105     0.1192     2.4573   -29.7775     6.7345     8.4352   140.0065
   69.0000     7.4352   108.1991     0.0112     0.1183     2.4581   -29.6183     6.7854     8.4398   139.1910
   69.5000     7.4365   113.6085     0.0113     0.1213     2.4589   -29.4592     6.8359     8.3288   137.5184
   70.0000     7.4529   116.5973     0.0121     0.1179     2.4613   -29.3001     6.8875     8.2191   135.2809
   70.5000     7.4692   101.1630     0.0114     0.1143     2.4636   -29.2895     6.8959     8.2238   134.4417
   71.0000     7.4856   103.8556     0.0107     0.1116     2.4629   -29.2789     6.9438     8.2284   133.6170
   71.5000     7.5019   107.2911     0.0093     0.1119     2.4631   -29.2684     6.9482     8.2900   134.2825
   72.0000     7.5333   109.5378     0.0086     0.1170     2.4587   -29.4344     6.9047     8.2365   134.1989
   72.5000     7.5346   110.7445     0.0087     0.1187     2.4557   -29.6957     6.9090     8.1844   136.3834
   73.0000     7.5360   108.5337     0.0080     0.1211     2.4491   -29.8337     6.8657     8.1326   137.0489
   73.5000     7.5220   109.5917     0.0073     0.1219     2.4417   -29.8232     6.7757     8.1383   137.6935
   74.0000     7.5237   113.3244     0.0066     0.1249     2.4448   -30.1098     6.5955     8.0857   142.1043
   74.5000     7.5250   113.0452     0.0067     0.1243     2.4449   -30.0993     6.4199     8.0914   146.5151
   75.0000     7.5414   107.2682     0.0068     0.1245     2.4442   -30.0887     6.2922     8.0391   150.9259
   75.5000     7.5577   108.6235     0.0068     0.1281     2.4433   -30.2294     6.2089     8.0447   153.8385
   76.0000     7.5741   114.1392     0.0069     0.1269     2.4384   -30.2162     6.2141     8.0493   156.7721
   76.5000     7.5904   117.2775     0.0070     0.1311     2.4385   -30.2057     6.1662     8.0443   156.6676
   77.0000     7.6068   119.0786     0.0070     0.1298     2.4340   -29.8979     6.0515     7.9967   157.3540
   77.5000     7.6381   114.4903     0.0071     0.1373     2.4319   -29.4416     5.9682     7.8946   157.9986
   78.0000     7.6845   120.0060     0.0072     0.1325     2.4500   -29.1339     5.8514     7.7925   157.9359
   78.5000     7.6708   122.2528     0.0095     0.1237     2.4516   -28.9747     5.7766     7.7431   159.3505
   79.0000     7.6572   123.0137     0.0141     0.1243     2.4530   -28.9642     5.6230     7.6413   160.0499
   79.5000     7.6586   115.0079     0.0149     0.1252     2.4531   -28.9536     5.5494     7.6456   162.9286
   80.0000     7.6599   114.1902     0.0135     0.1251     2.4539   -28.9431     5.5145     7.5962   167.3394
   80.5000     7.6613   108.5750     0.0135     0.1212     2.4540   -28.9658     5.5181     7.4973   170.2521
   81.0000     7.6776   107.0134     0.0136     0.1206     2.4548   -29.2218     5.5599     7.4499   171.6703
   81.5000     7.6787   105.8469     0.0137     0.1230     2.4549   -29.5084     5.6019     7.4540   173.8303
   82.0000     7.6951   105.5836     0.0137     0.1226     2.4535   -29.4978     5.5660     7.3559   174.5166
   82.5000     7.6964   106.9539     0.0138     0.1211     2.4498   -29.3387     5.4186     7.3601   175.1821
   83.0000     7.6977   107.7206     0.0139     0.1247     2.4409   -28.8824     5.2380     7.3135   176.5967
   83.5000     7.6991   109.9465     0.0131     0.1297     2.4148   -27.6832     5.0635     7.3176   180.2375
   84.0000     7.6854   109.3702     0.0125     0.1405     2.3894   -27.5240     4.9964     7.3217   186.1464
   84.5000     7.6560   111.3198     0.0103     0.1611     2.3857   -27.6647     4.9651     7.3250   192.8044
   85.0000     7.6427   111.9321     0.0089     0.1488     2.4112   -27.6515     4.9690     7.2785   198.7134
   85.5000     7.6445   114.1789     0.0112     0.1482     2.4143   -27.4924     5.0066     7.2826   200.8979
   86.0000     7.9607   115.9799     0.0188     0.1400     2.4354   -27.1846     5.0445     7.2365   196.2990
   86.5000     7.7522   114.8092     0.0256     0.1363     2.4504   -27.1741     5.0477     7.2406   192.3398
   87.0000     7.7386   112.0040     0.0257     0.0953     2.5022   -28.5008     5.0508     7.2948   189.3031
   87.5000     7.8898   109.6445     0.0325     0.0891     2.5045   -29.9788     5.0884     7.4004   186.2670
   88.0000     8.0561   104.7591     0.0359     0.0966     2.4948   -29.3713     5.2384     7.5075   183.9799
   88.5000     7.6077   104.1782     0.0199     0.1106     2.4777   -29.3607     5.4644     7.7221   179.4226
   89.0000     7.5940   107.0238     0.0162     0.1126     2.4748   -29.7959     5.7349     7.8881   171.0993
   89.5000     7.6104   113.7283     0.0163     0.1096     2.4771   -30.1412     6.0204     8.0577   162.0270
   90.0000     7.6268   107.8027     0.0163     0.1069     2.4779   -30.6885     6.1502     8.0056   154.4527
   90.5000     7.6431   111.8325     0.0164     0.1096     2.4757   -31.2528     6.1967     8.0113   154.3692
   91.0000     7.6291   113.3364     0.0165     0.1059     2.4812   -31.0907     6.2436     8.0713   155.0556
   91.5000     7.6155   110.9769     0.0165     0.1041     2.4819   -30.6373     6.2043     8.1318   151.9548
   92.0000     7.6172   103.4169     0.0166     0.1133     2.4700   -30.6132     6.1647     8.1927   149.6240
   92.5000     7.6185   105.0693     0.0159     0.1142     2.4625   -31.0620     6.1696     8.2541   154.0349
