~VERSION INFORMATION
 VERS.                2.0:   CWLS LOG ASCII STANDARD - VERSION 2.0
 WRAP.                 NO:   ONE LINE PER DEPTH STEP
~WELL INFORMATION
#MNEM.UNIT      DATA TYPE    INFORMATION
#----------   ------------   ------------------------------
 STRT.F           31.0000:   START DEPTH
 STOP.F         1450.0000:   STOP DEPTH
 STEP.F            0.5000:   STEP LENGTH
 NULL.          -999.2500:   NO VALUE
 COMP. FENIX & SCISSON INC:   COMPANY
 WELL.    NPR-3 SX #86-14:   WELL
 FLD .             TEAPOT:   FIELD
 LOC .      S14 T38N R78W:   LOCATION
 CNTY.            NATRONA:   COUNTY
 STAT.            WYOMING:   STATE
 CTRY. UNITED STATES OF AMERICA:   COUNTRY
 SRVC.            Unknown:   SERVICE COMPANY
 DATE.        05-APR-1978:   LOGDATE
 API .       490251060800:   API NUMBER
~CURVE INFORMATION
#MNEM.UNIT       API CODE    CURVE DESCRIPTION
#----------   ------------   ------------------------------
 DEPT.F                  :   
 CALD.IN     45 280 60 00:   CALIPER
 GRD .GAPI   45 310 01 00:   GAMMA RAY FROM DENSITY LOG
 RHOB.G/C3   45 350 01 00:   BULK DENSITY
 CORR.G/C3   45 356 01 00:   DENSITY CORRECTION
 DPHI.DEC    45 890 12 00:   DENSITY POROSITY SANDSTONE
 SPR .MV     05 010 01 00:   SPONTANEOUS POTENTIAL FROM RES.
 SN  .OHMM   05 040 16 00:   SHORT NORMAL 16"
 ILD .OHMM   05 120 46 00:   INDUCTION LOG DEEP
~PARAMETER INFORMATION
#MNEM.UNIT          VALUE    DESCRIPTION
#----------   ------------   ------------------------------
 PD  .                 GL:   PERMANENT DATUM
 EPD .F              5367:   ELEVATION PERMANENT DATUM
 LMF .                 KB:   LOG MEASURED FROM
 DMF .                 KB:   DRILLING MEASURED FROM
 EKB .F              5371:   KELLING BUSHING
 EGL .F              5369:   GROUND LEVEL
 DATE.           4-5-1978:   RUN DATE
 RUN .                  1:   RUN NUMBER
 DD  .F              1455:   DEPTH DRILLER
 DL  .F              1446:   DEPTH LOGGER
 BLI .F              1440:   BOTTOM LOG INTERVAL
 TLI .F               100:   TOP LOG INTERVAL
 CS  .IN            8.625:   CASING SIZE
 CBD .F                40:   CASING BOTTOM DRILLER
 BS  .IN            7.875:   BIT SIZE
 BSD .F              1455:   BIT SIZE AT DEPTH
 DFT .                KCL:   DRILLING FLUID TYPE
 DFD .                8.6:   DRILLING FLUID DENSITY
 DFV .                 31:   DRILLING FLUID VISCOSITY
 DFPH.                 10:   DRILLING FLUID PH
 DFL .                8.4:   DRILLING FLUID LOSS
 MSS .           FLOWLINE:   MUD SAMPLE SOURCE
 RMS .OHMM            .95:   RESISTIVITY MUD SAMPLE
 MST .F                54:   MUD SAMPLE TEMPERATURE
 RMF .OHMM            .95:   RESISTIVITY MUD FILTRATE SAMPLE
 MFST.F                62:   MUD FILTRATE SAMPLE TEMPERATURE
 RMC .OHMM             .8:   RESISTIVITY MUD CAKE
 MCST.F                62:   MUD CAKE SAMPLE TEMPERATURE
 MFSS.               MEAS:   MUD FILTRATE SAMPLE SOURCE
 RMB .OHMM            .66:   RESISTIVITY MUD AT BHT
 BHT .F                78:   BOTTOM HOLE TEMPERATURE
 TCS .HRS               6:   TIME CURCULATED STOPPED
 MRT .F                78:   MAXIMUM RECORDED TEMPERATURE
 LUN .               2958:   LOGGING UNIT NUMBER
 LUL .               CASP:   LOGGING UNIT LOCATION
 ENGI.             MILLER:   RECORDING ENGINEER
 WITN.           MCGINLEY:   WITNESSED BY
 CLNT.            A2DTECH:   CLIENT CODE
 ORIG.        2" 5" PRINT:   ORIGIN OF DATA
 UWI .       490251060800:   UNIQUE WELL ID
 DICO. A2D Technologies, Inc.:   DIGITIZING COMPANY
~OTHER INFORMATION
~A   DEPT     CALD         GRD      RHOB       CORR       DPHI        SPR         SN        ILD   
# ...
  800.5000     8.2063    82.1032     2.4101     0.0043     0.1353   -99.3027     5.6136     5.0224
  801.0000     8.2048    81.0517     2.4033     0.0054     0.1321   -99.4131     5.8355     5.3556
  801.5000     8.2033    79.8262     2.4121     0.0062     0.1289   -99.2153     6.0458     5.2904
  802.0000     8.2018    78.6200     2.4248     0.0062     0.1257   -96.9893     6.2292     5.2334
  802.5000     8.2003    79.0309     2.4282     0.0062     0.1246   -94.7599     6.4217     5.2091
  803.0000     8.1988    82.3980     2.4363     0.0062     0.1244   -92.5365     6.6363     5.4712
  803.5000     8.1973    85.7653     2.4383     0.0062     0.1250   -90.3143     6.8584     5.6710
  804.0000     8.1958    85.7202     2.4209     0.0063     0.1276   -88.0913     7.0874     5.8780
  804.5000     8.1943    83.3130     2.4212     0.0074     0.1282   -85.8705     7.2668     6.0625
  805.0000     8.1928    83.1264     2.4257     0.0085     0.1315   -83.7860     7.3003     6.1582
  805.5000     8.1913    83.4632     2.4194     0.0096     0.1364   -82.2236     7.3325     6.2554
  806.0000     8.1909    84.2284     2.4136     0.0096     0.1394   -80.7555     7.3649     6.3668
  806.5000     8.1994    86.2970     2.4035     0.0086     0.1344   -80.4547     7.3974     6.5627
  807.0000     8.2080    88.1322     2.4151     0.0075     0.1295   -80.1967     7.4300     6.4794
  807.5000     8.2166    88.1003     2.4209     0.0064     0.1270   -79.9285     7.4713     6.3647
  808.0000     8.2251    88.1011     2.4259     0.0053     0.1270   -79.4883     7.4423     6.2681
  808.5000     8.2337    88.1018     2.4243     0.0043     0.1260   -78.4411     7.4035     6.3700
  809.0000     8.2423    88.7469     2.4238     0.0059     0.1254   -77.4312     7.3650     6.4442
  809.5000     8.2497    89.8947     2.4271     0.0078     0.1265   -76.3636     7.3267     6.4439
  810.0000     8.2477    89.9071     2.4270     0.0097     0.1271   -73.9412     7.2885     6.3487
  810.5000     8.2454    89.9131     2.4223     0.0116     0.1272   -71.4510     7.2506     6.2707
  811.0000     8.2433    89.8823     2.4176     0.0118     0.1273   -70.6188     7.2128     6.1937
  811.5000     8.2411    87.3926     2.4154     0.0110     0.1274   -69.4790     7.1999     6.1498
  812.0000     8.2389    85.4360     2.4235     0.0103     0.1290   -67.6201     7.2126     6.1395
  812.5000     8.2367    86.5505     2.4207     0.0095     0.1311   -65.7672     7.2213     6.1292
  813.0000     8.2346    87.6712     2.4163     0.0087     0.1327   -63.8758     7.2300     6.1189
  813.5000     8.2324    88.0985     2.4140     0.0079     0.1326   -62.3040     7.2387     6.1087
  814.0000     8.2302    91.4882     2.4003     0.0072     0.1366   -61.2038     7.2474     6.0984
  814.5000     8.2314    91.2629     2.3985     0.0064     0.1377   -60.5414     7.2562     6.0482
  815.0000     8.2330    88.1020     2.4047     0.0062     0.1357   -60.3828     7.2648     5.9854
  815.5000     8.2346    84.1053     2.4109     0.0062     0.1336   -58.7619     7.2790     5.9232
  816.0000     8.2362    81.0638     2.4135     0.0062     0.1349   -56.4016     7.2944     5.8745
  816.5000     8.2378    81.1337     2.4061     0.0062     0.1389   -55.8422     7.3099     5.9139
  817.0000     8.2394    81.1835     2.4192     0.0062     0.1357   -55.2237     7.3258     5.9466
  817.5000     8.2410    81.2316     2.4171     0.0080     0.1304   -55.5482     7.4920     5.9796
  818.0000     8.2425    81.2773     2.4210     0.0100     0.1250   -56.4072     7.8524     6.0371
  818.5000     8.2441    81.8005     2.4374     0.0074     0.1240   -47.9007     8.0450     6.0991
  819.0000     8.2457    82.8165     2.4279     0.0043     0.1308   -36.2275     8.0200     6.1617
  819.5000     8.2473    82.9397     2.4246     0.0012     0.1341   -71.6687     7.9921     6.2249
  820.0000     8.2489    82.7237     2.4169    -0.0018     0.1374   -99.3014     7.9646     6.2670
  820.5000     8.2500    82.7894     2.4068    -0.0050     0.1414   -99.3978     7.9374     6.1979
  821.0000     8.2500    82.9123     2.4011    -0.0067     0.1459   -99.4667     7.9085     6.1459
  821.5000     8.2500    83.0378     2.3953    -0.0079     0.1505   -99.5974     7.7066     6.0945
  822.0000     8.2500    81.8777     2.3874    -0.0091     0.1605   -99.6680     7.3876     6.0436
  822.5000     8.2500    79.4016     2.3740    -0.0103     0.1727   -98.8291     7.2668     5.9842
  823.0000     8.2500    78.7036     2.3580    -0.0115     0.1849   -97.9666     7.1975     6.0151
  823.5000     8.2500    78.4525     2.3383    -0.0147     0.1971   -97.2712     7.1302     6.0529
  824.0000     8.2500    77.5944     2.3065    -0.0205     0.2219   -96.7656     7.0680     6.0959
  824.5000     8.2500    78.6454     2.2673    -0.0262     0.2482   -96.3097     6.7273     5.6010
  825.0000     8.2500    81.1109     2.2231    -0.0217     0.2771   -96.2996     6.4384     5.0074
  825.5000     8.2500    91.3397     2.1662     0.0004     0.3100   -96.4188     5.8821     4.4215
  826.0000     8.2500   100.4720     2.1096     0.0220     0.3227   -96.9090     5.2727     3.5455
  826.5000     8.2464   105.3239     2.0910     0.0307     0.3320   -99.7690     4.5233     2.8853
  827.0000     8.2393   104.7287     2.0787     0.0377     0.3378  -999.2500     3.6186     2.5601
  827.5000     8.2321   103.8823     2.0688     0.0462     0.3426  -999.2500     2.9958     2.2662
  828.0000     8.2250    96.6979     2.0646     0.0685     0.3464  -999.2500     2.7780     2.0478
  828.5000     8.2177    92.1114     2.0536     0.1975     0.3304  -999.2500     2.7266     1.8490
  829.0000     8.2109    82.4610     2.1859     0.1458     0.2432  -999.2500     2.7505     1.8490
  829.5000     8.2399    77.0961     2.3354     0.0405     0.1619  -999.2500     2.7895     2.0507
  830.0000     8.2734    73.6904     2.3781     0.0065     0.1520  -999.2500     3.0256     2.2317
  830.5000     8.3072    70.8678     2.3996     0.0074     0.1497  -999.2500     3.4026     2.4827
  831.0000     8.2750    72.0800     2.3958     0.0089     0.1483  -999.2500     3.8857     2.9300
  831.5000     8.2245    70.6063     2.3909     0.0102     0.1469  -999.2500     4.7065     3.4579
  832.0000     8.2115    68.9319     2.3942     0.0182     0.1445  -999.2500     6.0760     4.0809
  832.5000     8.2140    67.2448     2.4081     0.0260     0.1397  -999.2500     7.7138     5.1103
  833.0000     8.2167    66.9099     2.4191     0.0249     0.1355  -999.2500     8.3517     6.7425
  833.5000     8.2195    69.0629     2.4118     0.0236     0.1439  -999.2500     8.9711     7.9071
  834.0000     8.2222    71.4827     2.3994     0.0224     0.1505  -999.2500     9.5304     8.4623
  834.5000     8.2249    73.4990     2.3877     0.0276     0.1544   -96.9192     9.7693     8.5830
  835.0000     8.2276    75.1015     2.3810     0.0275     0.1598   -94.7605     9.3279     7.9787
  835.5000     8.2298    79.6925     2.3745     0.0267     0.1672   -92.9199     9.2833     7.5081
  836.0000     8.2279    87.2132     2.3558     0.0271     0.1794   -93.6968     9.2420     7.0652
  836.5000     8.2259    92.1592     2.3362     0.0358     0.1852   -99.4367     8.8244     6.1859
  837.0000     8.2239    87.8882     2.3271     0.0392     0.1811  -999.2500     8.1853     5.3490
  837.5000     8.2220    84.4214     2.3370     0.0426     0.1725  -999.2500     7.6814     4.9503
  838.0000     8.2200    80.8946     2.3577     0.0403     0.1622  -999.2500     6.4122     4.7462
  838.5000     8.2180    75.2767     2.3776     0.0341     0.1577  -999.2500     5.8745     4.7466
  839.0000     8.2161    69.6449     2.3713     0.0371     0.1590  -999.2500     5.9153     4.7712
  839.5000     8.2141    64.1031     2.3680     0.0473     0.1584  -999.2500     5.9711     4.7844
  840.0000     8.2120    63.5947     2.3843     0.0553     0.1535  -999.2500     6.9545     4.9585
  840.5000     8.2103    66.9763     2.3997     0.0462     0.1491  -999.2500     8.0415     5.4261
