~VERSION INFORMATION
 VERS.                2.0:   CWLS LOG ASCII STANDARD - VERSION 2.0
 WRAP.                 NO:   ONE LINE PER DEPTH STEP
~WELL INFORMATION
#MNEM.UNIT      DATA TYPE    INFORMATION
#----------   ------------   ------------------------------
 STRT.F           80.0000:   START DEPTH
 STOP.F          782.0000:   STOP DEPTH
 STEP.F            0.5000:   STEP LENGTH
 NULL.          -999.2500:   NO VALUE
 COMP.            US NAVY:   COMPANY
 WELL. NPR 3 TEAPOT DOM #87-S-34:   WELL
 FLD .             TEAPOT:   FIELD
 LOC .      S34 T39N R78W:   LOCATION
 CNTY.            NATRONA:   COUNTY
 STAT.            WYOMING:   STATE
 CTRY. UNITED STATES OF AMERICA:   COUNTRY
 SRVC.       Schlumberger:   SERVICE COMPANY
 DATE.        07-AUG-1961:   LOGDATE
 API .       490250651100:   API NUMBER
~CURVE INFORMATION
#MNEM.UNIT       API CODE    CURVE DESCRIPTION
#----------   ------------   ------------------------------
 DEPT.F                  :   
 GR  .GAPI   30 310 01 00:   GAMMA RAY
 SPR .MV     05 010 01 00:   SPONTANEOUS POTENTIAL FROM RES.
 ASN .OHMM   05 041 16 00:   AMPLIFIED SHORT NORMAL 16"
 ILD .OHMM   05 120 46 00:   INDUCTION LOG DEEP
 CILD.MMHO   05 110 46 00:   CONDUCTIVITY INDUCTION LOG DEEP
~PARAMETER INFORMATION
#MNEM.UNIT          VALUE    DESCRIPTION
#----------   ------------   ------------------------------
 PD  .                 KB:   PERMANENT DATUM
 EPD .F                  :   ELEVATION PERMANENT DATUM
 LMF .                 KB:   LOG MEASURED FROM
 DAPD.F                  :   FEET ABOVE PERMANENT DATUM
 DMF .                 KB:   DRILLING MEASURED FROM
 EKB .F              5102:   KELLING BUSHING
 EDF .F                  :   DRILLING FLOOR
 EGL .F              5097:   GROUND LEVEL
 DATE.        07-AUG-1961:   RUN DATE
 RUN .                  1:   RUN NUMBER
 DD  .F               770:   DEPTH DRILLER
 DL  .F               783:   DEPTH LOGGER
 BLI .F               782:   BOTTOM LOG INTERVAL
 TLI .F               100:   TOP LOG INTERVAL
 CS  .IN                 :   CASING SIZE
 CBD .F                  :   CASING BOTTOM DRILLER
 CBL .F                  :   CASING BOTTOM LOGGER
 BS  .IN             6.75:   BIT SIZE
 BSD .F               770:   BIT SIZE AT DEPTH
 DFT .       OIL EMULSION:   DRILLING FLUID TYPE
 DFD .               10.4:   DRILLING FLUID DENSITY
 DFV .                 45:   DRILLING FLUID VISCOSITY
 DFPH.                   :   DRILLING FLUID PH
 DFL .                   :   DRILLING FLUID LOSS
 MSS .                   :   MUD SAMPLE SOURCE
 RMS .OHMM           0.95:   RESISTIVITY MUD SAMPLE
 MST .F                72:   MUD SAMPLE TEMPERATURE
 RMF .OHMM               :   RESISTIVITY MUD FILTRATE SAMPLE
 MFST.F                  :   MUD FILTRATE SAMPLE TEMPERATURE
 RMC .OHMM               :   RESISTIVITY MUD CAKE
 MCST.F                  :   MUD CAKE SAMPLE TEMPERATURE
 MFSS.                   :   MUD FILTRATE SAMPLE SOURCE
 MCSS.                   :   MUD CAKE SAMPLE SOURCE
 RMB .OHMM               :   RESISTIVITY MUD AT BHT
 BHT .F                  :   BOTTOM HOLE TEMPERATURE
 TCS .HRS               1:   TIME CURCULATED STOPPED
 TLAB.HRS                :   TIME LOGGER AT BOTTOM
 MRT .F                  :   MAXIMUM RECORDED TEMPERATURE
 LUN .               2544:   LOGGING UNIT NUMBER
 LUL .                   :   LOGGING UNIT LOCATION
 ENGI.             QUINBY:   RECORDING ENGINEER
 WITN.          JORGENSON:   WITNESSED BY
 CLNT.            A2DTECH:   CLIENT CODE
 ORIG.       2", 5" PRINT:   ORIGIN OF DATA
 UWI .       490250651100:   UNIQUE WELL ID
 DICO. A2D Technologies, Inc.:   DIGITIZING COMPANY
 OS  .                   :   OTHER SERVICES
 PWI .                   :   PRIMARY WELL IDENTIFIER
 R1  .                   :   REMARKS 1
 R2  .                   :   REMARKS 2
~OTHER INFORMATION
~A   DEPT       GR        SPR         ASN         ILD      CILD  
# ...
  507.0000  -999.2500   -25.0639     6.9949     2.9997   224.0602
  507.5000  -999.2500   -25.0682     6.2556     2.9227   225.5639
  508.0000  -999.2500   -25.2231     5.7895     2.9213   225.5639
  508.5000  -999.2500   -25.0769     5.5338     2.9957   225.5639
  509.0000  -999.2500   -25.0813     5.5038     2.9939   224.0602
  509.5000  -999.2500   -24.9349     5.5188     3.1435   224.0249
  510.0000  -999.2500   -24.7887     5.7213     3.2931   218.0451
  510.5000  -999.2500   -24.6424     6.3910     3.8956   200.0000
  511.0000  -999.2500   -24.4961     6.8421     4.3473   184.9624
  511.5000  -999.2500   -24.3509     7.2481     4.7235   172.9323
  512.0000  -999.2500   -24.2046     7.6241     5.0242   163.9098
  512.5000  -999.2500   -24.0584     7.7444     5.4759   157.7704
  513.0000  -999.2500   -23.7626     7.8195     5.6255   151.8797
  513.5000  -999.2500   -23.7669     7.8799     5.6992   148.8722
  514.0000  -999.2500   -23.7712     8.0150     5.8488   144.3609
  514.5000  -999.2500   -23.7756     8.2256     5.9984   142.8571
  515.0000  -999.2500   -23.7810     8.3910     6.0725   141.3534
  515.5000  -999.2500   -23.9359     8.5263     6.1466   139.8496
  516.0000  -999.2500   -24.2415     8.6316     6.2959   139.8496
  516.5000  -999.2500   -24.6976     8.7836     6.3703   138.3459
  517.0000  -999.2500   -24.8525     8.9173     6.4444   136.8421
  517.5000  -999.2500   -25.0076     9.0075     6.5181   135.3383
  518.0000  -999.2500   -25.0129     9.0677     6.6677   133.8346
  518.5000  -999.2500   -25.0172     9.1278     6.7418   132.3308
  519.0000  -999.2500   -25.1721     9.2180     6.8159   130.8271
  519.5000  -999.2500   -25.1765     9.2796     6.8141   130.8271
  520.0000  -999.2500   -25.1808     9.3233     6.8126   129.3233
  520.5000  -999.2500   -25.0345     9.3383     6.8112   129.3233
  521.0000  -999.2500   -25.0399     9.3383     6.8094   129.3233
  521.5000  -999.2500   -24.8926     9.3835     6.8079   129.3233
  522.0000  -999.2500   -24.4451     9.4286     6.8065   129.3233
  522.5000  -999.2500   -24.1482     9.4586     6.8809   129.3233
  523.0000  -999.2500   -23.8524     9.4436     6.8791   129.3233
  523.5000  -999.2500   -24.0076     9.3985     6.8776   129.3233
  524.0000  -999.2500   -24.0128     9.3233     6.8759   129.3233
  524.5000  -999.2500   -24.1677     9.2481     6.7989   129.3233
  525.0000  -999.2500   -24.1720     9.0075     6.7975   130.8271
  525.5000  -999.2500   -24.3270     8.7519     6.7960   130.8271
  526.0000  -999.2500   -24.4839     8.6617     6.7946   130.8271
  526.5000  -999.2500   -24.9391     8.5865     6.7172   132.3308
  527.0000  -999.2500   -25.0941     8.5414     6.6403   132.3308
  527.5000  -999.2500   -25.0984     8.4962     6.4878   136.8421
  528.0000  -999.2500   -25.1027     8.4331     6.1842   139.8496
  528.5000  -999.2500   -24.9565     8.0451     5.8806   144.3609
  529.0000  -999.2500   -24.9609     7.6842     5.5609   153.3835
  529.5000  -999.2500   -24.6650     7.3083     4.9710   167.3203
  530.0000  -999.2500   -24.3670     6.8571     4.4409   184.9624
  530.5000  -999.2500   -23.9206     6.4662     3.7597   201.5038
  531.0000  -999.2500   -23.7733     5.9892     2.9224   233.0827
  531.5000  -999.2500   -23.4774     5.2663     2.1316   281.2030
  532.0000  -999.2500   -23.3312     4.7857     1.1870   327.8195
  532.5000  -999.2500   -23.3366     4.1504     0.9590   368.0418
  533.0000  -999.2500   -23.3410     3.7744     0.8065   425.5639
  533.5000  -999.2500   -23.3453     3.5789     0.6540   452.6316
  534.0000  -999.2500   -23.3496     3.3684     0.6525   464.6617
  534.5000  -999.2500   -23.3540     3.1729     0.6511   460.1504
  535.0000  -999.2500   -23.5090     3.0677     0.8003   438.9965
  535.5000  -999.2500   -23.5143     3.3835     1.0258   410.5263
  536.0000  -999.2500   -24.4223     3.8647     1.4772   372.9323
  536.5000  -999.2500   -24.8784     4.4962     2.1555   299.2481
  537.0000    82.4319   -25.1839     4.7068     2.7583   249.6241
  537.5000    82.4204   -25.1883     5.1579     3.4363   221.0526
  538.0000    82.1221   -25.1937     6.0150     4.1901   195.0658
  538.5000    83.0626   -25.1980     6.4662     4.7174   172.9323
  539.0000    83.3907   -25.0517     6.6466     5.0935   165.4135
  539.5000    83.6918   -24.9055     6.7519     5.3187   162.4060
  540.0000    86.1973   -24.4579     6.8120     5.3928   162.4060
  540.5000    86.8248   -24.1551     6.8427     5.3154   160.9023
  541.0000    81.5056   -23.8642     6.8571     5.3140   160.9023
  541.5000    80.0987   -23.8696     6.9173     5.2370   160.9023
  542.0000    78.8484   -23.8740     6.9774     5.1600   160.9023
  542.5000    79.0064   -23.8783     7.0226     4.8565   163.9098
  543.0000    78.5386   -24.0332     7.0526     4.3041   171.4286
  543.5000    79.6356   -24.5015     7.0677     3.7203   183.5689
  544.0000    79.7937   -24.9466     7.0526     3.3412   196.9925
  544.5000    81.2037   -25.2521     6.5564     3.0377   212.0301
  545.0000    81.8313   -25.2565     6.0902     2.8096   224.0602
  545.5000    81.6208   -25.1102     5.6992     2.5816   237.5940
  546.0000    79.9561   -24.9639     5.4737     2.4287   246.6165
  546.5000    80.9067   -24.8176     5.3083     2.3517   251.2734
  547.0000    80.8960   -24.6725     5.2331     2.3503   254.1353
  547.5000    78.3960   -24.6768     5.1579     2.4999   252.6316
  548.0000    78.7105   -24.5294     5.5038     2.6495   245.1128
  548.5000    81.2929   -24.3832     5.6241     2.8842   236.0902
  549.0000    80.4347   -24.2380     5.6992     3.2505   225.5639
  549.5000    83.5666   -24.0917     5.8647     3.6267   213.0619
  550.0000    86.0721   -23.9316     6.2105     4.1540   198.4962
  550.5000    88.5776   -23.7594     6.6205     4.6057   186.4662
  551.0000    90.1441   -23.6413     6.9621     5.0614   172.9323
  551.5000    88.7373   -23.7908     7.3529     5.3984   157.8466
  552.0000    82.4791   -23.9400     7.6685     5.6465   147.3059
  552.5000    81.0718   -24.2394     7.9090     5.8802   142.7802
  553.0000    81.8563   -24.5392     8.0592     5.8775   142.7657
  553.5000    79.0410   -24.8389     8.1794     5.8753   142.7513
  554.0000    78.2597   -24.9881     8.1792     5.7976   142.7368
  554.5000    84.4868   -25.1372     8.1039     5.7193   145.7299
  555.0000    86.3852   -25.1354     8.0135     5.5661   147.2193
  555.5000    89.8722   -25.1340     7.9231     5.4884   148.7086
  556.0000    90.1714   -25.1325     7.8177     5.4862   150.1979
  556.5000    83.9014   -25.1311     7.6879     5.3330   154.6911
  557.0000    82.6510   -25.1293     7.5468     5.1042   160.6917
  557.5000    82.8091   -24.9772     7.4057     4.5728   166.6887
  558.0000    82.4977   -24.6746     7.2457     3.8909   172.6893
  558.5000    81.4039   -24.2213     7.0801     3.5111   181.6974
  559.0000    78.2756   -23.7681     6.8995     3.2823   201.2319
  559.5000    78.4337   -23.3148     6.6738     3.1291   208.7362
  560.0000    80.7827   -23.1624     6.4631     3.0514   211.7293
  560.5000    81.7232   -23.0103     6.1472     3.0486   210.2075
  561.0000    82.3508   -23.0089     5.9816     3.1225   210.1931
  561.5000    81.8825   -23.1580     5.9213     3.1953   207.1711
  562.0000    84.7014   -23.3072     6.0265     3.3448   204.1492
  562.5000    87.5199   -23.6070     6.2518     3.6442   201.1272
  563.0000    87.6775   -23.9067     6.8081     4.0196   196.6015
  563.5000    84.9334   -24.5073     7.1989     4.6211   183.0496
  564.0000    81.8407   -24.6568     7.5146     4.9211   174.0126
  564.5000    81.8994   -24.6550     7.6347     5.2210   164.9756
  565.0000    85.6495   -24.6536     7.6797     5.2949   158.9462
  565.5000    85.6791   -24.6521     7.7397     5.3683   157.4280
  566.0000    81.7403   -24.4997     7.8298     5.4411   154.4060
  566.5000    78.7684   -24.4983     7.9800     5.4384   154.3880
  567.0000    80.4915   -24.1956     8.1302     5.5123   154.3735
  567.5000    81.4321   -23.8930     8.2504     5.7361   152.8553
