~VERSION INFORMATION
 VERS.                2.0:   CWLS LOG ASCII STANDARD - VERSION 2.0
 WRAP.                 NO:   ONE LINE PER DEPTH STEP
~WELL INFORMATION
#MNEM.UNIT      DATA TYPE    INFORMATION
#----------   ------------   ------------------------------
 STRT.F           36.0000:   START DEPTH
 STOP.F          700.0000:   STOP DEPTH
 STEP.F            0.5000:   STEP LENGTH
 NULL.          -999.2500:   NO VALUE
 COMP. FENIX & SCISSON INC:   COMPANY
 WELL. NPR #3 13SX14 #13-14:   WELL
 FLD .             TEAPOT:   FIELD
 LOC .      S14 T38N R78W:   LOCATION
 CNTY.            NATRONA:   COUNTY
 STAT.            WYOMING:   STATE
 CTRY. UNITED STATES OF AMERICA:   COUNTRY
 SRVC.              Welex:   SERVICE COMPANY
 DATE.        28-FEB-1977:   LOGDATE
 API .       490251029600:   API NUMBER
~CURVE INFORMATION
#MNEM.UNIT       API CODE    CURVE DESCRIPTION
#----------   ------------   ------------------------------
 DEPT.F                  :   
 CALD.IN     45 280 60 00:   CALIPER FROM DENSITY LOG
 GRD .GAPI   45 310 01 00:   GAMMA RAY FROM DENSITY LOG
 CORR.G/C3   45 356 01 00:   DENSITY CORRECTION
 RHOB.G/C3   45 350 01 00:   BULK DENSITY
 DPHI.DEC    45 890 12 00:   DENSITY POROSITY SANDSTONE
 SPR .MV     07 010 01 00:   SPONTANEOUS POTENTIAL
 SGRD.OHMM   07 220 05 00:   SHALLOW RESISTIVITY
 ILD .OHMM   07 120 46 00:   INDUCTION LOG DEEP
 ILM .OHMM   07 120 44 00:   INDUCTION LOG MEDIUM
~PARAMETER INFORMATION
#MNEM.UNIT          VALUE    DESCRIPTION
#----------   ------------   ------------------------------
 PD  .                 GL:   PERMANENT DATUM
 EPD .F              5238:   ELEVATION PERMANENT DATUM
 LMF .                 GL:   LOG MEASURED FROM
 DMF .                 GL:   DRILLING MEASURED FROM
 EGL .F              5238:   GROUND LEVEL
 DATE.            2-28-77:   RUN DATE
 RUN .                  1:   RUN NUMBER
 DD  .F               710:   DEPTH DRILLER
 DL  .F               706:   DEPTH LOGGER
 BLI .F               704:   BOTTOM LOG INTERVAL
 TLI .F                42:   TOP LOG INTERVAL
 CS  .IN            8.625:   CASING SIZE
 CBD .F                42:   CASING BOTTOM DRILLER
 CBL .F                42:   CASING BOTTOM LOGGER
 BS  .IN            7.875:   BIT SIZE
 BSD .F               710:   BIT SIZE AT DEPTH
 DFT .           CHEM-GEL:   DRILLING FLUID TYPE
 DFD .                8.7:   DRILLING FLUID DENSITY
 DFV .                 33:   DRILLING FLUID VISCOSITY
 DFPH.                  7:   DRILLING FLUID PH
 DFL .                  8:   DRILLING FLUID LOSS
 MSS .          FLOW LINE:   MUD SAMPLE SOURCE
 RMS .OHMM           .382:   RESISTIVITY MUD SAMPLE
 MST .F                54:   MUD SAMPLE TEMPERATURE
 RMF .OHMM           .342:   RESISTIVITY MUD FILTRATE SAMPLE
 MFST.F                54:   MUD FILTRATE SAMPLE TEMPERATURE
 RMC .OHMM           .821:   RESISTIVITY MUD CAKE
 MCST.F                54:   MUD CAKE SAMPLE TEMPERATURE
 MFSS.           MEASURED:   MUD FILTRATE SAMPLE SOURCE
 MCSS.           MEASURED:   MUD CAKE SAMPLE SOURCE
 RMB .OHMM           .333:   RESISTIVITY MUD AT BHT
 BHT .F                62:   BOTTOM HOLE TEMPERATURE
 TCS .HRS               3:   TIME CURCULATED STOPPED
 MRT .F                62:   MAXIMUM RECORDED TEMPERATURE
 LUN .               8611:   LOGGING UNIT NUMBER
 LUL .           GILLETTE:   LOGGING UNIT LOCATION
 ENGI.               DOAK:   RECORDING ENGINEER
 WITN.               JAPP:   WITNESSED BY
 CLNT.            A2DTECH:   CLIENT CODE
 ORIG.       2", 5" PRINT:   ORIGIN OF DATA
 UWI .       490251029600:   UNIQUE WELL ID
 DICO. A2D Technologies, Inc.:   DIGITIZING COMPANY
~OTHER INFORMATION
~A   DEPT       CALD       GRD       CORR        RHOB     DPHI         SPR        SGRD      ILD        ILM   
# ...
  583.5000     7.8617    85.9038     0.0354     2.3637     0.1795   -41.4973    20.2410    15.6510    18.0861
  584.0000     7.8588    82.0835     0.0308     2.3440     0.1767   -41.4777    21.3994    16.7985    18.5876
  584.5000     7.8559    78.1762     0.0336     2.3502     0.1735   -41.4582    22.1347    18.0287    19.7285
  585.0000     7.8530    79.8462     0.0367     2.3419     0.1794   -41.4387    21.1375    19.4410    20.5609
  585.5000     7.8501    81.9793     0.0308     2.3341     0.1840   -41.4192    21.5656    19.6346    20.1443
  586.0000     7.8472    84.0883     0.0239     2.3263     0.1896   -41.3996    22.0308    19.2984    19.8327
  586.5000     7.8443    84.8189     0.0171     2.3184     0.1964   -41.3801    22.5466    19.0065    19.5197
  587.0000     7.8414    84.2058     0.0105     2.3173     0.1994   -41.3606    21.4836    18.7189    19.2117
  587.5000     7.8385    85.0701     0.0131     2.3282     0.1916   -41.3411    20.3794    18.4358    18.9085
  588.0000     7.8356    88.5445     0.0189     2.3482     0.1793   -41.3215    19.4544    18.1570    18.6100
  588.5000     7.8327    91.1349     0.0247     2.3683     0.1608   -41.3020    19.7290    17.8823    18.7809
  589.0000     7.8298    90.0268     0.0306     2.3890     0.1545   -41.2825    19.9782    17.6119    19.0114
  589.5000     7.8269    88.6045     0.0365     2.3856     0.1508   -41.2631    20.3704    17.2209    19.2446
  590.0000     7.8240    87.3385     0.0426     2.3787     0.1578   -41.2471    20.2466    16.8212    18.8975
  590.5000     7.8211    88.1942     0.0423     2.3710     0.1632   -41.2351    19.9783    16.4307    18.4704
  591.0000     7.8182    89.4074     0.0399     2.3633     0.1675   -41.2232    19.7136    16.0492    18.0528
  591.5000     7.8153    90.7068     0.0375     2.3563     0.1714   -41.2113    19.4525    15.6769    17.6448
  592.0000     7.8123    92.8641     0.0353     2.3637     0.1677   -41.1995    19.1947    15.3140    17.4169
  592.5000     7.8095    94.7959     0.0329     2.3734     0.1599   -41.1876    18.9237    14.9597    18.0712
  593.0000     7.8066    92.2214     0.0299     2.3836     0.1550   -41.1757    19.0784    14.7460    17.8810
  593.5000     7.8032    90.0018     0.0302     2.3885     0.1530   -41.1638    19.4559    14.7278    17.5782
  594.0000     7.8168    88.1133     0.0317     2.3893     0.1522   -41.1519    20.0000    14.7096    17.7799
  594.5000     7.8367    86.2178     0.0333     2.3862     0.1544   -41.1400    19.7186    14.6915    18.4075
  595.0000     7.8570    84.2283     0.0348     2.3857     0.1559   -41.1282    19.2100    14.6732    17.5782
  595.5000     7.8532    83.7306     0.0363     2.3926     0.1514   -41.1163    19.0990    14.6548    18.4075
  596.0000     7.8178    84.7988     0.0378     2.3944     0.1491   -41.1044    19.2862    14.6369    17.4516
  596.5000     7.7832    86.2645     0.0381     2.3912     0.1513   -41.0926    19.6346    14.6195    16.4796
  597.0000     7.7487    87.7363     0.0353     2.3880     0.1504   -41.0806    19.5672    14.7608    18.5780
  597.5000     7.7142    89.1940     0.0325     2.3883     0.1483   -41.0688    19.3764    14.9116    18.0426
  598.0000     7.6832    90.6492     0.0296     2.3966     0.1498   -41.0584    19.1875    15.0639    17.5782
  598.5000     7.6932    93.2906     0.0300     2.4046     0.1444   -40.9809    19.0990    15.2178    18.2385
  599.0000     7.7076    95.3725     0.0300     2.4125     0.1382   -40.8814    21.1511    15.3687    18.8480
  599.5000     7.7220    92.2829     0.0266     2.4284     0.1321   -40.8974    24.4033    15.6004    19.5309
  600.0000     7.7364    89.1598     0.0233     2.4437     0.1259   -41.0536    28.1996    15.5862    20.2386
  600.5000     7.7507    88.7900     0.0209     2.4588     0.1197   -41.2108    31.2152    15.5871    20.9435
  601.0000     7.7651    89.6236     0.0209     2.4674     0.1157   -41.2528    22.2463    15.1962    20.0998
  601.5000     7.7794    90.4912     0.0209     2.4525     0.1272   -41.1985    17.0586    14.8387    19.1978
  602.0000     7.7938    92.2162     0.0209     2.4207     0.1378   -41.1195    17.2460    14.4896    18.4075
  602.5000     7.8081    94.8986     0.0208     2.3880     0.1476   -41.0403    17.4135    14.1487    17.7519
  603.0000     7.8225    97.5522     0.0180     2.3977     0.1500   -40.9613    17.5826    13.8159    17.2168
  603.5000     7.8368    95.3597     0.0152     2.3915     0.1535   -40.8789    17.7410    13.4908    16.6978
  604.0000     7.8512    92.4289     0.0124     2.3834     0.1569   -40.8556    16.3252    13.1734    16.3283
  604.5000     7.8656    90.9854     0.0096     2.3782     0.1596   -40.8448    16.5556    12.8635    16.1785
  605.0000     7.8798    92.9712     0.0069     2.3796     0.1584   -40.8301    17.4507    12.5609    15.7880
  605.5000     7.8940    90.3875     0.0101     2.3937     0.1510   -40.8152    16.6322    12.2654    15.4297
  606.0000     7.9005    91.9683     0.0138     2.4087     0.1436   -40.8002    16.2901    11.9768    15.0795
  606.5000     7.8960    93.6742     0.0175     2.4238     0.1362   -40.7853    15.9727    11.9072    14.7373
  607.0000     7.8917    91.6301     0.0213     2.4390     0.1289   -40.7703    15.7371    11.8466    14.4028
  607.5000     7.8873    90.8456     0.0247     2.4446     0.1252   -40.7553    16.2111    11.8250    14.0759
  608.0000     7.8829    92.0639     0.0193     2.4280     0.1317   -40.7403    16.3470    11.8250    13.5788
  608.5000     7.8785    93.2678     0.0137     2.4142     0.1368   -40.7254    16.4796    11.8250    14.3511
  609.0000     7.8741    94.5005     0.0078     2.4051     0.1384   -40.7104    16.4147    11.8816    13.8021
  609.5000     7.8697    95.7281     0.0143     2.4225     0.1342   -40.6954    16.3273    11.9500    14.4840
  610.0000     7.8653    92.9312     0.0233     2.4404     0.1285   -40.6805    16.3740    12.0187    13.8315
  610.5000     7.8609    89.6456     0.0308     2.4497     0.1225   -40.6658    16.4814    12.0879    14.3840
  611.0000     7.8565    87.3867     0.0284     2.4365     0.1280   -40.6551    16.5899    12.1575    14.7857
  611.5000     7.8521    87.2600     0.0263     2.4219     0.1336   -40.6125    16.6989    12.2275    15.0306
  612.0000     7.8477    89.0039     0.0243     2.4074     0.1346   -40.5669    16.7863    12.2978    14.4109
  612.5000     7.8433    91.1357     0.0238     2.4081     0.1326   -40.5216    16.5939    12.3686    13.8404
  613.0000     7.8389    93.3137     0.0265     2.4175     0.1306   -40.4762    16.4045    12.4398    14.4548
  613.5000     7.8345    95.2811     0.0291     2.4227     0.1298   -40.4309    16.3283    12.4976    15.3078
  614.0000     7.8301    92.6539     0.0306     2.4187     0.1298   -40.3856    16.2181    12.3699    14.4937
  614.5000     7.8257    89.6432     0.0286     2.4217     0.1278   -40.3402    16.0300    12.2639    13.7046
  615.0000     7.8237    91.2333     0.0266     2.4260     0.1282   -40.2949    16.0878    12.1587    13.9125
  615.5000     7.8277    93.2758     0.0249     2.4182     0.1307   -40.2496    16.1617    12.0545    14.1279
  616.0000     7.8314    94.6179     0.0252     2.4080     0.1323   -40.2043    16.1794    11.9512    14.3558
  616.5000     7.8352    91.7666     0.0278     2.4204     0.1270   -40.1590    15.9397    11.8488    13.7120
  617.0000     7.8390    92.4631     0.0304     2.4364     0.1217   -40.1136    15.6987    11.7472    14.4840
  617.5000     7.8427    93.8024     0.0330     2.4454     0.1201   -40.0683    15.4515    11.6465    13.5788
  618.0000     7.8465    94.2103     0.0336     2.4282     0.1244   -40.0230    15.6227    11.5467    13.8868
  618.5000     7.8502    92.9343     0.0285     2.4161     0.1281   -39.9777    15.7388    11.5024    14.6182
  619.0000     7.8540    93.9392     0.0235     2.4203     0.1295   -39.9323    15.6110    11.4453    14.1001
  619.5000     7.8578    94.8841     0.0186     2.4103     0.1323   -39.8870    15.4423    11.3856    13.4232
