~VERSION INFORMATION
 VERS.                2.0:   CWLS LOG ASCII STANDARD - VERSION 2.0
 WRAP.                 NO:   ONE LINE PER DEPTH STEP
~WELL INFORMATION
#MNEM.UNIT      DATA TYPE    INFORMATION
#----------   ------------   ------------------------------
 STRT.F           70.0000:   START DEPTH
 STOP.F          853.0000:   STOP DEPTH
 STEP.F            0.5000:   STEP LENGTH
 NULL.          -999.2500:   NO VALUE
 COMP. U S NAVY/INTEX OIL CO:   COMPANY
 WELL.     31S-2 NPR #3-2:   WELL
 FLD .             TEAPOT:   FIELD
 LOC .       S2 T38N R78W:   LOCATION
 CNTY.            NATRONA:   COUNTY
 STAT.            WYOMING:   STATE
 CTRY. UNITED STATES OF AMERICA:   COUNTRY
 SRVC.         Lane Wells:   SERVICE COMPANY
 DATE.        17-MAR-1960:   LOGDATE
 API .       490250648000:   API NUMBER
~CURVE INFORMATION
#MNEM.UNIT       API CODE    CURVE DESCRIPTION
#----------   ------------   ------------------------------
 DEPT.F                  :   
 ASN .OHMM   05 041 16 00:   AMPLIFIED SHORT NORMAL 16"
 CILD.MMHO   05 110 46 00:   CONDUCTIVITY INDUCTION LOG DEEP
 ILD .OHMM   05 120 46 00:   INDUCTION LOG DEEP
 SPR .MV     05 010 01 00:   SPONTANEOUS POTENTIAL FROM RES.
~PARAMETER INFORMATION
#MNEM.UNIT          VALUE    DESCRIPTION
#----------   ------------   ------------------------------
 PD  .                 GL:   PERMANENT DATUM
 EPD .F              5118:   ELEVATION PERMANENT DATUM
 LMF .                 KB:   LOG MEASURED FROM
 DAPD.F                 5:   FEET ABOVE PERMANENT DATUM
 DMF .                 KB:   DRILLING MEASURED FROM
 EKB .F              5123:   KELLING BUSHING
 EGL .F              5118:   GROUND LEVEL
 DATE.        17-MAR-1960:   RUN DATE
 RUN .                  1:   RUN NUMBER
 DD  .F               860:   DEPTH DRILLER
 DL  .F               855:   DEPTH LOGGER
 BLI .F               853:   BOTTOM LOG INTERVAL
 TLI .F                70:   TOP LOG INTERVAL
 CS  .IN            8.625:   CASING SIZE
 CBD .F                12:   CASING BOTTOM DRILLER
 BS  .IN            7.875:   BIT SIZE
 BSD .F               860:   BIT SIZE AT DEPTH
 DFT .  GEL- OIL EMULSION:   DRILLING FLUID TYPE
 DFD .                9.7:   DRILLING FLUID DENSITY
 DFV .                 40:   DRILLING FLUID VISCOSITY
 MSS .    CIRC.- FLOWLINE:   MUD SAMPLE SOURCE
 RMS .OHMM           1.75:   RESISTIVITY MUD SAMPLE
 MST .F                60:   MUD SAMPLE TEMPERATURE
 RMF .OHMM            1.2:   RESISTIVITY MUD FILTRATE SAMPLE
 MFST.F                60:   MUD FILTRATE SAMPLE TEMPERATURE
 RMC .OHMM            2.4:   RESISTIVITY MUD CAKE
 MCST.F                60:   MUD CAKE SAMPLE TEMPERATURE
 MFSS.                MUD:   MUD FILTRATE SAMPLE SOURCE
 MCSS.              PRESS:   MUD CAKE SAMPLE SOURCE
 RMB .OHMM            1.5:   RESISTIVITY MUD AT BHT
 BHT .F                70:   BOTTOM HOLE TEMPERATURE
 MRT .F                70:   MAXIMUM RECORDED TEMPERATURE
 LUN .            HL 4474:   LOGGING UNIT NUMBER
 LUL .             CASPER:   LOGGING UNIT LOCATION
 ENGI.             NELSON:   RECORDING ENGINEER
 WITN.   JORGENSEN-HUDSON:   WITNESSED BY
 CLNT.            A2DTECH:   CLIENT CODE
 ORIG.        2" 5" PRINT:   ORIGIN OF DATA
 UWI .       490250648000:   UNIQUE WELL ID
 DICO. A2D Technologies, Inc.:   DIGITIZING COMPANY
~OTHER INFORMATION
~A   DEPT        ASN      CILD         ILD      SPR   
# ...
  362.0000     7.3137   159.0643     6.6481   -38.3763
  362.5000     6.9623   160.4198     6.5897   -38.3763
  363.0000     6.8990   161.7750     6.5217   -38.3763
  363.5000     6.8534   161.7668     6.5217   -38.3763
  364.0000     6.8125   162.3238     6.5217   -38.2398
  364.5000     6.8070   163.1160     6.4538   -38.2147
  365.0000     6.8428   164.4693     6.4504   -38.1032
  365.5000     6.8526   164.4637     6.3859   -38.0372
  366.0000     6.8524   165.8185     6.3859   -37.8300
  366.5000     6.8355   167.1719     6.3859   -37.6935
  367.0000     6.8112   167.1664     6.3859   -37.6935
  367.5000     6.7694   167.1595     6.3911   -37.5569
  368.0000     6.7379   167.1528     6.4192   -37.5569
  368.5000     6.6885   167.1460     6.4472   -37.5569
  369.0000     6.6274   167.1389     6.4717   -37.5569
  369.5000     6.6418   166.3404     6.5217   -37.5569
  370.0000     6.7422   164.0847     6.5217   -37.7390
  370.5000     6.8209   161.6720     6.5217   -37.9666
  371.0000     6.9104   159.5734     6.5897   -38.1032
  371.5000     7.0129   158.6792     6.6930   -38.1419
  372.0000     7.0895   156.2051     6.7935   -38.3763
  372.5000     7.2079   156.1989     6.8614   -38.4560
  373.0000     7.3244   156.1921     6.9617   -38.6495
  373.5000     7.3564   156.1845     7.0652   -38.6495
  374.0000     7.3647   158.1482     7.0652   -38.8589
  374.5000     7.2831   158.8953     7.1332   -39.0592
  375.0000     7.2332   158.8870     7.2011   -39.1958
  375.5000     7.1877   158.8812     7.2011   -39.1958
  376.0000     7.1430   158.8744     7.1748   -39.0592
  376.5000     7.0685   158.8664     7.1332   -38.9226
  377.0000     6.9836   158.3752     7.1332   -38.5311
  377.5000     6.9725   157.4810     7.0652   -38.0918
  378.0000     7.0342   156.1241     7.0652   -37.8300
  378.5000     7.0779   155.6929     7.1090   -37.5569
  379.0000     7.1336   153.3871     7.1332   -37.5569
  379.5000     7.2442   152.5431     7.2011   -37.5569
  380.0000     7.3487   150.2874     7.2418   -37.5569
  380.5000     7.4310   147.9202     7.3370   -37.5569
  381.0000     7.5252   147.1376     7.3370   -37.6434
  381.5000     7.6873   146.2437     7.4426   -37.7322
  382.0000     7.8076   142.4533     7.4869   -37.9666
  382.5000     8.0397   142.4471     7.5408   -38.1032
  383.0000     8.3108   141.0787     7.4382   -38.1351
  383.5000     8.4100   141.0712     7.3370   -38.3763
  384.0000     8.4859   139.7035     7.3370   -38.3763
  384.5000     8.5986   141.4168     7.2374   -38.5129
  385.0000     8.5706   146.4968     7.1632   -38.5129
  385.5000     8.4955   148.4448     7.0652   -38.5129
  386.0000     8.1196   150.6868     7.0652   -38.5129
  386.5000     7.8367   153.2841     6.9924   -38.5129
  387.0000     7.5613   153.8093     6.9293   -38.3763
  387.5000     7.3683   156.0514     6.8614   -38.3649
  388.0000     7.2288   158.7098     6.7935   -38.1032
  388.5000     7.1417   158.7042     6.7935   -37.9143
  389.0000     7.0889   158.6974     6.7935   -37.5569
  389.5000     7.0328   156.4463     6.7935   -37.5569
  390.0000     7.2497   155.5522     6.9044   -37.4203
  390.5000     7.3491   153.2305     6.9487   -37.4203
  391.0000     7.4354   152.4024     7.0652   -37.5569
  391.5000     7.5204   150.1468     7.0652   -37.5569
  392.0000     7.5906   147.7636     7.1495   -37.6935
  392.5000     7.6638   146.9970     7.2690   -37.8300
  393.0000     7.7369   146.3888     7.3370   -37.9423
  393.5000     7.8185   145.0199     7.3502   -38.1032
  394.0000     7.9058   145.0136     7.4049   -38.1760
  394.5000     7.9805   145.0068     7.4728   -38.2523
  395.0000     8.0328   144.9992     7.4728   -38.3763
  395.5000     8.0919   144.3555     7.4728   -38.4423
  396.0000     8.1427   143.6248     7.4728   -38.5311
  396.5000     8.1948   143.6171     7.4800   -38.6495
  397.0000     8.2834   143.6112     7.5408   -38.6495
  397.5000     8.3863   143.5023     7.5130   -38.6495
  398.0000     8.4697   142.2349     7.4728   -38.3763
  398.5000     8.5222   142.2292     7.4728   -38.1874
  399.0000     8.5485   142.2224     7.4975   -37.9575
  399.5000     8.5755   142.2143     7.5408   -37.5569
  400.0000     8.5753   142.2088     7.5408   -37.1927
  400.5000     8.4080   142.2019     7.5408   -37.0106
  401.0000     8.3037   142.1952     7.5408   -37.1836
  401.5000     8.0097   142.1884     7.5966   -37.4590
  402.0000     7.6760   142.1813     7.5645   -37.6935
  402.5000     7.5570   142.1747     7.5324   -38.0463
  403.0000     7.6079   142.1679     7.5003   -38.2556
  403.5000     7.6685   142.1607     7.4682   -38.3679
  404.0000     7.7058   142.1934     7.4361   -38.4802
  404.5000     7.7267   142.2283     7.4040   -38.5129
  405.0000     7.7653   142.2632     7.3719   -38.2398
  405.5000     7.8140   142.2843     7.3370   -38.1032
  406.0000     7.8547   142.2905     7.3714   -38.1032
  406.5000     7.8995   142.2973     7.4728   -38.1032
  407.0000     7.9492   142.3049     7.4728   -38.0472
  407.5000     7.9826   142.3109     7.4728   -37.9666
  408.0000     8.0201   142.3177     7.4810   -37.9666
  408.5000     8.0845   142.3254     7.5408   -37.9666
  409.0000     8.1425   142.3313     7.5408   -37.9666
  409.5000     8.1971   142.3381     7.5462   -37.9666
  410.0000     8.2741   140.9845     7.6087   -37.9666
  410.5000     8.3221   140.4637     7.6087   -37.9666
  411.0000     8.3981   139.6352     7.6114   -37.7486
  411.5000     8.4907   138.2819     7.6766   -37.6935
  412.0000     8.5543   138.0514     7.7681   -37.6935
  412.5000     8.6262   136.9327     7.8804   -37.5569
  413.0000     8.6934   136.0499     7.8804   -37.5828
  413.5000     8.7699   135.3759     7.9588   -37.6935
  414.0000     8.8429   134.2301     8.0163   -37.7599
  414.5000     8.9303   133.4017     8.1259   -37.9666
  415.0000     9.0335   131.5193     8.1522   -37.9666
  415.5000     9.1410   131.5276     8.2201   -38.1621
  416.0000     9.2418   130.1725     8.3270   -38.2398
  416.5000     9.2628   128.5090     8.4239   -38.3763
  417.0000     9.2220   126.1019     8.4918   -38.5129
  417.5000     9.2146   126.1082     8.5960   -38.5129
  418.0000     9.2082   124.4992     8.6957   -38.5129
  418.5000     9.2623   123.3986     8.7636   -38.4690
  419.0000     9.3499   121.7080     8.8650   -37.9666
  419.5000     9.4775   120.6885     8.9674   -37.7977
  420.0000     9.6282   120.6967     9.1033   -37.5569
  420.5000     9.8688   119.3411     9.2699   -37.6935
  421.0000    10.2022   117.8412     9.3895   -37.9070
  421.5000    10.5357   115.2710     9.5109   -37.9955
  422.0000    10.8691   114.7141     9.5670   -38.2398
  422.5000    11.2026   112.4697     9.7192   -38.4458
  423.0000    11.4022   109.8453     9.7826   -38.5343
  423.5000    11.7982   108.8344     9.8759   -38.6495
  424.0000    12.0315   107.0982     9.9864   -38.8480
  424.5000    12.4104   104.4196     9.9864   -39.0592
  425.0000    12.6346   104.4251     9.8732   -39.1958
  425.5000    12.7909   104.4320     9.7826   -39.2779
  426.0000    13.0187   104.4387     9.6033   -39.1894
  426.5000    12.9336   105.8071     9.5109   -39.0592
  427.0000    12.6901   107.1757     9.5109   -38.8757
  427.5000    12.3399   107.1823     9.4022   -38.5129
  428.0000    12.0566   108.5507     9.3750   -38.3381
  428.5000    11.8322   108.5579     9.3071   -38.0638
  429.0000    11.6610   109.9259     9.3071   -37.9666
  429.5000    11.4511   109.9327     9.2391   -37.8867
  430.0000    11.2944   111.3016     9.2391   -37.6616
  430.5000    11.1179   112.6694     9.2391   -37.4203
  431.0000    11.1856   114.0378     9.2391   -37.4203
  431.5000    11.1855   114.0453     9.2391   -37.4203
  432.0000    11.1853   114.0514     9.2391   -37.4203
  432.5000    11.1852   113.8767     9.2391   -37.4203
  433.0000    11.1851   112.7035     9.2391   -37.7103
  433.5000    11.1849   112.7103     9.2391   -37.9666
  434.0000    11.1559   112.7171     9.2391   -38.1605
  434.5000    11.1168   112.7249     9.2391   -38.2398
