~VERSION INFORMATION
 VERS.                2.0:   CWLS LOG ASCII STANDARD - VERSION 2.0
 WRAP.                 NO:   ONE LINE PER DEPTH STEP
~WELL INFORMATION
#MNEM.UNIT      DATA TYPE    INFORMATION
#----------   ------------   ------------------------------
 STRT.F            7.0000:   START DEPTH
 STOP.F          690.0000:   STOP DEPTH
 STEP.F            0.5000:   STEP LENGTH
 NULL.          -999.2500:   NO VALUE
 COMP. FENIX & SCISSON INC:   COMPANY
 WELL.  NPR#3 #26-46 SX11:   WELL
 FLD .             TEAPOT:   FIELD
 LOC .      S11 T38N R78W:   LOCATION
 CNTY.            NATRONA:   COUNTY
 STAT.            WYOMING:   STATE
 CTRY. UNITED STATES OF AMERICA:   COUNTRY
 SRVC.      Dresser Atlas:   SERVICE COMPANY
 DATE.        13-AUG-1985:   LOGDATE
 API .       490251083600:   API NUMBER
~CURVE INFORMATION
#MNEM.UNIT       API CODE    CURVE DESCRIPTION
#----------   ------------   ------------------------------
 DEPT.F                  :   
 DPHI.DEC    45 890 12 00:   DENSITY POROSITY SANDSTONE
 NPHI.DEC    42 890 03 00:   NEUTRON POROSITY SANDSTONE
 RHOB.G/C3   45 350 01 00:   BULK DENSITY
 CORR.G/C3   45 356 01 00:   DENSITY CORRECTION
 CALD.IN     45 280 60 00:   CALIPER
 SPR .MV     07 010 01 00:   SPONTANEOUS POTENTIAL
 ILD .OHMM   07 120 46 00:   INDUCTION LOG DEEP
 ILM .OHMM   07 120 44 00:   INDUCTION LOG MEDIUM
 SFL .OHMM   07 220 01 00:   SHALLOW FOCUSED LOG RESISTIVITY
 GRR .GAPI   07 310 01 00:   GAMMA RAY FROM RES. LOG.
~PARAMETER INFORMATION
#MNEM.UNIT          VALUE    DESCRIPTION
#----------   ------------   ------------------------------
 PD  .                 GL:   PERMANENT DATUM
 EPD .F              5193:   ELEVATION PERMANENT DATUM
 LMF .                 KB:   LOG MEASURED FROM
 DAPD.F                 5:   FEET ABOVE PERMANENT DATUM
 DMF .                 KB:   DRILLING MEASURED FROM
 EKB .F              5198:   KELLING BUSHING
 EGL .F              5193:   GROUND LEVEL
 DATE.          8-13-1985:   RUN DATE
 RUN .                  8:   RUN NUMBER
 DD  .F               664:   DEPTH DRILLER
 BLI .F               635:   BOTTOM LOG INTERVAL
 TLI .F               340:   TOP LOG INTERVAL
 CBL .F               340:   CASING BOTTOM LOGGER
 BS  .IN             8.75:   BIT SIZE
 BSD .F               664:   BIT SIZE AT DEPTH
 DFT .          KPC WATER:   DRILLING FLUID TYPE
 LUN .           HL- 6274:   LOGGING UNIT NUMBER
 LUL .           GILLETTE:   LOGGING UNIT LOCATION
 ENGI.             RAUTIO:   RECORDING ENGINEER
 WITN.            SCHULTE:   WITNESSED BY
 CLNT.            A2DTECH:   CLIENT CODE
 ORIG.        2" 5" PRINT:   ORIGIN OF DATA
 UWI .       490251083600:   UNIQUE WELL ID
 DICO. A2D Technologies, Inc.:   DIGITIZING COMPANY
~OTHER INFORMATION
~A    DEPT    DPHI       NPHI       RHOB       CORR       CALD         SPR       ILD        ILM        SFL        GRR   
# ...
  442.5000     0.1821     0.3189     2.3798     0.1999     6.0940   -11.4738     4.5465     4.2141     6.6357   101.1231
  443.0000     0.1816     0.3231     2.3768     0.1994     6.0943   -11.4008     4.6962     4.3902     8.2856   106.3811
  443.5000     0.1778     0.3267     2.3845     0.2045     6.0945   -11.3284     4.9820     4.4415     7.3419   111.5903
  444.0000     0.1686     0.3274     2.3952     0.2153     6.0947   -11.2559     5.2834     4.7169     6.7573   116.7338
  444.5000     0.1628     0.3215     2.4058     0.2238     6.0950   -11.1834     5.5640     5.0391     7.7201   116.9342
  445.0000     0.1731     0.3253     2.4034     0.2257     6.0952   -11.1107     5.8286     5.4834     8.2683   112.3894
  445.5000     0.1859     0.3291     2.3827     0.2147     6.0955   -11.0380     6.1058     5.7770     8.2683   111.7066
  446.0000     0.1986     0.3329     2.3609     0.2035     6.0957   -10.9667     6.3589     5.9588     8.2672   113.8699
  446.5000     0.2114     0.3367     2.3442     0.1899     6.0959   -10.9609     6.4846     6.1862     8.3882   116.0289
  447.0000     0.2143     0.3478     2.3238     0.1781     6.0962   -11.0641     6.6129     6.4300     8.4999   116.2497
  447.5000     0.2083     0.3630     2.3241     0.1752     6.0964   -11.1632     6.7434     6.6059     8.5726   110.3946
  448.0000     0.1955     0.3681     2.3217     0.1806     6.0967   -11.2601     6.8347     6.6879     8.6690   105.9294
  448.5000     0.1875     0.3401     2.3370     0.2049     6.0969   -11.3571     6.8771     6.7713     8.7139   106.4335
  449.0000     0.1869     0.3236     2.3558     0.2121     6.0971   -11.4537     6.9198     6.8198     8.7375   107.1506
  449.5000     0.1876     0.3177     2.3667     0.2214     6.0974   -11.5222     6.9627     6.8288     8.7375   106.1635
  450.0000     0.1870     0.3138     2.3719     0.2316     6.0976   -11.4737     7.0060     6.8378     8.7016   106.2502
  450.5000     0.1927     0.3101     2.3665     0.2335     6.0979   -11.4273     7.0494     6.8469     8.6577   106.6568
  451.0000     0.1990     0.3134     2.3513     0.2328     6.0981   -11.3813     7.0710     6.8559     8.7612   104.8290
  451.5000     0.2187     0.3186     2.3321     0.2321     6.0983   -11.3346     7.0416     6.8650     8.8771   100.7737
  452.0000     0.2354     0.3262     2.3080     0.2314     6.0986   -11.2683     7.0192     6.8782     8.9836   100.4414
  452.5000     0.2504     0.3342     2.2852     0.2236     6.0988   -11.1935     6.9969     6.8375     9.0167   102.4391
  453.0000     0.2730     0.3490     2.2393     0.2103     6.0991   -11.1187     6.9745     6.7590     9.0651   104.6410
  453.5000     0.2926     0.3855     2.2070     0.1974     6.0993   -11.0444     6.9422     6.6814     8.7892   106.5169
  454.0000     0.2991     0.4184     2.1742     0.1885     6.0995   -10.9700     6.9740     6.6299     8.4223   108.1751
  454.5000     0.2995     0.4393     2.1471     0.1818     6.0998   -10.8751     7.0347     6.6884     8.1175   109.7776
  455.0000     0.2998     0.4014     2.1597     0.1798     6.1000   -10.5778     7.0959     6.7327     8.1175   109.0045
  455.5000     0.2842     0.3239     2.1813     0.1864     6.1003   -10.5211     7.1817     6.8928     8.1925   108.1002
  456.0000     0.2788     0.2891     2.2033     0.1933     6.1005   -10.5203     7.3156     7.1582     8.5886   108.0529
  456.5000     0.2783     0.2640     2.2160     0.2002     6.1007   -10.5209     7.4520     7.4039     9.1573   107.6299
  457.0000     0.2796     0.2711     2.2174     0.2008     6.1010   -10.5205     7.5438     7.4039     9.4256   104.9785
  457.5000     0.2845     0.2801     2.2075     0.1920     6.1012   -10.5173     7.5411     6.9341     9.4919   102.3447
  458.0000     0.2876     0.2904     2.2000     0.1838     6.1015   -10.6591     7.5476     6.3460     9.4919    99.7282
  458.5000     0.2868     0.2928     2.2006     0.1864     6.1017   -10.8272     6.5638     5.7480     9.6137    97.5842
  459.0000     0.2902     0.2821     2.2013     0.1920     6.1019   -10.9959     5.6835     5.2063     9.6614    97.8029
  459.5000     0.2960     0.2858     2.1914     0.1919     6.1022   -11.1644     4.9213     4.7157     6.1195    98.2279
  460.0000     0.2986     0.2918     2.1810     0.1919     6.1024   -11.3336     4.3670     4.2629     4.9846    98.5726
  460.5000  -999.2500     0.2933     2.1750     0.1913     6.1027   -11.5032     3.9965     4.2238     4.9846    99.4573
  461.0000  -999.2500     0.2916     2.1637     0.1889     6.1029   -11.4670     3.9241     4.2959     4.9846   104.1942
  461.5000  -999.2500     0.2921     2.1502     0.1818     6.1031   -11.4018     4.7579     4.7022     5.0772   109.2554
  462.0000  -999.2500     0.2889     2.1365     0.1742     6.1034   -11.3361     5.3037     5.1469    12.0573   114.2927
  462.5000  -999.2500     0.2751     2.1207     0.1665     6.1036   -11.2709     6.0360     5.6337    11.4272   115.1451
  463.0000  -999.2500     0.2555     2.1038     0.1586     6.1039   -11.2056     6.8694     6.1666    10.4456   109.6072
  463.5000  -999.2500     0.2381     2.0924     0.1512     6.1041   -11.1367     7.7335     6.8944     9.5484   105.7001
  464.0000  -999.2500     0.2319     2.0924     0.1586     6.1044   -11.1883     8.3524     7.7024     8.7375   101.9647
  464.5000  -999.2500     0.2508     2.1068     0.1714     6.1046   -11.2801     8.7375     8.1497     8.6954    99.1009
  465.0000  -999.2500     0.2607     2.1220     0.1786     6.1048   -11.2917     8.6640     8.4218     8.6539    97.7831
  465.5000  -999.2500     0.2573     2.1285     0.1754     6.1051   -11.2365     8.6012     8.3893     8.6127    97.1053
  466.0000  -999.2500     0.2564     2.1257     0.1631     6.1053   -11.1804     8.5366     8.2453     8.5713    96.4326
  466.5000  -999.2500     0.2609     2.1183     0.1546     6.1055   -11.1232     8.4715     8.1037     8.5311    95.8315
  467.0000  -999.2500     0.2719     2.1158     0.1684     6.1058   -11.0680     8.4218     7.9695     8.4943    95.9528
  467.5000  -999.2500     0.2751     2.1093     0.1772     6.1060   -11.0120     8.9162     8.0431     8.9730    97.1734
  468.0000  -999.2500     0.2719     2.0935     0.1858     6.1063   -10.9563     9.3377     8.3831     9.5732    96.2315
  468.5000  -999.2500     0.2715     2.0642     0.1784     6.1065   -10.9214     9.9475     8.7226    10.3216    95.6629
  469.0000  -999.2500     0.2731     2.0551     0.1415     6.1068   -10.9218    10.6304     9.0718    11.2530    96.3445
  469.5000  -999.2500     0.2728     2.0801     0.1365     6.1070   -10.9209    11.3649    10.3509    12.6389    96.9504
  470.0000  -999.2500     0.2678     2.1013     0.1353     6.1072   -10.9219    12.2846    11.6367    16.4027    93.3739
  470.5000  -999.2500     0.2616     2.1114     0.1534     6.1075   -10.9889    13.3826    12.8812    18.2419    89.4044
  471.0000  -999.2500     0.2549     2.1161     0.1540     6.1077   -11.3340    14.5701    14.2716    19.4555    86.1883
  471.5000  -999.2500     0.2525     2.1196     0.1524     6.1079   -11.6715    15.8641    15.8124    17.5989    83.4788
  472.0000  -999.2500     0.2544     2.1140     0.1467     6.1077   -12.0081    16.7640    17.5217    16.9473    78.5202
  472.5000  -999.2500     0.2644     2.1076     0.1416     6.1075   -12.3441    17.6378    19.4157    18.6836    69.5106
  473.0000  -999.2500     0.2586     2.1148     0.1405     6.1072   -12.5260    17.8902    21.3305    22.1302    65.7021
  473.5000  -999.2500     0.2511     2.1358     0.1546     6.1070   -12.5249    18.0748    21.3305    21.7852    65.7537
  474.0000  -999.2500     0.2475     2.1576     0.1687     6.1067   -12.5253    18.0156    20.1851    21.4016    65.3343
  474.5000  -999.2500     0.2529     2.1711     0.1735     6.1065   -12.5251    17.9491    19.3930    20.7431    64.7881
  475.0000  -999.2500     0.2574     2.1715     0.1723     6.1062   -12.5251    17.8829    18.4105    19.4667    64.6376
  475.5000  -999.2500     0.2519     2.1810     0.1709     6.1060   -12.5251    17.8170    18.4564    19.1007    64.7310
