~VERSION INFORMATION
 VERS.                2.0:   CWLS LOG ASCII STANDARD - VERSION 2.0
 WRAP.                 NO:   ONE LINE PER DEPTH STEP
~WELL INFORMATION
#MNEM.UNIT      DATA TYPE    INFORMATION
#----------   ------------   ------------------------------
 STRT.F           71.5000:   START DEPTH
 STOP.F          820.0000:   STOP DEPTH
 STEP.F            0.5000:   STEP LENGTH
 NULL.          -999.2500:   NO VALUE
 COMP. U S NAVY/INTEX OIL CO:   COMPANY
 WELL. RES 3 TEAPOT DOME #72-S-34:   WELL
 FLD .             TEAPOT:   FIELD
 LOC .      S34 T39N R78W:   LOCATION
 CNTY.            NATRONA:   COUNTY
 STAT.            WYOMING:   STATE
 CTRY. UNITED STATES OF AMERICA:   COUNTRY
 SRVC.       Schlumberger:   SERVICE COMPANY
 DATE.        20-FEB-1961:   LOGDATE
 API .       490250655700:   API NUMBER
~CURVE INFORMATION
#MNEM.UNIT       API CODE    CURVE DESCRIPTION
#----------   ------------   ------------------------------
 DEPT.F                  :   
 GR  .GAPI   30 310 01 00:   GAMMA RAY
 SPR .MV     05 010 01 00:   SPONTANEOUS POTENTIAL FROM RES.
 ILD .OHMM   05 120 46 00:   INDUCTION LOG DEEP
 ASN .OHMM   05 041 16 00:   AMPLIFIED SHORT NORMAL 16"
 CILD.MMHO   05 110 46 00:   CONDUCTIVITY INDUCTION LOG DEEP
~PARAMETER INFORMATION
#MNEM.UNIT          VALUE    DESCRIPTION
#----------   ------------   ------------------------------
 LMF .                 KB:   LOG MEASURED FROM
 DMF .                 KB:   DRILLING MEASURED FROM
 EKB .F              5071:   KELLING BUSHING
 EGL .F              5057:   GROUND LEVEL
 DATE.          2-20-1961:   RUN DATE
 RUN .                  1:   RUN NUMBER
 DD  .F               820:   DEPTH DRILLER
 DL  .F               820:   DEPTH LOGGER
 BLI .F               819:   BOTTOM LOG INTERVAL
 TLI .F                80:   TOP LOG INTERVAL
 CBD .F                12:   CASING BOTTOM DRILLER
 BS  .IN            7.875:   BIT SIZE
 BSD .F               820:   BIT SIZE AT DEPTH
 DFT .       GEL-OIL EMUL:   DRILLING FLUID TYPE
 DFD .                9.3:   DRILLING FLUID DENSITY
 DFV .                 48:   DRILLING FLUID VISCOSITY
 DFPH.                8.5:   DRILLING FLUID PH
 DFL .                 16:   DRILLING FLUID LOSS
 MSS .           FLOWLINE:   MUD SAMPLE SOURCE
 RMS .OHMM            .82:   RESISTIVITY MUD SAMPLE
 MST .F                70:   MUD SAMPLE TEMPERATURE
 RMF .OHMM            .45:   RESISTIVITY MUD FILTRATE SAMPLE
 MFST.F                72:   MUD FILTRATE SAMPLE TEMPERATURE
 RMC .OHMM            1.4:   RESISTIVITY MUD CAKE
 MCST.F                78:   MUD CAKE SAMPLE TEMPERATURE
 RMB .OHMM            .73:   RESISTIVITY MUD AT BHT
 BHT .F                78:   BOTTOM HOLE TEMPERATURE
 TCS .HRS               1:   TIME CURCULATED STOPPED
 MRT .F                78:   MAXIMUM RECORDED TEMPERATURE
 LUN .               2523:   LOGGING UNIT NUMBER
 LUL .              CSPR.:   LOGGING UNIT LOCATION
 ENGI.             KNOBEL:   RECORDING ENGINEER
 WITN.          JORGENSEN:   WITNESSED BY
 CLNT.            A2DTECH:   CLIENT CODE
 ORIG.      2" & 5" PRINT:   ORIGIN OF DATA
 UWI .       490250655700:   UNIQUE WELL ID
 DICO. A2D Technologies, Inc.:   DIGITIZING COMPANY
~OTHER INFORMATION
~A   DEPT       GR        SPR          ILD      ASN       CILD   
# ...
  376.5000  -999.2500   -21.9627     7.4964     8.7259   143.3673
  377.0000  -999.2500   -21.9022     7.5623     8.7830   141.9122
  377.5000  -999.2500   -21.8421     7.6285     8.8403   140.4592
  378.0000  -999.2500   -21.7814     7.6945     8.9148   139.0039
  378.5000  -999.2500   -21.7213     7.7607     9.0199   137.5508
  379.0000  -999.2500   -21.6607     7.8266     9.1252   136.0953
  379.5000  -999.2500   -21.5979     7.8930     9.2301   134.6422
  380.0000  -999.2500   -21.5975     7.9589     9.3355   133.2994
  380.5000  -999.2500   -21.5979     8.0254     9.4403   132.1673
  381.0000  -999.2500   -21.5974     8.1014     9.5459   131.0327
  381.5000  -999.2500   -21.5979     8.1248     9.6503   129.7217
  382.0000  -999.2500   -21.6364     8.1514     9.7564   129.4255
  382.5000  -999.2500   -21.7276     8.1791     9.8603   129.0767
  383.0000  -999.2500   -21.8175     8.2056     9.9182   128.7254
  383.5000  -999.2500   -21.9088     8.2333     9.8770   128.3766
  384.0000  -999.2500   -21.9986     8.2597     9.8392   128.0255
  384.5000  -999.2500   -22.0899     8.2874     9.7976   127.6765
  385.0000  -999.2500   -22.1888     8.3138     9.7730   127.3257
  385.5000  -999.2500   -22.0966     8.3414     9.8607   126.9765
  386.0000  -999.2500   -21.9927     8.3678     9.9914   125.9433
  386.5000  -999.2500   -21.8900     8.4002    10.4942   123.4649
  387.0000  -999.2500   -21.7863     8.6500    10.7482   120.9865
  387.5000  -999.2500   -21.6835     8.9566    10.9988   118.5075
  388.0000  -999.2500   -21.5800     9.2626    11.2523   115.4904
  388.5000  -999.2500   -21.4769     9.5692    11.5040   111.2759
  389.0000  -999.2500   -21.3736     9.8753    11.7402   107.0637
  389.5000  -999.2500   -21.2704    10.1790    11.9382   102.8484
  390.0000  -999.2500   -21.2450    10.4762    12.1365    99.1883
  390.5000  -999.2500   -21.3625    10.7736    12.3350    96.8067
  391.0000  -999.2500   -21.4804    10.9829    12.5735    93.9406
  391.5000  -999.2500   -21.5979    11.0823    12.5742    93.9381
  392.0000  -999.2500   -21.7159    11.0822    12.5734    93.9408
  392.5000  -999.2500   -21.7977    11.0252    12.5743    94.4423
  393.0000  -999.2500   -21.8067    10.8268    12.5085    96.1946
  393.5000  -999.2500   -21.8151    10.6289    12.2831    97.9414
  394.0000  -999.2500   -21.8241    10.4303    12.0554    99.6937
  394.5000  -999.2500   -21.8325    10.2326    11.8301   101.4404
  395.0000  -999.2500   -21.8414    10.0339    11.6024   103.1925
  395.5000  -999.2500   -21.8499     9.7913    11.3770   104.9394
  396.0000  -999.2500   -21.8587     9.7907    11.1489   106.6913
  396.5000  -999.2500   -21.8673     9.7842    10.8858   108.8461
  397.0000  -999.2500   -21.8761     9.7563    10.9108   109.0270
  397.5000  -999.2500   -21.8847     9.7299    10.9477   109.2591
  398.0000  -999.2500   -21.8935     9.7021    10.9809   109.4925
  398.5000  -999.2500   -21.9023     9.6756    11.0177   109.7258
  399.0000  -999.2500   -21.9110     9.6479    11.0510   109.9591
  399.5000  -999.2500   -21.9198     9.6212    11.0876   110.1924
  400.0000  -999.2500   -21.9285     9.5935    11.1209   110.4257
  400.5000  -999.2500   -21.9373     9.5666    11.1575   110.6590
  401.0000  -999.2500   -21.9459     9.5391    11.1822   110.8350
  401.5000  -999.2500   -21.9546     9.5120    11.0602   111.3290
  402.0000  -999.2500   -21.9633     9.4846    10.9596   111.7256
  402.5000  -999.2500   -21.9720     9.4574    10.8619   112.1223
  403.0000  -999.2500   -21.9807     9.4301    10.7612   112.5189
  403.5000  -999.2500   -21.9894     9.4027    10.6866   112.9155
  404.0000  -999.2500   -22.0261     9.3756    10.7200   113.3121
  404.5000  -999.2500   -22.0749     9.3481    10.7496   113.7087
  405.0000  -999.2500   -22.1239     9.3210    10.7767   114.1054
  405.5000  -999.2500   -22.1728     9.2935    10.7852   114.5020
  406.0000  -999.2500   -22.2217     9.2666    10.6853   114.8986
  406.5000  -999.2500   -22.2706     9.2388    10.4869   115.2952
  407.0000  -999.2500   -22.3196     9.2122    10.4869   115.6918
  407.5000  -999.2500   -22.3684     9.1843    10.4864   116.0885
  408.0000  -999.2500   -22.3491     9.1580    10.4873   116.4851
  408.5000  -999.2500   -22.2904     9.1299    10.3867   116.8817
  409.0000  -999.2500   -22.2318     9.1037    10.2892   117.2783
  409.5000  -999.2500   -22.1730     9.0667    10.2870   117.6749
  410.0000  -999.2500   -22.1144     9.0282    10.1904   118.7873
  410.5000  -999.2500   -22.0557     8.9954    10.1873   122.4906
  411.0000  -999.2500   -21.9970     8.6912    10.1009   125.5754
  411.5000  -999.2500   -21.9384     8.4354     9.9685   128.6603
  412.0000  -999.2500   -21.8797     8.1815     9.9126   131.7451
  412.5000  -999.2500   -21.8210     7.9258     9.8891   134.8299
  413.0000  -999.2500   -21.8170     7.6717     9.2993   137.9146
  413.5000  -999.2500   -21.8561     7.4162     9.1548   140.9952
  414.0000  -999.2500   -21.8953     7.2079     9.0170   144.0838
  414.5000  -999.2500   -21.9344     7.1080     8.8729   146.6154
  415.0000  -999.2500   -21.9735     7.2073     8.7596   147.6135
  415.5000  -999.2500   -22.0126     7.3529     8.7371   147.6095
  416.0000  -999.2500   -22.0517     7.4994     8.8673   143.9586
  416.5000  -999.2500   -22.0908     7.6450     8.9558   140.8389
  417.0000  -999.2500   -22.1299     7.7915     9.3282   137.7266
  417.5000  -999.2500   -22.1690     7.9370     9.5918   134.6070
  418.0000  -999.2500   -22.2081     8.0837     9.6954   131.4945
  418.5000  -999.2500   -22.2472     8.2290     9.7568   128.3755
  419.0000  -999.2500   -22.2863     8.3758     9.8221   125.7469
  419.5000  -999.2500   -22.3254     8.4985     9.8836   124.9805
  420.0000  -999.2500   -22.3645     8.4178     9.9491   125.5068
  420.5000  -999.2500   -22.3571     8.3459    10.2870   126.6610
  421.0000  -999.2500   -22.2919     8.2761    10.1098   127.8204
  421.5000  -999.2500   -22.2267     8.2042     9.8298   128.9749
  422.0000  -999.2500   -22.1615     8.1344     9.6439   130.1341
  422.5000  -999.2500   -22.0963     8.0626     9.5911   131.2886
  423.0000  -999.2500   -22.0311     8.0024     9.6289   131.3507
  423.5000  -999.2500   -21.9659     8.1000     9.6570   130.7817
  424.0000  -999.2500   -21.9007     8.1875     9.6906   130.2173
  424.5000  -999.2500   -21.8355     8.2737     9.7189   129.7207
  425.0000  -999.2500   -21.7703     8.3609     9.8696   127.8061
  425.5000  -999.2500   -21.7052     8.4473    10.3864   126.1039
  426.0000  -999.2500   -21.6399     8.5343    10.4806   124.4066
  426.5000  -999.2500   -21.5979     8.6209    10.4669   123.0552
  427.0000  -999.2500   -21.5979     8.6977    10.4572   121.9243
  427.5000  -999.2500   -21.5980     8.6776    10.4435   120.7891
  428.0000  -999.2500   -21.5980     8.6594    10.4337   119.7831
  428.5000  -999.2500   -21.5980     8.6416    10.4206   120.2217
  429.0000  -999.2500   -21.5980     8.6233    10.4101   120.6183
  429.5000  -999.2500   -21.5980     8.6055    10.3974   121.0651
  430.0000  -999.2500   -21.5980     8.5872    10.3876   121.5449
  430.5000  -999.2500   -21.5979     8.5694    10.4416   122.0247
  431.0000  -999.2500   -21.6112     8.5512    10.4915   122.5045
  431.5000  -999.2500   -21.6572     8.5333    10.5409   122.9843
  432.0000  -999.2500   -21.7033     8.5152    10.5859   123.4641
  432.5000  -999.2500   -21.7492     8.4973    10.4995   123.9438
  433.0000  -999.2500   -21.7953     8.4792    10.4203   124.4236
  433.5000  -999.2500   -21.8413     8.4613    10.2777   124.9034
  434.0000  -999.2500   -21.8874     8.4432    10.0892   125.3832
  434.5000  -999.2500   -21.9333     8.4253     9.9489   125.8630
  435.0000  -999.2500   -21.9794     8.4072     9.8509   126.3428
  435.5000  -999.2500   -22.0254     8.3806     9.8278   126.8225
  436.0000  -999.2500   -22.0714     8.3475     9.8061   127.3023
  436.5000  -999.2500   -22.1174     8.3145     9.7844   127.7821
  437.0000  -999.2500   -22.1634     8.2814     9.7629   128.2619
