~VERSION INFORMATION
 VERS.                2.0:   CWLS LOG ASCII STANDARD - VERSION 2.0
 WRAP.                 NO:   ONE LINE PER DEPTH STEP
~WELL INFORMATION
#MNEM.UNIT      DATA TYPE    INFORMATION
#----------   ------------   ------------------------------
 STRT.F           24.0000:   START DEPTH
 STOP.F          464.0000:   STOP DEPTH
 STEP.F            0.5000:   STEP LENGTH
 NULL.          -999.2500:   NO VALUE
 COMP.    FENIX & SCISSON:   COMPANY
 WELL.       NPR #62-S-10:   WELL
 FLD .             TEAPOT:   FIELD
 LOC .      S10 T38N R78W:   LOCATION
 CNTY.            NATRONA:   COUNTY
 STAT.            WYOMING:   STATE
 CTRY. UNITED STATES OF AMERICA:   COUNTRY
 SRVC.              Welex:   SERVICE COMPANY
 DATE.        12-APR-1977:   LOGDATE
 API .       490251033300:   API NUMBER
~CURVE INFORMATION
#MNEM.UNIT       API CODE    CURVE DESCRIPTION
#----------   ------------   ------------------------------
 DEPT.F                  :   
 SPR .MV     07 010 01 00:   SPONTANEOUS POTENTIAL
 ILD .OHMM   07 120 46 00:   INDUCTION LOG DEEP
 ILM .OHMM   07 120 44 00:   INDUCTION LOG MEDIUM
 SGRD.OHMM   07 221 05 00:   SHALLOW SHORT GUARD RESISTIVITY
 GRD .GAPI   45 310 01 00:   GAMMA RAY FROM DENSITY LOG
 CALD.IN     45 280 60 00:   CALIPER FROM DENSITY LOG
 CORR.G/C3   45 356 01 00:   DENSITY CORRECTION
 RHOB.G/C3   45 350 01 00:   BULK DENSITY
 DPHI.DEC    45 890 12 00:   DENSITY POROSITY SANDSTONE
~PARAMETER INFORMATION
#MNEM.UNIT          VALUE    DESCRIPTION
#----------   ------------   ------------------------------
 PD  .                 GL:   PERMANENT DATUM
 EPD .F              5155:   ELEVATION PERMANENT DATUM
 LMF .                 GL:   LOG MEASURED FROM
 DMF .                 GL:   DRILLING MEASURED FROM
 EGL .F              5155:   GROUND LEVEL
 DATE.        12-APR-1977:   RUN DATE
 RUN .                  1:   RUN NUMBER
 DD  .F               460:   DEPTH DRILLER
 DL  .F               464:   DEPTH LOGGER
 BLI .F               462:   BOTTOM LOG INTERVAL
 TLI .F                30:   TOP LOG INTERVAL
 CS  .IN            8.625:   CASING SIZE
 BS  .IN            7.875:   BIT SIZE
 BSD .F               460:   BIT SIZE AT DEPTH
 DFT .            KCL GEL:   DRILLING FLUID TYPE
 DFD .                8.8:   DRILLING FLUID DENSITY
 TCS .HRS            0100:   TIME CURCULATED STOPPED
 MRT .F                65:   MAXIMUM RECORDED TEMPERATURE
 ENGI.        E. CALLAHAN:   RECORDING ENGINEER
 WITN.            R. LYON:   WITNESSED BY
 CLNT.            A2DTECH:   CLIENT CODE
 ORIG.           5" PRINT:   ORIGIN OF DATA
 UWI .       490251033300:   UNIQUE WELL ID
 DICO. A2D Technologies, Inc.:   DIGITIZING COMPANY
~OTHER INFORMATION
~A   DEPT      SPR        ILD        ILM       SGRD        GRD       CALD       CORR       RHOB       DPHI   
# ...
   60.5000   -28.6104     9.7077    11.3085    13.5948   103.2672     8.1931     0.0356     2.4626     0.1163
   61.0000   -28.7433     9.6455    11.2293    13.9861   102.9965     8.1955     0.0402     2.4701     0.1136
   61.5000   -28.8761     9.5836    11.2461    14.2816   102.8679     8.1974     0.0418     2.4769     0.1103
   62.0000   -29.0085     9.5894    11.1760    13.9906   103.7892     8.1993     0.0449     2.4823     0.1066
   62.5000   -29.1415     9.5940    10.9542    13.3233   105.1531     8.2012     0.0480     2.4853     0.1024
   63.0000   -29.1251     9.5986    10.6623    12.7241   105.7708     8.2032     0.0481     2.4846     0.1000
   63.5000   -29.1088     9.4714    10.3070    12.8214   106.2392     8.2051     0.0482     2.4831     0.1021
   64.0000   -29.0925     9.4759    10.1722    12.7417   107.1553     8.2070     0.0453     2.4794     0.1060
   64.5000   -28.9269     9.4140    10.1793    12.7507   107.3252     8.1939     0.0423     2.4742     0.1102
   65.0000   -28.7612     9.3548    10.2571    12.8481   106.8981     8.1809     0.0409     2.4690     0.1105
   65.5000   -28.5955     9.2948    10.3355    13.0360   105.2770     8.1679     0.0425     2.4653     0.1143
   66.0000   -28.4298     9.2352    10.4867    12.7678   104.1036     8.1698     0.0456     2.4713     0.1110
   66.5000   -28.2488     9.1748    10.5668    12.6977   103.9698     8.1555     0.0472     2.4834     0.1055
   67.0000   -27.9493     9.1160    10.4283    12.7065   103.9956     8.1415     0.0428     2.4804     0.1088
   67.5000   -27.7836     9.0576    10.2204    12.4444   103.8670     8.1307     0.0414     2.4720     0.1139
   68.0000   -27.7672     8.9995    10.7384    12.2069   104.0369     8.1177     0.0385     2.4607     0.1175
   68.5000   -27.8967     8.9418    10.8935    12.9215   108.8336     8.1200     0.0371     2.4496     0.1211
   69.0000   -27.8804     8.8844    10.4510    13.2814   111.0931     8.1220     0.0354     2.4340     0.1262
   69.5000   -27.8641     8.8898    10.3927    12.8049   111.1137     8.1239     0.0327     2.4378     0.1249
   70.0000   -27.8478     8.8940    10.6181    12.0726   111.2836     8.1108     0.0313     2.4453     0.1213
   70.5000   -27.8314     8.8983    10.4739    12.4437   111.9164     8.1127     0.0314     2.4507     0.1195
   71.0000   -27.8151     8.8413    10.6329    12.9677   113.7582     8.0992     0.0300     2.4530     0.1185
   71.5000   -27.7988     8.7240    10.5667    13.7011   115.5702     8.1016     0.0286     2.4538     0.1185
   72.0000   -27.7825     8.6083    10.4135    12.4333   116.4459     8.1035     0.0272     2.4538     0.1185
   72.5000   -27.7661     8.4357    10.0809    12.1984   116.9143     8.1055     0.0273     2.4523     0.1185
   73.0000   -27.9032     8.3228    10.0098    12.0392   117.9797     8.1074     0.0289     2.4501     0.1187
   73.5000   -28.0361     8.2125     9.8784    11.8696   119.1944     8.1093     0.0305     2.4487     0.1199
   74.0000   -28.1690     8.0487     9.5388    11.4488   119.5135     8.1112     0.0321     2.4487     0.1211
   74.5000   -28.2979     7.9969     9.1658    10.7767   119.3849     8.1133     0.0336     2.4510     0.1198
   75.0000   -28.2815     7.8367     8.9830    10.2742   118.2115     8.1152     0.0352     2.4548     0.1183
   75.5000   -28.2652     7.7864     8.9373    10.0234   119.2769     8.1174     0.0368     2.4586     0.1168
   76.0000   -28.2489     7.7902     9.0058    11.0275   118.4021     8.1193     0.0384     2.4662     0.1138
   76.5000   -28.2326     7.7401     9.0244    11.2897   117.5220     8.1212     0.0385     2.4723     0.1105
   77.0000   -28.2162     7.7439     9.1452    11.2975   118.8911     8.1082     0.0370     2.4753     0.1086
   77.5000   -28.0507     7.8014     9.2791    11.3837   120.7028     8.1101     0.0342     2.4777     0.1074
   78.0000   -27.7358     7.8052     9.2855    11.4707   122.5145     8.1120     0.0328     2.4814     0.1062
   78.5000   -27.5703     7.8089     9.2262    11.2136   123.4306     8.1139     0.0344     2.4807     0.1046
   79.0000   -27.4047     7.8127     9.1689    11.2658   123.8990     8.1159     0.0390     2.4823     0.1034
   79.5000   -27.3884     7.8707     9.3693    11.4945   124.5167     8.1023     0.0451     2.4899     0.1013
   80.0000   -27.3720     7.8745     9.5725    11.6642   124.9851     8.1197     0.0481     2.4974     0.0983
   80.5000   -27.3557     7.8784     9.3823    11.9996   123.8045     8.1216     0.0467     2.4967     0.0931
   81.0000   -27.4927     7.8822     9.1943    11.9252   122.9074     8.1085     0.0393     2.4847     0.1000
   81.5000   -27.6257     7.9407     9.2022    11.6079   122.1896     8.1105     0.0259     2.4675     0.1090
   82.0000   -28.0537     7.9997     9.2725    11.3755   121.4907     8.1124     0.0230     2.4645     0.1147
   82.5000   -28.3352     8.0693     9.4082    11.7858   120.9143     8.0993     0.0276     2.4773     0.1102
   83.0000   -28.3189     8.1760     9.6790    11.8758   120.1887     8.1013     0.0337     2.4932     0.1014
   83.5000   -28.4522     8.2367     9.9575    12.2173   119.6123     8.1037     0.0398     2.4985     0.0939
   84.0000   -28.5851     8.2407    10.1032    12.5686   119.1800     8.1056     0.0369     2.4948     0.0930
   84.5000   -28.5684     8.2447    10.1102    13.0197   118.7581     8.1072     0.0339     2.4881     0.0979
   85.0000   -28.7014     8.3059    10.0457    13.3018   118.3258     8.0940     0.0385     2.4836     0.1014
   85.5000   -28.6850     8.3675     9.9850    13.4010   117.7546     8.0964     0.0401     2.4784     0.1040
   86.0000   -28.6687     8.4881     9.9230    12.6034   119.8647     8.0983     0.0325     2.4656     0.1097
   86.5000   -28.6522     8.6702     9.7934    12.1835   118.9899     8.1002     0.0266     2.4528     0.1154
   87.0000   -28.6358     8.8562     9.5988    11.8593   117.5180     8.0867     0.0224     2.4348     0.1226
   87.5000   -28.7690     9.1090     9.4718    11.8675   115.8968     8.0891     0.0225     2.4389     0.1259
   88.0000   -28.7527     9.3689     9.4799    11.7918   112.9324     8.0910     0.0301     2.4571     0.1183
   88.5000   -29.0349     9.3088     9.4865    11.4801   112.6537     8.0929     0.0332     2.4658     0.1132
   89.0000   -29.3170     8.9348     9.6253    11.1727   113.4214     8.0948     0.0303     2.4561     0.1141
   89.5000   -29.4756     8.6953     9.7662    11.5757   114.9346     8.0967     0.0274     2.4471     0.1188
   90.0000   -29.7281     8.3459     9.9780    12.3275   116.0000     8.0987     0.0229     2.4374     0.1251
   90.5000   -29.8651     8.1222    10.3364    12.5946   117.0731     8.1006     0.0185     2.4344     0.1302
   91.0000   -29.9980     8.1261    10.8569    12.5143   117.4000     8.1029     0.0171     2.4374     0.1296
   91.5000   -30.1310     8.1300    11.7236    12.3531   118.9433     8.1198     0.0187     2.4352     0.1278
   92.0000   -30.1105     8.1903    10.2154    12.1057   117.1325     8.1068     0.0248     2.4315     0.1241
   92.5000   -30.2476     8.1943     9.6053    11.8654   118.7949     8.1087     0.0309     2.4444     0.1208
   93.0000   -30.5297     8.1982     9.4128    11.7918   120.6066     8.1106     0.0355     2.4557     0.1178
   93.5000   -30.6627     8.1447     9.4209    12.1020   121.3735     8.1125     0.0401     2.4761     0.1141
   94.0000   -30.6423     7.9823     9.4274    12.3944   121.5434     8.1144     0.0416     2.4867     0.1023
   94.5000   -30.6260     7.8755     9.3672    12.2326   121.5640     8.1163     0.0417     2.4859     0.0984
   95.0000   -30.6096     7.8250     9.3753    12.2411   122.3309     8.1332     0.0403     2.4837     0.0984
   95.5000   -30.5933     7.7748     9.3171    12.0813   120.5605     8.1197     0.0374     2.4808     0.1002
   96.0000   -30.5770     7.7795     9.3235    11.6788   119.9790     8.1221     0.0345     2.4770     0.1026
   96.5000   -30.5607     7.7294     9.3300    10.9817   120.0048     8.1240     0.0316     2.4726     0.1053
