~VERSION INFORMATION
 VERS.                2.0:   CWLS LOG ASCII STANDARD - VERSION 2.0
 WRAP.                 NO:   ONE LINE PER DEPTH STEP
~WELL INFORMATION
#MNEM.UNIT      DATA TYPE    INFORMATION
#----------   ------------   ------------------------------
 STRT.F           66.0000:   START DEPTH
 STOP.F         1030.5000:   STOP DEPTH
 STEP.F            0.5000:   STEP LENGTH
 NULL.          -999.2500:   NO VALUE
 COMP. U S NAVY/INTEX OIL CO:   COMPANY
 WELL.      NRP-3 #68S-11:   WELL
 FLD .             TEAPOT:   FIELD
 LOC .      S11 T38N R78W:   LOCATION
 CNTY.            NATRONA:   COUNTY
 STAT.            WYOMING:   STATE
 CTRY. UNITED STATES OF AMERICA:   COUNTRY
 SRVC.       Schlumberger:   SERVICE COMPANY
 DATE.        07-JUL-1962:   LOGDATE
 API .       490250632700:   API NUMBER
~CURVE INFORMATION
#MNEM.UNIT       API CODE    CURVE DESCRIPTION
#----------   ------------   ------------------------------
 DEPT.F                  :   
 SPR .MV     05 010 01 00:   SPONTANEOUS POTENTIAL FROM RES.
 ASN .OHMM   05 041 16 00:   AMPLIFIED SHORT NORMAL 16"
 ILD .OHMM   05 120 46 00:   INDUCTION LOG DEEP
 CILD.MMHO   05 110 46 00:   CONDUCTIVITY INDUCTION LOG DEEP
 GRN .GAPI   35 310 30 00:   GAMMA RAY
 GR  .GAPI   81 310 01 00:   GAMMA RAY
~PARAMETER INFORMATION
#MNEM.UNIT          VALUE    DESCRIPTION
#----------   ------------   ------------------------------
 LMF .                 KB:   LOG MEASURED FROM
 DMF .                 KB:   DRILLING MEASURED FROM
 EKB .F              5226:   KELLING BUSHING
 EGL .F              5221:   GROUND LEVEL
 DATE.           7-7-1962:   RUN DATE
 RUN .                  1:   RUN NUMBER
 DD  .F              1030:   DEPTH DRILLER
 DL  .F              1031:   DEPTH LOGGER
 BLI .F              1030:   BOTTOM LOG INTERVAL
 TLI .F                90:   TOP LOG INTERVAL
 CBD .F                10:   CASING BOTTOM DRILLER
 BS  .IN             6.75:   BIT SIZE
 BSD .F              1030:   BIT SIZE AT DEPTH
 DFT .            GEL-OIL:   DRILLING FLUID TYPE
 DFD .               10.2:   DRILLING FLUID DENSITY
 DFV .                 50:   DRILLING FLUID VISCOSITY
 DFL .                3.6:   DRILLING FLUID LOSS
 RMS .OHMM           5.06:   RESISTIVITY MUD SAMPLE
 MST .F                71:   MUD SAMPLE TEMPERATURE
 RMF .OHMM           4.89:   RESISTIVITY MUD FILTRATE SAMPLE
 MFST.F                71:   MUD FILTRATE SAMPLE TEMPERATURE
 RMC .OHMM           4.85:   RESISTIVITY MUD CAKE
 MCST.F                71:   MUD CAKE SAMPLE TEMPERATURE
 MFSS.                  M:   MUD FILTRATE SAMPLE SOURCE
 MCSS.                  M:   MUD CAKE SAMPLE SOURCE
 RMB .OHMM           4.54:   RESISTIVITY MUD AT BHT
 BHT .F                82:   BOTTOM HOLE TEMPERATURE
 TCS .HRS               1:   TIME CURCULATED STOPPED
 MRT .F                82:   MAXIMUM RECORDED TEMPERATURE
 LUN .               2503:   LOGGING UNIT NUMBER
 LUL .              CSPR.:   LOGGING UNIT LOCATION
 ENGI.             KNOBEL:   RECORDING ENGINEER
 WITN.          JORGENSEN:   WITNESSED BY
 CLNT.            A2DTECH:   CLIENT CODE
 ORIG.      2" & 5" PRINT:   ORIGIN OF DATA
 UWI .       490250632700:   UNIQUE WELL ID
 DICO. A2D Technologies, Inc.:   DIGITIZING COMPANY
~OTHER INFORMATION
~A   DEPT      SPR        ASN        ILD       CILD        GRN          GR  
# ...
  742.0000   -32.1973     8.0556     7.8176   136.5089  -999.2500   118.0848
  742.5000   -32.3225     8.0430     7.7828   138.1737  -999.2500   122.2810
  743.0000   -32.0661     7.9624     7.7479   139.8427  -999.2500   120.9462
  743.5000   -31.8130     7.8715     7.7130   141.5108  -999.2500   118.2172
  744.0000   -31.5583     7.7806     7.6778   143.0863  -999.2500   120.2191
  744.5000   -31.3040     7.6907     7.6417   142.6492  -999.2500   123.2143
  745.0000   -31.0497     7.6857     7.6875   142.1367  -999.2500   123.5350
  745.5000   -30.7953     7.7866     7.7451   141.6241  -999.2500   119.7915
  746.0000   -30.5392     7.8864     7.8030   141.1115  -999.2500   116.9610
  746.5000   -30.2808     7.9787     7.8606   140.5989  -999.2500   118.2585
  747.0000   -30.4484     7.9979     7.9194   140.0863  -999.2500   119.1764
  747.5000   -30.6845     7.9830     7.9165   139.5737  -999.2500   114.5029
  748.0000   -31.3167     7.9282     7.8879   139.1040  -999.2500   112.2183
  748.5000   -31.9294     7.8700     7.8582   139.1040  -999.2500   111.1201
  749.0000   -32.0512     7.8114     7.8232   139.1040  -999.2500   109.9424
  749.5000   -31.6609     7.7668     7.7653   139.1040  -999.2500   106.6922
  750.0000   -31.2705     7.8727     7.7151   139.1040  -999.2500   104.2939
  750.5000   -30.8761     7.8500     7.6694   139.1040  -999.2500   110.0625
  751.0000   -31.1965     7.7593     7.6239   139.8823  -999.2500   118.2121
  751.5000   -31.5812     7.6536     7.5783   141.4029  -999.2500   121.9451
  752.0000   -31.9652     7.6226     7.5327   142.9234  -999.2500   124.9681
  752.5000   -32.3615     7.5894     7.4871   144.4439  -999.2500   123.4603
  753.0000   -32.2983     7.5560     7.4415   145.9644  -999.2500   122.5386
  753.5000   -32.1126     7.5222     7.3959   147.4849  -999.2500   125.2183
  754.0000   -31.9236     7.4622     7.3503   149.0597  -999.2500   127.9166
  754.5000   -31.7354     7.3521     7.3045   149.4319  -999.2500   127.3017
  755.0000   -31.5476     7.2500     7.2601   149.8179  -999.2500   124.1383
  755.5000   -31.3600     7.1912     7.1138   152.0940  -999.2500   120.8461
  756.0000   -31.2049     7.1312     6.8998   157.3905  -999.2500   121.8898
  756.5000   -31.0980     7.0645     6.6847   162.6870  -999.2500   124.8748
  757.0000   -30.9906     6.9585     6.4680   167.9834  -999.2500   123.5556
  757.5000   -30.8832     6.7242     6.1869   173.2799  -999.2500   119.7242
  758.0000   -30.7755     6.4871     5.8069   178.5763  -999.2500   116.7374
  758.5000   -30.6683     6.3039     5.6660   183.8728  -999.2500   121.8431
  759.0000   -30.6527     6.1334     5.5413   188.0607  -999.2500   127.3870
  759.5000   -30.6435     6.0576     5.4188   188.7775  -999.2500   128.8817
  760.0000   -31.0295     5.9996     5.4563   189.4943  -999.2500   123.2350
  760.5000   -31.4521     6.0002     5.6970   187.5487  -999.2500   120.6672
  761.0000   -31.8749     6.0733     5.9349   182.5488  -999.2500   123.4173
  761.5000   -32.2779     6.2398     6.1743   177.5174  -999.2500   125.2624
  762.0000   -32.4692     6.5169     6.4044   172.4956  -999.2500   124.1092
  762.5000   -32.6693     6.7661     6.6387   167.4779  -999.2500   125.8839
  763.0000   -32.8693     6.8281     6.8527   162.4602  -999.2500   131.4202
  763.5000   -33.0282     6.8844     6.8902   157.4425  -999.2500   138.4531
  764.0000   -32.9465     6.9380     6.9324   154.1637  -999.2500   134.8011
  764.5000   -32.8686     6.9817     6.9755   152.4911  -999.2500   129.1186
  765.0000   -32.7911     7.0257     7.0185   152.0465  -999.2500   125.0488
  765.5000   -32.7125     7.0642     7.0617   152.0465  -999.2500   121.3218
  766.0000   -32.6485     7.0633     7.1046   152.0465  -999.2500   119.2571
  766.5000   -32.8640     7.0574     7.1342   152.0465  -999.2500   117.8901
  767.0000   -33.0883     7.0195     7.0852   152.0465  -999.2500   119.1044
  767.5000   -33.3113     6.9819     7.0374   153.2495  -999.2500   121.0001
  768.0000   -33.5340     6.9430     6.9905   155.3401  -999.2500   123.0005
  768.5000   -33.7568     6.8748     6.9359   157.7677  -999.2500   122.3898
  769.0000   -33.9813     6.8024     6.7019   161.5907  -999.2500   120.2755
  769.5000   -34.2081     6.6774     6.4594   165.4137  -999.2500   116.6453
  770.0000   -33.9986     6.5084     6.2178   169.2367  -999.2500   112.9442
  770.5000   -33.7416     6.3068     5.9762   172.9535  -999.2500   112.2419
  771.0000   -33.4835     6.2342     5.7292   181.1189  -999.2500   115.9178
  771.5000   -33.2265     6.1621     5.4792   189.0636  -999.2500   119.6404
  772.0000   -32.9695     6.0001     5.0876   200.5813  -999.2500   123.3022
  772.5000   -32.7120     5.7845     4.7003   214.0498  -999.2500   123.7862
  773.0000   -32.4555     5.5107     4.3116   227.5184  -999.2500   124.1021
  773.5000   -32.2325     5.2378     3.9588   240.9957  -999.2500   124.9503
  774.0000   -32.2128     5.0591     3.9528   246.1932  -999.2500   126.1204
  774.5000   -32.1890     4.9182     3.9541   250.2479  -999.2500   126.0126
  775.0000   -32.1646     4.6056     3.9540   246.7599  -999.2500   119.6554
  775.5000   -32.1402     4.4957     3.9562   242.5333  -999.2500   113.3882
  776.0000   -32.1157     4.9179     4.0904   238.6384  -999.2500   107.4962
  776.5000   -32.0911     5.4302     4.5478   224.8628  -999.2500   107.0244
  777.0000   -32.0658     5.7350     4.9995   209.8097  -999.2500   108.5733
  777.5000   -32.0496     5.9560     5.4476   194.7566  -999.2500   110.0827
  778.0000   -32.1804     6.1613     5.8305   182.6590  -999.2500   112.4741
  778.5000   -32.3128     6.3135     6.0637   173.1904  -999.2500   116.1155
  779.0000   -32.4444     6.4552     6.3012   168.1694  -999.2500   119.7776
  779.5000   -32.5758     6.5827     6.5383   164.4285  -999.2500   121.0014
  780.0000   -32.7072     6.6970     6.7066   160.7117  -999.2500   120.7410
  780.5000   -32.8386     6.8226     6.8737   156.9948  -999.2500   120.4369
  781.0000   -32.9700     6.9398     7.0378   153.2780  -999.2500   120.7581
  781.5000   -33.1014     7.0161     7.1113   150.6487  -999.2500   123.2696
  782.0000   -33.2328     7.0928     7.1808   149.6451  -999.2500   125.6974
  782.5000   -33.3643     7.1973     7.2507   148.6397  -999.2500   127.9053
  783.0000   -33.4961     7.3179     7.3207   147.6379   105.2586   126.4661
  783.5000   -33.6213     7.3876     7.3907   146.6338   105.3491   124.8561
  784.0000   -33.8305     7.4301     7.4608   145.6329   105.6607   123.5397
  784.5000   -34.0859     7.4814     7.5308   144.7333   113.5216   124.9231
  785.0000   -34.3431     7.5730     7.6006   143.9766   116.2144   126.2880
  785.5000   -34.6001     7.6409     7.6385   143.2160   112.8970   127.7106
  786.0000   -34.8571     7.6799     7.6382   142.4557   108.5602   129.3122
  786.5000   -35.1144     7.6805     7.6383   141.6955   114.6519   130.9404
  787.0000   -35.3722     7.6802     7.6382   140.9352   118.4270   132.0919
  787.5000   -35.6100     7.6801     7.6361   140.0996   117.2979   130.0397
  788.0000   -35.6208     7.6871     7.6271   140.4077   115.7994   125.3619
  788.5000   -35.3528     7.7468     7.6184   140.7498   122.3837   119.7157
  789.0000   -34.9665     7.8040     7.6097   141.0920   123.2952   120.1183
  789.5000   -34.5754     7.8227     7.6011   141.4341   116.4670   122.5667
  790.0000   -34.2342     7.8276     7.5924   141.7762   109.1957   124.6570
  790.5000   -34.3458     7.7339     7.5838   142.1183   107.7706   124.4567
  791.0000   -34.4595     7.6403     7.5751   142.4604   106.0798   124.3029
  791.5000   -34.5714     7.5471     7.5665   142.8025   111.3268   127.0260
  792.0000   -34.6838     7.4540     7.5579   142.9721   108.1226   127.5658
  792.5000   -34.8076     7.3606     7.5495   142.3031   103.1028   124.5925
  793.0000   -34.3749     7.2833     7.5429   141.6341   102.3108   120.5289
  793.5000   -33.7850     7.2173     7.4353   141.4203   106.9862   118.4605
