~VERSION INFORMATION
 VERS.                2.0:   CWLS LOG ASCII STANDARD - VERSION 2.0
 WRAP.                 NO:   ONE LINE PER DEPTH STEP
~WELL INFORMATION
#MNEM.UNIT      DATA TYPE    INFORMATION
#----------   ------------   ------------------------------
 STRT.F            0.0000:   START DEPTH
 STOP.F          539.0000:   STOP DEPTH
 STEP.F            0.5000:   STEP LENGTH
 NULL.          -999.2500:   NO VALUE
 COMP. FENIX & SCISSON INC:   COMPANY
 WELL.     NPR 3 SX #23-3:   WELL
 FLD .             TEAPOT:   FIELD
 LOC .       S3 T38N R78W:   LOCATION
 CNTY.            NATRONA:   COUNTY
 STAT.            WYOMING:   STATE
 CTRY. UNITED STATES OF AMERICA:   COUNTRY
 SRVC.           BIRDWELL:   SERVICE COMPANY
 DATE.        27-JUL-1978:   LOGDATE
 API .       490251067500:   API NUMBER
~CURVE INFORMATION
#MNEM.UNIT       API CODE    CURVE DESCRIPTION
#----------   ------------   ------------------------------
 DEPT.F                  :   
 ILD .OHMM   05 120 40 00:   INDUCTION LOG DEEP
 SPR .MV     05 010 01 00:   SPONTANEOUS POTENTIAL
 SN  .OHMM   05 040 16 00:   SHORT NORMAL 16"
 CALD.IN     45 280 60 00:   CALIPER FROM DENSITY LOG
 CORR.G/C3   45 356 01 00:   DENSITY CORRECTION
 DPHI.DEC    45 890 12 00:   DENSITY POROSITY SANDSTONE
 GRD .GAPI   45 310 01 00:   GAMMA RAY FROM DENSITY LOG
 RHOB.G/C3   45 350 01 00:   BULK DENSITY
~PARAMETER INFORMATION
#MNEM.UNIT          VALUE    DESCRIPTION
#----------   ------------   ------------------------------
 PD  .                 GL:   PERMANENT DATUM
 EPD .F              5787:   ELEVATION PERMANENT DATUM
 LMF .                 KB:   LOG MEASURED FROM
 DAPD.F                 4:   FEET ABOVE PERMANENT DATUM
 DMF .                 KB:   DRILLING MEASURED FROM
 EKB .F              5191:   KELLING BUSHING
 EGL .F              5187:   GROUND LEVEL
 DATE.         7-JUL-1978:   RUN DATE
 RUN .                  1:   RUN NUMBER
 DD  .F               540:   DEPTH DRILLER
 DL  .F               540:   DEPTH LOGGER
 BLI .F               539:   BOTTOM LOG INTERVAL
 CS  .IN            8.625:   CASING SIZE
 CBD .F                40:   CASING BOTTOM DRILLER
 BS  .IN            7.875:   BIT SIZE
 BSD .F               540:   BIT SIZE AT DEPTH
 DFT .                KCL:   DRILLING FLUID TYPE
 DFD .                8.6:   DRILLING FLUID DENSITY
 DFV .                 30:   DRILLING FLUID VISCOSITY
 DFPH.                  9:   DRILLING FLUID PH
 MSS .           FLOWLINE:   MUD SAMPLE SOURCE
 MRT .F                74:   MAXIMUM RECORDED TEMPERATURE
 LUN .               2958:   LOGGING UNIT NUMBER
 LUL .               CASP:   LOGGING UNIT LOCATION
 ENGI.            POINTER:   RECORDING ENGINEER
 WITN.              AMEND:   WITNESSED BY
 CLNT.            A2DTECH:   CLIENT CODE
 ORIG.           5" PRINT:   ORIGIN OF DATA
 UWI .       490251067500:   UNIQUE WELL ID
 DICO. A2D Technologies, Inc.:   DIGITIZING COMPANY
~OTHER INFORMATION
~A    DEPT     ILD        SPR         SN         CALD     CORR       DPHI         GRD      RHOB   
# ...
  243.0000     5.3928   -31.2679     5.5533     8.0249     0.0821     0.1876    77.1377     2.3782
  243.5000     4.5759   -31.7001     5.0259     8.0236     0.0873     0.2053    76.5200     2.3610
  244.0000     4.2161   -31.6887     4.5075     8.0223     0.0883     0.2182    76.3568     2.3122
  244.5000     3.5582   -31.6774     4.1549     8.0210     0.0938     0.2368    76.4967     2.2822
  245.0000     3.0359   -31.6660     3.7263     8.0801     0.0997     0.2468    78.1616     2.2604
  245.5000     2.7590   -31.0594     3.4099     8.1392     0.1056     0.2603    77.0765     2.2102
  246.0000     2.6489   -30.4528     3.0812     8.1983     0.1115     0.2657    74.0346     2.1881
  246.5000     2.6501   -32.2271     2.9996     8.3024     0.1174     0.2645    71.2956     2.1831
  247.0000     2.6332   -32.5134     3.0026     8.3317     0.1250     0.2540    67.3446     2.1801
  247.5000     2.6164   -31.0111     3.0049     8.2092     0.0992     0.2309    65.5148     2.1801
  248.0000     2.6179   -31.2974     3.0698     8.1323     0.0722     0.1884    65.5031     2.2370
  248.5000     2.7480   -32.4906     3.1871     8.1458     0.0601     0.1653    67.3067     2.3269
  249.0000     3.1108   -32.1646     3.4552     8.1901     0.0511     0.1539    70.6284     2.3722
  249.5000     3.6081   -31.4092     3.7543     8.2187     0.0510     0.1387    74.5561     2.4078
  250.0000     4.0697   -30.5050     4.3388     8.2480     0.0494     0.1183    78.6354     2.4348
  250.5000     4.4821   -30.3448     5.1536     8.2916     0.0508     0.1183    79.9874     2.4707
  251.0000     5.0047   -30.6448     5.8375     8.3054     0.0507     0.1207    80.7333     2.4774
  251.5000     5.2534   -30.9173     6.1697     8.3041     0.0551     0.1232    80.3008     2.4707
  252.0000     5.6062   -30.9031     6.3461     8.3176     0.0565     0.1253    79.8496     2.4587
  252.5000     6.0325   -30.2965     6.5276     8.3028     0.0564     0.1247    79.6992     2.4540
  253.0000     6.0768   -30.2852     6.6229     8.3017     0.0563     0.1232    79.6992     2.4503
  253.5000     6.1636   -29.9750     6.6737     8.3007     0.0503     0.1220    79.7604     2.4526
  254.0000     6.1664   -30.2613     6.6791     8.3299     0.0438     0.1211    80.0000     2.4630
  254.5000     6.2160   -30.2500     6.6855     8.3589     0.0377     0.1221    80.1504     2.4705
  255.0000     6.0508   -30.2359     6.6908     8.3579     0.0301     0.1239    80.3008     2.4705
  255.5000     5.9704   -30.5223     6.6503     8.3568     0.0210     0.1329    81.5098     2.4644
  256.0000     5.7343   -30.5110     6.5201     8.3558     0.0134     0.1521    83.3083     2.4550
  256.5000     5.5648   -30.3509     6.2196     8.3548     0.0086     0.1667    84.5113     2.4374
  257.0000     5.2865   -30.1905     5.7342     8.3538     0.0071     0.1895    85.1128     2.4044
  257.5000     5.0758   -30.3255     5.2857     8.3679     0.0668     0.2006    85.2632     2.3115
  258.0000     4.8020   -30.7635     5.0768     8.3666     0.0787     0.1982    84.5113     2.3010
  258.5000     4.5847   -31.3475     4.9774     8.3505     0.0426     0.1863    83.0075     2.3055
  259.0000     4.4020   -32.2292     4.8799     8.4401     0.0140     0.1626    80.8461     2.3572
  259.5000     4.3736   -32.5126     4.8839     9.4512     0.0124     0.1483    79.0977     2.3900
  260.0000     4.3765   -32.4985     4.8886     8.3321     0.0243     0.1341    78.1955     2.4133
  260.5000     4.5007   -32.0408     5.0284     8.3009     0.0361     0.1299    77.8947     2.4253
  261.0000     4.7577   -31.8807     5.3159     8.3152     0.0359     0.1264    78.3459     2.4328
  261.5000     5.0984   -31.2738     5.6199     8.3140     0.0358     0.1228    78.4962     2.4380
  262.0000     5.5771   -30.9625     5.9496     8.3281     0.0357     0.1201    78.4962     2.4462
  262.5000     6.1007   -30.6536     6.4569     8.3422     0.0356     0.1192    78.4962     2.4545
  263.0000     6.7204   -30.0471     6.7795     8.3409     0.0384     0.1193    78.4962     2.4634
  263.5000     7.0065   -29.4405     7.0213     8.3545     0.0383     0.1210    78.4962     2.4672
  264.0000     7.2053   -29.4265     7.4229     8.3842     0.0366     0.1222    78.9474     2.4671
  264.5000     7.2091   -29.3812     7.6351     8.3985     0.0350     0.1216    79.6992     2.4641
  265.0000     7.2129   -29.2551     7.7481     8.3973     0.0349     0.1211    80.9023     2.4611
  265.5000     7.2175   -29.3929     7.7542     8.3962     0.0332     0.1196    81.5038     2.4558
  266.0000     7.0257   -29.4874     7.7603     8.3950     0.0286     0.1183    81.5038     2.4550
  266.5000     6.9813   -29.9625     7.7664     8.3940     0.0255     0.1178    81.6541     2.4565
  267.0000     6.8897   -29.9512     7.6666     8.3930     0.0223     0.1181    82.1053     2.4603
  267.5000     6.8462   -30.2404     7.7595     8.3920     0.0252     0.1193    82.7068     2.4640
  268.0000     6.7110   -30.5239     7.5550     8.3909     0.0281     0.1220    83.6090     2.4542
  268.5000     6.6682   -30.8074     7.3573     8.3897     0.0294     0.1253    83.7594     2.4481
  269.0000     6.5811   -31.0966     7.2054     8.3887     0.0338     0.1278    83.7353     2.4452
  269.5000     6.4948   -31.0825     7.0723     8.3877     0.0336     0.1269    83.0075     2.4451
  270.0000     6.3222   -31.3690     6.9798     8.3866     0.0335     0.1257    82.2556     2.4459
  270.5000     6.1550   -31.5064     6.7959     8.3856     0.0304     0.1254    82.1053     2.4459
  271.0000     5.9907   -31.4923     6.5666     8.3846     0.0273     0.1248    82.1053     2.4488
  271.5000     5.6743   -31.3322     6.2706     8.3833     0.0211     0.1254    82.1053     2.4488
  272.0000     5.2626   -31.3209     6.1043     8.3823     0.0210     0.1279    82.1053     2.4473
  272.5000     5.0895   -31.1607     5.9445     8.3813     0.0253     0.1482    82.5564     2.4323
  273.0000     4.9891   -30.9980     5.8678     8.3803     0.0327     0.1602    82.7068     2.3985
  273.5000     4.9569   -30.9867     5.7921     8.4095     0.0505     0.1605    83.3083     2.3820
  274.0000     4.9601   -30.6778     5.7972     8.4453     0.0384     0.1566    83.9098     2.3872
  274.5000     4.9628   -30.3689     5.8654     8.6187     0.0293     0.1438    83.6551     2.4225
  275.0000     5.1041   -30.3548     5.9669     8.5875     0.0292     0.1315    82.7068     2.4434
  275.5000     5.1420   -30.3435     6.1371     8.4807     0.0321     0.1249    82.4060     2.4576
  276.0000     5.3979   -30.3322     6.4004     8.4344     0.0349     0.1279    82.7068     2.4591
  276.5000     5.8242   -30.3210     6.6738     8.4334     0.0378     0.1267    83.4586     2.4516
  277.0000     6.6397   -30.3095     7.0067     8.4626     0.0416     0.1243    84.6617     2.4486
  277.5000     6.8751   -29.9980     7.2066     8.4915     0.0447     0.1255    85.7143     2.4478
  278.0000     6.9260   -29.6891     7.3126     8.4904     0.0493     0.1268    86.3158     2.4485
  278.5000     7.1225   -29.6778     7.3681     8.5134     0.0492     0.1229    86.3158     2.4522
  279.0000     7.1263   -29.2201     7.4241     8.5187     0.0520     0.1178    86.3158     2.4575
  279.5000     7.1800   -29.0572     7.4294     8.5177     0.0549     0.1235    86.3158     2.4604
  280.0000     7.1837   -29.3435     7.4859     8.5248     0.0548     0.1256    86.3158     2.4574
  280.5000     7.1374   -29.6327     7.4925     8.5340     0.0561     0.1256    85.1128     2.4529
  281.0000     7.1421   -29.9162     7.4979     8.5447     0.0590     0.1244    84.5113     2.4514
  281.5000     7.1459   -30.2026     7.5032     8.5436     0.0589     0.1223    83.9098     2.4514
  282.0000     7.1504   -30.3373     7.5602     8.5426     0.0587     0.1185    83.7153     2.4543
  282.5000     7.1542   -30.1772     7.5669     8.5415     0.0541     0.1167    83.3083     2.4603
  283.0000     7.1579   -30.1659     7.5724     8.5403     0.0480     0.1170    83.6090     2.4633
