~VERSION INFORMATION
 VERS.                2.0:   CWLS LOG ASCII STANDARD - VERSION 2.0
 WRAP.                 NO:   ONE LINE PER DEPTH STEP
~WELL INFORMATION
#MNEM.UNIT      DATA TYPE    INFORMATION
#----------   ------------   ------------------------------
 STRT.F           20.0000:   START DEPTH
 STOP.F          744.0000:   STOP DEPTH
 STEP.F            0.5000:   STEP LENGTH
 NULL.          -999.2500:   NO VALUE
 COMP. FENIX & SCISSON INCORP.:   COMPANY
 WELL.          SX #53-15:   WELL
 FLD .             TEAPOT:   FIELD
 LOC .      S15 T38N R78W:   LOCATION
 CNTY.            NATRONA:   COUNTY
 STAT.            WYOMING:   STATE
 CTRY. UNITED STATES OF AMERICA:   COUNTRY
 SRVC.              Welex:   SERVICE COMPANY
 DATE.        02-MAR-1977:   LOGDATE
 API .       490251030000:   API NUMBER
~CURVE INFORMATION
#MNEM.UNIT       API CODE    CURVE DESCRIPTION
#----------   ------------   ------------------------------
 DEPT.F                  :   
 SGRD.OHMM   07 220 05 00:   SHALLOW RESISTIVITY
 ILD .OHMM   07 120 46 00:   INDUCTION LOG DEEP
 ILM .OHMM   07 120 44 00:   INDUCTION LOG MEDIUM
 SPR .MV     07 010 01 00:   SPONTANEOUS POTENTIAL
 GRD .GAPI   45 310 01 00:   GAMMA RAY FROM DENSITY LOG
 CALD.IN     45 280 60 00:   CALIPER
 RHOB.G/C3   45 350 01 00:   BULK DENSITY
 DPHI.DEC    45 890 10 00:   DENSITY POROSITY SANDSTONE
 CORR.G/C3   45 356 01 00:   DENSITY CORRECTION
~PARAMETER INFORMATION
#MNEM.UNIT          VALUE    DESCRIPTION
#----------   ------------   ------------------------------
 PD  .                 GL:   PERMANENT DATUM
 EPD .F              5253:   ELEVATION PERMANENT DATUM
 LMF .                 GL:   LOG MEASURED FROM
 DMF .                 GL:   DRILLING MEASURED FROM
 EGL .F              5253:   GROUND LEVEL
 DATE.             3-2-77:   RUN DATE
 RUN .                  1:   RUN NUMBER
 DD  .F               750:   DEPTH DRILLER
 DL  .F               747:   DEPTH LOGGER
 BLI .F               745:   BOTTOM LOG INTERVAL
 TLI .F                44:   TOP LOG INTERVAL
 CS  .IN            8.625:   CASING SIZE
 CBD .F                40:   CASING BOTTOM DRILLER
 CBL .F                44:   CASING BOTTOM LOGGER
 BS  .IN            7.875:   BIT SIZE
 BSD .F               750:   BIT SIZE AT DEPTH
 DFT .           CHEM-GEL:   DRILLING FLUID TYPE
 MSS .          FLOW LINE:   MUD SAMPLE SOURCE
 RMS .OHMM           .425:   RESISTIVITY MUD SAMPLE
 MST .F                56:   MUD SAMPLE TEMPERATURE
 RMF .OHMM           .436:   RESISTIVITY MUD FILTRATE SAMPLE
 MFST.F                56:   MUD FILTRATE SAMPLE TEMPERATURE
 RMC .OHMM           .712:   RESISTIVITY MUD CAKE
 MCST.F                56:   MUD CAKE SAMPLE TEMPERATURE
 MFSS.           MEASURED:   MUD FILTRATE SAMPLE SOURCE
 MCSS.           MEASURED:   MUD CAKE SAMPLE SOURCE
 RMB .OHMM            .35:   RESISTIVITY MUD AT BHT
 BHT .F                68:   BOTTOM HOLE TEMPERATURE
 TCS .HRS               2:   TIME CURCULATED STOPPED
 MRT .F                68:   MAXIMUM RECORDED TEMPERATURE
 LUN .               8611:   LOGGING UNIT NUMBER
 LUL .           GILLETTE:   LOGGING UNIT LOCATION
 ENGI.          D. LAWSON:   RECORDING ENGINEER
 WITN.           S. BURKE:   WITNESSED BY
 CLNT.            A2DTECH:   CLIENT CODE
 ORIG.        2" 5" PRINT:   ORIGIN OF DATA
 UWI .       490251030000:   UNIQUE WELL ID
 DICO. A2D Technologies, Inc.:   DIGITIZING COMPANY
~OTHER INFORMATION
~A   DEPT     SGRD        ILD        ILM        SPR         GRD      CALD         RHOB       DPHI      CORR  
# ...
  677.0000    15.4669    11.2921    13.6744   -21.9314   105.3885     8.3640     2.4253     0.1278     0.0579
  677.5000    15.2371    11.2037    13.7731   -21.9156   106.8004     8.3678     2.4241     0.1263     0.0579
  678.0000    15.0106    11.0769    13.2571   -21.8997   107.6771     8.3717     2.4231     0.1279     0.0579
  678.5000    14.7875    10.9515    12.8200   -21.8839   105.3018     8.3756     2.4230     0.1287     0.0579
  679.0000    14.6479    10.8275    12.3973   -21.8681   103.1372     8.3795     2.4250     0.1279     0.0579
  679.5000    14.5726    10.7049    12.2188   -21.8522   103.0957     8.3835     2.4266     0.1270     0.0579
  680.0000    14.4976    10.5837    12.2188   -21.8364   104.9771     8.3870     2.4261     0.1262     0.0579
  680.5000    14.4230    10.4639    12.2188   -21.8205   106.5986     8.3807     2.4239     0.1275     0.0579
  681.0000    14.3488    10.3454    12.2188   -21.8047   106.7501     8.3443     2.4217     0.1289     0.0586
  681.5000    14.2230    10.2283    11.8013   -21.7889   107.3689     8.3091     2.4236     0.1267     0.0602
  682.0000    13.8967    10.1121    11.1360   -21.7730   109.6632     8.2901     2.4302     0.1241     0.0618
  682.5000    13.5778    10.0036    10.5082   -21.7572   111.8565     8.3127     2.4369     0.1216     0.0633
  683.0000    13.2663     9.3744    10.0279   -21.7413   113.1516     8.3391     2.4433     0.1190     0.0649
  683.5000    12.9619     8.6920     9.7163   -21.7255   116.0453     8.3656     2.4479     0.1164     0.0664
  684.0000    12.6646     8.0580     9.4144   -21.7096   118.9995     8.3701     2.4520     0.1150     0.0680
  684.5000    12.3195     7.4995     9.1219   -21.6938   117.2561     8.3703     2.4459     0.1206     0.0696
  685.0000    11.9550     7.1143     8.8384   -21.6780   115.9141     8.3699     2.4352     0.1252     0.0696
  685.5000    11.6012     6.7664     7.7838   -21.6621   118.6837     8.3502     2.4245     0.1298     0.0692
  686.0000    10.5770     6.4356     6.1397   -21.6463   121.8873     8.2403     2.4233     0.1345     0.0688
  686.5000     8.1637     6.1206     5.3899   -21.6304   126.3336     8.1344     2.4260     0.1318     0.0685
  687.0000     6.3140     5.8458     5.0937   -21.6146   129.3368     8.1769     2.4156     0.1380     0.0681
  687.5000     4.5317     5.7414     5.8107   -21.5987   131.2224     8.2273     2.4048     0.1444     0.0678
  688.0000     7.7207     6.0382     6.4395   -21.5829   130.6718     8.2782     2.4004     0.1485     0.0688
  688.5000    13.6468     6.3854     7.1012   -21.5671   121.6375     8.2898     2.4326     0.1315     0.0699
  689.0000    13.7731     6.7526     7.8003   -21.5512   112.1979     8.2901     2.4579     0.1164     0.0711
  689.5000    13.8019     7.1409     8.5596   -21.5354   110.4056     8.2900     2.4636     0.1082     0.0723
  690.0000    13.8332     7.5516     9.3848   -21.5195   110.9623     8.2901     2.4633     0.1080     0.0735
  690.5000    13.8646     7.9859     9.8003   -21.5037   111.7281     8.3027     2.4670     0.1078     0.0747
  691.0000    13.8960     8.4451     9.7715   -21.4879   111.2865     8.3169     2.4711     0.1045     0.0759
  691.5000    13.9275     8.9308     9.7064   -21.4720   110.7117     8.3298     2.4753     0.1018     0.0771
  692.0000    13.9590     9.4014    10.0168   -21.4562   111.6208     8.3301     2.4795     0.1011     0.0783
  692.5000    13.9907     9.6794    10.5977   -21.4403   114.1124     8.3300     2.4811     0.0993     0.0795
  693.0000    14.0224     9.9657    11.2092   -21.4245   116.3600     8.3302     2.4827     0.0973     0.0807
  693.5000    14.1323    10.2604    11.8559   -21.4086   115.5134     8.3230     2.4839     0.0981     0.0818
  694.0000    14.6164    10.5639    12.5399   -21.3928   114.5684     8.3149     2.4791     0.1014     0.0809
  694.5000    15.2101    10.8764    13.1604   -21.3770   115.0179     8.3067     2.4741     0.1048     0.0797
  695.0000    15.8125    11.1980    13.4937   -21.3611   115.7359     8.2989     2.4706     0.1082     0.0786
  695.5000    15.8731    11.5292    13.6468   -21.3453   115.5306     8.2875     2.4689     0.1069     0.0774
  696.0000    15.9280    11.8702    13.1302   -21.3294   115.2307     8.1807     2.4761     0.1006     0.0762
  696.5000    16.2157    11.9958    12.6428   -21.3136   115.7799     8.0985     2.4893     0.0925     0.0751
  697.0000    16.8119    11.9958    12.1068   -21.2978   115.9762     8.0700     2.4962     0.0929     0.0739
  697.5000    17.0252    11.9969    12.7844   -21.2819   114.2049     8.0404     2.4981     0.0960     0.0727
  698.0000    17.0242    11.9937    13.4953   -21.2661   112.5602     8.0116     2.4968     0.0991     0.0716
  698.5000    17.0200    12.2943    13.8689   -21.2500   116.0310     8.0468     2.4878     0.1022     0.0704
  699.0000    17.0228    12.5036    14.2550   -21.2451   118.7271     8.0892     2.4784     0.1052     0.0698
  699.5000    17.5099    12.7158    14.6404   -21.2450   117.1255     8.1655     2.4688     0.1083     0.0696
  700.0000    17.8469    12.9315    15.3844   -21.2451   113.8066     8.2473     2.4587     0.1114     0.0694
  700.5000    18.1568    13.1510    16.1076   -21.2451   111.1198     8.2897     2.4484     0.1147     0.0692
  701.0000    18.0955    13.3741    16.1076   -21.2451   110.4017     8.3070     2.4452     0.1181     0.0690
  701.5000    18.0098    13.4589    16.1076   -21.2451   110.4187     8.3048     2.4452     0.1177     0.0688
  702.0000    17.9855    13.5476    16.1076   -21.2451   110.4360     8.2969     2.4488     0.1151     0.0686
  702.5000    18.9739    13.6368    16.1076   -21.2451   108.9387     8.2888     2.4565     0.1124     0.0684
  703.0000    19.9387    13.7266    15.9766   -21.2451   106.4903     8.2808     2.4642     0.1098     0.0682
  703.5000    20.8463    13.7722    15.8311   -21.2451   104.0168     8.2728     2.4671     0.1074     0.0680
  704.0000    19.6926    13.5534    15.6724   -21.2451   101.5449     8.2647     2.4653     0.1093     0.0689
  704.5000    18.6852    13.4064    16.1682   -21.2451    99.0790     8.2567     2.4635     0.1115     0.0708
  705.0000    17.9900    13.2615    16.7460   -21.2451    97.3255     8.2487     2.4624     0.1106     0.0728
  705.5000    17.9900    13.1182    17.1803   -21.2451    96.6147     8.2407     2.4694     0.1082     0.0747
  706.0000    17.3118    12.9765    16.3758   -21.2451    98.2289     8.2327     2.4802     0.1021     0.0767
  706.5000    16.8654    12.8364    15.7717   -21.2451   101.9405     8.2245     2.4930     0.0952     0.0786
  707.0000    16.9686    12.6977    15.1897   -21.2451   105.6434     8.2168     2.5047     0.0883     0.0805
  707.5000    17.0718    12.5606    14.5556   -21.2451   109.3481     8.2207     2.5063     0.0822     0.0825
  708.0000    17.1489    12.4249    14.5970   -21.2451   112.1955     8.2887     2.5060     0.0823     0.0844
  708.5000    18.9914    12.2907    14.6450   -21.2451   111.9119     8.3563     2.4885     0.0989     0.0859
  709.0000    17.1779    12.2188    14.6903   -21.2451   109.1712     8.3853     2.4709     0.1049     0.0836
  709.5000    17.1816    12.2645    14.6872   -21.2451   107.9667     8.3687     2.4646     0.1102     0.0811
  710.0000    17.1803    12.2958    14.8967   -21.2451   108.0924     8.3526     2.4605     0.1124     0.0786
  710.5000    17.1803    12.3319    15.2245   -21.2451   111.1735     8.3362     2.4563     0.1146     0.0761
  711.0000    17.1803    12.0456    15.6686   -21.2451   114.1819     8.3197     2.4522     0.1146     0.0735
  711.5000    16.7708    11.7181    15.0489   -21.2451   117.1964     8.2931     2.4480     0.1137     0.0707
  712.0000    16.4070    11.3995    14.1418   -21.2451   118.2466     8.2499     2.4448     0.1130     0.0667
  712.5000    16.2644    11.0895    13.2895   -21.2451   117.8477     8.2439     2.4489     0.1135     0.0628
  713.0000    16.1290    11.0087    12.6774   -21.2451   117.2282     8.2908     2.4509     0.1167     0.0600
