~VERSION INFORMATION
 VERS.                2.0:   CWLS LOG ASCII STANDARD - VERSION 2.0
 WRAP.                 NO:   ONE LINE PER DEPTH STEP
~WELL INFORMATION
#MNEM.UNIT      DATA TYPE    INFORMATION
#----------   ------------   ------------------------------
 STRT.F           32.0000:   START DEPTH
 STOP.F          757.0000:   STOP DEPTH
 STEP.F            0.5000:   STEP LENGTH
 NULL.          -999.2500:   NO VALUE
 COMP. FENIX & SCISSON INC:   COMPANY
 WELL.     88 S 34 #88-34:   WELL
 FLD .             NPR #3:   FIELD
 LOC .      S34 T39N R78W:   LOCATION
 CNTY.            NATRONA:   COUNTY
 STAT.            WYOMING:   STATE
 CTRY. UNITED STATES OF AMERICA:   COUNTRY
 SRVC.              Welex:   SERVICE COMPANY
 DATE.        10-MAY-1977:   LOGDATE
 API .       490251035800:   API NUMBER
~CURVE INFORMATION
#MNEM.UNIT       API CODE    CURVE DESCRIPTION
#----------   ------------   ------------------------------
 DEPT.F                  :   
 GURD.OHMM   07 220 05 00:   SHALLOW GUARD RESISTIVITY
 ILD .OHMM   07 120 46 00:   INDUCTION LOG DEEP
 ILM .OHMM   07 120 44 00:   INDUCTION LOG MEDIUM
 SPR .MV     07 010 01 00:   SPONTANEOUS POTENTIAL FROM RES.
 CALD.IN     45 280 60 00:   CALIPER FROM DENSITY LOG
 CORR.G/C3   45 356 01 00:   DENSITY CORRECTION
 DPHI.DEC    45 890 12 00:   DENSITY POROSITY SANDSTONE
 GRD .GAPI   45 310 01 00:   GAMMA RAY FROM DENSITY LOG
 RHOB.G/C3   45 350 01 00:   BULK DENSITY
~PARAMETER INFORMATION
#MNEM.UNIT          VALUE    DESCRIPTION
#----------   ------------   ------------------------------
 PD  .                 GL:   PERMANENT DATUM
 EPD .F              5094:   ELEVATION PERMANENT DATUM
 LMF .                 GL:   LOG MEASURED FROM
 DMF .                 GL:   DRILLING MEASURED FROM
 EGL .F              5094:   GROUND LEVEL
 DATE.        10-MAY-1977:   RUN DATE
 RUN .                  1:   RUN NUMBER
 DD  .F               760:   DEPTH DRILLER
 DL  .F               759:   DEPTH LOGGER
 BLI .F               757:   BOTTOM LOG INTERVAL
 TLI .F                30:   TOP LOG INTERVAL
 CS  .IN            8.625:   CASING SIZE
 CBD .F                40:   CASING BOTTOM DRILLER
 CBL .F                45:   CASING BOTTOM LOGGER
 BS  .IN            7.875:   BIT SIZE
 BSD .F               760:   BIT SIZE AT DEPTH
 DFT .            KCL MUD:   DRILLING FLUID TYPE
 DFD .                9.0:   DRILLING FLUID DENSITY
 DFV .                 33:   DRILLING FLUID VISCOSITY
 DFPH.                7.5:   DRILLING FLUID PH
 DFL .                7.4:   DRILLING FLUID LOSS
 MSS .           FLOWLINE:   MUD SAMPLE SOURCE
 RMS .OHMM           0.33:   RESISTIVITY MUD SAMPLE
 MST .F                70:   MUD SAMPLE TEMPERATURE
 RMF .OHMM           0.28:   RESISTIVITY MUD FILTRATE SAMPLE
 MFST.F                70:   MUD FILTRATE SAMPLE TEMPERATURE
 RMC .OHMM           0.40:   RESISTIVITY MUD CAKE
 MCST.F                70:   MUD CAKE SAMPLE TEMPERATURE
 MFSS.           FANN KIT:   MUD FILTRATE SAMPLE SOURCE
 MCSS.           FANN KIT:   MUD CAKE SAMPLE SOURCE
 RMB .OHMM           0.26:   RESISTIVITY MUD AT BHT
 BHT .F                86:   BOTTOM HOLE TEMPERATURE
 TCS .HRS             1.5:   TIME CURCULATED STOPPED
 MRT .F                86:   MAXIMUM RECORDED TEMPERATURE
 LUN .               8611:   LOGGING UNIT NUMBER
 LUL .             CASPER:   LOGGING UNIT LOCATION
 ENGI.            C. DOAK:   RECORDING ENGINEER
 WITN.         D. RHOADES:   WITNESSED BY
 CLNT.            A2DTECH:   CLIENT CODE
 ORIG.           5" PRINT:   ORIGIN OF DATA
 UWI .       490251035800:   UNIQUE WELL ID
 DICO. A2D Technologies, Inc.:   DIGITIZING COMPANY
~OTHER INFORMATION
~A   DEPT     GURD        ILD        ILM        SPR         CALD      CORR      DPHI         GRD        RHOB 
# ...
  397.0000    13.6330     9.8063    10.9168   -31.6211     7.7700     0.0125     0.1206   108.3995     2.4744
  397.5000    14.2018     9.6769    10.7684   -31.7658     7.7849     0.0095     0.1203   108.7013     2.4767
  398.0000    12.4556     9.5466    10.4766   -31.7774     7.7997     0.0096     0.1242   113.0571     2.4819
  398.5000    11.9504     9.4828    10.1924   -31.6080     7.8145     0.0081     0.1308   116.0116     2.4752
  399.0000    12.2863     9.4194     9.9847   -31.2886     7.8294     0.0082     0.1338   119.0663     2.4639
  399.5000    12.3723     9.3565     9.8493   -30.4060     7.8330     0.0097     0.1317   120.4191     2.4549
  400.0000    11.8863     9.2747     9.7703   -31.0739     7.8442     0.0157     0.1258   118.5085     2.4662
  400.5000    11.0808     9.1585     9.6210   -31.5887     7.8443     0.0233     0.1184   113.8154     2.4805
  401.0000    11.9598     9.0432     9.5209   -31.5827     7.8444     0.0203     0.1193   112.7457     2.4790
  401.5000    12.1294     9.2340     9.5241   -31.4266     7.8446     0.0144     0.1238   110.5153     2.4761
  402.0000    11.7099     9.1714     9.4604   -31.5713     7.8447     0.0084     0.1271   111.2675     2.4663
  402.5000    11.3263     9.1095     9.3336   -31.5642     7.8598     0.0055     0.1317   112.7704     2.4574
  403.0000    11.4079     9.1110     9.2080   -31.4094     7.8750     0.0055     0.1379   112.6217     2.4506
  403.5000    11.6499     9.0494     9.0840   -31.2547     7.8751     0.0056     0.1430   111.7022     2.4417
  404.0000    11.3353     8.8651     9.0870   -31.0999     7.8753     0.0086     0.1484   110.2225     2.4295
  404.5000    10.9533     8.6848     9.0894   -31.0928     7.8754     0.0102     0.1514   109.0227     2.4327
  405.0000    11.1094     8.5666     9.1548   -30.9380     7.8605     0.0117     0.1459   107.8229     2.4387
  405.5000    11.3451     8.5087     9.2208   -30.9323     7.8757     0.0147     0.1400   108.1247     2.4433
  406.0000    11.4267     8.5102     9.2233   -30.9270     7.8759     0.0163     0.1367   109.6577     2.4493
  406.5000    11.1953     8.4527     9.2262   -30.9209     7.8760     0.0178     0.1330   110.6804     2.4555
  407.0000    10.7435     8.5127     9.1014   -31.0642     7.8762     0.0179     0.1321   109.3305     2.4569
  407.5000    10.9086     8.5138     8.9177   -31.2075     7.8763     0.0179     0.1343   108.5812     2.4509
  408.0000    10.8244     8.5149     8.7976   -31.2004     7.8465     0.0120     0.1387   110.0841     2.4419
  408.5000    10.5321     8.3993     8.8000   -31.3451     7.8456     0.0089     0.1438   112.0575     2.4344
  409.0000    10.1772     8.4004     8.8028   -31.4885     7.8318     0.0076     0.1498   112.9402     2.4277
  409.5000     9.8342     8.3437     8.7445   -31.9284     7.8169     0.0091     0.1537   114.1428     2.4225
  410.0000     9.9050     8.3451     8.7469   -32.0717     7.7721     0.0121     0.1549   113.6938     2.4210
  410.5000    10.5440     8.2885     8.7492   -32.0646     7.7273     0.0152     0.1492   111.1427     2.4301
  411.0000    11.0694     8.2325     8.7225   -32.3569     7.6815     0.0167     0.1387   108.2613     2.4460
  411.5000    11.2264     8.1772     8.6337   -32.3517     7.6676     0.0168     0.1272   106.0408     2.4632
  412.0000    11.3065     8.1783     8.5174   -32.4960     7.7128     0.0153     0.1227   103.9398     2.4722
  412.5000    10.6283     8.0675     8.4028   -32.6379     7.7579     0.0154     0.1278   107.6953     2.4662
  413.0000     9.7719     8.0130     8.2896   -32.9288     7.7880     0.0169     0.1272   108.2973     2.4629
  413.5000     9.5210     7.9042     8.1222   -33.0735     7.8181     0.0185     0.1239   108.2988     2.4740
  414.0000    10.6374     7.8506     7.7923   -33.2168     7.8333     0.0200     0.1212   109.0513     2.4821
  414.5000    10.4220     7.7442     7.4804   -33.2097     7.8484     0.0215     0.1182   110.2539     2.4859
  415.0000     9.8641     7.5867     7.4304   -33.2040     7.8336     0.0216     0.1248   111.3064     2.4709
  415.5000     9.0111     7.4321     7.6411   -33.0492     7.8487     0.0216     0.1314   112.3589     2.4604
  416.0000     7.6434     7.3310     7.7495   -32.8931     7.8489     0.0262     0.1341   114.5225     2.4552
  416.5000     7.4366     7.1819     7.9688   -32.7383     7.8340     0.0307     0.1317   119.2690     2.4612
  417.0000     8.0821     7.0356     7.3187   -32.5836     7.8342     0.0368     0.1299   120.1714     2.4635
  417.5000     9.6752     6.9400     6.7086   -32.7269     7.8193     0.0413     0.1331   119.1217     2.4628
  418.0000    10.0874     6.9411     6.5723   -33.1684     7.8045     0.0489     0.1283   112.9670     2.4523
  418.5000     9.8752     6.9901     6.7587   -33.3234     7.7897     0.0534     0.1109   113.9294     2.4891
  419.0000     9.5506     7.0395     7.0955   -33.4549     7.7598     0.0579     0.1121   115.9732     2.4951
  419.5000     9.0394     7.0892     7.3469   -33.4478     7.7150     0.0550     0.1185   116.1248     2.4847
  420.0000     8.7947     7.1393     7.5032   -33.5911     7.6552     0.0426     0.1409   117.3274     2.4652
  420.5000    10.1014     7.1404     7.6096   -33.7344     7.6533     0.0281     0.1469   120.1817     2.4365
  421.0000    10.1040     7.1414     7.5587   -33.7287     7.6715     0.0191     0.1367   117.7107     2.4405
  421.5000     9.5638     7.1423     7.5612   -33.7228     7.7306     0.0192     0.1310   111.3261     2.4547
  422.0000     9.1779     7.2426     7.6685   -33.7158     7.7757     0.0222     0.1233   109.2251     2.4645
  422.5000     8.9914     7.2436     7.8366   -33.7101     7.8209     0.0253     0.1198   114.4821     2.4743
  423.0000     9.1827     7.2445     8.0533   -33.7044     7.8360     0.0253     0.1171   115.6847     2.4821
  423.5000     9.7745     7.2957     8.2241   -33.6987     7.8511     0.0224     0.1162   116.2868     2.4879
  424.0000    10.4044     7.2969     8.3408   -33.6930     7.8663     0.0194     0.1207   115.5378     2.4827
  424.5000     9.8481     7.2474     8.4591   -33.3890     7.8814     0.0178     0.1182   114.1879     2.4759
  425.0000     9.4507     7.2486     8.4030   -33.3821     7.8816     0.0150     0.1159   111.1863     2.4820
  425.5000     9.9216     7.2495     8.3474   -33.2273     7.8817     0.0150     0.1180   109.8163     2.4858
  426.0000    10.5610     7.2507     8.2355   -33.0726     7.8669     0.0166     0.1150   112.4504     2.4828
  426.5000    11.0109     7.2517     8.2377   -33.0669     7.8520     0.0136     0.1144   117.4973     2.4881
  427.0000    10.4222     7.2526     8.1832   -32.9121     7.8672     0.0137     0.1159   119.6008     2.4881
  427.5000    10.1408     7.2536     8.1853   -32.7559     7.8673     0.0152     0.1189   121.2539     2.4880
  428.0000     9.7984     7.2546     8.1875   -32.7502     7.8525     0.0168     0.1201   121.7657     2.4807
  428.5000    10.5028     7.2614     8.2470   -32.4464     7.8526     0.0183     0.1185   120.0255     2.4799
  429.0000    10.1489     7.3576     8.3639   -32.2917     7.8378     0.0199     0.1185   117.5048     2.4837
  429.5000     9.7293     7.4609     8.6006   -32.1370     7.8230     0.0199     0.1209   118.4071     2.4853
  430.0000    10.0155     7.5656     8.7831   -31.9821     7.8231     0.0229     0.1032   120.3605     2.4838
  430.5000    10.4415     7.6191     9.0942   -31.6770     7.8232     0.0230     0.0993   120.8124     2.4823
  431.0000     9.8833     7.6729     9.4269   -31.5223     7.8084     0.0200     0.0987   119.1321     2.4793
  431.5000     9.7502     7.6211     8.8516   -31.5165     7.7786     0.0156     0.1005   117.7723     2.4741
  432.0000    10.0308     7.5178     8.2628   -31.5108     7.7188     0.0126     0.1251   120.8969     2.4689
  432.5000    10.3820     7.5188     7.7667   -31.6542     7.6140     0.0097     0.1293   122.0198     2.4652
  433.0000    10.4560     7.5198     7.5570   -31.8132     7.4942     0.0067     0.1263   121.7209     2.4644
