~VERSION INFORMATION
 VERS.                2.0:   CWLS LOG ASCII STANDARD - VERSION 2.0
 WRAP.                 NO:   ONE LINE PER DEPTH STEP
~WELL INFORMATION
#MNEM.UNIT      DATA TYPE    INFORMATION
#----------   ------------   ------------------------------
 STRT.F           28.0000:   START DEPTH
 STOP.F          884.0000:   STOP DEPTH
 STEP.F            0.5000:   STEP LENGTH
 NULL.          -999.2500:   NO VALUE
 COMP. U S NAVY-INTEX OIL:   COMPANY
 WELL. NPR 3 TEAPOT DOM #43-SX-2:   WELL
 FLD .             TEAPOT:   FIELD
 LOC .       S2 T38N R78W:   LOCATION
 CNTY.            NATRONA:   COUNTY
 STAT.            WYOMING:   STATE
 CTRY. UNITED STATES OF AMERICA:   COUNTRY
 SRVC.       Schlumberger:   SERVICE COMPANY
 DATE.        19-JUL-1963:   LOGDATE
 API .       490250967900:   API NUMBER
~CURVE INFORMATION
#MNEM.UNIT       API CODE    CURVE DESCRIPTION
#----------   ------------   ------------------------------
 DEPT.F                  :   
 ASN .OHMM   05 041 16 00:   AMPLIFIED SHORT NORMAL 16"
 CILD.MMHO   05 110 46 00:   CONDUCTIVITY INDUCTION LOG DEEP
 ILD .OHMM   05 120 46 00:   INDUCTION LOG DEEP
 SPR .MV     05 010 01 00:   SPONTANEOUS POTENTIAL FROM RES.
 GR  .GAPI   30 310 01 00:   GAMMA RAY
~PARAMETER INFORMATION
#MNEM.UNIT          VALUE    DESCRIPTION
#----------   ------------   ------------------------------
 LMF .                 KB:   LOG MEASURED FROM
 DMF .                 KB:   DRILLING MEASURED FROM
 EKB .F              5151:   KELLING BUSHING
 EGL .F              5146:   GROUND LEVEL
 DATE.        19-JUL-1963:   RUN DATE
 RUN .                  1:   RUN NUMBER
 DD  .F               881:   DEPTH DRILLER
 DL  .F               885:   DEPTH LOGGER
 BLI .F               884:   BOTTOM LOG INTERVAL
 TLI .F                30:   TOP LOG INTERVAL
 CS  .IN            8.625:   CASING SIZE
 CBD .F                12:   CASING BOTTOM DRILLER
 BS  .IN             6.75:   BIT SIZE
 BSD .F               881:   BIT SIZE AT DEPTH
 DFT .           GEL- OIL:   DRILLING FLUID TYPE
 DFD .                9.6:   DRILLING FLUID DENSITY
 DFV .                 39:   DRILLING FLUID VISCOSITY
 DFPH.                8.5:   DRILLING FLUID PH
 DFL .                4.4:   DRILLING FLUID LOSS
 RMS .OHMM           2.58:   RESISTIVITY MUD SAMPLE
 MST .F                72:   MUD SAMPLE TEMPERATURE
 RMF .OHMM           2.26:   RESISTIVITY MUD FILTRATE SAMPLE
 MFST.F                72:   MUD FILTRATE SAMPLE TEMPERATURE
 TCS .HRS               3:   TIME CURCULATED STOPPED
 LUN .               4507:   LOGGING UNIT NUMBER
 LUL .             CASPER:   LOGGING UNIT LOCATION
 ENGI.            WINKLER:   RECORDING ENGINEER
 WITN.          JORGENSEN:   WITNESSED BY
 CLNT.            A2DTECH:   CLIENT CODE
 ORIG.      2.5" 5" PRINT:   ORIGIN OF DATA
 UWI .       490250967900:   UNIQUE WELL ID
 DICO. A2D Technologies, Inc.:   DIGITIZING COMPANY
~OTHER INFORMATION
~A   DEPT      ASN         CILD       ILD       SPR         GR   
# ...
  455.0000     8.2452   137.6140     7.5076   -35.5723  -999.2500
  455.5000     8.3371   137.6216     7.5083   -35.5753  -999.2500
  456.0000     8.4290   137.6292     7.4192   -35.5783  -999.2500
  456.5000     8.4119   140.0127     7.3582   -35.5813  -999.2500
  457.0000     8.2909   142.2051     7.3591   -35.5843  -999.2500
  457.5000     8.2001   142.2126     7.3598   -35.4643  -999.2500
  458.0000     8.1396   143.7397     7.2090   -35.2892  -999.2500
  458.5000     8.0790   143.7472     7.0582   -35.2922  -999.2500
  459.0000     7.9882   143.7546     6.9076   -35.1376  -999.2500
  459.5000     7.8974   145.2818     6.7568   -34.9970  -999.2500
  460.0000     7.8973   146.8090     6.7576   -35.3018  -999.2500
  460.5000     7.8669   148.3362     6.7583   -35.3048  -999.2500
  461.0000     7.8366   149.8634     6.7592   -35.0065  -999.2500
  461.5000     7.8386   148.3511     6.9115   -35.0095  -999.2500
  462.0000     7.8701   146.7780     7.0637   -35.0124  -999.2500
  462.5000     7.9016   143.8067     7.3675   -35.0154  -999.2500
  463.0000     7.9697   142.2944     7.5198   -34.7171  -999.2500
  463.5000     8.0932   140.2660     7.6720   -34.7201  -999.2500
  464.0000     8.2562   137.1022     7.9758   -34.7230  -999.2500
  464.5000     8.5233   131.2893     7.9765   -34.7260  -999.2500
  465.0000     8.7598   126.6717     8.1288   -34.7289  -999.2500
  465.5000     8.9768   123.5739     8.1280   -34.7319  -999.2500
  466.0000     9.1789   122.5821     7.9788   -34.7530  -999.2500
  466.5000     9.2850   124.7645     7.9795   -35.3404  -999.2500
  467.0000     9.2015   127.8774     7.8287   -35.6446  -999.2500
  467.5000     8.9524   130.9903     7.6780   -35.5949  -999.2500
  468.0000     8.7408   133.4348     7.6445   -35.2852  -999.2500
  468.5000     8.5896   136.3009     7.3764   -35.0508  -999.2500
  469.0000     8.3175   139.3478     7.0268   -34.7526  -999.2500
  469.5000     8.1059   142.3948     6.8694   -34.8549  -999.2500
  470.0000     7.9245   143.9220     6.7726   -34.7585  -999.2500
  470.5000     7.8337   146.9689     6.7735   -34.7620  -999.2500
  471.0000     7.7429   150.0159     6.8480   -34.7651  -999.2500
  471.5000     7.8338   150.0233     6.9265   -34.6230  -999.2500
  472.0000     7.9557   150.0307     7.0141   -34.4699  -999.2500
  472.5000     8.0778   148.5182     7.0797   -34.4729  -999.2500
  473.0000     8.1999   147.0061     7.2319   -34.7777  -999.2500
  473.5000     8.3278   145.4382     7.3841   -35.0819  -999.2500
  474.0000     8.4441   143.9815     7.5365   -35.3860  -999.2500
  474.5000     8.5145   142.4691     7.5372   -35.3890  -999.2500
  475.0000     8.5574   140.9568     7.6895   -35.3919  -999.2500
  475.5000     8.5458   139.1261     7.9932   -35.3949  -999.2500
  476.0000     8.5571   137.9322     7.9940   -35.0966  -999.2500
  476.5000     8.5569   136.4199     7.9947   -35.0996  -999.2500
  477.0000     8.6184   134.3920     7.9955   -34.8012  -999.2500
  477.5000     8.6946   132.8141     7.9962   -34.8043  -999.2500
  478.0000     8.7982   131.2361     7.9970   -34.8073  -999.2500
  478.5000     8.8584   128.8526     8.1492   -34.5090  -999.2500
  479.0000     8.9187   127.3404     8.1500   -34.5120  -999.2500
  479.5000     8.9790   128.8678     7.9992   -34.5151  -999.2500
  480.0000     9.0393   130.3966     8.0000   -34.4779  -999.2500
  480.5000     9.0693   131.9238     7.8491   -34.2196  -999.2500
  481.0000     9.0390   131.9312     7.7965   -34.2229  -999.2500
  481.5000     8.9784   133.4585     7.6991   -34.1511  -999.2500
  482.0000     8.8876   133.4659     7.6333   -33.9273  -999.2500
  482.5000     8.7958   134.9931     7.5492   -33.9307  -999.2500
  483.0000     8.6710   136.5203     7.4702   -33.9337  -999.2500
  483.5000     8.5395   136.5277     7.3992   -33.9367  -999.2500
  484.0000     8.3682   136.5352     7.4001   -34.0723  -999.2500
  484.5000     8.3364   138.0623     7.2494   -34.2440  -999.2500
  485.0000     8.3429   138.0699     7.2501   -34.2470  -999.2500
  485.5000     8.3427   139.5973     7.2509   -34.2500  -999.2500
  486.0000     8.3426   139.6049     7.1001   -34.2536  -999.2500
  486.5000     8.3424   139.6125     7.1008   -34.2566  -999.2500
  487.0000     8.3560   139.6201     7.1016   -34.2595  -999.2500
  487.5000     8.3573   139.6277     6.9508   -33.9613  -999.2500
  488.0000     8.4052   139.4866     6.9515   -33.9642  -999.2500
  488.5000     8.4929   138.4592     6.9523   -33.9672  -999.2500
  489.0000     8.5531   138.1307     6.9530   -33.9701  -999.2500
  489.5000     8.5530   138.1383     6.9538   -33.6717  -999.2500
  490.0000     8.5528   138.1459     6.9747   -33.6748  -999.2500
  490.5000     8.5527   138.1535     7.1068   -33.6778  -999.2500
  491.0000     8.5526   138.1611     7.1409   -33.6808  -999.2500
  491.5000     8.5524   136.6489     7.2598   -33.6837  -999.2500
  492.0000     8.5825   136.6579     7.3071   -33.6867  -999.2500
  492.5000     8.6125   136.6653     7.4129   -33.7174  -999.2500
  493.0000     8.6430   136.6727     7.4136   -33.9940  -999.2500
  493.5000     8.6727   136.6802     7.5659   -33.9970  -999.2500
  494.0000     8.7059   135.1679     7.6394   -34.0000  -999.2500
  494.5000     8.7676   135.1753     7.7189   -34.0030  -999.2500
  495.0000     8.7991   133.6630     7.8712   -34.0060  -999.2500
  495.5000     8.8608   132.1507     8.0236   -34.0090  -999.2500
  496.0000     8.9313   132.1581     8.0244   -34.0120  -999.2500
  496.5000     9.0446   130.6458     8.1766   -34.3163  -999.2500
  497.0000     9.1481   129.1335     8.1774   -34.3193  -999.2500
  497.5000     9.2847   127.4444     8.3296   -34.0211  -999.2500
  498.0000     9.4556   126.1088     8.3304   -33.7229  -999.2500
  498.5000     9.5791   124.5965     8.3311   -33.7259  -999.2500
  499.0000     9.7328   123.0842     8.3319   -33.5512  -999.2500
  499.5000     9.8793   122.6520     8.3326   -33.4307  -999.2500
  500.0000     9.8489   120.0620     8.3333   -33.7349  -999.2500
  500.5000     9.8186   120.0694     8.4856   -33.7410  -999.2500
  501.0000     9.7882   120.0768     8.6379   -33.7470  -999.2500
  501.5000     9.7881   120.0842     8.6386   -33.7530  -999.2500
  502.0000     9.7879   120.0916     8.6717   -33.7590  -999.2500
  502.5000     9.7878   118.5792     8.7917   -34.0674  -999.2500
  503.0000     9.8178   118.5866     8.9439   -34.3745  -999.2500
  503.5000     9.9083   118.4979     9.0013   -34.3803  -999.2500
  504.0000     9.7233   116.8997     9.2485   -34.3862  -999.2500
  504.5000     9.6690   114.0495     9.2492   -34.4433  -999.2500
  505.0000     9.6692   114.0578     9.4015   -34.3976  -999.2500
  505.5000     9.7524   112.5445     9.5538   -34.4038  -999.2500
  506.0000     9.9716   111.0322     9.8577   -34.1084  -999.2500
  506.5000    10.1228   109.5198    10.0100   -34.1145  -999.2500
  507.0000    10.4251   108.0091    10.1622   -34.1205  -999.2500
  507.5000    10.7274   107.2315    10.3145   -34.1265  -999.2500
  508.0000    10.7275   106.5046    10.4667   -34.1325  -999.2500
  508.5000    10.7277   104.9924    10.6190   -34.1386  -999.2500
  509.0000    10.7278   101.9616    10.6197   -33.8424  -999.2500
  509.5000    10.8790   101.9690    10.6205   -33.8494  -999.2500
  510.0000    11.1813   100.4559    10.6111   -33.8554  -999.2500
  510.5000    11.3325   100.4641    10.4704   -33.8614  -999.2500
  511.0000    11.3326   100.4715    10.4712   -33.5663  -999.2500
  511.5000    11.1591   100.4788    10.4720   -33.5735  -999.2500
  512.0000    11.0006   100.4863    10.4727   -33.5793  -999.2500
  512.5000    10.8799   100.4939    10.4735   -33.8864  -999.2500
  513.0000    10.8347   100.5015    10.4742   -33.8923  -999.2500
  513.5000    10.7291   100.5091    10.4750   -33.8981  -999.2500
  514.0000    10.7293   100.5167    10.4758   -34.2052  -999.2500
  514.5000    10.7295   100.5243    10.4765   -33.9098  -999.2500
  515.0000    10.7296   100.5319    10.4774   -33.9157  -999.2500
  515.5000    10.8128   100.5395    10.3266   -33.9217  -999.2500
