~VERSION INFORMATION
 VERS.                2.0:   CWLS LOG ASCII STANDARD - VERSION 2.0
 WRAP.                 NO:   ONE LINE PER DEPTH STEP
~WELL INFORMATION
#MNEM.UNIT      DATA TYPE    INFORMATION
#----------   ------------   ------------------------------
 STRT.F           40.0000:   START DEPTH
 STOP.F          490.0000:   STOP DEPTH
 STEP.F            0.5000:   STEP LENGTH
 NULL.          -999.2500:   NO VALUE
 COMP.    FENIX & SCISSON:   COMPANY
 WELL. RES 3 TEAPOT DOM #76-10:   WELL
 FLD .        TEAPOT DOME:   FIELD
 LOC .      S10 T38N R78W:   LOCATION
 CNTY.            NATRONA:   COUNTY
 STAT.            WYOMING:   STATE
 CTRY. UNITED STATES OF AMERICA:   COUNTRY
 SRVC.           BIRDWELL:   SERVICE COMPANY
 DATE.        19-JUN-1978:   LOGDATE
 API .       490251065100:   API NUMBER
~CURVE INFORMATION
#MNEM.UNIT       API CODE    CURVE DESCRIPTION
#----------   ------------   ------------------------------
 DEPT.F                  :   
 CALD.IN     45 280 60 00:   CALIPER FROM DENSITY LOG
 CORR.G/C3   45 356 01 00:   DENSITY CORRECTION
 DPHI.DEC    45 890 12 00:   DENSITY POROSITY SANDSTONE
 GRD .GAPI   45 310 01 00:   GAMMA RAY FROM DENSITY LOG
 RHOB.G/C3   45 350 01 00:   BULK DENSITY
 ILD .OHMM   05 120 46 00:   INDUCTION LOG DEEP
 SN  .OHMM   05 040 16 00:   SHORT NORMAL 16"
 SPR .MV     05 010 01 00:   SPONTANEOUS POTENTIAL FROM RES.
~PARAMETER INFORMATION
#MNEM.UNIT          VALUE    DESCRIPTION
#----------   ------------   ------------------------------
 PD  .                 GL:   PERMANENT DATUM
 EPD .F              5185:   ELEVATION PERMANENT DATUM
 LMF .                 KB:   LOG MEASURED FROM
 DAPD.F                 4:   FEET ABOVE PERMANENT DATUM
 DMF .                 KB:   DRILLING MEASURED FROM
 EKB .F              5189:   KELLING BUSHING
 EGL .F              5185:   GROUND LEVEL
 DATE.        19-JUN-1978:   RUN DATE
 RUN .                  1:   RUN NUMBER
 DD  .F               485:   DEPTH DRILLER
 DL  .F               490:   DEPTH LOGGER
 BLI .F               490:   BOTTOM LOG INTERVAL
 TLI .F                50:   TOP LOG INTERVAL
 CS  .IN            8.625:   CASING SIZE
 CBD .F                30:   CASING BOTTOM DRILLER
 CBL .F                30:   CASING BOTTOM LOGGER
 BS  .IN            7.875:   BIT SIZE
 BSD .F               485:   BIT SIZE AT DEPTH
 DFT .                KCL:   DRILLING FLUID TYPE
 DFD .                8.7:   DRILLING FLUID DENSITY
 DFV .                 34:   DRILLING FLUID VISCOSITY
 DFPH.               10.5:   DRILLING FLUID PH
 MSS .           FLOWLINE:   MUD SAMPLE SOURCE
 RMS .OHMM           0.24:   RESISTIVITY MUD SAMPLE
 MST .F                70:   MUD SAMPLE TEMPERATURE
 RMF .OHMM           0.24:   RESISTIVITY MUD FILTRATE SAMPLE
 MFST.F                72:   MUD FILTRATE SAMPLE TEMPERATURE
 RMC .OHMM           0.28:   RESISTIVITY MUD CAKE
 MCST.F                78:   MUD CAKE SAMPLE TEMPERATURE
 MFSS.               MEAS:   MUD FILTRATE SAMPLE SOURCE
 MCSS.               MEAS:   MUD CAKE SAMPLE SOURCE
 RMB .OHMM           0.27:   RESISTIVITY MUD AT BHT
 BHT .F                74:   BOTTOM HOLE TEMPERATURE
 TCS .HRS               1:   TIME CURCULATED STOPPED
 MRT .F                74:   MAXIMUM RECORDED TEMPERATURE
 LUN .               2958:   LOGGING UNIT NUMBER
 LUL .               CASP:   LOGGING UNIT LOCATION
 ENGI.           REYNOLDS:   RECORDING ENGINEER
 WITN.           MCGINLEY:   WITNESSED BY
 CLNT.            A2DTECH:   CLIENT CODE
 ORIG.           5" PRINT:   ORIGIN OF DATA
 UWI .       490251065100:   UNIQUE WELL ID
 DICO. A2D Technologies, Inc.:   DIGITIZING COMPANY
~OTHER INFORMATION
~A   DEPT     CALD       CORR       DPHI        GRD       RHOB        ILD         SN        SPR   
# ...
  404.5000     7.1414     0.0056     0.1528    91.3142     2.4147    11.1380    13.3167   -34.8094
  405.0000     7.1244     0.0131     0.1532    91.1594     2.4072    10.9109    13.2095   -34.6596
  405.5000     7.1156     0.0207     0.1600    91.4614     2.3937    10.7620    13.1270   -34.8126
  406.0000     7.1158     0.0252     0.1690    94.6137     2.3952    10.6889    13.1233   -34.8140
  406.5000     7.1159     0.0222     0.1709    94.3083     2.4035    10.6162    13.0252   -34.8157
  407.0000     7.1160     0.0192     0.1635    94.3040     2.4088    10.5441    12.7580   -34.9879
  407.5000     7.1612     0.0163     0.1605    93.9985     2.4118    10.4723    12.5796   -35.2725
  408.0000     7.1763     0.0118     0.1575    93.9933     2.4148    10.4730    12.3686   -35.5765
  408.5000     7.2102     0.0104     0.1550    93.6879     2.4170    10.3304    12.3114   -35.8805
  409.0000     7.2369     0.0119     0.1523    93.0812     2.4156    10.1896    12.2264   -36.0335
  409.5000     7.2667     0.0134     0.1514    91.1181     2.4058     9.9817    12.1140   -36.3375
  410.0000     7.2669     0.0173     0.1607    88.4030     2.4051     9.9138    11.9693   -36.4902
  410.5000     7.2670     0.0195     0.1613    85.9892     2.4059     9.8465    11.9661   -36.7943
  411.0000     7.2672     0.0195     0.1618    88.7218     2.4074     9.7794    11.9916   -36.9471
  411.5000     7.2673     0.0196     0.1597    93.0580     2.4159     9.6878    12.0425   -36.9487
  412.0000     7.2675     0.0196     0.1540    93.3549     2.4239     9.6028    11.9562   -36.9504
  412.5000     7.2826     0.0181     0.1518    93.3509     2.4307     9.5072    11.9495   -37.1029
  413.0000     7.2978     0.0107     0.1476    93.0452     2.4382     9.3858    11.8673   -37.1044
  413.5000     7.2996     0.0077     0.1392    91.9858     2.4457     9.3622    11.8638   -37.2572
  414.0000     7.3280     0.0138     0.1355    90.0237     2.4352     9.1949    11.8607   -37.4100
  414.5000     7.3432     0.0198     0.1427    90.9231     2.4322     9.0697    11.6136   -37.4240
  415.0000     7.3433     0.0213     0.1400    91.8225     2.4330     8.9461    11.5311   -37.5643
  415.5000     7.3435     0.0229     0.1379    91.3654     2.4345     8.9466    11.3697   -37.5659
  416.0000     7.3436     0.0229     0.1402    91.1546     2.4360     8.9472    11.2883   -37.5673
  416.5000     7.3129     0.0214     0.1456    90.9051     2.4480     8.9478    11.1297   -37.5688
  417.0000     7.2989     0.0215     0.1348    91.2011     2.4495     8.9485    11.0502   -37.5749
  417.5000     7.2991     0.0211     0.1330    92.4016     2.4533     8.9491    11.0474   -37.7234
  418.0000     7.2993     0.0216     0.1350    93.1504     2.4601     8.9497    11.0445   -37.7247
  418.5000     7.2994     0.0231     0.1293    92.9613     2.4608     8.9504    11.0143   -37.7265
  419.0000     7.2996     0.0231     0.1281    91.7855     2.4616     8.8894    10.9621   -37.7277
  419.5000     7.3147     0.0232     0.1293    94.1909     2.4654     8.8901    10.9592   -37.8805
  420.0000     7.3149     0.0172     0.1241    95.6927     2.4684     8.8907    10.8809   -37.8820
  420.5000     7.3150     0.0158     0.1196    95.5379     2.4661     8.8913    10.8774   -38.0348
  421.0000     7.3152     0.0188     0.1232    95.8338     2.4661     8.8307    10.8529   -38.0364
  421.5000     7.3153     0.0218     0.1280    97.1850     2.4677     8.7708    10.7969   -38.0378
  422.0000     7.3155     0.0264     0.1243    97.7832     2.4692     8.7713    10.7195   -38.0393
  422.5000     7.3156     0.0264     0.1255    96.8743     2.4699     8.8327    10.6425   -38.0410
  423.0000     7.3307     0.0264     0.1242    97.0206     2.4782     8.8333    10.6397   -38.0424
  423.5000     7.3459     0.0235     0.1056    97.1681     2.4835     8.6531    10.6208   -38.1954
  424.0000     7.3460     0.0190     0.1065    96.9578     2.4812     8.4765    10.5609   -38.1967
  424.5000     7.3462     0.0176     0.1104    95.2644     2.4775     8.1337    10.4347   -38.1983
  425.0000     7.3463     0.0176     0.1146    91.4304     2.4775     7.9128    10.2671   -38.1997
  425.5000     7.3465     0.0176     0.1167    92.1792     2.4775     8.0233    10.2317   -38.2012
  426.0000     7.3316     0.0162     0.1157    99.1016     2.4783     8.1353    10.1208   -38.2028
  426.5000     7.3168     0.0162     0.1150   100.1526     2.4783     8.1922    10.1025   -38.2042
  427.0000     7.3019     0.0147     0.1145    98.3401     2.4783     8.1364    10.0456   -38.2057
  427.5000     7.3021     0.0133     0.1135    98.0347     2.4768     8.0809    10.0428   -38.2073
  428.0000     7.3023     0.0088     0.1144    98.3306     2.4724     8.0261    10.0400   -38.2089
  428.5000     7.3324     0.0074     0.1174    98.3264     2.4724     7.9715    10.0369   -38.2103
  429.0000     7.3625     0.0059     0.1204    97.1173     2.4731     7.9720    10.0345   -38.2537
  429.5000     7.4077     0.0060     0.1216    95.2485     2.4739     8.0105    10.0317   -38.3647
  430.0000     7.3628     0.0090     0.1179    96.8066     2.4784     8.0283    10.0289   -38.5174
  430.5000     7.3030     0.0135     0.1152    99.2120     2.4784     8.0289    10.0259   -38.6704
  431.0000     7.2582     0.0180     0.1137    99.5090     2.4784     8.0294     9.9544   -38.9744
  431.5000     7.2733     0.0227     0.1152    99.5037     2.4792     8.0299     9.9516   -38.9759
  432.0000     7.3334     0.0241     0.1160    99.6511     2.4800     8.0305     9.8699   -38.9773
  432.5000     7.3636     0.0152     0.1154    99.6458     2.4830     8.0311     9.8094   -38.9791
  433.0000     7.3188     0.0122     0.1061    99.6416     2.4852     8.0317     9.7394   -38.9803
  433.5000     7.2439     0.0153     0.1085    99.7877     2.4785     7.9942     9.7017   -38.9820
  434.0000     7.2063     0.0213     0.1147    99.7827     2.4778     7.9775     9.6666   -39.0735
  434.5000     7.1842     0.0183     0.1180    99.7785     2.4793     7.8688     9.5973   -39.1646
  435.0000     7.2144     0.0123     0.1141    99.6235     2.4793     7.8152     9.5290   -39.4404
  435.5000     7.2595     0.0108     0.1126    99.7700     2.4793     7.7621     9.4364   -39.5932
  436.0000     7.3347     0.0154     0.1128    99.7651     2.4786     7.6564     9.3927   -39.5946
  436.5000     7.3948     0.0155     0.1155    99.6099     2.4786     7.6043     9.3256   -39.8382
  437.0000     7.4249     0.0095     0.1176    99.4540     2.4786     7.5526     9.2398   -40.0516
  437.5000     7.4250     0.0051     0.1182    99.1486     2.4786     7.5337     9.1923   -40.0531
  438.0000     7.2903     0.0036     0.1160    98.6925     2.4787     7.4502     9.1266   -40.2060
  438.5000     7.2604     0.0186     0.1115    98.5377     2.4794     7.3487     9.1136   -40.2075
  439.0000     7.2756     0.0246     0.1187    98.6841     2.4832     7.3493     9.0590   -40.2088
  439.5000     7.3057     0.0232     0.1151    98.9800     2.4892     7.2491     8.9942   -40.3616
  440.0000     7.3059     0.0217     0.1086    99.2770     2.4922     7.1503     8.9914   -40.5147
  440.5000     7.3360     0.0143     0.1039    99.4443     2.4937     7.0529     8.9272   -40.8186
  441.0000     7.3511     0.0068     0.1036    99.8699     2.4900     7.0048     8.8634   -41.4252
  441.5000     7.3513     0.0053     0.1078   100.1668     2.4785     6.9572     8.7389   -42.0318
  442.0000     7.3364     0.0069     0.1132   101.3674     2.4750     6.9577     8.6168   -42.3361
  442.5000     7.3216     0.0069     0.1176   102.4174     2.4750     6.9583     8.3797   -42.4888
  443.0000     7.3067     0.0040     0.1209   102.4121     2.4751     6.8635     8.2041   -42.4902
  443.5000     7.2769     0.0040     0.1178   102.5585     2.4736     6.5858     7.9245   -42.4917
  444.0000     7.2471     0.0025     0.1143   105.6387     2.4511     5.8984     7.7064   -42.4935
  444.5000     7.2472     0.0011     0.1290   106.6163     2.4511     5.2828     7.3407   -42.5333
