~VERSION INFORMATION
 VERS.                2.0:   CWLS LOG ASCII STANDARD - VERSION 2.0
 WRAP.                 NO:   ONE LINE PER DEPTH STEP
~WELL INFORMATION
#MNEM.UNIT      DATA TYPE    INFORMATION
#----------   ------------   ------------------------------
 STRT.F           30.0000:   START DEPTH
 STOP.F          656.5000:   STOP DEPTH
 STEP.F            0.5000:   STEP LENGTH
 NULL.          -999.2500:   NO VALUE
 COMP. BROWN JOHN E&C INC:   COMPANY
 WELL. NPR 3 SHX-18-25 #25-11:   WELL
 FLD .              NPR 3:   FIELD
 LOC .      S11 T38N R78W:   LOCATION
 CNTY.            NATRONA:   COUNTY
 STAT.            WYOMING:   STATE
 CTRY. UNITED STATES OF AMERICA:   COUNTRY
 SRVC.           Gearhart:   SERVICE COMPANY
 DATE.        09-JUL-1987:   LOGDATE
 API .       490251114100:   API NUMBER
~CURVE INFORMATION
#MNEM.UNIT       API CODE    CURVE DESCRIPTION
#----------   ------------   ------------------------------
 DEPT.F                  :   
 GRR .GAPI   07 310 01 00:   GAMMA RAY FROM RES. LOG.
 RILM.OHMM   07 120 44 00:   INDUCTION LOG MEDIUM RESISTIVITY
 RILD.OHMM   07 120 46 00:   INDUCTION LOG DEEP RESISTIVITY
~PARAMETER INFORMATION
#MNEM.UNIT          VALUE    DESCRIPTION
#----------   ------------   ------------------------------
 PD  .                 GL:   PERMANENT DATUM
 EPD .F              5222:   ELEVATION PERMANENT DATUM
 LMF .                 KB:   LOG MEASURED FROM
 DAPD.F                 8:   FEET ABOVE PERMANENT DATUM
 DMF .                 KB:   DRILLING MEASURED FROM
 EKB .F              5230:   KELLING BUSHING
 EDF .F              5228:   DRILLING FLOOR
 EGL .F              5222:   GROUND LEVEL
 DATE.             7-9-87:   RUN DATE
 RUN .                  1:   RUN NUMBER
 DD  .F               662:   DEPTH DRILLER
 DL  .F               664:   DEPTH LOGGER
 BLI .F               662:   BOTTOM LOG INTERVAL
 TLI .F                30:   TOP LOG INTERVAL
 CS  .IN            8.625:   CASING SIZE
 CBD .F                48:   CASING BOTTOM DRILLER
 CBL .F                48:   CASING BOTTOM LOGGER
 BS  .IN            7.875:   BIT SIZE
 BSD .F               662:   BIT SIZE AT DEPTH
 DFT .                AIR:   DRILLING FLUID TYPE
 TLAB.HRS            1552:   TIME LOGGER AT BOTTOM
 MRT .F                80:   MAXIMUM RECORDED TEMPERATURE
 LUN .               7597:   LOGGING UNIT NUMBER
 LUL .           GILLETTE:   LOGGING UNIT LOCATION
 ENGI.         WEATHERMON:   RECORDING ENGINEER
 WITN.             STRONG:   WITNESSED BY
 CLNT.            A2DTECH:   CLIENT CODE
 ORIG.       2", 5" PRINT:   ORIGIN OF DATA
 UWI .       490251114100:   UNIQUE WELL ID
 DICO. A2D Technologies, Inc.:   DIGITIZING COMPANY
~OTHER INFORMATION
~A   DEPT       GRR      RILM       RILD   
# ...
  212.0000   130.3860     8.1937     8.7777
  212.5000   130.1590     8.2698     8.8842
  213.0000   131.1746     8.4040     8.9921
  213.5000   132.2284     8.5403     9.0899
  214.0000   129.6287     8.6788     9.1587
  214.5000   126.2584     8.8198     9.2281
  215.0000   122.8558     8.9448     9.2979
  215.5000   119.6044     9.0459     9.3683
  216.0000   120.5606     9.1553     9.4393
  216.5000   121.7108     9.1080     9.5003
  217.0000   122.7957     9.0564     9.3798
  217.5000   123.3819     9.0051     9.2759
  218.0000   123.9968     8.9542     9.1732
  218.5000   124.6117     8.9035     9.0715
  219.0000   125.2176     8.8530     8.9711
  219.5000   124.9728     8.7906     8.8717
  220.0000   123.4710     8.7101     8.7734
  220.5000   121.9254     8.6305     8.6990
  221.0000   123.3435     8.5515     8.6363
  221.5000   125.9990     8.4565     8.5740
  222.0000   126.0976     8.3348     8.5121
  222.5000   124.4477     8.2149     8.4507
  223.0000   122.7571     8.0968     8.3897
  223.5000   120.9370     8.0435     8.3292
  224.0000   124.6439     7.9684     8.2698
  224.5000   129.8506     7.8728     8.2698
  225.0000   132.1839     7.8235     8.2698
  225.5000   129.7365     7.8524     8.2698
  226.0000   126.2456     7.8931     8.2691
  226.5000   122.7863     7.9340     8.3408
  227.0000   120.0504     7.9751     8.4308
  227.5000   119.3194     8.0165     8.5217
  228.0000   118.5598     8.0660     8.6136
  228.5000   118.6468     8.1313     8.7065
  229.0000   119.2495     8.1970     8.8004
  229.5000   119.8299     8.2632     8.8953
  230.0000   118.1105     8.3299     8.9276
  230.5000   116.2847     8.3972     8.9530
  231.0000   117.0330     8.4944     8.9784
  231.5000   117.9789     8.6123     9.0040
  232.0000   118.9185     8.7319     9.0296
  232.5000   119.8516     8.9048     9.0555
  233.0000   120.8038     8.8717     9.0705
  233.5000   120.6926     8.8148     9.0396
  234.0000   120.1418     8.7582     9.0171
  234.5000   119.5568     8.7021     8.9946
  235.0000   120.0490     8.6462     8.9722
  235.5000   120.7535     8.5908     8.9498
  236.0000   120.2766     8.5816     8.9275
  236.5000   118.7760     8.5815     8.9053
  237.0000   117.2336     8.5815     8.8831
  237.5000   118.3221     8.5814     8.8609
  238.0000   123.0566     8.5814     8.8388
  238.5000   125.4130     8.5809     8.8228
  239.0000   126.2585     8.5814     9.0464
  239.5000   125.1599     8.7014     9.2255
  240.0000   124.0289     8.8316     9.4082
  240.5000   122.8986     8.9761     9.5945
  241.0000   121.9999     9.1384     9.7845
  241.5000   120.8875     9.3038     9.9630
  242.0000   119.7286     9.4721    10.0536
  242.5000   119.4865     9.6434    10.1450
  243.0000   119.4249     9.8179    10.2298
  243.5000   117.9935     9.9955    10.5125
  244.0000   116.5259    10.1097    10.8359
  244.5000   115.9840    10.2016    11.1720
  245.0000   116.1406    10.2944    11.4604
  245.5000   115.3985    10.5487    11.5793
  246.0000   113.4377    10.8967    11.6995
  246.5000   111.5247    11.2526    11.8209
  247.0000   111.7494    11.5617    11.9449
  247.5000   112.0487    11.7519    12.0645
  248.0000   110.5673    11.8377    12.3419
  248.5000   107.1170    11.9628    12.5517
  249.0000   105.5251    12.0889    12.7673
  249.5000   105.3134    12.2165    12.8904
  250.0000   106.5648    12.3080    12.8104
  250.5000   107.4336    12.3080    12.7550
  251.0000   107.4388    12.3080    12.6999
  251.5000   108.3475    12.2263    12.6418
  252.0000   110.9069    12.1408    12.5685
  252.5000   113.4873    12.0560    12.4955
  253.0000   113.0525    11.9717    12.4230
  253.5000   112.0686    11.8880    12.3509
  254.0000   111.0808    11.8125    12.2792
  254.5000   110.3475    11.7410    12.2079
  255.0000   111.4056    11.6699    12.1370
  255.5000   112.4202    11.5993    12.0666
  256.0000   112.5640    11.5291    11.9966
  256.5000   111.3376    11.4593    11.9269
  257.0000   111.2128    11.3898    11.8577
  257.5000   111.8558    11.3254    11.7889
  258.0000   109.6557    11.3251    11.7205
  258.5000   107.1731    11.3251    11.6524
  259.0000   104.6927    11.3251    11.5848
  259.5000   102.2153    11.3251    11.5175
  260.0000   101.4161    11.2742    11.4507
  260.5000   101.8615    11.1382    11.3842
  261.0000   104.5630    11.0037    11.3181
  261.5000   107.3571    10.8710    11.2524
  262.0000   110.1510    10.7398    11.1872
  262.5000   111.4212    10.6102    11.1222
  263.0000   111.5657    10.4822    11.0576
  263.5000   112.2751    10.3557    10.9842
  264.0000   110.5947    10.3066    10.8933
  264.5000   108.5247    10.2741    10.8032
  265.0000   106.4723    10.2417    10.7139
  265.5000   105.2927    10.2095    10.6252
  266.0000   106.3444    10.1773    10.5373
  266.5000   106.6819    10.1356    10.4502
  267.0000   105.6392    10.2298    10.3637
  267.5000   104.5985    10.1715    10.2780
  268.0000   105.1503    10.0621    10.1929
  268.5000   106.2120     9.9538    10.1087
  269.0000   105.4259     9.8466    10.0390
  269.5000   104.6703     9.7406    10.0232
  270.0000   105.7678     9.6358    10.0074
  270.5000   105.9641     9.5321     9.9916
  271.0000   104.0312     9.5003     9.9758
  271.5000   102.0972     9.5003     9.9601
  272.0000   102.3979     9.5063     9.9444
  272.5000   103.9111     9.5455     9.9287
  273.0000   105.4604     9.5849     9.9131
  273.5000   105.8601     9.6244     9.8975
  274.0000   105.1911     9.6776     9.8821
  274.5000   104.4998     9.5898     9.8662
  275.0000   103.8206     9.4583     9.7655
  275.5000   103.7652     9.3286     9.5782
  276.0000   105.2838     9.2006     9.3944
  276.5000   107.7145     9.0710     9.2142
  277.0000   110.1454     8.8357     9.0375
  277.5000   112.4228     8.5419     8.8641
  278.0000   112.8568     8.2698     8.6941
  278.5000   111.3057     8.1848     8.5273
  279.0000   109.7811     8.1655     8.3466
  279.5000   108.2848     8.1462     8.4278
  280.0000   108.1024     8.1183     8.5195
  280.5000   109.5966     8.1714     8.6122
  281.0000   110.2875     8.2687     8.7059
  281.5000   108.9875     8.3671     8.8007
  282.0000   107.6484     8.4668     8.8964
  282.5000   109.1065     8.5676     8.9875
  283.0000   111.2863     8.6696     8.9263
  283.5000   113.4609     8.7314     8.8689
  284.0000   114.4019     8.5640     8.8118
  284.5000   113.8233     8.4242     8.7416
  285.0000   113.2392     8.4242     8.7825
  285.5000   112.7087     8.4242     8.8551
  286.0000   114.9779     8.4242     8.9283
  286.5000   117.4803     8.5516     9.0021
  287.0000   119.8074     8.7072     9.0710
  287.5000   119.2917     8.8657     9.1372
  288.0000   118.6855     9.0710     9.1992
  288.5000   118.3977     9.0176     9.2616
  289.0000   119.6606     8.9450     9.3262
  289.5000   120.9385     8.8730     9.2428
  290.0000   120.8327     8.8016     9.1578
  290.5000   119.7447     8.7307     9.0736
  291.0000   119.6041     8.6603     8.9901
  291.5000   120.8889     8.5907     8.9075
  292.0000   122.2206     8.5027     8.8255
  292.5000   119.7752     8.5822     8.7444
  293.0000   116.9266     8.6935     8.6612
  293.5000   114.4956     8.8069     8.7154
  294.0000   113.9630     8.9189     8.7865
  294.5000   114.8869     9.0885     8.8581
  295.0000   113.7476     9.1468     8.9302
  295.5000   112.6638     9.2339     9.0031
  296.0000   111.5880     9.1748     9.0771
  296.5000   111.6285     9.0441     9.1553
  297.0000   113.5437     8.9153     9.0692
  297.5000   115.4705     8.7883     8.9778
  298.0000   114.8517     8.6631     8.8873
  298.5000   113.4726     8.5397     8.7978
  299.0000   114.7204     8.4242     8.7092
  299.5000   117.6074     8.3658     8.6214
  300.0000   120.4974     8.3106     8.5346
  300.5000   120.3985     8.2558     8.4486
  301.0000   117.6445     8.2013     8.3635
  301.5000   114.8175     8.1472     8.2115
  302.0000   113.8101     8.0536     8.1167
  302.5000   115.6879     7.9157     8.0231
