~VERSION INFORMATION
 VERS.                2.0:   CWLS LOG ASCII STANDARD - VERSION 2.0
 WRAP.                 NO:   ONE LINE PER DEPTH STEP
~WELL INFORMATION
#MNEM.UNIT      DATA TYPE    INFORMATION
#----------   ------------   ------------------------------
 STRT.F           95.0000:   START DEPTH
 STOP.F          862.0000:   STOP DEPTH
 STEP.F            0.5000:   STEP LENGTH
 NULL.          -999.2500:   NO VALUE
 COMP. U S NAVY INTEX OIL:   COMPANY
 WELL. RES 3 TEAMPT DOME #13-S-35:   WELL
 FLD .        TEAPOT DOME:   FIELD
 LOC .      S35 T39N R78W:   LOCATION
 CNTY.            NATRONA:   COUNTY
 STAT.            WYOMING:   STATE
 CTRY. UNITED STATES OF AMERICA:   COUNTRY
 SRVC.       Schlumberger:   SERVICE COMPANY
 DATE.        27-JUL-1963:   LOGDATE
 API .       490250655000:   API NUMBER
~CURVE INFORMATION
#MNEM.UNIT       API CODE    CURVE DESCRIPTION
#----------   ------------   ------------------------------
 DEPT.F                  :   
 SPR .MV     05 010 01 00:   SPONTANEOUS POTENTIAL FROM RES.
 ILD .OHMM   05 120 46 00:   INDUCTION LOG DEEP
 ASN .OHMM   05 041 18 00:   AMPLIFIED SHORT NORMAL 18"
 CILD.MMHO   05 110 46 00:   CONDUCTIVITY INDUCTION LOG DEEP
 GR  .GAPI   30 310 01 00:   GAMMA RAY
~PARAMETER INFORMATION
#MNEM.UNIT          VALUE    DESCRIPTION
#----------   ------------   ------------------------------
 PD  .                 GL:   PERMANENT DATUM
 EPD .F              5100:   ELEVATION PERMANENT DATUM
 LMF .                 KB:   LOG MEASURED FROM
 DAPD.F               5.0:   FEET ABOVE PERMANENT DATUM
 DMF .                 KB:   DRILLING MEASURED FROM
 EKB .F              5105:   KELLING BUSHING
 EGL .F              5100:   GROUND LEVEL
 DATE.        27-JUL-1963:   RUN DATE
 RUN .                  1:   RUN NUMBER
 DD  .F               862:   DEPTH DRILLER
 DL  .F               863:   DEPTH LOGGER
 BLI .F               862:   BOTTOM LOG INTERVAL
 TLI .F               100:   TOP LOG INTERVAL
 CS  .IN            8.625:   CASING SIZE
 CBD .F                10:   CASING BOTTOM DRILLER
 BS  .IN             6.75:   BIT SIZE
 BSD .F               862:   BIT SIZE AT DEPTH
 DFT . NATURAL- GEL ADDED:   DRILLING FLUID TYPE
 DFD .                9.0:   DRILLING FLUID DENSITY
 DFV .                 38:   DRILLING FLUID VISCOSITY
 DFPH.                8.5:   DRILLING FLUID PH
 DFL .                5.6:   DRILLING FLUID LOSS
 MSS .           FLOWLINE:   MUD SAMPLE SOURCE
 RMS .OHMM            4.6:   RESISTIVITY MUD SAMPLE
 MST .F                83:   MUD SAMPLE TEMPERATURE
 RMF .OHMM            3.8:   RESISTIVITY MUD FILTRATE SAMPLE
 MFST.F                83:   MUD FILTRATE SAMPLE TEMPERATURE
 RMC .OHMM            4.8:   RESISTIVITY MUD CAKE
 MCST.F                83:   MUD CAKE SAMPLE TEMPERATURE
 MFSS.                 FP:   MUD FILTRATE SAMPLE SOURCE
 MCSS.                 FP:   MUD CAKE SAMPLE SOURCE
 TCS .HRS               1:   TIME CURCULATED STOPPED
 LUN .               2523:   LOGGING UNIT NUMBER
 LUL .               CSPR:   LOGGING UNIT LOCATION
 ENGI.            GIFFORD:   RECORDING ENGINEER
 WITN.          JORGENSON:   WITNESSED BY
 CLNT.            A2DTECH:   CLIENT CODE
 ORIG.           5" PRINT:   ORIGIN OF DATA
 UWI .       490250655000:   UNIQUE WELL ID
 DICO. A2D Technologies, Inc.:   DIGITIZING COMPANY
~OTHER INFORMATION
~A   DEPT      SPR        ILD        ASN       CILD         GR   
# ...
  400.0000   -33.6319     6.9270     8.1033   139.6360  -999.2500
  400.5000   -33.1861     6.9991     8.1548   138.1614  -999.2500
  401.0000   -33.1896     6.9937     8.1987   136.6814  -999.2500
  401.5000   -33.1925     6.9894     8.2577   135.2014  -999.2500
  402.0000   -33.1954     7.0604     8.3183   136.7297  -999.2500
  402.5000   -33.1982     6.9797     8.4054   139.0035  -999.2500
  403.0000   -33.2012     6.9754     8.4196   139.7757  -999.2500
  403.5000   -33.2047     6.9710     8.2684   141.2988  -999.2500
  404.0000   -33.2076     6.9667     8.0875   144.3286  -999.2500
  404.5000   -33.2104     6.9623     7.9805   148.1038  -999.2500
  405.0000   -33.2133     6.8817     7.9204   151.1283  -999.2500
  405.5000   -33.2162     6.8021     7.8594   150.3990  -999.2500
  406.0000   -33.2198     6.7225     7.8134   148.1682  -999.2500
  406.5000   -33.0718     6.7182     7.7928   142.9398  -999.2500
  407.0000   -33.2255     6.7139     8.1772   139.9529  -999.2500
  407.5000   -33.8290     6.7085     8.9046   140.7306  -999.2500
  408.0000   -33.9820     6.7042     9.5333   144.5058  -999.2500
  408.5000   -33.8347     6.7763     9.7274   146.7795  -999.2500
  409.0000   -33.0875     6.8473     9.4113   145.1902  -999.2500
  409.5000   -32.3397     6.8419     9.5160   140.0711  -999.2500
  410.0000   -32.0415     6.7612     9.2442   137.8403  -999.2500
  410.5000   -32.3454     6.6063     8.3436   140.1141  -999.2500
  411.0000   -32.9649     6.5267     7.8779   146.1416  -999.2500
  411.5000   -33.4029     6.5224     7.7719   150.0023  -999.2500
  412.0000   -33.8562     6.5180     7.7559   152.9467  -999.2500
  412.5000   -34.0092     6.4374     7.8746   152.9682  -999.2500
  413.0000   -34.3124     6.5083     7.9486   152.2335  -999.2500
  413.5000   -34.4654     6.5040     7.9778   150.7589  -999.2500
  414.0000   -34.3189     6.4997     7.9316   149.9695  -999.2500
  414.5000   -34.3217     6.5708     7.8106   147.8042  -999.2500
  415.0000   -34.4748     6.5663     7.7177   147.0696  -999.2500
  415.5000   -34.4776     6.7127     7.6585   146.3403  -999.2500
  416.0000   -34.4805     6.7837     7.7174   146.3672  -999.2500
  416.5000   -34.1831     6.8547     7.8514   145.6379  -999.2500
  417.0000   -33.8856     6.7740     8.0303   144.1579  -999.2500
  417.5000   -33.4388     6.7696     8.2107   141.9325  -999.2500
  418.0000   -33.4416     6.6890     8.3429   141.9540  -999.2500
  418.5000   -33.4445     6.6847     8.2819   142.7262  -999.2500
  419.0000   -34.0620     6.6051     8.0860   144.2593  -999.2500
  419.5000   -34.5020     6.5255     7.8601   148.0298  -999.2500
  420.0000   -34.5049     6.5161     7.6612   152.5558  -999.2500
  420.5000   -34.2075     6.3652     7.4830   156.3310  -999.2500
  421.0000   -33.6097     6.2103     7.3921   159.3555  -999.2500
  421.5000   -33.1581     6.1306     7.3161   161.6292  -999.2500
  422.0000   -32.4150     6.0510     7.2701   163.9084  -999.2500
  422.5000   -32.1168     5.9714     7.2541   164.6806  -999.2500
  423.0000   -32.2706     5.8907     7.2529   166.2036  -999.2500
  423.5000   -32.7239     5.8864     7.2519   167.7266  -999.2500
  424.0000   -32.8769     5.8068     7.2509   167.7480  -999.2500
  424.5000   -32.8799     5.7272     7.2651   169.3768  -999.2500
  425.0000   -32.8834     5.6476     7.2489   170.7994  -999.2500
  425.5000   -32.7361     5.5669     7.2176   170.0701  -999.2500
  426.0000   -32.7390     5.5626     7.1567   169.3355  -999.2500
  426.5000   -32.4415     5.5583     7.1107   168.6111  -999.2500
  427.0000   -32.4445     5.5540     7.0947   166.3014  -999.2500
  427.5000   -32.8984     5.6250     7.1687   162.6539  -999.2500
  428.0000   -33.5019     5.7713     7.2150   160.4231  -999.2500
  428.5000   -33.6549     5.8422     7.2863   158.1924  -999.2500
  429.0000   -33.5076     5.9875     7.4053   155.9610  -999.2500
  429.5000   -33.3583     6.1348     7.5392   152.9257  -999.2500
  430.0000   -32.7626     6.2048     7.6582   149.2532  -999.2500
  430.5000   -32.7662     6.2757     7.7790   147.0224  -999.2500
  431.0000   -32.9185     6.3467     7.8061   144.7916  -999.2500
  431.5000   -32.7712     6.3413     7.8048   143.3116  -999.2500
  432.0000   -32.6247     6.3370     7.8638   141.8316  -999.2500
  432.5000   -32.4774     6.4081     7.9378   141.1023  -999.2500
  433.0000   -32.4810     6.4036     8.0117   142.6307  -999.2500
  433.5000   -32.7841     6.3983     7.9505   144.1537  -999.2500
  434.0000   -32.7870     6.3940     7.8445   145.6767  -999.2500
  434.5000   -33.0902     6.3897     7.7686   147.9554  -999.2500
  435.0000   -33.2533     6.3101     7.7226   150.9803  -999.2500
  435.5000   -33.3969     6.1506     7.6598   154.0048  -999.2500
  436.0000   -33.3998     5.9992     7.5255   157.0293  -999.2500
  436.5000   -33.4027     5.9949     7.3895   160.0537  -999.2500
  437.0000   -33.4055     5.9906     7.2836   162.3275  -999.2500
  437.5000   -33.4084     5.9863     7.2826   163.8558  -999.2500
  438.0000   -33.4120     5.9820     7.3419   163.8773  -999.2500
  438.5000   -33.4149     6.0519     7.3555   162.3973  -999.2500
  439.0000   -33.2669     6.0476     7.2943   160.9173  -999.2500
  439.5000   -33.4206     6.2692     7.2483   157.1850  -999.2500
  440.0000   -33.4235     6.4154     7.3373   153.3533  -999.2500
  440.5000   -33.2762     6.6370     7.5312   146.7228  -999.2500
  441.0000   -33.4299     6.9329     7.7848   142.2398  -999.2500
  441.5000   -34.0334     7.0792     7.9937   137.7568  -999.2500
  442.0000   -34.4867     7.1512     8.2476   134.0245  -999.2500
  442.5000   -34.6397     7.2222     8.4265   131.7194  -999.2500
  443.0000   -34.1842     7.2921     8.5904   130.3137  -999.2500
  443.5000   -33.7453     7.2876     8.6194   131.8421  -999.2500
  444.0000   -33.4479     7.2071     8.6181   135.6173  -999.2500
  444.5000   -33.4507     7.2028     8.6021   137.1403  -999.2500
  445.0000   -33.3027     7.0479     8.4362   141.7662  -999.2500
  445.5000   -34.0571     6.8177     8.1953   146.9484  -999.2500
  446.0000   -34.6613     6.4277     7.9173   151.4744  -999.2500
  446.5000   -35.1146     6.2056     7.6683   156.7511  -999.2500
  447.0000   -35.2676     6.1260     7.5324   161.2771  -999.2500
  447.5000   -35.2705     5.9711     7.4415   165.0777  -999.2500
  448.0000   -34.6726     5.8162     7.3805   165.8300  -999.2500
  448.5000   -33.9248     5.7364     7.3032   164.3500  -999.2500
  449.0000   -33.7776     5.8065     7.2583   163.6153  -999.2500
  449.5000   -33.9313     5.8785     7.3173   161.3899  -999.2500
  450.0000   -34.0836     5.9961     7.4501   156.9093  -999.2500
  450.5000   -33.9339     6.2890     7.5365   153.1700  -999.2500
  451.0000   -33.9339     6.4665     7.6229   149.4306  -999.2500
  451.5000   -33.9339     6.5375     7.8522   144.9405  -999.2500
  452.0000   -33.9339     6.6084     8.0310   141.9520  -999.2500
  452.5000   -33.9339     6.6918     8.0901   140.4649  -999.2500
  453.0000   -34.0841     6.8257     7.9687   138.2306  -999.2500
  453.5000   -34.1021     6.8202     8.0575   135.9892  -999.2500
  454.0000   -34.2342     6.8923     8.2213   136.0072  -999.2500
  454.5000   -34.5345     6.8869     8.1749   137.5231  -999.2500
  455.0000   -34.8348     6.8825     8.1587   140.5405  -999.2500
  455.5000   -34.6847     6.8780     8.1876   142.0571  -999.2500
  456.0000   -34.2342     6.8728     8.3663   140.5730  -999.2500
  456.5000   -33.7718     6.8684     8.3502   137.5844  -999.2500
  457.0000   -33.1832     6.8641     8.3340   136.8445  -999.2500
  457.5000   -33.0330     6.8598     8.4226   136.1111  -999.2500
  458.0000   -33.0330     6.8554     8.4964   136.1261  -999.2500
  458.5000   -33.3333     6.8509     8.4652   137.0170  -999.2500
  459.0000   -33.6336     6.7704     8.4041   141.4138  -999.2500
  459.5000   -34.2342     6.7660     8.2980   143.6805  -999.2500
  460.0000   -34.3844     6.6864     8.1439   144.4456  -999.2500
  460.5000   -34.3844     6.5314     7.9506   145.9616  -999.2500
