~VERSION INFORMATION
 VERS.                2.0:   CWLS LOG ASCII STANDARD - VERSION 2.0
 WRAP.                 NO:   ONE LINE PER DEPTH STEP
~WELL INFORMATION
#MNEM.UNIT      DATA TYPE    INFORMATION
#----------   ------------   ------------------------------
 STRT.F            0.0000:   START DEPTH
 STOP.F          652.0000:   STOP DEPTH
 STEP.F            0.5000:   STEP LENGTH
 NULL.          -999.2500:   NO VALUE
 COMP. US DEPTMNT OF ENRGY:   COMPANY
 WELL. NPR ##3 14-14-SX-11:   WELL
 FLD .   TEAPOT NAVAL RES:   FIELD
 LOC .      S11 T38N R78W:   LOCATION
 CNTY.            NATRONA:   COUNTY
 STAT.            WYOMING:   STATE
 CTRY. UNITED STATES OF AMERICA:   COUNTRY
 SRVC.            Unknown:   SERVICE COMPANY
 DATE.        03-JAN-1985:   LOGDATE
 API .       490251102400:   API NUMBER
~CURVE INFORMATION
#MNEM.UNIT       API CODE    CURVE DESCRIPTION
#----------   ------------   ------------------------------
 DEPT.F                  :   
 CALD.IN     45 280 60 00:   CALIPER
 CORR.G/C3   45 356 01 00:   DENSITY CORRECTION
 PORD.DEC    45 890 12 00:   DENSITY POROSITY SANDSTONE
 CNC .DEC    42 890 03 00:   NEUTRON POROSITY SANDSTONE
 SPR .MV     11 010 01 00:   SPONTANEOUS POTENTIAL FROM RES.
 GRR .GAPI   11 310 01 00:   GAMMA RAY FROM RES.
 RS  .OHMM   11 220 09 00:   RESISTIVITY SHALLOW
 RD  .OHMM   11 220 10 00:   RESISTIVITY DEEP
 DEN .G/C3   45 350 01 00:   COMPENSATED BULK DENSTIY
~PARAMETER INFORMATION
#MNEM.UNIT          VALUE    DESCRIPTION
#----------   ------------   ------------------------------
 PD  .                 GL:   PERMANENT DATUM
 EPD .F            5197.3:   ELEVATION PERMANENT DATUM
 LMF .                 KB:   LOG MEASURED FROM
 DMF .                 KB:   DRILLING MEASURED FROM
 EKB .F            5197.3:   KELLING BUSHING
 EGL .F            5197.3:   GROUND LEVEL
 DATE.         3-JAN-1985:   RUN DATE
 RUN .                  1:   RUN NUMBER
 DD  .F               650:   DEPTH DRILLER
 DL  .F               653:   DEPTH LOGGER
 BLI .F               651:   BOTTOM LOG INTERVAL
 CS  .IN            8.625:   CASING SIZE
 CBD .F                20:   CASING BOTTOM DRILLER
 CBL .F                20:   CASING BOTTOM LOGGER
 BS  .IN             6.25:   BIT SIZE
 BSD .F               650:   BIT SIZE AT DEPTH
 DFT .                KCL:   DRILLING FLUID TYPE
 RMS .OHMM            .12:   RESISTIVITY MUD SAMPLE
 MST .F                70:   MUD SAMPLE TEMPERATURE
 RMF .OHMM            .09:   RESISTIVITY MUD FILTRATE SAMPLE
 MFST.F                70:   MUD FILTRATE SAMPLE TEMPERATURE
 RMC .OHMM            .15:   RESISTIVITY MUD CAKE
 MCST.F                70:   MUD CAKE SAMPLE TEMPERATURE
 MFSS.               CALC:   MUD FILTRATE SAMPLE SOURCE
 MCSS.               CALC:   MUD CAKE SAMPLE SOURCE
 RMB .OHMM             .1:   RESISTIVITY MUD AT BHT
 BHT .F                80:   BOTTOM HOLE TEMPERATURE
 TCS .HRS               3:   TIME CURCULATED STOPPED
 MRT .F                80:   MAXIMUM RECORDED TEMPERATURE
 LUN .               6274:   LOGGING UNIT NUMBER
 LUL .               GLTE:   LOGGING UNIT LOCATION
 ENGI.               MACK:   RECORDING ENGINEER
 WITN.               PAGE:   WITNESSED BY
 CLNT.            A2DTECH:   CLIENT CODE
 ORIG.       2", 5" PRINT:   ORIGIN OF DATA
 UWI .       490251102400:   UNIQUE WELL ID
 DICO. A2D Technologies, Inc.:   DIGITIZING COMPANY
~OTHER INFORMATION
~A    DEPT    CALD       CORR       PORD        CNC        SPR         GRR        RS         RD        DEN   
# ...
  511.0000     6.3328     0.0571     0.1633     0.2554   -33.0103    83.9507    14.1575    17.2862     2.4017
  511.5000     6.3296     0.0441     0.1659     0.2480   -33.4045    81.5360    14.0795    17.0986     2.3977
  512.0000     6.3264     0.0293     0.1658     0.2399   -33.7686    81.0623    14.0020    16.8926     2.3950
  512.5000     6.3232     0.0144     0.1633     0.2321   -33.7766    81.6429    13.8634    16.6994     2.4031
  513.0000     6.3201     0.0046     0.1587     0.2306   -33.7712    84.3236    13.6525    16.5085     2.4113
  513.5000     6.3169     0.0164     0.1541     0.2312   -33.9261    85.3043    13.4447    16.3197     2.4195
  514.0000     6.3146     0.0304     0.1506     0.2343   -34.1046    85.9928    13.2915    16.1331     2.4276
  514.5000     6.3146     0.0443     0.1474     0.2398   -34.2837    87.3326    13.2046    15.9486     2.4313
  515.0000     6.3146     0.0586     0.1463     0.2452   -34.4623    88.6853    13.1182    15.7662     2.4321
  515.5000     6.3146     0.0636     0.1458     0.2485   -34.6409    89.1478    13.0323    15.5859     2.4319
  516.0000     6.3146     0.0463     0.1467     0.2426   -34.8087    89.1509    12.9389    15.4077     2.4299
  516.5000     6.3146     0.0290     0.1485     0.2380   -34.9460    88.8891    12.8204    15.3078     2.4281
  517.0000     6.3146     0.0281     0.1494     0.2361   -35.0824    88.2608    12.7302    15.3078     2.4275
  517.5000     6.3146     0.0356     0.1474     0.2417   -35.2191    87.5987    12.7302    15.3079     2.4339
  518.0000     6.3146     0.0481     0.1446     0.2453   -35.3570    89.3799    12.7302    15.3078     2.4403
  518.5000     6.3146     0.0593     0.1417     0.2435   -35.3788    91.6070    12.7302    15.3078     2.4420
  519.0000     6.3146     0.0470     0.1427     0.2409   -35.3788    91.6858    12.7302    15.3078     2.4327
  519.5000     6.3146     0.0340     0.1482     0.2413   -35.3790    91.3489    12.7302    15.3078     2.4236
  520.0000     6.3146     0.0242     0.1525     0.2416   -35.3764    91.0847    12.7302    15.3079     2.4218
  520.5000     6.3146     0.0274     0.1529     0.2390   -35.5427    93.9573    12.7302    15.3080     2.4234
  521.0000     6.3146     0.0304     0.1507     0.2365   -35.8025    97.3933    12.7325    15.3078     2.4256
  521.5000     6.3146     0.0333     0.1484     0.2340   -36.0646    97.5942    12.6853    15.2954     2.4298
  522.0000     6.3146     0.0462     0.1461     0.2317   -36.3267    95.5552    12.5776    15.2285     2.4338
  522.5000     6.3146     0.0487     0.1442     0.2304   -36.5887    93.5425    12.4709    15.1635     2.4355
  523.0000     6.3146     0.0387     0.1429     0.2341   -36.8507    91.5474    12.3651    15.0987     2.4374
  523.5000     6.3146     0.0328     0.1395     0.2322   -37.1131    90.2796    12.2602    15.0342     2.4431
  524.0000     6.3146     0.0393     0.1335     0.2286   -37.3746    92.8756    12.1566    14.9700     2.4536
  524.5000     6.3146     0.0520     0.1310     0.2329   -37.5995    95.0956    12.3071    14.9061     2.4582
  525.0000     6.3146     0.0439     0.1342     0.2406   -37.6547    95.8852    12.3702    14.8426     2.4522
  525.5000     6.3146     0.0309     0.1377     0.2415   -37.7127    96.6783    12.4336    14.7789     2.4462
  526.0000     6.3146     0.0191     0.1367     0.2408   -37.7687    97.4684    12.4976    14.6675     2.4511
  526.5000     6.3146     0.0317     0.1322     0.2417   -37.9608    96.5783    12.3458    14.5232     2.4582
  527.0000     6.3146     0.0450     0.1277     0.2446   -38.1827    95.5758    12.1953    14.3806     2.4652
  527.5000     6.3146     0.0485     0.1259     0.2454   -38.4053    94.7447    12.0466    14.2396     2.4656
  528.0000     6.3146     0.0403     0.1299     0.2439   -38.6276    95.1460    11.8997    14.0999     2.4580
  528.5000     6.3146     0.0362     0.1352     0.2429   -38.8499    97.4499    11.7546    13.9596     2.4507
  529.0000     6.3146     0.0362     0.1391     0.2441   -39.0722    98.7010    11.6090    13.9596     2.4432
  529.5000     6.3146     0.0375     0.1407     0.2431   -39.2944    97.3618    11.6871    13.9596     2.4419
  530.0000     6.3146     0.0476     0.1392     0.2393   -39.5167    95.5142    11.7670    14.0617     2.4459
  530.5000     6.3146     0.0481     0.1365     0.2315   -39.7390    95.5958    11.8475    14.1664     2.4494
  531.0000     6.3146     0.0411     0.1353     0.2298   -39.9613    95.0436    11.9285    14.2719     2.4493
  531.5000     6.3146     0.0340     0.1360     0.2393   -40.1840    94.3915    12.0451    14.3783     2.4491
  532.0000     6.3146     0.0292     0.1367     0.2482   -40.4054    94.1662    12.0292    14.4853     2.4490
  532.5000     6.3146     0.0344     0.1369     0.2492   -40.5974    94.7503    12.0017    14.6182     2.4490
  533.0000     6.3146     0.0366     0.1366     0.2449   -40.6979    95.3165    11.9741    14.5520     2.4489
  533.5000     6.3146     0.0391     0.1362     0.2422   -40.8269    96.5015    11.9465    14.4673     2.4488
  534.0000     6.3146     0.0413     0.1362     0.2461   -41.0464    98.1169    11.8852    14.3824     2.4487
  534.5000     6.3146     0.0435     0.1369     0.2512   -41.2662    98.8996    11.7979    14.2981     2.4486
  535.0000     6.3146     0.0396     0.1372     0.2480   -41.4859    97.9361    11.7113    14.2144     2.4485
  535.5000     6.3146     0.0360     0.1364     0.2445   -41.7054    94.8813    11.6254    14.1312     2.4483
  536.0000     6.3146     0.0282     0.1352     0.2410   -41.9249    91.7153    11.5402    14.0484     2.4514
  536.5000     6.3146     0.0161     0.1332     0.2401   -42.1445    93.3795    11.4555    13.9662     2.4549
  537.0000     6.3146     0.0166     0.1312     0.2483   -42.3643    98.8248    11.3715    13.8844     2.4585
  537.5000     6.3146     0.0279     0.1300     0.2534   -42.5902   104.1855    11.2881    13.8001     2.4593
  538.0000     6.3146     0.0394     0.1291     0.2522   -42.8621   104.7607    11.2053    13.5822     2.4593
  538.5000     6.3145     0.0508     0.1279     0.2472   -43.1431   102.2293    11.1232    13.3692     2.4600
  539.0000     6.3152     0.0596     0.1264     0.2421   -43.4245   100.1882    10.9777    13.1593     2.4647
  539.5000     6.3297     0.0553     0.1250     0.2368   -43.7057    99.7120    10.7819    12.9528     2.4694
  540.0000     6.3354     0.0524     0.1236     0.2357   -43.9867    99.1746    10.5895    12.7496     2.4719
  540.5000     6.3354     0.0614     0.1222     0.2391   -44.2682    97.8970    10.4006    12.5496     2.4731
  541.0000     6.3356     0.0703     0.1215     0.2436   -44.6273    98.2651    10.2032    12.4053     2.4713
  541.5000     6.3360     0.0603     0.1235     0.2495   -45.0756    98.9985    10.0746    12.2352     2.4689
  542.0000     6.3363     0.0361     0.1233     0.2553   -45.5671   100.2307     9.9023    12.0675     2.4719
  542.5000     6.3366     0.0432     0.1201     0.2600   -46.0812   105.2489     9.7329    11.9033     2.4772
  543.0000     6.3369     0.0532     0.1168     0.2571   -46.4208   107.9727     9.5664    11.6173     2.4828
  543.5000     6.3372     0.0603     0.1158     0.2536   -46.7248   107.5193     9.3908    11.2357     2.4821
  544.0000     6.3376     0.0425     0.1174     0.2565   -47.2482   105.9541     9.1871    10.8656     2.4777
  544.5000     6.3379     0.0241     0.1225     0.2648   -47.8584   104.3215     8.9673    10.5080     2.4699
  545.0000     6.3382     0.0206     0.1242     0.2778   -48.4698   105.5414     8.7528    10.1623     2.4689
  545.5000     6.3385     0.0306     0.1240     0.2905   -49.0812   107.6820     8.5434     9.8279     2.4696
  546.0000     6.3389     0.0414     0.1259     0.2982   -49.6928   109.9081     7.7119     9.4778     2.4674
  546.5000     6.3392     0.0520     0.1304     0.2982   -50.3021   111.0407     6.7504     8.0983     2.4597
  547.0000     6.3395     0.0583     0.1346     0.2930   -50.9159   111.8890     5.9087     6.8203     2.4526
