~VERSION INFORMATION
 VERS.                2.0:   CWLS LOG ASCII STANDARD - VERSION 2.0
 WRAP.                 NO:   ONE LINE PER DEPTH STEP
~WELL INFORMATION
#MNEM.UNIT      DATA TYPE    INFORMATION
#----------   ------------   ------------------------------
 STRT.F            0.0000:   START DEPTH
 STOP.F          860.0000:   STOP DEPTH
 STEP.F            0.5000:   STEP LENGTH
 NULL.          -999.2500:   NO VALUE
 COMP.          U.S. NAVY:   COMPANY
 WELL. NPR #3 TEAPOT DOME #28S-35:   WELL
 FLD .             TEAPOT:   FIELD
 LOC .      S35 T39N R78W:   LOCATION
 CNTY.            NATRONA:   COUNTY
 STAT.            WYOMING:   STATE
 CTRY. UNITED STATES OF AMERICA:   COUNTRY
 SRVC.       Schlumberger:   SERVICE COMPANY
 DATE.        10-NOV-1958:   LOGDATE
 API .       490250649800:   API NUMBER
~CURVE INFORMATION
#MNEM.UNIT       API CODE    CURVE DESCRIPTION
#----------   ------------   ------------------------------
 DEPT.F                  :   
 SPR .MV     01 010 01 00:   SPONTANEOUS POTENTIAL FROM RES.
 ASN .OHMM   01 041 16 00:   AMPLIFIED SHORT NORMAL 16"
 LT18.OHMM   01 070 18 00:   LATERAL 18'
 LN  .OHMM   01 060 64 00:   LONG NORMAL 64"
 GRN .CPS    35 310 30 00:   GAMMA RAY
 NEUT.CPS    35 330 30 00:   NEUTRON
 MCAL.IN     15 280 01 00:   CALIPER FROM MICRO LOG
~PARAMETER INFORMATION
#MNEM.UNIT          VALUE    DESCRIPTION
#----------   ------------   ------------------------------
 LMF .                 KB:   LOG MEASURED FROM
 DMF .                 KB:   DRILLING MEASURED FROM
 EKB .F              5113:   KELLING BUSHING
 EGL .F              5103:   GROUND LEVEL
 DATE.         11-10-1958:   RUN DATE
 RUN .                  1:   RUN NUMBER
 DD  .F               860:   DEPTH DRILLER
 DL  .F               861:   DEPTH LOGGER
 BLI .F               860:   BOTTOM LOG INTERVAL
 TLI .F                90:   TOP LOG INTERVAL
 CBD .F                34:   CASING BOTTOM DRILLER
 BS  .IN             6.75:   BIT SIZE
 BSD .F               860:   BIT SIZE AT DEPTH
 DFT .          OIL ADDED:   DRILLING FLUID TYPE
 DFD .                 10:   DRILLING FLUID DENSITY
 DFV .                 20:   DRILLING FLUID VISCOSITY
 DFPH.                7.5:   DRILLING FLUID PH
 DFL .                4.2:   DRILLING FLUID LOSS
 RMS .OHMM              2:   RESISTIVITY MUD SAMPLE
 MST .F                62:   MUD SAMPLE TEMPERATURE
 RMF .OHMM            1.4:   RESISTIVITY MUD FILTRATE SAMPLE
 MFST.F                72:   MUD FILTRATE SAMPLE TEMPERATURE
 RMC .OHMM            1.9:   RESISTIVITY MUD CAKE
 MCST.F                72:   MUD CAKE SAMPLE TEMPERATURE
 MFSS.                  M:   MUD FILTRATE SAMPLE SOURCE
 MCSS.                  M:   MUD CAKE SAMPLE SOURCE
 RMB .OHMM            1.7:   RESISTIVITY MUD AT BHT
 BHT .F                72:   BOTTOM HOLE TEMPERATURE
 TCS .HRS               1:   TIME CURCULATED STOPPED
 MRT .F                72:   MAXIMUM RECORDED TEMPERATURE
 LUN .               2754:   LOGGING UNIT NUMBER
 LUL .                 NC:   LOGGING UNIT LOCATION
 ENGI.             QUINBY:   RECORDING ENGINEER
 WITN.             MARTIN:   WITNESSED BY
 CLNT.            A2DTECH:   CLIENT CODE
 ORIG.     1", 2.5" PRINT:   ORIGIN OF DATA
 UWI .       490250649800:   UNIQUE WELL ID
 DICO. A2D Technologies, Inc.:   DIGITIZING COMPANY
~OTHER INFORMATION
~A    DEPT     SPR        ASN       LT18         LN          GRN     NEUT       MCAL   
# ...
  500.5000   -24.8475    10.4065    10.5467     9.9239     7.1676   448.6279     6.7537
  501.0000   -24.7092    10.4074    10.5521     9.7927     6.8756   447.1122     6.7314
  501.5000   -24.8188    10.1381    10.4223     9.7974     6.8688   453.4610     6.7217
  502.0000   -24.8334     9.7336    10.2924     9.6658     6.9164   456.2962     6.7218
  502.5000   -24.8188     9.4642    10.1626     9.6708     7.1295   449.8183     6.7220
  503.0000   -25.3623     9.9785    10.0324     9.8114     7.0997   439.5221     6.7221
  503.5000   -26.0629     9.8916    10.0381     9.6801     6.8894   441.0622     6.7222
  504.0000   -26.2210     9.8645    10.1786     9.5489     6.8952   449.4719     6.7224
  504.5000   -25.7280     9.8462    10.3190     9.4177     6.9853   455.4378     6.7225
  505.0000   -25.4469     9.8103    10.3244     9.4226     6.9761   451.0217     6.7226
  505.5000   -26.5245     9.7563    10.3297     9.4273     6.9923   447.6359     6.7502
  506.0000   -25.6999     9.6751    10.3351     9.1404     7.3069   457.1546     6.7503
  506.5000   -25.6906     9.6082    10.4757     9.0039     7.2663   453.3484     6.7504
  507.0000   -25.6812     9.5399    10.4811     9.0339     7.1329   458.7039     6.7506
  507.5000   -25.7110     9.4858    10.4865     9.0387     7.3087   457.9516     6.7780
  508.0000   -25.6625     9.4159    10.3563     9.0435     7.2475   464.0706     6.7782
  508.5000   -25.9249     9.3406    10.3344     9.0482     7.0010   462.5548     6.7783
  509.0000   -26.4591     9.2334    10.2318     9.1055     6.8979   456.4563     6.7784
  509.5000   -26.7215     9.1262    10.1020     9.1936     7.0233   471.5092     6.8059
  510.0000   -26.4312     8.9920    10.1081     9.1349     7.1319   474.8020     6.8060
  510.5000   -26.4865     8.9658    10.1135     8.8626     7.3535   471.0614     6.8061
  511.0000   -27.2369     9.0479    10.1189     8.5901     7.2021   449.7339     6.8080
  511.5000   -26.9176     9.1840    10.3128     8.3974     7.1488   457.2021     6.8337
  512.0000   -26.6747     9.2390    10.4577     8.4030     7.4311   462.6341     6.8065
  512.5000   -27.5927     9.1318    10.7377     8.2710     7.5207   454.9473     6.8067
  513.0000   -27.7430     8.9976    11.0175     8.0048     7.2517   447.3896     6.7795
  513.5000   -27.4606     9.2147    11.1565     7.8730     7.2353   448.9277     6.7523
  514.0000   -27.3659     9.2157    11.0973     7.7418     7.3576   452.7563     6.7524
  514.5000   -26.4371     9.0172    10.8885     7.7230     7.1485   455.0579     6.7526
  515.0000   -25.3215     8.6678    10.4335     7.8875     6.8856   458.8864     6.7800
  515.5000   -24.2060     8.4618    10.1685     8.1639     7.0715   459.6611     6.7938
  516.0000   -23.3370     8.1114     9.7684     8.1686     7.0721   454.3279     6.8077
  516.5000   -24.0037     7.7610     9.3683     8.1733     7.3198   445.9409     6.8351
  517.0000   -24.8188     7.4917     8.9683     8.3139     7.0322   439.8443     6.8079
  517.5000   -24.0919     7.3845     8.8384     8.3185     7.2799   458.3701     6.8081
  518.0000   -23.2970     7.3854     8.8438     8.0371     7.4452   457.9875     6.8082
  518.5000   -23.8311     7.3876     8.8491     7.9202     7.6929   457.4377     6.8083
  519.0000   -24.0951     7.5289     8.9895     7.9252     7.6946   470.0463     6.7812
  519.5000   -24.0842     7.7474     8.9949     7.9300     7.6843   487.8756     6.7813
  520.0000   -24.8901     7.8217     9.1353     7.7627     7.4161   496.4083     6.7814
  520.5000   -24.6090     7.8272     9.2758     7.6262     7.4354   471.1777     6.7816
  521.0000   -24.0561     7.8561     9.2811     7.5359     7.3879   460.6515     6.7544
  521.5000   -24.0468     7.9187     9.4216     7.5414     7.1199   459.4287     6.7545
  522.0000   -24.3092     7.9605     9.2917     7.5462     7.3472   455.1260     6.7512
  522.5000   -24.2998     7.9700     9.2849     7.5510     7.4260   447.0962     6.7274
  523.0000   -24.2905     7.9895     9.1509     7.4199     7.2010   458.3073     6.7215
  523.5000   -24.5530     7.9693     9.0169     7.4246     6.8438   452.2107     6.6930
  524.0000   -24.2682     7.9334     8.8828     7.4293     6.8769   447.6410     6.6645
  524.5000   -23.9907     8.0569     8.7778     7.4350     7.1239   432.3828     6.6360
  525.0000   -25.1356     8.2229     8.6480     7.5755     7.2068   424.7592     6.6849
  525.5000   -25.6025     8.3060     8.6921     7.5802     7.2486   429.3512     6.7683
  526.0000   -25.3207     8.3465     8.7946     7.4484     7.0845   435.4701     6.8244
  526.5000   -25.3111     8.3746     8.8000     7.4536     7.4351   440.0621     6.8652
  527.0000   -25.6947     8.4026     8.8054     7.5942     7.5799   446.9956     6.8926
  527.5000   -25.4236     8.4576     8.8108     7.4626     7.2482   445.8746     6.8928
  528.0000   -24.3079     8.5396     8.8756     7.4676     7.5605   438.1629     6.8929
  528.5000   -23.9144     8.6216     8.8930     7.4723     7.2481   431.9137     6.8930
  529.0000   -23.9049     8.5414     8.7591     7.4769     7.1068   425.3084     6.8932
  529.5000   -23.8954     8.4883     8.6973     7.4817     7.0887   415.7126     6.8933
  530.0000   -23.8859     8.3811     8.5676     7.4865     7.1347   412.6553     6.8934
  530.5000   -24.0036     8.2740     8.5740     7.4912     7.3527   421.2962     6.8936
  531.0000   -24.2754     8.2479     8.5794     7.4959     7.2399   431.7929     6.8937
  531.5000   -24.8188     8.2758     8.5847     7.5006     6.9264   435.6462     6.8938
  532.0000   -25.7500     8.3038     8.5900     7.5054     7.4777   428.2774     6.8940
  532.5000   -25.7387     8.3615     8.5953     7.5102     7.6608   432.8192     6.8941
  533.0000   -26.2728     8.4432     8.4649     7.5149     7.5971   443.2668     6.8942
  533.5000   -25.4482     8.4992     8.4708     7.5668     7.5231   444.8050     6.8944
  534.0000   -24.8954     8.4881     8.4762     7.6603     7.5474   442.8800     6.8945
  534.5000   -24.6143     8.4436     8.3459     7.6651     7.5892   443.6305     6.8946
  535.0000   -25.1484     8.3924     8.2162     7.5340     7.4663   434.9134     6.8948
  535.5000   -25.1893     8.2761     8.0867     7.5387     7.2609   431.8706     6.8676
  536.0000   -24.5863     8.2572     8.0920     7.5435     7.2204   429.5914     6.8677
  536.5000   -24.0334     8.2675     8.0974     7.5482     7.4269   425.0217     6.8679
  537.0000   -23.4806     8.2862     8.1027     7.2821     7.5510   429.8172     6.8407
  537.5000   -22.9278     8.1993     8.1080     7.4227     7.5928   436.2421     6.8409
  538.0000   -22.9184     8.0719     7.9782     7.4273     7.1338   447.9601     6.8410
  538.5000   -22.6374     8.0728     7.9838     7.4320     7.0175   440.6808     6.8411
  539.0000   -22.9341     8.1008     7.9892     7.4366     7.5189   441.4167     6.8413
  539.5000   -24.0304     8.0173     7.9946     7.3054     7.3026   447.9946     6.8141
  540.0000   -24.2398     7.8867     8.0000     7.1739     7.3543   444.4431     6.8142
  540.5000   -23.6403     7.8876     8.0367     7.0428     7.2819   435.2165     6.8144
  541.0000   -23.3496     7.8885     8.1815     6.9117     7.1852   432.0976     6.8145
  541.5000   -23.3965     7.8895     8.3263     6.7806     7.3183   424.4483     6.8146
  542.0000   -23.6589     7.7823     8.4712     6.7854     7.1997   427.6405     6.8148
  542.5000   -23.7319     7.6481     8.5676     6.7901     7.2846   424.0775     6.8149
  543.0000   -23.9119     7.4058     8.5730     6.7948     7.2872   431.2804     6.8150
  543.5000   -23.6291     7.1634     8.3862     6.7996     7.2091   448.0879     6.8096
  544.0000   -23.5072     6.8941     8.1171     6.8043     7.2033   445.7563     6.7880
  544.5000   -23.3383     6.5977     7.7128     6.8091     7.2309   448.8737     6.7881
  545.0000   -23.0571     6.3284     7.2388     6.8138     7.8081   431.3250     6.7882
  545.5000   -23.0476     6.0860     6.9784     6.8186     7.8910   428.2823     6.7993
