~VERSION INFORMATION
 VERS.                2.0:   CWLS LOG ASCII STANDARD - VERSION 2.0
 WRAP.                 NO:   ONE LINE PER DEPTH STEP
~WELL INFORMATION
#MNEM.UNIT      DATA TYPE    INFORMATION
#----------   ------------   ------------------------------
 STRT.F           40.0000:   START DEPTH
 STOP.F          596.0000:   STOP DEPTH
 STEP.F            0.5000:   STEP LENGTH
 NULL.          -999.2500:   NO VALUE
 COMP. FENIX & SCISSON INC:   COMPANY
 WELL. SX-15 N.O.R. #3 #51-15:   WELL
 FLD .             TEAPOT:   FIELD
 LOC .      S15 T38N R78W:   LOCATION
 CNTY.            NATRONA:   COUNTY
 STAT.            WYOMING:   STATE
 CTRY. UNITED STATES OF AMERICA:   COUNTRY
 SRVC.              Welex:   SERVICE COMPANY
 DATE.        12-MAR-1977:   LOGDATE
 API .       490251031100:   API NUMBER
~CURVE INFORMATION
#MNEM.UNIT       API CODE    CURVE DESCRIPTION
#----------   ------------   ------------------------------
 DEPT.F                  :   
 GRD .GAPI   45 310 01 00:   GAMMA RAY FROM DENSITY LOG
 CALD.IN     45 280 60 00:   CALIPER FROM DENSITY LOG
 CORR.G/C3   45 356 01 00:   DENSITY CORRECTION
 RHOB.G/C3   45 350 01 00:   BULK DENSITY
 DPOR.DEC    45 890 12 00:   DENSITY POROSITY SANDSTONE
 SGRD.OHMM   07 220 05 00:   SHALLOW GUARD RESISTIVITY
 ILD .OHMM   07 120 46 00:   INDUCTION LOG DEEP
 ILM .OHMM   07 120 44 00:   INDUCTION LOG MEDIUM
 SPR .MV     07 010 01 00:   SPONTANEOUS POTENTIAL
~PARAMETER INFORMATION
#MNEM.UNIT          VALUE    DESCRIPTION
#----------   ------------   ------------------------------
 PD  .                 GL:   PERMANENT DATUM
 EPD .F              5221:   ELEVATION PERMANENT DATUM
 LMF .                 GL:   LOG MEASURED FROM
 DMF .                 GL:   DRILLING MEASURED FROM
 EGL .F              5221:   GROUND LEVEL
 DATE.            3-12-77:   RUN DATE
 RUN .                  1:   RUN NUMBER
 DD  .F               600:   DEPTH DRILLER
 DL  .F               597:   DEPTH LOGGER
 BLI .F               596:   BOTTOM LOG INTERVAL
 TLI .F                45:   TOP LOG INTERVAL
 CS  .IN            8.625:   CASING SIZE
 CBD .F                46:   CASING BOTTOM DRILLER
 CBL .F                45:   CASING BOTTOM LOGGER
 BS  .IN            7.875:   BIT SIZE
 BSD .F               600:   BIT SIZE AT DEPTH
 DFT .            KCL-MUD:   DRILLING FLUID TYPE
 DFD .                8.9:   DRILLING FLUID DENSITY
 DFV .                 34:   DRILLING FLUID VISCOSITY
 MSS .            MUD PIT:   MUD SAMPLE SOURCE
 RMS .OHMM            .68:   RESISTIVITY MUD SAMPLE
 MST .F                40:   MUD SAMPLE TEMPERATURE
 RMF .OHMM            .57:   RESISTIVITY MUD FILTRATE SAMPLE
 MFST.F                40:   MUD FILTRATE SAMPLE TEMPERATURE
 RMC .OHMM            .78:   RESISTIVITY MUD CAKE
 MCST.F                40:   MUD CAKE SAMPLE TEMPERATURE
 MFSS.           MEASURED:   MUD FILTRATE SAMPLE SOURCE
 MCSS.           MEASURED:   MUD CAKE SAMPLE SOURCE
 RMB .OHMM            .41:   RESISTIVITY MUD AT BHT
 BHT .F                65:   BOTTOM HOLE TEMPERATURE
 TCS .HRS               3:   TIME CURCULATED STOPPED
 MRT .F                65:   MAXIMUM RECORDED TEMPERATURE
 LUN .                716:   LOGGING UNIT NUMBER
 LUL .             VERNAL:   LOGGING UNIT LOCATION
 ENGI.           CALLAHAN:   RECORDING ENGINEER
 WITN.         STUEBINGER:   WITNESSED BY
 CLNT.            A2DTECH:   CLIENT CODE
 ORIG.       2", 5" PRINT:   ORIGIN OF DATA
 UWI .       490251031100:   UNIQUE WELL ID
 DICO. A2D Technologies, Inc.:   DIGITIZING COMPANY
~OTHER INFORMATION
~A   DEPT       GRD        CALD     CORR       RHOB       DPOR       SGRD        ILD        ILM        SPR   
# ...
  113.0000   119.3441     7.9138     0.0473     2.4176     0.1415     9.1223     6.8885     7.0505   -63.9852
  113.5000   118.1006     7.9138     0.0626     2.4322     0.1353     9.0508     6.9979     7.3241   -63.9491
  114.0000   117.1498     7.9138     0.0790     2.4484     0.1253     9.3033     7.1090     7.5964   -63.9074
  114.5000   116.5213     7.9138     0.0538     2.4576     0.1178     9.6249     7.2219     7.5307   -63.8657
  115.0000   115.9128     7.9138     0.0493     2.4562     0.1246     9.9585     7.3366     7.5245   -63.8240
  115.5000   116.8227     7.9138     0.0500     2.4546     0.1159    10.3033     7.4531     7.8614   -63.7823
  116.0000   117.7850     7.9138     0.0538     2.4633     0.1131    10.6600     7.5715     8.4354   -63.7407
  116.5000   117.6442     7.9138     0.0580     2.4777     0.1062    11.0290     7.6917     9.2155   -63.6990
  117.0000   117.6409     7.9138     0.0622     2.4920     0.0993    11.5011     7.8095     8.4032   -63.6573
  117.5000   118.3507     7.9138     0.0665     2.4993     0.0957    11.2385     7.8095     8.1224   -63.6157
  118.0000   119.1440     7.9138     0.0707     2.5038     0.0966    10.8266     7.7309     8.0361   -63.5740
  118.5000   119.8243     7.9138     0.0673     2.4909     0.1101    10.4306     7.6384     7.9548   -63.5323
  119.0000   119.7222     7.9138     0.0391     2.4523     0.1236    10.0598     7.5470     7.8342   -63.4907
  119.5000   119.6109     7.9138     0.0327     2.4324     0.1340     9.7041     7.4568     7.6945   -63.4491
  120.0000   119.5038     7.9138     0.0354     2.4349     0.1341     9.5484     7.3676     7.5572   -63.4074
  120.5000   119.3995     7.9138     0.0380     2.4373     0.1308     9.4264     7.2794     7.4576   -63.3592
  121.0000   119.2832     7.9138     0.0406     2.4388     0.1348     9.3060     7.1924     7.4119   -63.2796
  121.5000   119.0858     7.9138     0.0432     2.4291     0.1320     9.2192     7.1063     7.3892   -63.2001
  122.0000   117.9686     7.9138     0.0458     2.4195     0.1403     9.2163     7.0209     7.6643   -63.1207
  122.5000   116.8792     7.9138     0.0485     2.4101     0.1427     9.4714     6.9262     7.8812   -63.0414
  123.0000   115.7920     7.9138     0.0526     2.4149     0.1450     9.7160     6.9883     7.7753   -62.9620
  123.5000   114.7131     7.9138     0.0618     2.4218     0.1449     9.9636     7.0811     7.7370   -62.8826
  124.0000   113.7834     7.9138     0.0702     2.4286     0.1347    10.2977     7.1741     7.5933   -62.8033
  124.5000   114.2257     7.9138     0.0749     2.4314     0.1338     9.6135     7.2684     7.2542   -62.7239
  125.0000   114.7283     7.9138     0.0787     2.4346     0.1336     8.5637     7.3639     7.5894   -62.6446
  125.5000   115.2311     7.9138     0.0823     2.4414     0.1255     9.7083     7.4607     7.8786   -62.5655
  126.0000   115.7300     7.9138     0.0724     2.4447     0.1196    10.2977     7.5592     7.9928   -62.4841
  126.5000   116.2615     7.9138     0.0606     2.4384     0.1324    10.3931     7.6668     8.1749   -62.3992
  127.0000   117.6612     7.9138     0.0586     2.4442     0.1293    10.1510     7.7433     8.8499   -62.1630
  127.5000   119.0769     7.9138     0.0721     2.4540     0.1251     9.9249     7.8281     9.5807   -62.2076
  128.0000   120.4679     7.9138     0.0670     2.4638     0.1208    11.2923     7.9138    10.1096   -62.4058
  128.5000   121.9217     7.9138     0.0571     2.4737     0.1165    11.7858     8.0005     9.9331   -62.5968
  129.0000   125.3980     7.9138     0.0470     2.4775     0.1122    12.1566     8.0881     9.8338   -62.7880
  129.5000   127.0055     7.9138     0.0369     2.4759     0.1127    11.5969     8.1767     9.9249   -62.9698
  130.0000   127.9260     7.9138     0.0322     2.4743     0.1151    11.5024     8.2583     9.8827   -62.9360
  130.5000   128.8040     7.9138     0.0322     2.4726     0.1170    11.5024     8.2916     9.8338   -62.8732
  131.0000   129.6867     7.9138     0.0321     2.4710     0.1165    12.2692     8.3250     9.8792   -62.8104
  131.5000   130.5737     7.9138     0.0290     2.4694     0.1160    12.1922     8.3588     9.9274   -62.7479
  132.0000   131.4541     7.9138     0.0268     2.4683     0.1165    12.0451     8.4071     9.9759   -62.6854
  132.5000   132.2752     7.9138     0.0316     2.4684     0.1172    12.1231     8.3742    10.0168   -62.6229
  133.0000   132.6631     7.9138     0.0363     2.4703     0.1180    12.2692     8.3139     9.8935   -62.5604
  133.5000   132.6539     7.9138     0.0410     2.4726     0.1173    11.8294     8.2545     9.7436   -62.4980
  134.0000   132.4999     7.9138     0.0458     2.4797     0.1144    11.2923     8.1955     9.7757   -62.4358
  134.5000   131.9788     7.9138     0.0504     2.4858     0.1115    11.3410     8.1369     9.8338   -62.3722
  135.0000   131.0458     7.9138     0.0547     2.4790     0.1111    11.4015     8.0788     9.4865   -62.2603
  135.5000   130.0993     7.9138     0.0480     2.4701     0.1140    11.4661     8.0211     9.2192   -62.1488
  136.0000   130.2069     7.9138     0.0392     2.4616     0.1231    11.5024     7.9638     9.3207   -62.0382
  136.5000   130.3826     7.9138     0.0584     2.4650     0.1191    11.0680     7.9069     9.4074   -61.9856
  137.0000   130.5553     7.9138     0.0682     2.4689     0.1122    10.7649     7.8504     9.4778   -62.0090
  137.5000   130.7193     7.9138     0.0669     2.4703     0.1066    10.4700     7.7943     9.0820   -62.0316
  138.0000   130.6897     7.9138     0.0592     2.4673     0.1103    10.1833     7.7385     8.7653   -62.0544
  138.5000   129.5254     7.9138     0.0610     2.4789     0.1023    10.0168     7.6831     8.6415   -62.0771
  139.0000   128.3551     7.9138     0.0780     2.4997     0.0923    10.2193     7.6284     8.8854   -62.0998
  139.5000   128.3573     7.9138     0.0708     2.5071     0.0861    10.6748     7.5964     8.8039   -62.1226
  140.0000   129.2006     7.9138     0.0591     2.4984     0.0931    11.6073     7.7402     8.9642   -62.1453
  140.5000   130.0446     7.9138     0.0471     2.4873     0.1018    12.4149     7.8605     9.2303   -62.1672
  141.0000   130.5271     7.9138     0.0353     2.4760     0.1104    12.4976     7.9827     9.5043   -62.1168
  141.5000   130.9975     7.9138     0.0260     2.4655     0.1187    12.1281     8.1068     9.8349   -61.9886
  142.0000   131.4460     7.9138     0.0294     2.4660     0.1179    11.9345     8.2329     9.7620   -61.8613
  142.5000   131.2306     7.9138     0.0327     2.4668     0.1172    12.7302     8.4072     9.6541   -61.7336
  143.0000   131.9082     7.9138     0.0359     2.4659     0.1175    12.4408     8.3992     9.5196   -61.6059
  143.5000   133.7983     7.9138     0.0392     2.4626     0.1194    12.1052     8.3867     9.3919   -61.4782
  144.0000   132.8571     7.9138     0.0415     2.4604     0.1211    11.7785     8.3742     9.2657   -61.3506
  144.5000   131.8333     7.9138     0.0442     2.4679     0.1172    11.4595     8.3616     9.1419   -61.2229
  145.0000   130.8064     7.9138     0.0470     2.4753     0.1134    11.2911     8.3490     9.0512   -61.0956
  145.5000   130.7247     7.9138     0.0498     2.4827     0.1107    11.2923     8.3367     9.1687   -60.9742
  146.0000   131.1432     7.9138     0.0520     2.4893     0.1118    11.5169     8.3301     9.2635   -60.8690
  146.5000   131.0657     7.9138     0.0465     2.4827     0.1129    11.7165     8.4779     9.3908   -60.7677
  147.0000   130.6375     7.9139     0.0458     2.4751     0.1139    11.7171     8.5964     9.3421   -60.6667
  147.5000   129.6886     7.9141     0.0611     2.4700     0.1077    11.7161     8.7166     9.2704   -60.5657
  148.0000   128.7705     7.9143     0.0764     2.4886     0.0897    11.7186     8.8039     9.2192   -60.4646
  148.5000   129.8680     7.9145     0.0756     2.4944     0.0944    11.7108     8.8039     9.9312   -60.3636
  149.0000   129.1957     7.9147     0.0693     2.4925     0.0994    12.3182     8.8039    10.5852   -60.2626
