~VERSION INFORMATION
 VERS.                2.0:   CWLS LOG ASCII STANDARD - VERSION 2.0
 WRAP.                 NO:   ONE LINE PER DEPTH STEP
~WELL INFORMATION
#MNEM.UNIT      DATA TYPE    INFORMATION
#----------   ------------   ------------------------------
 STRT.F           42.0000:   START DEPTH
 STOP.F          530.5000:   STOP DEPTH
 STEP.F            0.5000:   STEP LENGTH
 NULL.          -999.2500:   NO VALUE
 COMP. LAWRENCE/ALLISON INC:   COMPANY
 WELL. 65-25-1 SX FI #3-3:   WELL
 FLD .              NPR 3:   FIELD
 LOC .       S3 T38N R78W:   LOCATION
 CNTY.            NATRONA:   COUNTY
 STAT.            WYOMING:   STATE
 CTRY. UNITED STATES OF AMERICA:   COUNTRY
 SRVC.       Schlumberger:   SERVICE COMPANY
 DATE.        08-JUL-1982:   LOGDATE
 API .       490251093000:   API NUMBER
~CURVE INFORMATION
#MNEM.UNIT       API CODE    CURVE DESCRIPTION
#----------   ------------   ------------------------------
 DEPT.F                  :   
 GRD .GAPI   45 310 01 00:   GAMMA RAY FROM DENSITY LOG
 CALD.IN     45 280 60 00:   CALIPER
 RHOB.G/C3   45 350 01 00:   BULK DENSITY
 DPHI.DEC    45 890 12 00:   DENSITY POROSITY SANDSTONE
 CORR.G/C3   45 356 01 00:   DENSITY CORRECTION
~PARAMETER INFORMATION
#MNEM.UNIT          VALUE    DESCRIPTION
#----------   ------------   ------------------------------
 PD  .                 GL:   PERMANENT DATUM
 EPD .F              5162:   ELEVATION PERMANENT DATUM
 LMF .                 KB:   LOG MEASURED FROM
 DAPD.F                 9:   FEET ABOVE PERMANENT DATUM
 DMF .                 KB:   DRILLING MEASURED FROM
 EKB .F              5171:   KELLING BUSHING
 EGL .F              5162:   GROUND LEVEL
 DATE.             7-8-82:   RUN DATE
 RUN .                  1:   RUN NUMBER
 DD  .F               531:   DEPTH DRILLER
 DL  .F               533:   DEPTH LOGGER
 BLI .F               530:   BOTTOM LOG INTERVAL
 TLI .F                52:   TOP LOG INTERVAL
 CS  .IN           13.375:   CASING SIZE
 CBD .F                50:   CASING BOTTOM DRILLER
 CBL .F                52:   CASING BOTTOM LOGGER
 BS  .IN            12.25:   BIT SIZE
 BSD .F               531:   BIT SIZE AT DEPTH
 DFT .                AIR:   DRILLING FLUID TYPE
 TCS .HRS            0500:   TIME CURCULATED STOPPED
 TLAB.HRS            0700:   TIME LOGGER AT BOTTOM
 LUL .               CSPR:   LOGGING UNIT LOCATION
 WITN.             TAYLOR:   WITNESSED BY
 CLNT.            A2DTECH:   CLIENT CODE
 ORIG.           5" PRINT:   ORIGIN OF DATA
 UWI .       490251093000:   UNIQUE WELL ID
 DICO. A2D Technologies, Inc.:   DIGITIZING COMPANY
~OTHER INFORMATION
~A   DEPT       GRD      CALD       RHOB       DPHI       CORR   
# ...
  103.0000    88.4435    12.5935     2.5003     0.1060     0.0332
  103.5000    89.8214    12.5987     2.4934     0.1103     0.0188
  104.0000    90.8805    12.6039     2.4896     0.1123     0.0118
  104.5000    88.6588    12.6089     2.4976     0.1099     0.0208
  105.0000    86.3589    12.6211     2.4931     0.1086     0.0259
  105.5000    84.0604    12.6259     2.4884     0.1121     0.0294
  106.0000    83.0578    12.6144     2.4869     0.1158     0.0372
  106.5000    84.7914    12.6031     2.4952     0.1092     0.0517
  107.0000    86.2942    12.5917     2.5015     0.1050     0.0432
  107.5000    87.2957    12.5803     2.4960     0.1095     0.0304
  108.0000    86.8214    12.5690     2.4808     0.1182     0.0177
  108.5000    87.3797    12.5576     2.4642     0.1268     0.0103
  109.0000    87.9015    12.5532     2.4597     0.1301     0.0192
  109.5000    87.2441    12.5553     2.4577     0.1320     0.0288
  110.0000    87.2348    12.5574     2.4492     0.1362     0.0316
  110.5000    88.6432    12.5595     2.4403     0.1410     0.0241
  111.0000    90.0082    12.5616     2.4382     0.1418     0.0166
  111.5000    89.1107    12.5637     2.4422     0.1404     0.0167
  112.0000    84.9436    12.5658     2.4522     0.1350     0.0184
  112.5000    80.7593    12.5680     2.4621     0.1286     0.0201
  113.0000    79.3901    12.5701     2.4737     0.1223     0.0219
  113.5000    78.6476    12.5722     2.4856     0.1159     0.0244
  114.0000    78.5871    12.5743     2.4850     0.1166     0.0268
  114.5000    78.7067    12.5764     2.4738     0.1199     0.0274
  115.0000    78.7862    12.5785     2.4619     0.1287     0.0281
  115.5000    80.1038    12.5806     2.4492     0.1378     0.0270
  116.0000    82.5779    12.5828     2.4358     0.1469     0.0173
  116.5000    87.0904    12.5849     2.4230     0.1538     0.0077
  117.0000    91.5783    12.5870     2.4203     0.1530     0.0004
  117.5000    92.2872    12.5891     2.4290     0.1502     0.0024
  118.0000    91.0173    12.5914     2.4426     0.1434     0.0130
  118.5000    89.7974    12.5993     2.4559     0.1347     0.0253
  119.0000    90.3656    12.6079     2.4698     0.1260     0.0327
  119.5000    91.0900    12.6165     2.4704     0.1231     0.0284
  120.0000    90.1648    12.6251     2.4669     0.1274     0.0194
  120.5000    88.9494    12.6336     2.4601     0.1321     0.0204
  121.0000    90.8647    12.6422     2.4523     0.1368     0.0186
  121.5000    92.9432    12.6508     2.4463     0.1392     0.0167
  122.0000    95.0559    12.6593     2.4498     0.1370     0.0198
  122.5000    93.6977    12.6679     2.4526     0.1343     0.0230
  123.0000    91.2668    12.6765     2.4449     0.1380     0.0245
  123.5000    88.6370    12.6852     2.4369     0.1433     0.0256
  124.0000    86.2191    12.6960     2.4290     0.1485     0.0215
  124.5000    87.4467    12.7095     2.4259     0.1499     0.0168
  125.0000    89.6814    12.7232     2.4259     0.1507     0.0120
  125.5000    91.9864    12.7368     2.4245     0.1515     0.0115
  126.0000    91.7722    12.7462     2.4214     0.1524     0.0136
  126.5000    89.8567    12.7236     2.4285     0.1504     0.0203
  127.0000    87.9994    12.7013     2.4381     0.1446     0.0194
  127.5000    86.9778    12.6790     2.4481     0.1388     0.0147
  128.0000    88.4176    12.6567     2.4498     0.1372     0.0095
  128.5000    89.8290    12.6344     2.4295     0.1452     0.0048
  129.0000    91.2321    12.6121     2.4251     0.1520     0.0101
  129.5000    92.1227    12.5898     2.4264     0.1466     0.0158
  130.0000    90.2679    12.5675     2.4403     0.1380     0.0214
  130.5000    87.2782    12.5452     2.4591     0.1294     0.0270
  131.0000    84.7421    12.5230     2.4634     0.1279     0.0244
  131.5000    84.6813    12.5003     2.4529     0.1343     0.0205
  132.0000    85.7909    12.5050     2.4344     0.1499     0.0168
  132.5000    86.9595    12.5223     2.4262     0.1501     0.0234
  133.0000    86.5925    12.5398     2.4340     0.1432     0.0309
  133.5000    85.6447    12.5497     2.4524     0.1336     0.0360
  134.0000    83.7220    12.5248     2.4560     0.1319     0.0246
  134.5000    81.9930    12.4998     2.4367     0.1475     0.0089
  135.0000    82.6539    12.4749     2.4213     0.1539    -0.0002
  135.5000    86.2236    12.4532     2.4143     0.1587     0.0009
  136.0000    90.1440    12.4537     2.4084     0.1604     0.0020
  136.5000    90.4531    12.4538     2.4191     0.1557     0.0056
  137.0000    89.8332    12.4538     2.4299     0.1490     0.0122
  137.5000    90.8038    12.4538     2.4407     0.1423     0.0191
  138.0000    92.1769    12.4538     2.4477     0.1399     0.0261
  138.5000    91.5703    12.4538     2.4446     0.1405     0.0245
  139.0000    89.8675    12.4538     2.4383     0.1435     0.0203
  139.5000    90.3630    12.4538     2.4320     0.1465     0.0160
  140.0000    93.8519    12.4538     2.4285     0.1496     0.0131
  140.5000    97.2610    12.4536     2.4357     0.1449     0.0172
  141.0000    99.5235    12.4614     2.4453     0.1393     0.0212
  141.5000    94.4472    12.4700     2.4551     0.1338     0.0252
  142.0000    90.2730    12.4787     2.4648     0.1283     0.0292
  142.5000    88.3658    12.4872     2.4723     0.1231     0.0333
  143.0000    89.4047    12.4915     2.4682     0.1259     0.0269
  143.5000    91.0456    12.4858     2.4506     0.1350     0.0190
  144.0000    92.6811    12.4803     2.4328     0.1436     0.0110
  144.5000    94.3126    12.4747     2.4337     0.1448     0.0174
  145.0000    95.5895    12.4692     2.4426     0.1401     0.0251
  145.5000    94.7875    12.4636     2.4498     0.1387     0.0258
  146.0000    93.6818    12.4581     2.4520     0.1361     0.0177
  146.5000    94.3064    12.4581     2.4555     0.1320     0.0131
  147.0000    95.9633    12.4819     2.4648     0.1266     0.0160
  147.5000    95.9024    12.5052     2.4740     0.1209     0.0242
  148.0000    93.5247    12.5284     2.4827     0.1188     0.0322
  148.5000    91.7748    12.5516     2.4816     0.1182     0.0384
  149.0000    92.6199    12.5747     2.4758     0.1219     0.0426
  149.5000    94.7977    12.5920     2.4666     0.1279     0.0358
  150.0000    94.4876    12.5976     2.4531     0.1345     0.0245
  150.5000    91.8698    12.6033     2.4396     0.1410     0.0131
  151.0000    89.3489    12.6091     2.4390     0.1428     0.0047
  151.5000    90.4880    12.6148     2.4486     0.1365     0.0064
  152.0000    91.8624    12.6206     2.4621     0.1288     0.0161
  152.5000    92.6890    12.6263     2.4757     0.1210     0.0271
  153.0000    92.6875    12.6313     2.4893     0.1132     0.0381
  153.5000    92.2685    12.6128     2.5030     0.1055     0.0491
  154.0000    91.6475    12.5915     2.5071     0.1040     0.0547
  154.5000    90.7547    12.5702     2.4885     0.1135     0.0468
  155.0000    89.2282    12.5534     2.4648     0.1254     0.0312
  155.5000    87.6947    12.5683     2.4549     0.1331     0.0207
  156.0000    87.0005    12.5828     2.4483     0.1388     0.0136
  156.5000    89.3368    12.5971     2.4365     0.1439     0.0083
  157.0000    91.8278    12.6115     2.4263     0.1489     0.0054
  157.5000    94.1368    12.6260     2.4253     0.1516     0.0045
  158.0000    94.5656    12.6306     2.4337     0.1464     0.0055
  158.5000    94.9399    12.6307     2.4420     0.1416     0.0090
  159.0000    95.3088    12.6307     2.4502     0.1368     0.0166
  159.5000    94.8321    12.6306     2.4584     0.1320     0.0276
  160.0000    94.2707    12.6306     2.4665     0.1271     0.0384
  160.5000    94.9815    12.6306     2.4608     0.1263     0.0419
  161.0000    96.8397    12.6307     2.4441     0.1371     0.0355
  161.5000    98.4442    12.6307     2.4402     0.1424     0.0294
  162.0000    96.0495    12.6304     2.4533     0.1312     0.0237
  162.5000    93.5706    12.6250     2.4693     0.1239     0.0245
  163.0000    91.9912    12.6197     2.4671     0.1277     0.0239
  163.5000    91.2495    12.6144     2.4585     0.1323     0.0211
