~VERSION INFORMATION
 VERS.                2.0:   CWLS LOG ASCII STANDARD - VERSION 2.0
 WRAP.                 NO:   ONE LINE PER DEPTH STEP
~WELL INFORMATION
#MNEM.UNIT      DATA TYPE    INFORMATION
#----------   ------------   ------------------------------
 STRT.F           15.0000:   START DEPTH
 STOP.F          692.0000:   STOP DEPTH
 STEP.F            0.5000:   STEP LENGTH
 NULL.          -999.2500:   NO VALUE
 COMP.    FENIX & SCISSON:   COMPANY
 WELL. S 15 NPR #3 #73-15:   WELL
 FLD .             TEAPOT:   FIELD
 LOC .      S15 T38N R78W:   LOCATION
 CNTY.            NATRONA:   COUNTY
 STAT.            WYOMING:   STATE
 CTRY. UNITED STATES OF AMERICA:   COUNTRY
 SRVC.              Welex:   SERVICE COMPANY
 DATE.        23-FEB-1977:   LOGDATE
 API .       490251057900:   API NUMBER
~CURVE INFORMATION
#MNEM.UNIT       API CODE    CURVE DESCRIPTION
#----------   ------------   ------------------------------
 DEPT.F                  :   
 SPR .MV     07 010 01 00:   SPONTANEOUS POTENTIAL
 SGRD.OHMM   07 220 05 00:   SHALLOW GUARD RESISTIVITY
 ILD .OHMM   07 120 46 00:   INDUCTION LOG DEEP
 ILM .OHMM   07 120 44 00:   INDUCTION LOG MEDIUM
 CALD.IN     45 280 60 00:   CALIPER
 GRD .GAPI   45 310 01 00:   GAMMA RAY FROM DENSITY LOG
 CORR.G/C3   45 356 01 00:   DENSITY CORRECTION
 DPHI.DEC    45 890 10 00:   DENSITY POROSITY SANDSTONE
 RHOB.G/C3   45 350 01 00:   BULK DENSITY
~PARAMETER INFORMATION
#MNEM.UNIT          VALUE    DESCRIPTION
#----------   ------------   ------------------------------
 PD  .                 GL:   PERMANENT DATUM
 EPD .F              5251:   ELEVATION PERMANENT DATUM
 LMF .                 GL:   LOG MEASURED FROM
 DMF .                 GL:   DRILLING MEASURED FROM
 EGL .F              5251:   GROUND LEVEL
 DATE.            2-23-77:   RUN DATE
 RUN .                  1:   RUN NUMBER
 DD  .F               686:   DEPTH DRILLER
 DL  .F               695:   DEPTH LOGGER
 BLI .F               693:   BOTTOM LOG INTERVAL
 TLI .F                42:   TOP LOG INTERVAL
 CS  .IN            8.625:   CASING SIZE
 CBD .F                42:   CASING BOTTOM DRILLER
 CBL .F                42:   CASING BOTTOM LOGGER
 BS  .IN            7.875:   BIT SIZE
 BSD .F               686:   BIT SIZE AT DEPTH
 DFT .           CHEM GEL:   DRILLING FLUID TYPE
 DFD .                8.8:   DRILLING FLUID DENSITY
 DFV .                 33:   DRILLING FLUID VISCOSITY
 DFPH.                  7:   DRILLING FLUID PH
 DFL .               11.2:   DRILLING FLUID LOSS
 MSS .          FLOW LINE:   MUD SAMPLE SOURCE
 RMS .OHMM            .32:   RESISTIVITY MUD SAMPLE
 MST .F                68:   MUD SAMPLE TEMPERATURE
 RMF .OHMM            .28:   RESISTIVITY MUD FILTRATE SAMPLE
 MFST.F                68:   MUD FILTRATE SAMPLE TEMPERATURE
 RMC .OHMM            .61:   RESISTIVITY MUD CAKE
 MCST.F                68:   MUD CAKE SAMPLE TEMPERATURE
 MFSS.           MEASURED:   MUD FILTRATE SAMPLE SOURCE
 MCSS.           MEASURED:   MUD CAKE SAMPLE SOURCE
 RMB .OHMM           .410:   RESISTIVITY MUD AT BHT
 BHT .F                53:   BOTTOM HOLE TEMPERATURE
 TCS .HRS               2:   TIME CURCULATED STOPPED
 MRT .F                53:   MAXIMUM RECORDED TEMPERATURE
 LUN .               8611:   LOGGING UNIT NUMBER
 LUL .           GILLETTE:   LOGGING UNIT LOCATION
 ENGI.            C. DOAK:   RECORDING ENGINEER
 WITN.         STUEBINGER:   WITNESSED BY
 CLNT.            A2DTECH:   CLIENT CODE
 ORIG. 1", 2.5", 5" PRINT:   ORIGIN OF DATA
 UWI .       490251057900:   UNIQUE WELL ID
 DICO. A2D Technologies, Inc.:   DIGITIZING COMPANY
~OTHER INFORMATION
~A   DEPT      SPR       SGRD        ILD        ILM       CALD         GRD      CORR       DPHI       RHOB   
# ...
  234.0000   -42.8521    11.5569     7.7590    10.2903     8.2902   139.9443     0.0848     0.0841     2.5075
  234.5000   -42.8837    11.6108     7.5967    10.0783     8.3131   138.4313     0.0852     0.0841     2.5059
  235.0000   -42.9147    11.6649     7.4378     9.8585     8.3294   135.9953     0.0856     0.0821     2.5096
  235.5000   -42.9470    11.7041     7.2822     9.6445     8.3217   135.7492     0.0860     0.0792     2.5142
  236.0000   -42.9790    11.0214     7.1872     9.4343     8.3154   138.0196     0.0864     0.0763     2.5189
  236.5000   -43.0083    10.4702     7.1105     9.2287     8.3101   140.2867     0.0867     0.0730     2.5237
  237.0000   -43.0468     9.9469     7.0346     9.0276     8.3038   142.1126     0.0872     0.0722     2.5259
  237.5000   -43.0631     9.5659     6.9594     8.7158     8.2979   139.9938     0.0875     0.0755     2.5215
  238.0000   -43.3181     9.3728     6.8565     8.7652     8.2920   136.2129     0.0879     0.0785     2.5182
  238.5000   -43.6574     9.3917     6.8751     8.8884     8.2859   137.3705     0.0884     0.0793     2.5180
  239.0000   -43.9996     9.7538     6.9629     9.0133     8.2800   143.9709     0.0873     0.0769     2.5179
  239.5000   -44.1711    10.2114     7.0518     9.1399     8.2740   150.4236     0.0848     0.0789     2.5152
  240.0000   -43.8728    10.6976     7.1418     9.2683     8.2681   148.0157     0.0825     0.0815     2.5116
  240.5000   -43.5801    11.2069     7.2330     9.3986     8.2620   140.8422     0.0802     0.0841     2.5080
  241.0000   -43.2711    11.9284     7.3253     9.5306     8.2562   133.0407     0.0776     0.0830     2.5100
  241.5000   -43.0757    11.7481     7.4188     9.6646     8.2515   131.0327     0.0772     0.0786     2.5183
  242.0000   -43.1562    11.0845     7.5135     9.7365     8.2572   128.8564     0.0792     0.0741     2.5264
  242.5000   -43.2272    10.8768     7.6095     9.6713     8.2623   126.0692     0.0809     0.0697     2.5338
  243.0000   -43.3038    11.1019     7.6594     9.5754     8.2679   122.8739     0.0827     0.0666     2.5323
  243.5000   -43.3840    11.3632     7.6336     9.4804     8.2733   119.3941     0.0845     0.0703     2.5273
  244.0000   -43.4572    11.6305     7.6099     9.3864     8.2787   117.7358     0.0863     0.0744     2.5222
  244.5000   -43.5917    11.9284     7.5863     9.2933     8.2842   118.2829     0.0881     0.0785     2.5168
  245.0000   -43.7137    10.9574     7.5628     9.2121     8.2896   124.6147     0.0881     0.0809     2.5135
  245.5000   -43.8406    10.6779     7.5394     9.2121     8.2950   126.8196     0.0869     0.0787     2.5163
  246.0000   -43.9654    10.6999     7.5160     9.2121     8.3005   127.5575     0.0858     0.0750     2.5205
  246.5000   -44.0902    10.7415     7.4927     9.2422     8.3059   126.7253     0.0847     0.0740     2.5218
  247.0000   -44.2157    10.7832     7.4694     9.2833     8.3113   124.4745     0.0835     0.0781     2.5145
  247.5000   -44.3407    10.8251     7.4463     9.3246     8.3167   123.1770     0.0824     0.0821     2.5075
  248.0000   -44.4656    10.8671     7.4232     9.3660     8.3222   123.0656     0.0812     0.0862     2.5001
  248.5000   -44.5914    10.8768     7.4001     9.4076     8.3276   124.5269     0.0804     0.0889     2.4975
  249.0000   -44.7155    11.0015     7.3771     9.4498     8.3330   124.6607     0.0805     0.0889     2.5016
  249.5000   -44.8405    11.1307     7.3542     9.4926     8.3384   124.1090     0.0805     0.0831     2.5090
  250.0000   -44.9714    11.2614     7.3314     9.5355     8.3439   126.1192     0.0805     0.0782     2.5161
  250.5000   -45.0698    11.3937     7.3086     9.5606     8.3493   130.1075     0.0805     0.0714     2.5234
  251.0000   -45.1252    11.5275     7.2857     9.6194     8.3547   131.2931     0.0805     0.0738     2.5245
  251.5000   -45.1869    11.7102     7.2631     9.6797     8.3602   130.1106     0.0805     0.0779     2.5171
  252.0000   -45.2487    11.5912     7.2518     9.7404     8.3655   129.1505     0.0795     0.0819     2.5096
  252.5000   -45.3090    11.4115     7.2720     9.8014     8.3702   128.1293     0.0786     0.0849     2.5056
  253.0000   -45.3703    11.2346     7.2921     9.8629     8.3687   127.0809     0.0776     0.0843     2.5071
  253.5000   -45.4318    11.0604     7.3121     9.9179     8.3672   126.5742     0.0767     0.0823     2.5088
  254.0000   -45.4927    10.8768     7.3323     9.7897     8.3655   128.1274     0.0757     0.0809     2.5098
  254.5000   -45.5550    10.8593     7.3526     9.6756     8.3639   130.4692     0.0747     0.0841     2.5044
  255.0000   -45.6156    10.8416     7.3730     9.5629     8.3623   129.4970     0.0738     0.0877     2.4982
  255.5000   -45.6740    10.8222     7.3934     9.3837     8.3606   127.4937     0.0728     0.0913     2.4920
  256.0000   -45.7426    10.8031     7.4137     9.4019     8.3590   125.6681     0.0713     0.0949     2.4858
  256.5000   -45.7940    10.7841     7.4340     9.4492     8.3573   129.1705     0.0697     0.0985     2.4790
  257.0000   -45.8160    10.7653     7.4548     9.4968     8.3557   131.0110     0.0679     0.1008     2.4787
  257.5000   -45.3826    10.7465     7.4754     9.5446     8.3541   129.8062     0.0663     0.0959     2.4880
  258.0000   -44.9496    10.7279     7.4948     9.5927     8.3524   130.6684     0.0649     0.0909     2.4964
  258.5000   -44.7370    10.7093     7.5173     9.6410     8.3508   130.9141     0.0680     0.0899     2.5002
  259.0000   -45.0681    10.6823     7.4979     9.6896     8.3492   129.3007     0.0712     0.0928     2.4931
  259.5000   -45.4078    10.6872     7.4746     9.7383     8.3475   128.1275     0.0747     0.0882     2.4996
  260.0000   -45.4624    10.7188     7.4510     9.7874     8.3459   129.2600     0.0780     0.0837     2.5064
  260.5000   -45.5437    10.7501     7.4270     9.8367     8.3443   131.4685     0.0806     0.0800     2.5148
  261.0000   -45.6026    10.7815     7.4032     9.9179     8.3426   133.6207     0.0792     0.0822     2.5143
  261.5000   -45.6726    10.8120     7.3795     9.8985     8.3410   132.5160     0.0760     0.0865     2.5043
  262.0000   -45.7405    10.8440     7.3560     9.8451     8.3394   130.2281     0.0729     0.0907     2.4948
  262.5000   -45.8079    10.8794     7.3324     9.7920     8.3377   127.8566     0.0698     0.0921     2.4933
  263.0000   -45.8437    10.8164     7.3091     9.7396     8.3361   126.4581     0.0665     0.0913     2.4952
  263.5000   -45.8566    10.7153     7.2857     9.6868     8.3345   124.5538     0.0648     0.0932     2.4915
  264.0000   -45.8710    10.6150     7.2625     9.6344     8.3328   122.1016     0.0660     0.0944     2.4903
  264.5000   -45.8856    10.5156     7.2392     9.5824     8.3314   123.1339     0.0669     0.0912     2.4946
  265.0000   -45.8997    10.4172     7.2161     9.5307     8.3286   125.4071     0.0681     0.0889     2.4978
  265.5000   -45.9142    10.3198     7.1932     9.4793     8.3250   127.0528     0.0676     0.0913     2.4946
  266.0000   -45.9285    10.2908     7.1702     9.4282     8.3217   131.8018     0.0644     0.0944     2.4899
  266.5000   -45.9429    10.3540     7.1470     9.3838     8.3183   130.9857     0.0614     0.0975     2.4855
  267.0000   -45.9573    10.4236     7.1239     9.3838     8.3149   129.4454     0.0583     0.1008     2.4805
  267.5000   -45.9717    10.4826     7.1136     9.3837     8.3116   132.0232     0.0566     0.1003     2.4795
  268.0000   -45.9860    10.5043     7.1139     9.3836     8.3082   134.6263     0.0591     0.0975     2.4856
  268.5000   -46.0005    10.5327     7.1143     9.3836     8.3048   128.6916     0.0614     0.0898     2.4966
  269.0000   -46.0149    10.5612     7.1143     9.3835     8.3014   129.8656     0.0638     0.0810     2.5050
  269.5000   -46.0293    10.5899     7.1137     9.3835     8.2981   131.7734     0.0662     0.0810     2.5088
  270.0000   -46.0437    10.6185     7.1131     9.3835     8.2947   133.8238     0.0685     0.0810     2.5129
