~VERSION INFORMATION
 VERS.                2.0:   CWLS LOG ASCII STANDARD - VERSION 2.0
 WRAP.                 NO:   ONE LINE PER DEPTH STEP
~WELL INFORMATION
#MNEM.UNIT      DATA TYPE    INFORMATION
#----------   ------------   ------------------------------
 STRT.F           53.0000:   START DEPTH
 STOP.F         4152.0000:   STOP DEPTH
 STEP.F            0.5000:   STEP LENGTH
 NULL.          -999.2500:   NO VALUE
 COMP. DEPARTMENT OF ENERGY:   COMPANY
 WELL. RES 3 TEAPOT #11-STX-11:   WELL
 FLD . TEAPOT NAVAL RESERVE:   FIELD
 LOC .      S11 T38N R78W:   LOCATION
 CNTY.            NATRONA:   COUNTY
 STAT.            WYOMING:   STATE
 CTRY. UNITED STATES OF AMERICA:   COUNTRY
 SRVC.       Schlumberger:   SERVICE COMPANY
 DATE.        24-JUL-1975:   LOGDATE
 API .       490251025200:   API NUMBER
~CURVE INFORMATION
#MNEM.UNIT       API CODE    CURVE DESCRIPTION
#----------   ------------   ------------------------------
 DEPT.F                  :   
 SPR .MV     07 010 01 00:   SPONTANEOUS POTENTIAL
 ILD .OHMM   07 120 46 00:   INDUCTION LOG DEEP
 ILM .OHMM   07 120 44 00:   INDUCTION LOG MEDIUM
 LL8 .OHMM   07 220 08 00:   LATEROLOG-8 RES.
 DPOR.DEC    45 890 12 00:   DENSITY POROSITY SANDSTONE
 NPOR.DEC    42 890 03 00:   NEUTRON POROSITY SANDSTONE
 RHOB.G/C3   45 350 01 00:   BULK DENSITY
 CORR.G/C3   45 356 01 00:   DENSITY CORRECTION
 GRD .GAPI   45 310 01 00:   GAMMA RAY FROM DENSITY LOG
 CALD.IN     45 280 60 00:   CALIPER FROM DENSITY LOG
~PARAMETER INFORMATION
#MNEM.UNIT          VALUE    DESCRIPTION
#----------   ------------   ------------------------------
 PD  .                 GL:   PERMANENT DATUM
 EPD .F              5165:   ELEVATION PERMANENT DATUM
 LMF .                 KB:   LOG MEASURED FROM
 DAPD.F                13:   FEET ABOVE PERMANENT DATUM
 DMF .                 KB:   DRILLING MEASURED FROM
 EKB .F              5178:   KELLING BUSHING
 EGL .F              5165:   GROUND LEVEL
 DATE.            7-24-75:   RUN DATE
 RUN .                  1:   RUN NUMBER
 DD  .F              4150:   DEPTH DRILLER
 DL  .F              4154:   DEPTH LOGGER
 BLI .F              4152:   BOTTOM LOG INTERVAL
 TLI .F              1800:   TOP LOG INTERVAL
 CS  .IN            8.625:   CASING SIZE
 CBD .F               625:   CASING BOTTOM DRILLER
 CBL .F               627:   CASING BOTTOM LOGGER
 BS  .IN            7.875:   BIT SIZE
 BSD .F              4150:   BIT SIZE AT DEPTH
 DFT .                FGM:   DRILLING FLUID TYPE
 DFD .                9.5:   DRILLING FLUID DENSITY
 DFV .                 85:   DRILLING FLUID VISCOSITY
 MSS .           FLOWLINE:   MUD SAMPLE SOURCE
 RMS .OHMM           1.34:   RESISTIVITY MUD SAMPLE
 MST .F                91:   MUD SAMPLE TEMPERATURE
 RMF .OHMM           1.17:   RESISTIVITY MUD FILTRATE SAMPLE
 MFST.F                91:   MUD FILTRATE SAMPLE TEMPERATURE
 MFSS.                  M:   MUD FILTRATE SAMPLE SOURCE
 RMB .OHMM            .94:   RESISTIVITY MUD AT BHT
 BHT .F               130:   BOTTOM HOLE TEMPERATURE
 TCS .HRS            1230:   TIME CURCULATED STOPPED
 TLAB.HRS            1900:   TIME LOGGER AT BOTTOM
 MRT .F               132:   MAXIMUM RECORDED TEMPERATURE
 LUN .               7680:   LOGGING UNIT NUMBER
 LUL .               CSPR:   LOGGING UNIT LOCATION
 ENGI.             FRENCH:   RECORDING ENGINEER
 WITN.             CARTER:   WITNESSED BY
 CLNT.            A2DTECH:   CLIENT CODE
 ORIG.       2", 5" PRINT:   ORIGIN OF DATA
 UWI .       490251025200:   UNIQUE WELL ID
 DICO. A2D Technologies, Inc.:   DIGITIZING COMPANY
~OTHER INFORMATION
~A   DEPT      SPR          ILD        ILM       LL8      DPOR       NPOR       RHOB       CORR        GRD       CALD   
# ...
 3436.5000  -999.2500  -999.2500  -999.2500  -999.2500     0.0907     0.3434     2.5114     0.0186   227.0187     8.5293
 3437.0000  -999.2500  -999.2500  -999.2500  -999.2500     0.0868     0.3438     2.4929     0.0053   228.2601     8.5146
 3437.5000  -999.2500  -999.2500  -999.2500  -999.2500     0.0976     0.3259     2.5208     0.0116   228.9429     8.5051
 3438.0000  -999.2500  -999.2500  -999.2500  -999.2500     0.0815     0.3166     2.5410     0.0222   230.9294     8.4950
 3438.5000  -999.2500  -999.2500  -999.2500  -999.2500     0.0696     0.3182     2.5299     0.0267   233.7877     8.4849
 3439.0000  -999.2500  -999.2500  -999.2500  -999.2500     0.0708     0.3083     2.5141     0.0105   233.2013     8.4748
 3439.5000  -999.2500  -999.2500  -999.2500  -999.2500     0.0808     0.2917     2.5234     0.0056   229.4700     8.4647
 3440.0000  -999.2500  -999.2500  -999.2500  -999.2500     0.0829     0.2752     2.5378     0.0076   225.8190     8.4553
 3440.5000  -999.2500  -999.2500  -999.2500  -999.2500     0.0725     0.2648     2.5514     0.0121   222.1823     8.4608
 3441.0000  -999.2500  -999.2500  -999.2500  -999.2500     0.0634     0.2572     2.5627     0.0157   218.5299     8.4668
 3441.5000  -999.2500  -999.2500  -999.2500  -999.2500     0.0556     0.2517     2.5452     0.0119   214.1166     8.4728
 3442.0000  -999.2500  -999.2500  -999.2500  -999.2500     0.0568     0.2463     2.5316     0.0077   213.6827     8.4787
 3442.5000  -999.2500  -999.2500  -999.2500  -999.2500     0.0740     0.2411     2.5385     0.0036   221.3483     8.4846
 3443.0000  -999.2500  -999.2500  -999.2500  -999.2500     0.0696     0.2405     2.5273     0.0002   219.8931     8.4905
 3443.5000  -999.2500  -999.2500  -999.2500  -999.2500     0.0727     0.2403     2.5367     0.0088   217.0803     8.4937
 3444.0000  -999.2500  -999.2500  -999.2500  -999.2500     0.0728     0.2434     2.5428     0.0064   214.2410     8.4869
 3444.5000  -999.2500  -999.2500  -999.2500  -999.2500     0.0678     0.2474     2.5354     0.0089   211.4199     8.4804
 3445.0000  -999.2500  -999.2500  -999.2500  -999.2500     0.0699     0.2502     2.5382    -0.0016   210.5182     8.4739
 3445.5000  -999.2500  -999.2500  -999.2500  -999.2500     0.0712     0.2516     2.5460     0.0028   214.2892     8.4674
 3446.0000  -999.2500  -999.2500  -999.2500  -999.2500     0.0674     0.2514     2.5579     0.0082   218.4134     8.4609
 3446.5000  -999.2500  -999.2500  -999.2500  -999.2500     0.0604     0.2498     2.5700     0.0164   222.5703     8.4548
 3447.0000  -999.2500  -999.2500  -999.2500  -999.2500     0.0551     0.2494     2.5797     0.0258   223.4111     8.4625
 3447.5000  -999.2500  -999.2500  -999.2500  -999.2500     0.0449     0.2505     2.5841     0.0344   217.5534     8.4713
 3448.0000  -999.2500  -999.2500  -999.2500  -999.2500     0.0421     0.2514     2.5743     0.0285   216.1211     8.4801
 3448.5000  -999.2500  -999.2500  -999.2500  -999.2500     0.0518     0.2522     2.5514     0.0199   219.7993     8.4887
 3449.0000  -999.2500  -999.2500  -999.2500  -999.2500     0.0630     0.2523     2.5275     0.0026   222.4908     8.4953
 3449.5000  -999.2500  -999.2500  -999.2500  -999.2500     0.0743     0.2509     2.5216     0.0010   218.4704     8.4994
 3450.0000  -999.2500  -999.2500  -999.2500  -999.2500     0.0799     0.2496     2.5474     0.0172   214.4541     8.5034
 3450.5000  -999.2500  -999.2500  -999.2500  -999.2500     0.0582     0.2482     2.5606     0.0224   212.6274     8.5075
 3451.0000  -999.2500  -999.2500  -999.2500  -999.2500     0.0568     0.2482     2.5621     0.0188   213.3473     8.5116
 3451.5000  -999.2500  -999.2500  -999.2500  -999.2500     0.0565     0.2493     2.5481     0.0077   215.7713     8.5150
 3452.0000  -999.2500  -999.2500  -999.2500  -999.2500     0.0613     0.2525     2.5483     0.0057   218.1658     8.5029
 3452.5000  -999.2500  -999.2500  -999.2500  -999.2500     0.0664     0.2571     2.5511     0.0138   220.5632     8.4898
 3453.0000  -999.2500  -999.2500  -999.2500  -999.2500     0.0630     0.2614     2.5539     0.0239   223.0019     8.4768
 3453.5000  -999.2500  -999.2500  -999.2500  -999.2500     0.0596     0.2598     2.5495     0.0285   225.4816     8.4637
 3454.0000  -999.2500  -999.2500  -999.2500  -999.2500     0.0638     0.2582     2.5472     0.0138   228.0124     8.4506
 3454.5000  -999.2500  -999.2500  -999.2500  -999.2500     0.0652     0.2582     2.5615     0.0065   230.5851     8.4372
 3455.0000  -999.2500  -999.2500  -999.2500  -999.2500     0.0566     0.2606     2.5709     0.0096   230.4565     8.4402
 3455.5000  -999.2500  -999.2500  -999.2500  -999.2500     0.0505     0.2630     2.5643     0.0133   229.8166     8.4469
 3456.0000  -999.2500  -999.2500  -999.2500  -999.2500     0.0558     0.2648     2.5531     0.0121   232.0732     8.4537
 3456.5000  -999.2500  -999.2500  -999.2500  -999.2500     0.0628     0.2635     2.5457     0.0086   232.9654     8.4605
 3457.0000  -999.2500  -999.2500  -999.2500  -999.2500     0.0668     0.2622     2.5515     0.0105   231.5098     8.4672
 3457.5000  -999.2500  -999.2500  -999.2500  -999.2500     0.0604     0.2658     2.5575     0.0114   235.3105     8.4739
 3458.0000  -999.2500  -999.2500  -999.2500  -999.2500     0.0576     0.2693     2.5564     0.0091   244.0853     8.4824
 3458.5000  -999.2500  -999.2500  -999.2500  -999.2500     0.0628     0.2727     2.5513     0.0068   250.7564     8.4936
 3459.0000  -999.2500  -999.2500  -999.2500  -999.2500     0.0648     0.2744     2.5466     0.0047   254.2800     8.5048
 3459.5000  -999.2500  -999.2500  -999.2500  -999.2500     0.0644     0.2723     2.5500     0.0058   253.7875     8.5150
 3460.0000  -999.2500  -999.2500  -999.2500  -999.2500     0.0619     0.2702     2.5541     0.0069   251.4917     8.5196
 3460.5000  -999.2500  -999.2500  -999.2500  -999.2500     0.0586     0.2740     2.5513     0.0074   249.2937     8.5286
 3461.0000  -999.2500  -999.2500  -999.2500  -999.2500     0.0630     0.2844     2.5393     0.0050   247.1045     8.5392
 3461.5000  -999.2500  -999.2500  -999.2500  -999.2500     0.0680     0.2902     2.5509     0.0026   244.9120     8.5727
 3462.0000  -999.2500  -999.2500  -999.2500  -999.2500     0.0578     0.2865     2.5680    -0.0010   242.2120     8.6065
 3462.5000  -999.2500  -999.2500  -999.2500  -999.2500     0.0458     0.2829     2.5920    -0.0089   238.9474     8.6403
 3463.0000  -999.2500  -999.2500  -999.2500  -999.2500     0.0382     0.2798     2.5807    -0.0026   238.0013     8.6741
 3463.5000  -999.2500  -999.2500  -999.2500  -999.2500     0.0413     0.2803     2.5926     0.0135   242.2851     8.7078
 3464.0000  -999.2500  -999.2500  -999.2500  -999.2500     0.0361     0.2840     2.5707     0.0084   236.5560     8.7403
 3464.5000  -999.2500  -999.2500  -999.2500  -999.2500     0.0542     0.2836     2.5536     0.0035   230.5810     8.7655
 3465.0000  -999.2500  -999.2500  -999.2500  -999.2500     0.0615     0.2769     2.5400     0.0037   225.4251     8.7711
 3465.5000  -999.2500  -999.2500  -999.2500  -999.2500     0.0676     0.2701     2.5414     0.0076   226.5633     8.7640
 3466.0000  -999.2500  -999.2500  -999.2500  -999.2500     0.0624     0.2638     2.5510     0.0113   232.7771     8.7568
 3466.5000  -999.2500  -999.2500  -999.2500  -999.2500     0.0592     0.2634     2.5415     0.0105   237.9018     8.7591
 3467.0000  -999.2500  -999.2500  -999.2500  -999.2500     0.0680     0.2665     2.5394     0.0085   238.6249     8.7675
 3467.5000  -999.2500  -999.2500  -999.2500  -999.2500     0.0676     0.2718     2.5476     0.0100   240.1546     8.7760
 3468.0000  -999.2500  -999.2500  -999.2500  -999.2500     0.0612     0.2770     2.5562     0.0124   242.5015     8.7844
 3468.5000  -999.2500  -999.2500  -999.2500  -999.2500     0.0564     0.2773     2.5589     0.0088   245.0910     8.7931
 3469.0000  -999.2500  -999.2500  -999.2500  -999.2500     0.0621     0.2751     2.5401     0.0017   247.5622     8.7830
 3469.5000  -999.2500  -999.2500  -999.2500  -999.2500     0.0717     0.2749     2.5242     0.0008   249.4337     8.7648
