~VERSION INFORMATION
 VERS.                2.0:   CWLS LOG ASCII STANDARD - VERSION 2.0
 WRAP.                 NO:   ONE LINE PER DEPTH STEP
~WELL INFORMATION
#MNEM.UNIT      DATA TYPE    INFORMATION
#----------   ------------   ------------------------------
 STRT.F           10.0000:   START DEPTH
 STOP.F          481.0000:   STOP DEPTH
 STEP.F            0.5000:   STEP LENGTH
 NULL.          -999.2500:   NO VALUE
 COMP. BROWN JOHN E&C INC:   COMPANY
 WELL.         SX 67 #1-3:   WELL
 FLD .        TEAPOT DOME:   FIELD
 LOC .       S3 T38N R78W:   LOCATION
 CNTY.            NATRONA:   COUNTY
 STAT.            WYOMING:   STATE
 CTRY. UNITED STATES OF AMERICA:   COUNTRY
 SRVC.       Schlumberger:   SERVICE COMPANY
 DATE.        12-OCT-1990:   LOGDATE
 API .       490251132900:   API NUMBER
~CURVE INFORMATION
#MNEM.UNIT       API CODE    CURVE DESCRIPTION
#----------   ------------   ------------------------------
 DEPT.F                  :   
 CALD.IN     45 280 60 00:   CALIPER FROM DENSITY LOG
 DRHO.G/C3   45 356 01 00:   DENSITY CORRECTION
 GRD .GAPI   45 310 01 00:   GAMMA RAY FROM DENSITY LOG
 RHOB.G/C3   45 350 01 00:   BULK DENSITY
 DPHI.DEC    45 890 12 00:   DENSITY POROSITY SANDSTONE
~PARAMETER INFORMATION
#MNEM.UNIT          VALUE    DESCRIPTION
#----------   ------------   ------------------------------
 PD  .                 GL:   PERMANENT DATUM
 EPD .F              5174:   ELEVATION PERMANENT DATUM
 LMF .                 KB:   LOG MEASURED FROM
 DAPD.F                10:   FEET ABOVE PERMANENT DATUM
 DMF .                 KB:   DRILLING MEASURED FROM
 EKB .F              5184:   KELLING BUSHING
 EGL .F              5174:   GROUND LEVEL
 DATE.           10-12-90:   RUN DATE
 RUN .                  1:   RUN NUMBER
 DD  .F               486:   DEPTH DRILLER
 DL  .F               486:   DEPTH LOGGER
 BLI .F               483:   BOTTOM LOG INTERVAL
 TLI .F                10:   TOP LOG INTERVAL
 CS  .IN            8.625:   CASING SIZE
 CBD .F                50:   CASING BOTTOM DRILLER
 CBL .F                50:   CASING BOTTOM LOGGER
 BS  .IN            7.875:   BIT SIZE
 BSD .F               486:   BIT SIZE AT DEPTH
 DFT .      DISPERSED GEL:   DRILLING FLUID TYPE
 DFD .                 15:   DRILLING FLUID DENSITY
 DFV .                 44:   DRILLING FLUID VISCOSITY
 DFPH.                  8:   DRILLING FLUID PH
 DFL .                7.2:   DRILLING FLUID LOSS
 MSS .           FLOWLINE:   MUD SAMPLE SOURCE
 RMS .OHMM              1:   RESISTIVITY MUD SAMPLE
 MST .F                60:   MUD SAMPLE TEMPERATURE
 RMF .OHMM             .7:   RESISTIVITY MUD FILTRATE SAMPLE
 MFST.F                60:   MUD FILTRATE SAMPLE TEMPERATURE
 RMC .OHMM            1.5:   RESISTIVITY MUD CAKE
 MCST.F                60:   MUD CAKE SAMPLE TEMPERATURE
 MFSS.               MEAS:   MUD FILTRATE SAMPLE SOURCE
 MCSS.               CALC:   MUD CAKE SAMPLE SOURCE
 RMB .OHMM           .753:   RESISTIVITY MUD AT BHT
 BHT .F                82:   BOTTOM HOLE TEMPERATURE
 TCS .HRS            1230:   TIME CURCULATED STOPPED
 MRT .F                82:   MAXIMUM RECORDED TEMPERATURE
 LUN .               8116:   LOGGING UNIT NUMBER
 LUL .             CASPER:   LOGGING UNIT LOCATION
 ENGI.            S. PEEL:   RECORDING ENGINEER
 WITN.        GARY STRONG:   WITNESSED BY
 CLNT.            A2DTECH:   CLIENT CODE
 ORIG.           5" PRINT:   ORIGIN OF DATA
 UWI .       490251132900:   UNIQUE WELL ID
 DICO. A2D Technologies, Inc.:   DIGITIZING COMPANY
~OTHER INFORMATION
~A   DEPT     CALD       DRHO         GRD      RHOB       DPHI   
# ...
  315.0000     7.0687     0.0120    78.9632     2.3956     0.1543
  315.5000     6.8649     0.0123    75.3794     2.3969     0.1537
  316.0000     7.0105     0.0126    74.5210     2.3982     0.1534
  316.5000     7.4262     0.0130    73.4579     2.3970     0.1538
  317.0000     7.6557     0.0133    70.3638     2.3942     0.1548
  317.5000     7.7556     0.0135    66.6566     2.3918     0.1562
  318.0000     7.8008     0.0099    65.2320     2.3877     0.1590
  318.5000     7.8158     0.0063    66.8406     2.3821     0.1620
  319.0000     7.8328     0.0028    70.3229     2.3734     0.1665
  319.5000     7.8362    -0.0008    73.8029     2.3694     0.1712
  320.0000     7.8393    -0.0011    74.6680     2.3714     0.1708
  320.5000     7.8424     0.0015    74.5088     2.3826     0.1641
  321.0000     7.8457     0.0041    74.2817     2.3888     0.1595
  321.5000     7.8489     0.0067    72.5624     2.3920     0.1569
  322.0000     7.8519     0.0098    71.1328     2.3928     0.1561
  322.5000     7.8462     0.0098    70.6300     2.3887     0.1580
  323.0000     7.8305     0.0088    72.0037     2.3848     0.1615
  323.5000     7.8140     0.0073    74.9314     2.3859     0.1615
  324.0000     7.7700     0.0054    78.3586     2.3874     0.1598
  324.5000     7.7206     0.0036    80.7033     2.3884     0.1593
  325.0000     7.5591     0.0024    80.4966     2.3856     0.1610
  325.5000     7.2085     0.0020    77.4956     2.3805     0.1633
  326.0000     6.8613     0.0017    74.5464     2.3748     0.1679
  326.5000     6.6696     0.0002    73.1969     2.3669     0.1725
  327.0000     6.7118    -0.0004    73.6180     2.3615     0.1754
  327.5000     7.0027     0.0027    75.1690     2.3633     0.1734
  328.0000     7.3778     0.0059    76.9199     2.3719     0.1692
  328.5000     7.6505     0.0073    78.7869     2.3815     0.1643
  329.0000     7.7131     0.0086    79.7159     2.3879     0.1602
  329.5000     7.7133     0.0096    80.8648     2.3937     0.1555
  330.0000     7.7386     0.0096    81.3223     2.4026     0.1495
  330.5000     7.7795     0.0096    80.0052     2.4117     0.1437
  331.0000     7.7898     0.0096    77.9855     2.4190     0.1389
  331.5000     7.7822     0.0088    77.1305     2.4144     0.1435
  332.0000     7.7743     0.0078    77.6268     2.4058     0.1482
  332.5000     7.7664     0.0067    78.3000     2.3994     0.1526
  333.0000     7.7584     0.0056    77.9930     2.3990     0.1526
  333.5000     7.7383     0.0045    76.5417     2.3958     0.1545
  334.0000     7.6961     0.0035    75.0330     2.3907     0.1571
  334.5000     7.6512     0.0024    74.4826     2.3875     0.1589
  335.0000     7.5146     0.0013    73.9784     2.3915     0.1568
  335.5000     7.2918     0.0004    73.4702     2.3964     0.1539
  336.0000     6.7410     0.0053    73.3006     2.4004     0.1509
  336.5000     6.4680     0.0121    75.5281     2.3952     0.1536
  337.0000     6.5910     0.0147    78.7906     2.3905     0.1570
  337.5000     6.7593     0.0176    80.3394     2.3919     0.1565
  338.0000     6.9279     0.0194    80.2982     2.3960     0.1546
  338.5000     6.9881     0.0175    78.2080     2.3977     0.1531
  339.0000     6.9531     0.0147    77.1160     2.3976     0.1533
  339.5000     6.9104     0.0128    76.6129     2.3999     0.1520
  340.0000     6.8591     0.0143    74.8518     2.4056     0.1485
  340.5000     7.1051     0.0151    71.4720     2.4102     0.1454
  341.0000     7.3461     0.0159    69.3371     2.4123     0.1439
  341.5000     7.5397     0.0168    70.4221     2.4167     0.1414
  342.0000     7.6152     0.0176    71.0358     2.4250     0.1365
  342.5000     7.6564     0.0170    70.4708     2.4338     0.1317
  343.0000     7.6598     0.0162    68.7474     2.4426     0.1268
  343.5000     7.6646     0.0154    68.6761     2.4509     0.1219
  344.0000     7.6693     0.0145    70.1636     2.4570     0.1187
  344.5000     7.6741     0.0101    71.0386     2.4512     0.1214
  345.0000     7.6789     0.0057    69.7148     2.4407     0.1273
  345.5000     7.6836     0.0017    67.4647     2.4311     0.1333
  346.0000     7.6884     0.0028    66.1855     2.4343     0.1302
  346.5000     7.6931     0.0044    67.2750     2.4418     0.1263
  347.0000     7.6901     0.0059    69.9578     2.4496     0.1225
  347.5000     7.6865     0.0074    73.9942     2.4512     0.1212
  348.0000     7.6830     0.0084    75.9208     2.4480     0.1231
  348.5000     7.6795     0.0073    73.9698     2.4440     0.1250
  349.0000     7.6761     0.0063    71.3167     2.4405     0.1269
  349.5000     7.6668     0.0053    69.9304     2.4382     0.1288
  350.0000     7.6330     0.0043    71.2578     2.4359     0.1308
  350.5000     7.4571     0.0040    74.5551     2.4342     0.1320
  351.0000     7.2371     0.0055    76.5582     2.4368     0.1301
  351.5000     7.0266     0.0071    77.3963     2.4458     0.1241
  352.0000     7.1072     0.0086    74.9628     2.4601     0.1178
  352.5000     7.3121     0.0095    71.3913     2.4723     0.1127
  353.0000     7.5190     0.0081    67.7962     2.4613     0.1174
  353.5000     7.6121     0.0066    66.2435     2.4479     0.1253
  354.0000     7.6578     0.0051    66.3069     2.4346     0.1331
  354.5000     7.6761     0.0036    67.1780     2.4224     0.1405
  355.0000     7.5930     0.0021    68.2616     2.4195     0.1400
  355.5000     7.5114     0.0006    70.1499     2.4204     0.1395
  356.0000     7.4995     0.0014    71.5399     2.4183     0.1411
  356.5000     7.5080     0.0026    71.0792     2.4131     0.1438
  357.0000     7.5172     0.0038    69.3823     2.4146     0.1434
  357.5000     7.5264     0.0050    69.8130     2.4219     0.1380
  358.0000     7.5333     0.0062    73.2733     2.4343     0.1305
  358.5000     7.5121     0.0074    79.6322     2.4472     0.1231
  359.0000     7.4069     0.0085    82.5306     2.4557     0.1182
  359.5000     7.3035     0.0088    81.4314     2.4589     0.1171
  360.0000     7.1965     0.0091    76.5597     2.4583     0.1182
  360.5000     7.2133     0.0093    71.8080     2.4552     0.1191
  361.0000     7.4313     0.0096    68.8953     2.4524     0.1201
  361.5000     7.6262     0.0089    67.4793     2.4499     0.1216
  362.0000     7.6573     0.0082    65.5522     2.4406     0.1259
  362.5000     7.5361     0.0032    63.6584     2.4120     0.1444
  363.0000     7.4013     0.0004    61.8392     2.3679     0.1702
  363.5000     7.2681    -0.0029    60.3196     2.3251     0.1958
  364.0000     7.1351    -0.0063    59.0816     2.3050     0.2086
  364.5000     7.0083    -0.0082    59.1740     2.3020     0.2113
  365.0000     6.8973    -0.0078    61.6549     2.3034     0.2104
  365.5000     6.8645    -0.0040    63.7522     2.3049     0.2095
  366.0000     6.8619    -0.0003    64.4055     2.3050     0.2092
  366.5000     7.0600     0.0015    64.1779     2.3091     0.2076
  367.0000     7.3102     0.0027    64.3309     2.3176     0.2023
  367.5000     7.5495     0.0038    64.4510     2.3262     0.1970
  368.0000     7.6181     0.0054    63.4843     2.3294     0.1947
  368.5000     7.6489     0.0039    61.7763     2.3283     0.1949
  369.0000     7.6776     0.0025    60.8460     2.3324     0.1931
  369.5000     7.6984     0.0010    61.8014     2.3379     0.1899
  370.0000     7.7109    -0.0004    63.2956     2.3410     0.1867
  370.5000     7.7094    -0.0014    62.5758     2.3402     0.1874
  371.0000     7.7070    -0.0008    61.1574     2.3383     0.1894
  371.5000     7.7048    -0.0002    59.7136     2.3383     0.1892
  372.0000     7.7026     0.0004    59.8986     2.3407     0.1878
  372.5000     7.7004    -0.0001    60.5646     2.3431     0.1873
  373.0000     7.6982    -0.0010    61.0855     2.3378     0.1906
  373.5000     7.6963    -0.0019    61.5829     2.3318     0.1942
  374.0000     7.6955    -0.0028    62.9925     2.3312     0.1951
  374.5000     7.6333    -0.0035    64.0821     2.3447     0.1858
  375.0000     7.5266    -0.0021    64.3694     2.3583     0.1744
  375.5000     7.3869    -0.0007    64.8112     2.3601     0.1768
