~VERSION INFORMATION
 VERS.                2.0:   CWLS LOG ASCII STANDARD - VERSION 2.0
 WRAP.                 NO:   ONE LINE PER DEPTH STEP
~WELL INFORMATION
#MNEM.UNIT      DATA TYPE    INFORMATION
#----------   ------------   ------------------------------
 STRT.F           34.0000:   START DEPTH
 STOP.F          534.0000:   STOP DEPTH
 STEP.F            0.5000:   STEP LENGTH
 NULL.          -999.2500:   NO VALUE
 COMP.    FENIX & SCISSON:   COMPANY
 WELL.      33 SX 3 #33-3:   WELL
 FLD .             TEAPOT:   FIELD
 LOC .       S3 T38N R78W:   LOCATION
 CNTY.            NATRONA:   COUNTY
 STAT.            WYOMING:   STATE
 CTRY. UNITED STATES OF AMERICA:   COUNTRY
 SRVC.       Schlumberger:   SERVICE COMPANY
 DATE.        23-FEB-1977:   LOGDATE
 API .       490251028500:   API NUMBER
~CURVE INFORMATION
#MNEM.UNIT       API CODE    CURVE DESCRIPTION
#----------   ------------   ------------------------------
 DEPT.F                  :   
 SPR .MV     07 010 01 00:   SPONTANEOUS POTENTIAL
 LL8 .OHMM   07 220 08 00:   LATEROLOG-8 RES.
 ILD .OHMM   07 120 46 00:   INDUCTION LOG DEEP
 ILM .OHMM   07 120 44 00:   INDUCTION LOG MEDIUM
 CALD.IN     45 280 60 00:   CALIPER
 GRD .GAPI   45 310 01 00:   GAMMA RAY FROM DENSITY LOG
 RHOB.G/C3   45 350 01 00:   BULK DENSITY
 DPOR.DEC    45 890 12 00:   DENSITY POROSITY SANDSTONE
 CORR.G/C3   45 356 01 00:   DENSITY CORRECTION
~PARAMETER INFORMATION
#MNEM.UNIT          VALUE    DESCRIPTION
#----------   ------------   ------------------------------
 PD  .                 GL:   PERMANENT DATUM
 EPD .F              5170:   ELEVATION PERMANENT DATUM
 LMF .                 KB:   LOG MEASURED FROM
 DAPD.F                 5:   FEET ABOVE PERMANENT DATUM
 DMF .                 KB:   DRILLING MEASURED FROM
 EKB .F              5175:   KELLING BUSHING
 EGL .F              5170:   GROUND LEVEL
 DATE.            2-23-77:   RUN DATE
 RUN .                  1:   RUN NUMBER
 DD  .F               550:   DEPTH DRILLER
 DL  .F               535:   DEPTH LOGGER
 BLI .F               525:   BOTTOM LOG INTERVAL
 TLI .F                47:   TOP LOG INTERVAL
 CS  .IN            8.625:   CASING SIZE
 CBD .F                40:   CASING BOTTOM DRILLER
 CBL .F                47:   CASING BOTTOM LOGGER
 BS  .IN            7.875:   BIT SIZE
 BSD .F               550:   BIT SIZE AT DEPTH
 DFT .                KCL:   DRILLING FLUID TYPE
 DFD .                  9:   DRILLING FLUID DENSITY
 DFV .                 36:   DRILLING FLUID VISCOSITY
 MSS .            MUDTANK:   MUD SAMPLE SOURCE
 RMS .OHMM           .255:   RESISTIVITY MUD SAMPLE
 MST .F                74:   MUD SAMPLE TEMPERATURE
 RMF .OHMM           .246:   RESISTIVITY MUD FILTRATE SAMPLE
 MFST.F                74:   MUD FILTRATE SAMPLE TEMPERATURE
 RMC .OHMM            .38:   RESISTIVITY MUD CAKE
 MCST.F                74:   MUD CAKE SAMPLE TEMPERATURE
 MFSS.                  M:   MUD FILTRATE SAMPLE SOURCE
 MCSS.                  C:   MUD CAKE SAMPLE SOURCE
 RMB .OHMM            .34:   RESISTIVITY MUD AT BHT
 BHT .F                55:   BOTTOM HOLE TEMPERATURE
 TCS .HRS            0600:   TIME CURCULATED STOPPED
 TLAB.HRS            0730:   TIME LOGGER AT BOTTOM
 MRT .F                55:   MAXIMUM RECORDED TEMPERATURE
 LUN .               5642:   LOGGING UNIT NUMBER
 LUL .               CSPR:   LOGGING UNIT LOCATION
 ENGI.                FIX:   RECORDING ENGINEER
 WITN.         STUEBINGER:   WITNESSED BY
 CLNT.            A2DTECH:   CLIENT CODE
 ORIG.       2", 5" PRINT:   ORIGIN OF DATA
 UWI .       490251028500:   UNIQUE WELL ID
 DICO. A2D Technologies, Inc.:   DIGITIZING COMPANY
~OTHER INFORMATION
~A   DEPT      SPR        LL8        ILD        ILM       CALD         GRD      RHOB       DPOR       CORR   
# ...
  472.0000   -46.0604    12.4077    10.1494    11.5361     8.4091   101.0158     2.4990     0.0917     0.0339
  472.5000   -46.2307    12.2535     9.9374    11.3504     8.4103   100.8896     2.4990     0.0936     0.0252
  473.0000   -46.4000    12.1011     9.8241    11.1673     8.4115   103.1690     2.5006     0.0868     0.0293
  473.5000   -46.5687    11.9835     9.7121    11.0268     8.4127   105.1482     2.4914     0.0931     0.0290
  474.0000   -46.7369    11.8427     9.6014    10.9411     8.4139   105.3696     2.4874     0.0977     0.0225
  474.5000   -46.9235    11.6197     9.4919    10.8560     8.4152   104.6122     2.4889     0.0980     0.0309
  475.0000   -47.3792    11.4409     9.3837    10.7716     8.4152   105.7136     2.4780     0.0990     0.0193
  475.5000   -48.3296    11.3350     9.2767    10.6878     8.4146   106.7886     2.4771     0.1004     0.0113
  476.0000   -49.2532    11.3360     9.1697    10.6047     8.4141   107.5420     2.4820     0.1005     0.0222
  476.5000   -50.1143    11.3840     9.1903    10.5222     8.4135   107.2880     2.4860     0.0988     0.0340
  477.0000   -50.7041    11.4226     9.2167    10.4404     8.4129   106.2189     2.4840     0.0989     0.0286
  477.5000   -51.1408    11.4619     9.2545    10.3594     8.4123   105.2624     2.4667     0.1000     0.0150
  478.0000   -51.5644    11.5016     9.2419    10.2790     8.4117   102.8686     2.4425     0.1172    -0.0033
  478.5000   -51.5353    11.5484     9.2198    10.2271     8.4112   100.5697     2.4502     0.1147     0.0036
  479.0000   -50.9363    11.3889     9.1975    10.1219     8.4106    99.5632     2.4628     0.1112     0.0123
  479.5000   -50.5502    11.1780     9.1753    10.0179     8.4100   100.0528     2.4629     0.1104     0.0011
  480.0000   -50.8428    10.9710     9.0424     9.9150     8.4094   100.6578     2.4640     0.1091     0.0099
  480.5000   -51.1176    10.7685     8.8744     9.8132     8.4089   101.2739     2.4746     0.1025     0.0209
  481.0000   -51.4018    10.5697     8.7094     9.7124     8.4083   103.3571     2.4857     0.0987     0.0165
  481.5000   -51.5581    10.3745     8.5475     9.6127     8.4077   105.4138     2.4895     0.0996     0.0114
  482.0000   -51.6721    10.2435     8.4090     9.5140     8.4071   106.5331     2.4916     0.0932     0.0291
  482.5000   -51.5957    10.2163     8.3160     9.4271     8.4066   106.7817     2.5053     0.1036     0.0329
  483.0000   -51.4544    10.1784     8.2241     9.4271     8.4060   107.6577     2.5227     0.0984     0.0346
  483.5000   -51.3073    10.1406     8.1331     9.3192     8.4054   108.6579     2.5278     0.0975     0.0362
  484.0000   -51.4395    10.1030     8.0432     9.2005     8.4048   109.3049     2.5036     0.1044     0.0310
  484.5000   -51.6170    10.0655     7.9543     9.0825     8.4042   107.9175     2.4772     0.1022     0.0198
  485.0000   -51.8920    10.0281     7.8663     8.9993     8.4037   107.3299     2.4802     0.0984     0.0315
  485.5000   -52.1982     9.9909     7.6227     8.7845     8.4031   106.9884     2.4899     0.0932     0.0285
  486.0000   -53.0882     9.8723     7.3156     8.5658     8.4025   106.6329     2.4768     0.0982     0.0335
  486.5000   -53.9762     9.7816     7.0208     8.1662     8.4019   107.3474     2.4518     0.1121     0.0048
  487.0000   -54.3940     9.4470     6.7380     7.7847     8.4014   108.4845     2.4260     0.1176     0.0053
  487.5000   -54.6992     9.0711     6.4665     7.4210     8.4008   107.6234     2.4464     0.1136     0.0302
  488.0000   -54.7973     8.0228     6.2060     7.0747     8.4002   106.0503     2.4571     0.1154     0.0522
  488.5000   -54.7359     6.1062     6.1094     6.8249     8.3996   107.2062     2.4460     0.1178     0.0566
  489.0000   -54.4395     7.1641     6.2411     6.8249     8.3990   108.6946     2.4400     0.1112     0.0208
  489.5000   -54.3621     8.3586     6.5550     7.2853     8.3985   110.1899     2.4744     0.0982     0.0261
  490.0000   -54.2765     9.7482     6.8846     7.6825     8.3979   110.9163     2.5082     0.0843     0.0365
  490.5000   -54.1906    10.4343     7.2309     8.1015     8.3973   109.0676     2.4934     0.0906     0.0421
  491.0000   -54.1045    10.6608     7.5945     8.5433     8.3967   106.9354     2.4841     0.0996     0.0192
  491.5000   -54.1252    10.8889     7.9764     9.0081     8.3961   105.9803     2.4832     0.1008     0.0260
  492.0000   -54.2226    11.1307     8.3776     9.4987     8.3957   105.9594     2.4832     0.0974     0.0177
  492.5000   -54.3218    11.4250     8.7989     9.7816     8.3967   105.9545     2.4836     0.0989     0.0123
  493.0000   -54.4215    11.7284     9.2414    10.0874     8.3977   105.0062     2.4837     0.0988     0.0136
  493.5000   -54.6231    12.0439     9.4271    10.4644     8.3987   103.1064     2.4855     0.0943     0.0183
  494.0000   -54.9036    12.3684     9.5300    10.8555     8.3996   104.2138     2.5025     0.0873     0.0484
  494.5000   -55.1850    12.5408     9.5735    11.2613     8.4006   106.2589     2.5027     0.0836     0.0384
  495.0000   -55.4678    12.2949     9.6139    11.5492     8.4016   105.6027     2.5012     0.0812     0.0358
  495.5000   -55.7520    12.1425     9.6560    11.4547     8.4026   104.0543     2.5008     0.0862     0.0330
  496.0000   -56.0426    11.9945     9.6875    11.2871     8.4036   102.4679     2.4878     0.0959     0.0230
  496.5000   -56.1889    11.8496     9.6210    11.1219     8.4045   103.1310     2.4750     0.1045     0.0127
  497.0000   -56.3326    11.7065     9.5599    10.9591     8.4055   104.8917     2.4777     0.1043     0.0204
  497.5000   -56.4776    11.5654     9.4992    10.7987     8.4065   106.2357     2.4816     0.0938     0.0341
  498.0000   -56.6231    11.4431     9.4389    10.6287     8.4075   104.4807     2.4857     0.0974     0.0211
  498.5000   -56.7689    11.5084     9.3790    10.8275     8.4085   102.4027     2.4860     0.0919     0.0357
  499.0000   -56.9145    11.6347     9.3194    11.0470     8.4094   102.2154     2.4818     0.0982     0.0152
  499.5000   -57.0190    11.7624     9.2547    11.2709     8.4104   100.9317     2.4808     0.0899     0.0347
  500.0000   -56.8101    11.8914     9.2931    11.3380     8.4114    99.1886     2.4836     0.0976     0.0258
  500.5000   -56.6020    11.9835     9.3357    10.9902     8.4124    99.0167     2.4853     0.0954     0.0175
  501.0000   -56.5469    11.9539     9.3784    10.7302     8.4134   100.5249     2.4856     0.0940     0.0321
  501.5000   -56.9567    11.8454     9.4214    10.4764     8.4144   103.4009     2.4838     0.1000     0.0322
  502.0000   -57.3478    11.7391     9.5509    10.2435     8.4153   105.5630     2.4778     0.0990     0.0255
  502.5000   -57.6174    11.6532     9.6900    10.2435     8.4162   103.3198     2.4729     0.1005     0.0188
  503.0000   -57.4764    11.1991     9.6949    10.2435     8.4172   101.0958     2.4699     0.1084     0.0162
  503.5000   -57.5482    10.6833     9.2125    10.2435     8.4182   100.5109     2.4786     0.1043     0.0192
  504.0000   -57.7495    10.1912     8.8413     9.7466     8.4192   103.1012     2.4873     0.0992     0.0230
  504.5000   -58.0038     9.7218     8.4865     9.1786     8.4203   105.8334     2.4960     0.0941     0.0309
  505.0000   -58.2575     9.2740     8.1459     8.6441     8.4213   108.6573     2.4996     0.0896     0.0494
  505.5000   -58.5106     8.8468     7.8190     8.1402     8.4223   110.3154     2.4747     0.1008     0.0267
  506.0000   -58.7635     8.4090     7.2471     7.6666     8.4233   108.2051     2.4559     0.1058     0.0314
  506.5000   -59.0169     7.9726     6.3499     7.2214     8.4244   106.6005     2.4720     0.1068     0.0391
  507.0000   -59.2717     7.6242     5.5639     6.7983     8.4254   110.5503     2.4657     0.1074     0.0447
  507.5000   -59.6717     7.1143     4.8751     6.0394     8.4264   112.3428     2.4412     0.1242     0.0247
  508.0000   -60.3153     6.2809     4.2709     5.2659     8.4275   108.7727     2.4023     0.1497     0.0079
