~VERSION INFORMATION
 VERS.                2.0:   CWLS LOG ASCII STANDARD - VERSION 2.0
 WRAP.                 NO:   ONE LINE PER DEPTH STEP
~WELL INFORMATION
#MNEM.UNIT      DATA TYPE    INFORMATION
#----------   ------------   ------------------------------
 STRT.F           42.0000:   START DEPTH
 STOP.F          866.0000:   STOP DEPTH
 STEP.F            0.5000:   STEP LENGTH
 NULL.          -999.2500:   NO VALUE
 COMP. FENIX & SCISSON INC:   COMPANY
 WELL.      NPR-SX #47-11:   WELL
 FLD .             TEAPOT:   FIELD
 LOC .      S11 T38N R78W:   LOCATION
 CNTY.            NATRONA:   COUNTY
 STAT.            WYOMING:   STATE
 CTRY. UNITED STATES OF AMERICA:   COUNTRY
 SRVC.            Unknown:   SERVICE COMPANY
 DATE.        25-FEB-1978:   LOGDATE
 API .       490251058700:   API NUMBER
~CURVE INFORMATION
#MNEM.UNIT       API CODE    CURVE DESCRIPTION
#----------   ------------   ------------------------------
 DEPT.F                  :   
 SPR .MV     07 010 01 00:   SPONTANEOUS POTENTIAL
 SN  .OHMM   07 040 16 00:   SHORT NORMAL 16'
 ILD .OHMM   07 120 46 00:   INDUCTION LOG DEEP
 CORR.G/C3   45 356 01 00:   DENSITY CORRECTION
 RHOB.G/C3   45 350 01 00:   BULK DENSITY
 DPHI.DEC    45 890 12 00:   DENSITY POROSITY SANDSTONE
 CALD.IN     45 280 60 00:   CALIPER FROM DENSITY LOG
 GRD .GAPI   45 310 01 00:   GAMMA RAY FROM DENSITY LOG
~PARAMETER INFORMATION
#MNEM.UNIT          VALUE    DESCRIPTION
#----------   ------------   ------------------------------
 PD  .                 GL:   PERMANENT DATUM
 EPD .F              5202:   ELEVATION PERMANENT DATUM
 LMF .                 KB:   LOG MEASURED FROM
 DAPD.F                 4:   FEET ABOVE PERMANENT DATUM
 DMF .                 KB:   DRILLING MEASURED FROM
 EKB .F              5206:   KELLING BUSHING
 EGL .F              5202:   GROUND LEVEL
 DATE.            2-25-78:   RUN DATE
 RUN .                  1:   RUN NUMBER
 DD  .F               870:   DEPTH DRILLER
 DL  .F               870:   DEPTH LOGGER
 BLI .F               865:   BOTTOM LOG INTERVAL
 TLI .F                47:   TOP LOG INTERVAL
 CS  .IN            8.625:   CASING SIZE
 CBD .F                40:   CASING BOTTOM DRILLER
 CBL .F                47:   CASING BOTTOM LOGGER
 BS  .IN            7.875:   BIT SIZE
 BSD .F               870:   BIT SIZE AT DEPTH
 DFT .                KCL:   DRILLING FLUID TYPE
 DFD .                8.7:   DRILLING FLUID DENSITY
 DFV .                 35:   DRILLING FLUID VISCOSITY
 DFL .                4.8:   DRILLING FLUID LOSS
 MSS .         CIRCULATED:   MUD SAMPLE SOURCE
 RMS .OHMM            1.5:   RESISTIVITY MUD SAMPLE
 MST .F                70:   MUD SAMPLE TEMPERATURE
 RMF .OHMM            .75:   RESISTIVITY MUD FILTRATE SAMPLE
 MFST.F                74:   MUD FILTRATE SAMPLE TEMPERATURE
 RMC .OHMM            1.8:   RESISTIVITY MUD CAKE
 MCST.F                68:   MUD CAKE SAMPLE TEMPERATURE
 MFSS.              PRESS:   MUD FILTRATE SAMPLE SOURCE
 RMB .OHMM            1.5:   RESISTIVITY MUD AT BHT
 BHT .F                70:   BOTTOM HOLE TEMPERATURE
 TCS .HRS               2:   TIME CURCULATED STOPPED
 MRT .F                70:   MAXIMUM RECORDED TEMPERATURE
 LUN .               2958:   LOGGING UNIT NUMBER
 LUL .               CASP:   LOGGING UNIT LOCATION
 CLNT.            A2DTECH:   CLIENT CODE
 ORIG.        2" 5" PRINT:   ORIGIN OF DATA
 UWI .       490251058700:   UNIQUE WELL ID
 DICO. A2D Technologies, Inc.:   DIGITIZING COMPANY
~OTHER INFORMATION
~A   DEPT      SPR         SN        ILD       CORR       RHOB       DPHI         CALD      GRD   
# ...
  649.5000   -25.3690     9.7683     8.9876     0.0529     2.4764     0.1208     8.4959    94.7871
  650.0000   -26.0262     9.9686     9.0565     0.0533     2.4692     0.1250     8.4914    94.3726
  650.5000   -26.7082    10.1741     9.1191     0.0509     2.4639     0.1309     8.4869    90.8973
  651.0000   -27.3920    10.4834     9.7247     0.0500     2.4493     0.1368     8.4825    86.7257
  651.5000   -28.0735    11.0713    10.3120     0.0485     2.4366     0.1479     8.4780    79.9894
  652.0000   -28.7536    12.0308    10.9328     0.0408     2.4327     0.1613     8.4735    70.1093
  652.5000   -29.4574    13.0316    11.5923     0.0294     2.4076     0.1747     8.4690    67.1429
  653.0000   -30.1554    14.1155    12.2920     0.0236     2.3798     0.1804     8.4645    66.6765
  653.5000   -30.5296    14.6068    13.0325     0.0275     2.3589     0.1832     8.4600    65.9418
  654.0000   -31.8905    14.8611    13.8184     0.0408     2.3510     0.1849     8.4556    64.3784
  654.5000   -33.2441    15.2857    14.4725     0.0334     2.3436     0.1926     8.4512    64.0188
  655.0000   -33.7797    15.7224    14.8244     0.0228     2.3296     0.1927     8.4478    64.4523
  655.5000   -33.7139    16.1716    15.0749     0.0195     2.3362     0.1949     8.4447    65.1307
  656.0000   -33.6276    16.7778    15.2973     0.0195     2.3293     0.1934     8.4416    66.0837
  656.5000   -33.5578    16.7778    15.2973     0.0195     2.3299     0.1910     8.4385    67.2464
  657.0000   -33.3898    16.9335    15.1567     0.0195     2.3345     0.1874     8.4354    67.8416
  657.5000   -33.2117    17.0907    15.2973     0.0194     2.3352     0.1843     8.4325    67.9229
  658.0000   -33.3793    16.7992    15.1567     0.0169     2.3396     0.1821     8.4391    67.6642
  658.5000   -33.6946    16.5163    15.1567     0.0165     2.3457     0.1811     8.4840    66.9679
  659.0000   -33.9881    16.2382    15.1567     0.0160     2.3507     0.1663     8.5286    66.1943
  659.5000   -34.3148    15.8732    15.3029     0.0138     2.3561     0.1509     8.5726    65.3853
  660.0000   -33.0482    15.9104    15.0459     0.0146     2.3790     0.1356     8.6104    64.5822
  660.5000   -31.8399    15.9670    14.7627     0.0158     2.4240     0.1242     8.6085    63.8819
  661.0000   -30.6464    16.0205    14.4833     0.0158     2.4394     0.1248     8.6316    63.8938
  661.5000   -29.4531    15.5089    14.2089     0.0143     2.4523     0.1293     8.6605    63.9700
  662.0000   -28.7892    15.0395    13.9399     0.0106     2.4520     0.1373     8.6894    66.5181
  662.5000   -28.8432    14.6068    13.6758     0.0046     2.4407     0.1452     8.7086    69.1402
  663.0000   -28.9223    14.4193    13.4171     0.0049     2.4266     0.1499     8.7084    70.3275
  663.5000   -28.9760    14.2432    13.1631     0.0054     2.4153     0.1509     8.7121    71.5901
  664.0000   -28.6880    14.0692    13.0557     0.0037     2.4042     0.1562     8.7249    71.4209
  664.5000   -28.7466    13.8981    13.0270     0.0009     2.4057     0.1621     8.7372    70.5826
  665.0000   -29.1075    13.7277    12.9985     0.0024     2.3925     0.1633     8.7495    69.7811
  665.5000   -29.4688    13.5663    12.9700     0.0043     2.3860     0.1685     8.7618    68.9840
  666.0000   -29.8321    13.4416    12.7322     0.0003     2.3833     0.1710     8.7675    68.2781
  666.5000   -30.1692    13.4416    12.7891    -0.0038     2.3736     0.1795     8.7662    68.2713
  667.0000   -30.3926    13.4987    12.9037    -0.0039     2.3680     0.1773     8.7649    68.2718
  667.5000   -30.7202    13.5680    13.0193     0.0026     2.3528     0.1782     8.7636    68.0936
  668.0000   -31.0557    13.6380    13.1360     0.0098     2.3569     0.1736     8.7624    67.9047
  668.5000   -31.0470    13.7081    13.2537     0.0125     2.3585     0.1653     8.7611    68.6619
  669.0000   -30.8522    13.7785    13.3725     0.0120     2.3669     0.1621     8.7598    69.5427
  669.5000   -30.9044    13.8492    13.4416     0.0107     2.3813     0.1710     8.7586    69.4536
  670.0000   -31.5243    13.9475    13.3784     0.0068     2.3796     0.1747     8.7573    69.4172
  670.5000   -32.1454    13.9176    13.3180     0.0046     2.3695     0.1724     8.7560    70.9923
  671.0000   -32.3494    13.8465    13.2748     0.0063     2.3666     0.1747     8.7547    72.9080
  671.5000   -31.7653    13.7758    13.2221     0.0054     2.3700     0.1754     8.7535    70.2547
  672.0000   -31.1956    13.7054    13.1697     0.0048     2.3665     0.1741     8.7522    68.4519
  672.5000   -31.2904    13.6354    13.1174     0.0062     2.3633     0.1635     8.7509    73.0297
  673.0000   -31.1939    13.5657    13.0654     0.0074     2.3686     0.1664     8.7497    72.0722
  673.5000   -30.4334    13.4964    13.0136     0.0034     2.3786     0.1699     8.7484    70.7145
  674.0000   -29.9773    13.4275    12.9620    -0.0006     2.3799     0.1705     8.7471    70.5587
  674.5000   -29.7988    13.3589    12.9106    -0.0047     2.3745     0.1740     8.7458    71.1017
  675.0000   -29.7795    13.2907    12.8594    -0.0046     2.3714     0.1766     8.7446    72.6454
  675.5000   -29.8929    13.2227    12.8084    -0.0023     2.3638     0.1705     8.7433    74.5365
  676.0000   -30.0081    13.1552    12.7576     0.0001     2.3650     0.1724     8.7420    76.9718
  676.5000   -30.1217    13.0880    12.7154    -0.0001     2.3714     0.1739     8.7407    77.9568
  677.0000   -30.2353    13.0646    12.7082    -0.0008     2.3684     0.1709     8.7395    75.3154
  677.5000   -30.3491    13.0526    12.7012    -0.0016     2.3687     0.1796     8.7382    76.2078
  678.0000   -30.4636    13.0405    12.6940    -0.0024     2.3654     0.1815     8.7369    73.6110
  678.5000   -30.5742    13.0285    12.6869    -0.0006     2.3587     0.1800     8.7357    72.5228
  679.0000   -30.5514    13.0165    12.6797     0.0017     2.3543     0.1723     8.7344    70.5172
  679.5000   -30.3967    13.0045    12.6726     0.0040     2.3606     0.1678     8.7331    70.6408
  680.0000   -30.2433    12.9925    12.6655     0.0058     2.3726     0.1680     8.7318    70.2590
  680.5000   -30.2266    12.9806    12.6584     0.0064     2.3795     0.1686     8.7306    70.4471
  681.0000   -30.5000    12.9686    12.6512     0.0070     2.3764     0.1680     8.7293    70.9965
  681.5000   -30.7680    12.9566    12.6441     0.0073     2.3747     0.1680     8.7282    71.5630
  682.0000   -30.7340    12.9447    12.6370     0.0060     2.3760     0.1716     8.7282    71.4470
  682.5000   -30.6568    12.9328    12.6299     0.0048     2.3754     0.1671     8.7282    70.6806
  683.0000   -30.5802    12.9209    12.6228     0.0050     2.3737     0.1664     8.7282    70.1906
  683.5000   -30.5037    12.9089    12.6157     0.0064     2.3780     0.1610     8.7282    69.6731
  684.0000   -30.4273    12.8971    12.6083     0.0113     2.3826     0.1645     8.7282    73.3022
  684.5000   -30.3510    12.8852    12.6020     0.0081     2.3858     0.1690     8.7282    75.5059
  685.0000   -30.2736    12.8733    12.5540     0.0080     2.3807     0.1680     8.7282    77.1275
  685.5000   -30.1953    12.8614    12.4933     0.0123     2.3753     0.1663     8.7282    78.6043
  686.0000   -30.0671    12.8496    12.4333     0.0166     2.3758     0.1604     8.7282    75.6073
  686.5000   -29.8690    12.8378    12.3737     0.0234     2.3850     0.1538     8.7282    78.0873
  687.0000   -29.7985    12.7742    12.3142     0.0319     2.3950     0.1511     8.7282    77.3122
  687.5000   -29.8468    12.6941    12.2551     0.0372     2.4053     0.1554     8.7282    75.8913
  688.0000   -29.8948    12.6146    12.1962     0.0298     2.4054     0.1599     8.7282    74.3434
  688.5000   -29.9434    12.5356    12.1376     0.0208     2.3965     0.1613     8.7282    73.4774
  689.0000   -29.9919    12.4570    12.0793     0.0166     2.3869     0.1610     8.7282    73.0255
  689.5000   -30.0405    12.3789    12.0212     0.0126     2.3861     0.1664     8.7282    73.3658
