~VERSION INFORMATION
 VERS.                2.0:   CWLS LOG ASCII STANDARD - VERSION 2.0
 WRAP.                 NO:   ONE LINE PER DEPTH STEP
~WELL INFORMATION
#MNEM.UNIT      DATA TYPE    INFORMATION
#----------   ------------   ------------------------------
 STRT.F           89.0000:   START DEPTH
 STOP.F         2840.5000:   STOP DEPTH
 STEP.F            0.5000:   STEP LENGTH
 NULL.          -999.2500:   NO VALUE
 COMP. U S NAVY/INTEX OIL CO:   COMPANY
 WELL. RES3 TEAPO DOME AX #41-29:   WELL
 FLD .             TEAPOT:   FIELD
 LOC .      S29 T39N R78W:   LOCATION
 CNTY.            NATRONA:   COUNTY
 STAT.            WYOMING:   STATE
 CTRY. UNITED STATES OF AMERICA:   COUNTRY
 SRVC.       Schlumberger:   SERVICE COMPANY
 DATE.        02-JUN-1966:   LOGDATE
 API .       490250945000:   API NUMBER
~CURVE INFORMATION
#MNEM.UNIT       API CODE    CURVE DESCRIPTION
#----------   ------------   ------------------------------
 DEPT.F                  :   
 GRD .GAPI   45 310 01 00:   GAMMA RAY FROM DENSITY LOG
 CALD.IN     45 280 60 00:   CALIPER FROM DENSITY LOG
 DPHI.DEC    45 890 12 00:   DENSITY POROSITY SANDSTONE
 RHOB.G/C3   45 350 01 00:   BULK DENSITY
 CORR.G/C3   45 356 01 00:   DENSITY CORRECTION
 SPR .MV     05 010 01 00:   SPONTANEOUS POTENTIAL FROM RES.
 ASN .OHMM   05 041 16 00:   AMPLIFIED SHORT NORMAL 16"
 ILD .OHMM   05 120 46 00:   INDUCTION LOG DEEP
 CILD.MMHO   05 110 46 00:   CONDUCTIVITY INDUCTION LOG DEEP
~PARAMETER INFORMATION
#MNEM.UNIT          VALUE    DESCRIPTION
#----------   ------------   ------------------------------
 PD  .                 GL:   PERMANENT DATUM
 EPD .F              5007:   ELEVATION PERMANENT DATUM
 LMF .                 KB:   LOG MEASURED FROM
 DAPD.F              10.3:   FEET ABOVE PERMANENT DATUM
 DMF .                 KB:   DRILLING MEASURED FROM
 EKB .F            5017.3:   KELLING BUSHING
 EGL .F              5007:   GROUND LEVEL
 DATE.             6-2-66:   RUN DATE
 RUN .                  1:   RUN NUMBER
 DD  .F              2840:   DEPTH DRILLER
 DL  .F              2838:   DEPTH LOGGER
 BLI .F              2837:   BOTTOM LOG INTERVAL
 TLI .F                88:   TOP LOG INTERVAL
 CS  .IN            10.75:   CASING SIZE
 CBD .F                30:   CASING BOTTOM DRILLER
 BS  .IN            7.875:   BIT SIZE
 BSD .F              2840:   BIT SIZE AT DEPTH
 DFT .  LIGNO-SULFATE LCM:   DRILLING FLUID TYPE
 DFD .                9.9:   DRILLING FLUID DENSITY
 DFV .                 48:   DRILLING FLUID VISCOSITY
 DFPH.                7.6:   DRILLING FLUID PH
 DFL .                8.1:   DRILLING FLUID LOSS
 MSS .         CIRCULATED:   MUD SAMPLE SOURCE
 RMS .OHMM           1.62:   RESISTIVITY MUD SAMPLE
 MST .F                73:   MUD SAMPLE TEMPERATURE
 RMF .OHMM           1.06:   RESISTIVITY MUD FILTRATE SAMPLE
 MFST.F                72:   MUD FILTRATE SAMPLE TEMPERATURE
 MFSS.                 FP:   MUD FILTRATE SAMPLE SOURCE
 RMB .OHMM           1.13:   RESISTIVITY MUD AT BHT
 BHT .F               105:   BOTTOM HOLE TEMPERATURE
 TCS .HRS               2:   TIME CURCULATED STOPPED
 MRT .F               105:   MAXIMUM RECORDED TEMPERATURE
 LUN .               4507:   LOGGING UNIT NUMBER
 LUL .               CSPR:   LOGGING UNIT LOCATION
 ENGI.               HAUG:   RECORDING ENGINEER
 WITN.             TUTTLE:   WITNESSED BY
 CLNT.            A2DTECH:   CLIENT CODE
 ORIG.        2" 5" PRINT:   ORIGIN OF DATA
 UWI .       490250945000:   UNIQUE WELL ID
 DICO. A2D Technologies, Inc.:   DIGITIZING COMPANY
~OTHER INFORMATION
~A   DEPT      GRD       CALD       DPHI       RHOB       CORR        SPR          ASN      ILD        CILD  
# ...
 2717.0000   114.0060     9.7174     0.0816     2.5238     0.0121   -30.6096     7.1496     5.5868   187.5099
 2717.5000   117.0350     9.7218     0.0710     2.5313     0.0239   -30.7701     6.9140     5.2469   198.3017
 2718.0000   127.5526     9.7261     0.0928     2.5076     0.0310   -30.4801     6.6032     4.9365   215.3247
 2718.5000   144.3684     9.7306     0.1043     2.4842     0.0120   -30.0895     6.3226     4.2495   245.6144
 2719.0000   150.6470     9.7357     0.1165     2.4611     0.0079   -30.1865     5.9448     3.6638   287.8177
 2719.5000   174.8578     9.7594     0.1282     2.4377     0.0116   -30.5159     5.4843     3.1839   332.2067
 2720.0000   185.7734     9.7599     0.1409     2.4115     0.0163   -30.5315     5.0166     2.8125   376.5956
 2720.5000   194.5999     9.7615     0.1533     2.3823     0.0370   -30.4625     4.5292     2.5750   429.0709
 2721.0000   195.1782     9.7634     0.1582     2.3951     0.0577   -30.6177     4.0154     2.4172   448.0519
 2721.5000   180.4722     9.7652     0.1426     2.4117     0.0781   -30.5513     3.5933     2.3770   455.2847
 2722.0000   152.3421     9.7670     0.1358     2.4279     0.0927   -30.4796     3.2370     2.4966   441.8032
 2722.5000   131.1115     9.7688     0.1322     2.4557     0.0411   -30.4103     3.1277     2.5975   424.2511
 2723.0000   118.7356     9.7706     0.1091     2.4862     0.0075   -30.3209     3.2041     2.6915   410.0465
 2723.5000   114.2540     9.7725     0.0808     2.5131     0.0114   -30.2805     3.5462     2.8940   382.0638
 2724.0000   110.8141     9.7743     0.0839     2.5066     0.0145   -30.0263     4.2077     3.2235   321.2986
 2724.5000   107.4510     9.7761     0.0851     2.5042     0.0183   -29.8272     5.2678     3.8819   270.7878
 2725.0000   107.3302     9.7779     0.0869     2.5050     0.0181   -29.9769     6.2318     4.7358   215.3134
 2725.5000   111.3182     9.7797     0.0959     2.4900     0.0097   -30.0483     6.6905     5.4405   190.5804
 2726.0000   113.7069     9.7815     0.1026     2.4756     0.0016   -30.1885     6.9674     5.8068   178.9707
 2726.5000   116.1312     9.7834     0.1010     2.4797     0.0017   -30.1228     7.0139     6.0243   171.3287
 2727.0000   118.5602     9.7852     0.0991     2.4861     0.0061   -29.8877     7.0882     5.9167   174.6910
 2727.5000   121.0024     9.7870     0.1001     2.4861     0.0105   -29.6496     7.0935     5.8009   177.6366
 2728.0000   123.3065     9.7888     0.1022     2.4820     0.0150   -29.6591     7.1020     5.7504   180.3197
 2728.5000   122.6260     9.7906     0.1007     2.4777     0.0111   -29.7256     7.0691     5.7846   179.2503
 2729.0000   121.9602     9.7924     0.1060     2.4690     0.0056   -29.7955     7.0849     5.8007   178.2684
 2729.5000   124.2028     9.7943     0.1090     2.4689     0.0002   -29.6959     7.1150     5.8286   177.2865
 2730.0000   128.3212     9.7961     0.1032     2.4781    -0.0038   -29.3199     7.2355     5.8368   176.3237
 2730.5000   127.4842     9.7958     0.0984     2.4869     0.0027   -29.3797     7.3411     5.7838   177.7423
 2731.0000   127.0301     9.7842     0.0935     2.4960     0.0091   -29.7655     7.4252     5.7361   179.4605
 2731.5000   127.8318     9.7726     0.0938     2.4950     0.0125   -30.0994     7.4795     5.6840   181.1788
 2732.0000   126.1479     9.7611     0.0951     2.4911     0.0151   -30.4103     7.4825     5.6516   182.1004
 2732.5000   124.2447     9.7496     0.0963     2.4943     0.0184   -30.3984     7.4828     5.7016   181.3187
 2733.0000   126.2428     9.7381     0.0974     2.4987     0.0150   -30.0884     7.4814     5.7518   179.3873
 2733.5000   126.7863     9.7266     0.0974     2.4923     0.0101   -29.6649     7.4855     5.8030   176.9326
 2734.0000   126.5874     9.7151     0.0933     2.4900     0.0052   -29.6701     7.5162     5.8530   174.4779
 2734.5000   128.7861     9.7036     0.0898     2.4984     0.0006   -29.7541     7.5992     5.9045   172.0232
 2735.0000   131.5849     9.6920     0.0962     2.4961    -0.0003   -29.7971     7.7282     5.9530   170.9590
 2735.5000   132.5153     9.6805     0.0930     2.4909     0.0047   -29.5260     7.8438     6.0097   170.3297
 2736.0000   132.0281     9.6691     0.0946     2.4866     0.0095   -29.4574     7.9764     6.0220   172.0508
 2736.5000   132.7599     9.6572     0.0969     2.4943     0.0131   -29.5924     8.0576     5.8304   175.7378
 2737.0000   130.9751     9.6367     0.0992     2.4875     0.0101   -29.6894     8.1067     5.6533   181.4450
 2737.5000   128.3291     9.6156     0.1015     2.4784     0.0071   -29.8034     7.9637     5.4735   187.1521
 2738.0000   127.6050     9.5945     0.1006     2.4773     0.0046   -29.6550     7.6209     5.2929   192.8508
 2738.5000   129.5918     9.5734     0.0963     2.4899     0.0100   -29.4588     7.3125     5.1383   198.5616
 2739.0000   129.1890     9.5523     0.0927     2.4987     0.0153   -29.2451     6.9873     5.0080   204.3003
 2739.5000   132.0140     9.5312     0.0882     2.5075     0.0204   -29.3278     6.7738     4.8988   210.8720
 2740.0000   131.6210     9.5102     0.0838     2.5011     0.0258   -29.5041     6.6640     4.7739   218.3924
 2740.5000   128.0663     9.4891     0.0928     2.4889     0.0156   -29.5633     6.6600     4.8060   217.7738
 2741.0000   124.5599     9.4680     0.1016     2.4766     0.0020   -29.3043     6.7128     4.9501   214.0356
 2741.5000   120.8698     9.4471     0.1037     2.4733     0.0025   -29.3344     6.7572     5.0399   205.5514
 2742.0000   121.6180     9.4259     0.1054     2.4782     0.0057   -29.6442     6.8157     5.2489   197.6439
 2742.5000   121.2677     9.4108     0.1070     2.4708     0.0007   -29.9114     7.0138     5.5333   187.2575
 2743.0000   119.2232     9.3732     0.1086     2.4625    -0.0054   -30.1991     7.2476     5.8386   176.8549
 2743.5000   117.7128     9.3363     0.1102     2.4576    -0.0022   -30.4791     7.4814     6.2514   166.4701
 2744.0000   119.8872     9.2994     0.1064     2.4697     0.0030   -30.6977     7.9294     6.5666   157.7909
 2744.5000   124.2759     9.2626     0.1030     2.4741    -0.0007   -30.7660     8.5617     6.7887   150.8159
 2745.0000   125.7700     9.2257     0.1063     2.4724    -0.0044   -31.0616     9.1544     7.1209   143.8391
 2745.5000   122.5360     9.1888     0.1044     2.4790     0.0014   -31.4905     9.7690     7.4969   136.8503
 2746.0000   119.0608     9.1519     0.0974     2.4781     0.0057   -31.7419    10.1880     7.8276   130.1122
 2746.5000   116.5715     9.1150     0.1008     2.4743     0.0009   -31.1594    10.5411     7.9244   127.4304
 2747.0000   120.9826     9.0782     0.1044     2.4737     0.0009   -30.5021    10.7439     7.9083   129.7214
 2747.5000   126.3471     9.0412     0.1008     2.4835     0.0065   -30.6975    10.7613     7.6693   134.6346
 2748.0000   131.7289     9.0036     0.0950     2.4927     0.0119   -31.0291    10.5735     7.2880   140.5825
 2748.5000   136.0446     8.9688     0.0899     2.4968     0.0175   -31.3528    10.3450     7.0663   145.3546
 2749.0000   132.5832     8.9224     0.0894     2.4866     0.0152   -31.6670     9.8470     6.9455   147.4126
 2749.5000   129.0809     8.8759     0.1038     2.4769     0.0084   -31.9503     9.4124     6.8144   149.3506
 2750.0000   125.4479     8.8292     0.0980     2.4774     0.0045   -31.0217     8.9301     6.6924   153.4561
 2750.5000   123.8889     8.7826     0.0895     2.4945     0.0088   -30.0952     8.7663     6.5581   158.1638
 2751.0000   122.9228     8.7360     0.0874     2.5004     0.0083   -30.4420     8.7947     6.4442   160.9640
 2751.5000   123.9477     8.6894     0.0938     2.4868    -0.0007   -30.8051     9.0813     6.2901   163.1285
 2752.0000   123.3628     8.6428     0.0948     2.4877    -0.0015   -31.0855     9.4665     6.3319   161.9231
 2752.5000   121.3484     8.5962     0.0946     2.4935     0.0132   -30.1779     9.8381     6.5741   156.4685
 2753.0000   119.4205     8.5496     0.0971     2.4881     0.0081   -30.5858    10.1199     6.8144   151.0140
