~VERSION INFORMATION
 VERS.                2.0:   CWLS LOG ASCII STANDARD - VERSION 2.0
 WRAP.                 NO:   ONE LINE PER DEPTH STEP
~WELL INFORMATION
#MNEM.UNIT      DATA TYPE    INFORMATION
#----------   ------------   ------------------------------
 STRT.F           31.0000:   START DEPTH
 STOP.F         1450.0000:   STOP DEPTH
 STEP.F            0.5000:   STEP LENGTH
 NULL.          -999.2500:   NO VALUE
 COMP. FENIX & SCISSON INC:   COMPANY
 WELL.    NPR-3 SX #86-14:   WELL
 FLD .             TEAPOT:   FIELD
 LOC .      S14 T38N R78W:   LOCATION
 CNTY.            NATRONA:   COUNTY
 STAT.            WYOMING:   STATE
 CTRY. UNITED STATES OF AMERICA:   COUNTRY
 SRVC.            Unknown:   SERVICE COMPANY
 DATE.        05-APR-1978:   LOGDATE
 API .       490251060800:   API NUMBER
~CURVE INFORMATION
#MNEM.UNIT       API CODE    CURVE DESCRIPTION
#----------   ------------   ------------------------------
 DEPT.F                  :   
 CALD.IN     45 280 60 00:   CALIPER
 GRD .GAPI   45 310 01 00:   GAMMA RAY FROM DENSITY LOG
 RHOB.G/C3   45 350 01 00:   BULK DENSITY
 CORR.G/C3   45 356 01 00:   DENSITY CORRECTION
 DPHI.DEC    45 890 12 00:   DENSITY POROSITY SANDSTONE
 SPR .MV     05 010 01 00:   SPONTANEOUS POTENTIAL FROM RES.
 SN  .OHMM   05 040 16 00:   SHORT NORMAL 16"
 ILD .OHMM   05 120 46 00:   INDUCTION LOG DEEP
~PARAMETER INFORMATION
#MNEM.UNIT          VALUE    DESCRIPTION
#----------   ------------   ------------------------------
 PD  .                 GL:   PERMANENT DATUM
 EPD .F              5367:   ELEVATION PERMANENT DATUM
 LMF .                 KB:   LOG MEASURED FROM
 DMF .                 KB:   DRILLING MEASURED FROM
 EKB .F              5371:   KELLING BUSHING
 EGL .F              5369:   GROUND LEVEL
 DATE.           4-5-1978:   RUN DATE
 RUN .                  1:   RUN NUMBER
 DD  .F              1455:   DEPTH DRILLER
 DL  .F              1446:   DEPTH LOGGER
 BLI .F              1440:   BOTTOM LOG INTERVAL
 TLI .F               100:   TOP LOG INTERVAL
 CS  .IN            8.625:   CASING SIZE
 CBD .F                40:   CASING BOTTOM DRILLER
 BS  .IN            7.875:   BIT SIZE
 BSD .F              1455:   BIT SIZE AT DEPTH
 DFT .                KCL:   DRILLING FLUID TYPE
 DFD .                8.6:   DRILLING FLUID DENSITY
 DFV .                 31:   DRILLING FLUID VISCOSITY
 DFPH.                 10:   DRILLING FLUID PH
 DFL .                8.4:   DRILLING FLUID LOSS
 MSS .           FLOWLINE:   MUD SAMPLE SOURCE
 RMS .OHMM            .95:   RESISTIVITY MUD SAMPLE
 MST .F                54:   MUD SAMPLE TEMPERATURE
 RMF .OHMM            .95:   RESISTIVITY MUD FILTRATE SAMPLE
 MFST.F                62:   MUD FILTRATE SAMPLE TEMPERATURE
 RMC .OHMM             .8:   RESISTIVITY MUD CAKE
 MCST.F                62:   MUD CAKE SAMPLE TEMPERATURE
 MFSS.               MEAS:   MUD FILTRATE SAMPLE SOURCE
 RMB .OHMM            .66:   RESISTIVITY MUD AT BHT
 BHT .F                78:   BOTTOM HOLE TEMPERATURE
 TCS .HRS               6:   TIME CURCULATED STOPPED
 MRT .F                78:   MAXIMUM RECORDED TEMPERATURE
 LUN .               2958:   LOGGING UNIT NUMBER
 LUL .               CASP:   LOGGING UNIT LOCATION
 ENGI.             MILLER:   RECORDING ENGINEER
 WITN.           MCGINLEY:   WITNESSED BY
 CLNT.            A2DTECH:   CLIENT CODE
 ORIG.        2" 5" PRINT:   ORIGIN OF DATA
 UWI .       490251060800:   UNIQUE WELL ID
 DICO. A2D Technologies, Inc.:   DIGITIZING COMPANY
~OTHER INFORMATION
~A   DEPT     CALD         GRD      RHOB       CORR       DPHI        SPR         SN        ILD   
# ...
 1246.0000     8.4615   104.5825     2.4336     0.2120     0.1223   -34.4644     8.9054     6.4496
 1246.5000     8.4638    95.7767     2.4162     0.0954     0.1340   -34.4450     8.4627     5.3223
 1247.0000     8.4539    90.2832     2.3982     0.0455     0.1383   -34.4825     7.9591     4.9073
 1247.5000     8.4438    90.0213     2.4466     0.0458     0.0931   -34.5191     7.1593     4.7489
 1248.0000     8.4333    88.8398     2.5020     0.0424     0.0833   -34.5559     6.4398     4.8038
 1248.5000     8.4434    87.2722     2.4950     0.0384     0.0922   -34.5926     6.2982     4.8721
 1249.0000     8.4634    87.3072     2.4848     0.0390     0.0894   -34.6293     6.2674     5.0239
 1249.5000     8.4840    87.2508     2.4811     0.0398     0.0869   -34.6661     6.2674     5.4097
 1250.0000     8.5045    89.5586     2.4920     0.0380     0.0818   -34.7028     7.2275     6.0927
 1250.5000     8.5245    90.9520     2.5012     0.0333     0.0873   -34.7398     9.3279     6.9385
 1251.0000     8.3991    91.2642     2.4902     0.0322     0.0982   -34.7762     9.9517     7.6867
 1251.5000     8.2146    91.6631     2.4680     0.0324     0.0999   -34.8139    10.2581     8.6060
 1252.0000     8.2152    89.4073     2.4651     0.0422     0.0909   -34.6426    10.6046     9.5020
 1252.5000     8.2188    87.5149     2.4825     0.0605     0.0850   -34.2908    10.9159     9.5957
 1253.0000     8.2232    87.7385     2.4949     0.0585     0.0841   -33.9355    10.9877     9.3295
 1253.5000     8.2274    88.1832     2.4979     0.0571     0.0879   -33.3872    11.0654     9.1033
 1254.0000     8.2280    89.8398     2.4886     0.0364     0.1002   -31.7761    11.1437     8.8830
 1254.5000     8.1774    92.7445     2.4669     0.0323     0.0914   -30.3328    11.2225     8.7432
 1255.0000     8.1525    91.7579     2.4846     0.0286     0.1019   -29.8934    11.3019     8.7497
 1255.5000     8.1582    90.6141     2.4486     0.0246     0.1136   -29.4731    11.3818     8.7905
 1256.0000     8.1637    87.3549     2.4404     0.0266     0.1203   -27.5500    11.4544     8.8314
 1256.5000     8.1693    83.8521     2.4322     0.0314     0.1255   -25.1883    11.5137     8.8726
 1257.0000     8.1748    75.3633     2.4233     0.0361     0.1286   -24.0924    11.5734     8.9891
 1257.5000     8.1804    65.6698     2.4175     0.0405     0.1318   -22.5666    11.6323     9.3968
 1258.0000     8.1859    59.2790     2.3967     0.0445     0.1351   -20.8105    11.8279     9.9429
 1258.5000     8.1915    52.7579     2.3735     0.0484     0.1451   -18.8432    12.0617    10.5207
 1259.0000     8.1970    46.2310     2.3550     0.0523     0.1553   -15.9335    12.3003    11.1320
 1259.5000     8.2026    39.6876     2.3367     0.0573     0.1624   -13.0725    12.5402    11.7789
 1260.0000     8.2083    38.1072     2.3318     0.0826     0.1663   -10.2052    12.5668    12.3145
 1260.5000     8.2037    40.1994     2.3543     0.0927     0.1623    -8.0046    12.6102    12.3100
 1261.0000     8.1946    44.7524     2.3791     0.0764     0.1587    -6.6987    12.6537    12.3712
 1261.5000     8.1854    49.2081     2.3915     0.0610     0.1603    -6.6675    12.6974    12.4136
 1262.0000     8.1759    52.8142     2.3709     0.0501     0.1715    -6.6268    12.7410    12.4565
 1262.5000     8.1513    53.2855     2.3534     0.0534     0.1709    -6.5821    12.7739    12.4994
 1263.0000     8.0954    53.3087     2.3510     0.0568     0.1660    -6.5355    12.6686    12.5395
 1263.5000     8.0485    53.2753     2.3609     0.0559     0.1603    -6.4904    12.5848    12.3982
 1264.0000     8.0362    52.5275     2.3691     0.0424     0.1747    -6.6118    12.5015    12.2636
 1264.5000     8.0224    52.4958     2.3513     0.0527     0.1663    -6.7497    12.4247    12.1311
 1265.0000     8.0086    52.4986     2.3487     0.0605     0.1608    -6.8869    12.3364    12.0000
 1265.5000     7.9944    52.4914     2.3509     0.0612     0.1606    -7.0247    12.2547    11.8704
 1266.0000     7.9935    52.4462     2.3487     0.0621     0.1639    -7.1063    12.1736    11.7541
 1266.5000     7.9986    54.5879     2.3686     0.0580     0.1655    -7.1460    12.0926    11.7541
 1267.0000     8.0038    56.7189     2.3912     0.0518     0.1487    -7.1847    12.0134    11.7541
 1267.5000     8.0090    56.3578     2.3904     0.0502     0.1550    -7.2233    11.9656    11.7541
 1268.0000     8.0141    56.1315     2.3685     0.0547     0.1605    -7.2618    11.9520    11.7540
 1268.5000     8.0193    58.5829     2.3811     0.0535     0.1597    -7.2921    11.9378    11.7385
 1269.0000     8.0245    59.6775     2.3837     0.0467     0.1597    -7.3084    11.9236    11.7214
 1269.5000     8.0297    59.6947     2.3684     0.0462     0.1632    -7.3249    11.9093    11.7044
 1270.0000     8.0348    59.6401     2.3612     0.0466     0.1655    -7.3414    11.8952    11.6874
 1270.5000     8.0400    62.4128     2.3586     0.0582     0.1575    -7.3579    11.8811    11.6704
 1271.0000     8.0452    62.8921     2.3673     0.0701     0.1561    -7.3744    11.8668    11.6534
 1271.5000     8.0501    62.9477     2.3762     0.0757     0.1533    -7.3909    11.8115    11.6126
 1272.0000     8.0533    60.5116     2.3815     0.0632     0.1592    -7.4073    11.7430    11.5527
 1272.5000     8.0563    57.1063     2.3641     0.0541     0.1684    -7.4238    11.6749    11.4932
 1273.0000     8.0593    53.8343     2.3521     0.0543     0.1718    -7.4403    11.6072    11.4339
 1273.5000     8.0624    53.3099     2.3523     0.0543     0.1727    -7.4569    11.5399    11.3750
 1274.0000     8.0654    57.3600     2.3484     0.0552     0.1727    -7.4733    11.4728    11.3218
 1274.5000     8.0685    58.5847     2.3433     0.0612     0.1656    -7.4853    11.4172    11.2926
 1275.0000     8.0715    59.6181     2.3577     0.0626     0.1581    -7.4849    11.3777    11.2634
 1275.5000     8.0745    62.4458     2.3823     0.0629     0.1515    -7.4845    11.3387    11.2344
 1276.0000     8.0776    62.7502     2.3857     0.0633     0.1510    -7.4781    11.2996    11.2054
 1276.5000     8.0806    62.7783     2.3850     0.0636     0.1510    -7.8143    11.2604    11.1764
 1277.0000     8.0837    64.4267     2.3847     0.0641     0.1504    -8.2701    11.2232    11.1476
 1277.5000     8.0868    66.0707     2.3909     0.0648     0.1475    -8.7284    11.2794    11.1188
 1278.0000     8.0898    66.8110     2.3949     0.0470     0.1510    -9.1816    11.3348    11.0901
 1278.5000     8.0816    64.1161     2.3803     0.0269     0.1551    -9.5079    11.3904    11.0615
 1279.0000     8.0723    62.3921     2.3763     0.0172     0.1571    -9.5701    11.4325    11.0330
 1279.5000     8.0631    64.0157     2.3754     0.0104     0.1595    -9.6437    11.3161    10.9872
 1280.0000     8.0536    66.0564     2.3698     0.0066     0.1619   -10.0673    11.2236    10.9207
 1280.5000     8.0665    68.0263     2.3661     0.0085     0.1613   -11.1293    11.1199    10.8547
 1281.0000     8.0940    69.6294     2.3709     0.0092     0.1588   -12.1877    11.1626    10.7890
 1281.5000     8.1219    70.2824     2.3760     0.0101     0.1595   -13.2402    11.2119    10.7159
 1282.0000     8.1496    70.7340     2.3710     0.0169     0.1609   -13.8520    11.2618    10.7558
 1282.5000     8.1713    69.9631     2.3668     0.0324     0.1570   -13.7769    11.3273    10.8148
 1283.0000     8.1747    67.9063     2.3802     0.0461     0.1513   -13.7114    11.2993    10.8742
 1283.5000     8.1784    65.7557     2.3956     0.0463     0.1457   -13.6435    11.2589    10.9099
 1284.0000     8.1821    65.8972     2.3953     0.0461     0.1491   -13.5765    11.2187    10.8282
 1284.5000     8.1858    66.7198     2.3876     0.0495     0.1507   -13.5103    11.1786    10.7613
 1285.0000     8.1895    66.9674     2.3841     0.0589     0.1472   -13.5079    11.1199    10.7159
 1285.5000     8.1932    67.0669     2.3845     0.0685     0.1411   -13.5859    11.1482    10.8259
 1286.0000     8.1969    66.8306     2.4008     0.0653     0.1333   -13.6630    11.2043    10.9102
