~VERSION INFORMATION
 VERS.                2.0:   CWLS LOG ASCII STANDARD - VERSION 2.0
 WRAP.                 NO:   ONE LINE PER DEPTH STEP
~WELL INFORMATION
#MNEM.UNIT      DATA TYPE    INFORMATION
#----------   ------------   ------------------------------
 STRT.F           33.0000:   START DEPTH
 STOP.F          957.0000:   STOP DEPTH
 STEP.F            0.5000:   STEP LENGTH
 NULL.          -999.2500:   NO VALUE
 COMP. TESORO PETROLEUM CORP:   COMPANY
 WELL.  NPR #3 46-S-14 #3:   WELL
 FLD .             TEAPOT:   FIELD
 LOC .      S14 T38N R78W:   LOCATION
 CNTY.            NATRONA:   COUNTY
 STAT.            WYOMING:   STATE
 CTRY. UNITED STATES OF AMERICA:   COUNTRY
 SRVC.       Schlumberger:   SERVICE COMPANY
 DATE.        25-JUN-1970:   LOGDATE
 API .       490251023100:   API NUMBER
~CURVE INFORMATION
#MNEM.UNIT       API CODE    CURVE DESCRIPTION
#----------   ------------   ------------------------------
 DEPT.F                  :   
 SPR .MV     05 010 01 00:   SPONTANEOUS POTENTIAL FROM RES.
 ILD .OHMM   05 120 46 00:   INDUCTION LOG DEEP
 CILD.MMHO   05 110 46 00:   CONDUCTIVITY INDUCTION LOG DEEP
 ASN .OHMM   05 041 16 00:   AMPLIFIED SHORT NORMAL 16"
 GR  .GAPI   30 310 01 00:   GAMMA RAY
 CALD.IN     45 280 60 00:   CALIPER FROM DENSITY LOG
 CORR.G/C3   45 356 01 00:   DENSITY CORRECTION
 DPHI.DEC    45 890 12 00:   DENSITY POROSITY SANDSTONE
 RHOB.G/C3   45 350 01 00:   BULK DENSITY
~PARAMETER INFORMATION
#MNEM.UNIT          VALUE    DESCRIPTION
#----------   ------------   ------------------------------
 PD  .                 GL:   PERMANENT DATUM
 EPD .F              5271:   ELEVATION PERMANENT DATUM
 LMF .                 KB:   LOG MEASURED FROM
 DAPD.F                10:   FEET ABOVE PERMANENT DATUM
 DMF .                 KB:   DRILLING MEASURED FROM
 EKB .F              5281:   KELLING BUSHING
 EDF .F              5280:   DRILLING FLOOR
 EGL .F              5271:   GROUND LEVEL
 DATE.        25-JUN-1970:   RUN DATE
 RUN .                  1:   RUN NUMBER
 DD  .F               950:   DEPTH DRILLER
 DL  .F               958:   DEPTH LOGGER
 BLI .F               957:   BOTTOM LOG INTERVAL
 TLI .F                33:   TOP LOG INTERVAL
 CS  .IN            10.75:   CASING SIZE
 CBD .F                30:   CASING BOTTOM DRILLER
 CBL .F                33:   CASING BOTTOM LOGGER
 BS  .IN                9:   BIT SIZE
 BSD .F               950:   BIT SIZE AT DEPTH
 DFT .         MO-MAR MUD:   DRILLING FLUID TYPE
 DFD .                9.7:   DRILLING FLUID DENSITY
 DFV .                 62:   DRILLING FLUID VISCOSITY
 DFPH.                7.4:   DRILLING FLUID PH
 DFL .                5.6:   DRILLING FLUID LOSS
 MSS .           FLOWLINE:   MUD SAMPLE SOURCE
 RMS .OHMM           1.40:   RESISTIVITY MUD SAMPLE
 MST .F                85:   MUD SAMPLE TEMPERATURE
 RMF .OHMM           0.85:   RESISTIVITY MUD FILTRATE SAMPLE
 MFST.F                87:   MUD FILTRATE SAMPLE TEMPERATURE
 MFSS.               MEAS:   MUD FILTRATE SAMPLE SOURCE
 RMB .OHMM           1.06:   RESISTIVITY MUD AT BHT
 BHT .F               112:   BOTTOM HOLE TEMPERATURE
 TCS .HRS               1:   TIME CURCULATED STOPPED
 MRT .F               112:   MAXIMUM RECORDED TEMPERATURE
 LUN .               7037:   LOGGING UNIT NUMBER
 LUL .                GLT:   LOGGING UNIT LOCATION
 ENGI.           KNOSTMAN:   RECORDING ENGINEER
 WITN.                MAY:   WITNESSED BY
 CLNT.            A2DTECH:   CLIENT CODE
 ORIG.         2.5" PRINT:   ORIGIN OF DATA
 UWI .       490251023100:   UNIQUE WELL ID
 DICO. A2D Technologies, Inc.:   DIGITIZING COMPANY
~OTHER INFORMATION
~A   DEPT       SPR        ILD       CILD       ASN         GR       CALD       CORR       DPHI       RHOB   
# ...
  872.5000   -33.3840    13.0240    76.8227    13.9394    60.0981     9.4323     0.1236     0.1229     2.4896
  873.0000   -34.0426    13.8986    73.6575    14.5455    56.8350     9.4619     0.1436     0.1060     2.5002
  873.5000   -34.8116    14.5053    70.7143    14.5531    54.4297     9.4612     0.1466     0.1067     2.4762
  874.0000   -35.4162    14.4949    70.6991    14.7273    51.2713     9.4606     0.1383     0.1139     2.4396
  874.5000   -35.7173    14.3182    72.2007    14.6440    50.3458     9.4599     0.1096     0.1212     2.4238
  875.0000   -36.0185    14.0783    75.2262    14.0151    48.8712     9.4592     0.0604     0.1316     2.4405
  875.5000   -36.0152    13.5994    76.7325    13.3333    52.4899     9.4585     0.0484     0.1321     2.4261
  876.0000   -36.0122    13.2971    78.3991    12.7273    54.9027     9.4611     0.0426     0.1330     2.3940
  876.5000   -36.0087    12.9947    80.1748    12.2727    53.0787     9.4874     0.0388     0.1448     2.3577
  877.0000   -35.7020    12.6924    81.2462    12.1212    52.8039     9.4867     0.0370     0.1618     2.3425
  877.5000   -35.3800    12.5208    82.7508    12.1212    52.5080     9.4860     0.0206     0.1903     2.3547
  878.0000   -34.7842    12.3232    84.2541    12.0606    51.3064     9.4853     0.0264     0.1891     2.3605
  878.5000   -34.6586    12.0886    85.7599    11.8523    51.9413     9.4846     0.0341     0.1830     2.3608
  879.0000   -34.1696    11.7864    85.8118    11.8182    53.4254     9.4405     0.0197     0.1830     2.3587
  879.5000   -33.8629    11.6356    86.6242    11.6667    53.7309     9.4228     0.0109     0.1818     2.3441
  880.0000   -33.5561    11.4646    87.6393    11.6667    54.6388     9.4221     0.0278     0.1903     2.3440
  880.5000   -33.5532    11.2879    88.7386    11.6667    55.5537     9.4213     0.0355     0.1952     2.3512
  881.0000   -33.4630    11.1833    88.7226    11.6667    56.4556     9.8134     0.0386     0.1867     2.3603
  881.5000   -33.1024    11.1842    88.7601    11.6667    60.5261    10.1451     0.0272     0.1879     2.3682
  882.0000   -32.9357    11.1848    90.2145    11.6667    61.8858    10.1444     0.0216     0.1761     2.3573
  882.5000   -32.9329    11.1856    90.1976    11.6667    62.1913    10.1437     0.0139     0.1806     2.3374
  883.0000   -32.9301    11.1864    90.1796    11.6667    62.9496    10.1431     0.0108     0.1885     2.3510
  883.5000   -32.9271    11.1871    90.1656    11.5152    64.0080    10.1122     0.0296     0.1958     2.3697
  884.0000   -32.9240    11.1879    90.1520    11.2121    60.9992    10.0813     0.0400     0.1811     2.3758
  884.5000   -32.9210    11.1372    90.1368    11.0076    63.7154    10.0191     0.0446     0.1691     2.3842
  885.0000   -32.9175    10.8864    91.1222    10.8333    64.0219     9.9591     0.0412     0.1624     2.3917
  885.5000   -32.6108    10.8871    91.6261    10.6061    65.6827     9.9238     0.0246     0.1582     2.3837
  886.0000   -32.6079    10.7975    91.6109    10.3030    64.3316     9.8610     0.0260     0.1711     2.3757
  886.5000   -32.6049    10.5855    92.2430    10.3030    66.4463     9.7983     0.0291     0.1776     2.3688
  887.0000   -32.7255    10.5051    93.1116    10.1515    61.9315     9.7355     0.0310     0.1749     2.3658
  887.5000   -32.9027    10.2841    93.9241    10.1515    62.0864     9.6728     0.0321     0.1806     2.3676
  888.0000   -32.8994    10.2849    95.1772    10.1515    59.9822     9.5798     0.0336     0.1739     2.3798
  888.5000   -33.5045    10.1302    97.6140    10.0000    59.0818     9.4725     0.0258     0.1673     2.3808
  889.0000   -33.1631     9.9833    99.1168    10.0000    60.7448     9.3779     0.0197     0.1667     2.3716
  889.5000   -32.8906     9.9841   100.6231    10.0000    60.7490     9.3487     0.0172     0.1703     2.3609
  890.0000   -32.4417     9.9850   100.6839     9.9242    61.8075     9.3479     0.0058     0.1764     2.3534
  890.5000   -31.6682     9.8342   102.1144     9.8485    66.4804     9.3170     0.0093     0.1806     2.3814
  891.0000   -31.3615     9.8004   103.6170     9.8485    68.5942     9.3163     0.0166     0.1745     2.3840
  891.5000   -31.0547     9.7189   103.5993     9.8485    69.6527     9.3156     0.0058     0.1664     2.3835
  892.0000   -30.4438     9.6848   103.5853     9.7879    64.6870     9.3150     0.0027     0.1646     2.3835
  892.5000   -30.3875     9.6856   103.5714     9.8485    66.7997     9.3143     0.0076     0.1636     2.3834
  893.0000   -29.9737     9.6864   103.5562     9.8485    65.4496     9.3136     0.0103     0.1636     2.3834
  893.5000   -29.8263     9.6871   103.5410    10.0000    63.7973     9.3432     0.0118     0.1648     2.3849
  894.0000   -29.5196     9.6879   103.5258    10.0000    65.3075     9.3425     0.0303     0.1661     2.3983
  894.5000   -29.5167     9.6886   103.5106    10.0000    65.6130     9.3418     0.0441     0.1563     2.4229
  895.0000   -29.5137     9.6894   103.4954    10.0758    69.8348     9.3411     0.0293     0.1429     2.4256
  895.5000   -29.8152     9.6902   103.4802    10.1515    70.1392     9.3404     0.0317     0.1398     2.4270
  896.0000   -29.8110     9.7525   103.4650    10.1515    69.5421     9.3310     0.0440     0.1400     2.4319
  896.5000   -29.8082     9.8433   103.4498    10.1515    66.9872     9.3090     0.0432     0.1379     2.4375
  897.0000   -30.1093     9.9955   103.1324    10.3030    56.9011     9.3082     0.0334     0.1331     2.4390
  897.5000   -30.1064     9.9962   101.8981    10.3030    54.7969     9.2937     0.0347     0.1309     2.4405
  898.0000   -30.4077     9.9970   101.8842    10.3030    58.1327     9.2310     0.0501     0.1309     2.4635
  898.5000   -30.4043    10.1102   100.3495    10.3030    63.2402     9.1512     0.0701     0.1182     2.4812
  899.0000   -30.7047    10.1500   100.3344    10.3030    65.3529     9.0334     0.0318     0.1091     2.4421
  899.5000   -31.0058    10.1508   100.3192    10.3030    65.6584     8.9723     0.0131     0.1216     2.3964
  900.0000   -30.8906    10.1515   100.3016    10.3030    68.0723     9.0018     0.0192     0.1568     2.3858
  900.5000   -30.7653    10.0000   100.2888    10.2803    70.3366     9.0314     0.0192     0.1543     2.3954
  901.0000   -30.6399     9.8156   100.2736    10.1515    68.6843     9.0412     0.0145     0.1543     2.3994
  901.5000   -30.5146     9.6477   101.1716    10.0000    68.0861     9.0521     0.0096     0.1599     2.3903
  902.0000   -30.3892     9.5236   102.8115    10.0245    64.4759     9.0897     0.0104     0.1543     2.3949
  902.5000   -30.3561     9.4171   103.2675    10.1122    62.0705     9.2099     0.0161     0.1510     2.4025
  903.0000   -30.3490     9.3939   103.8121    10.1999    68.4012     9.2697     0.0206     0.1481     2.4071
  903.5000   -30.0379     9.3939   104.7568    10.2876    70.9657     9.3294     0.0298     0.1410     2.4134
  904.0000   -29.7264     9.2424   104.7416    10.3152    66.3012     9.3892     0.0344     0.1450     2.4162
  904.5000   -29.7188     9.2424   106.2481    10.3167    64.3487     9.4187     0.0362     0.1504     2.4092
  905.0000   -29.7112     9.3939   106.2310    10.3184    60.1361     9.4482     0.0374     0.1476     2.4071
  905.5000   -29.7036     9.3939   106.2132    10.1684    59.5369     9.4475     0.0357     0.1434     2.4162
  906.0000   -29.3909     9.4924   106.1993    10.1259    58.3374     9.4483     0.0281     0.1404     2.4223
  906.5000   -29.0799     9.5455   106.1854    10.0197    59.3969     9.4764     0.0219     0.1410     2.4220
  907.0000   -29.0728     9.5455   106.1702     9.9606    59.5518     9.4805     0.0187     0.1418     2.4193
  907.5000   -29.0653     9.5860   106.1550     9.9268    58.8030     9.5053     0.0169     0.1458     2.4169
  908.0000   -28.7538     9.6970   106.1398     9.8949    59.7109     9.5045     0.0248     0.1462     2.4223
  908.5000   -28.6364     9.6970   106.1246     9.8740    60.9210     9.5038     0.0382     0.1361     2.4435
