~VERSION INFORMATION
 VERS.                2.0:   CWLS LOG ASCII STANDARD - VERSION 2.0
 WRAP.                 NO:   ONE LINE PER DEPTH STEP
~WELL INFORMATION
#MNEM.UNIT      DATA TYPE    INFORMATION
#----------   ------------   ------------------------------
 STRT.F          250.0000:   START DEPTH
 STOP.F         1798.0000:   STOP DEPTH
 STEP.F            0.5000:   STEP LENGTH
 NULL.          -999.2500:   NO VALUE
 COMP. BROWN JOHN E&C INC:   COMPANY
 WELL. NPR 3 STX-10 #57-10:   WELL
 FLD .  TEAPOT DOME NPR 3:   FIELD
 LOC .      S10 T38N R78W:   LOCATION
 CNTY.            NATRONA:   COUNTY
 STAT.            WYOMING:   STATE
 CTRY. UNITED STATES OF AMERICA:   COUNTRY
 SRVC.           BIRDWELL:   SERVICE COMPANY
 DATE.        24-FEB-1979:   LOGDATE
 API .       490251096900:   API NUMBER
~CURVE INFORMATION
#MNEM.UNIT       API CODE    CURVE DESCRIPTION
#----------   ------------   ------------------------------
 DEPT.F                  :   
 GRD .GAPI   45 310 01 00:   GAMMA RAY FROM DENSITY LOG
 CALD.IN     45 280 60 00:   CALIPER
 RHOB.G/C3   45 350 01 00:   BULK DENSITY
 DPHI.DEC    45 890 12 00:   DENSITY POROSITY SANDSTONE
 CORR.G/C3   45 356 01 00:   DENSITY CORRECTION
~PARAMETER INFORMATION
#MNEM.UNIT          VALUE    DESCRIPTION
#----------   ------------   ------------------------------
 PD  .                 GL:   PERMANENT DATUM
 EPD .F              5201:   ELEVATION PERMANENT DATUM
 LMF .                 KB:   LOG MEASURED FROM
 DAPD.F                10:   FEET ABOVE PERMANENT DATUM
 DMF .                 KB:   DRILLING MEASURED FROM
 EKB .F              5211:   KELLING BUSHING
 EGL .F              5201:   GROUND LEVEL
 RUN .                  1:   RUN NUMBER
 DD  .F              1802:   DEPTH DRILLER
 DL  .F              1793:   DEPTH LOGGER
 BLI .F              1793:   BOTTOM LOG INTERVAL
 TLI .F               250:   TOP LOG INTERVAL
 CS  .IN            9.625:   CASING SIZE
 CBD .F               500:   CASING BOTTOM DRILLER
 CBL .F               490:   CASING BOTTOM LOGGER
 BS  .IN             8.75:   BIT SIZE
 BSD .F              1802:   BIT SIZE AT DEPTH
 DFT .                OIL:   DRILLING FLUID TYPE
 BHT .F                90:   BOTTOM HOLE TEMPERATURE
 TCS .HRS               4:   TIME CURCULATED STOPPED
 MRT .F                90:   MAXIMUM RECORDED TEMPERATURE
 LUN .               3029:   LOGGING UNIT NUMBER
 LUL .             CASPER:   LOGGING UNIT LOCATION
 ENGI.            ROLLINS:   RECORDING ENGINEER
 WITN.              AMEND:   WITNESSED BY
 CLNT.            A2DTECH:   CLIENT CODE
 ORIG.       2", 5" PRINT:   ORIGIN OF DATA
 UWI .       490251096900:   UNIQUE WELL ID
 DICO. A2D Technologies, Inc.:   DIGITIZING COMPANY
~OTHER INFORMATION
~A   DEPT       GRD        CALD       RHOB       DPHI      CORR  
# ...
 1226.0000   116.8161     9.3472     2.4864     0.0433     0.0783
 1226.5000   121.0849     9.3518     2.4956     0.0333     0.0986
 1227.0000   120.9311     9.3467     2.4907     0.0385     0.0963
 1227.5000   120.9592     9.3412     2.5007     0.0325     0.0943
 1228.0000   126.4342     9.3358     2.5104     0.0270     0.1074
 1228.5000   129.1556     9.3304     2.5195     0.0216     0.1366
 1229.0000   121.8861     9.3250     2.5159     0.0223     0.1654
 1229.5000   116.2329     9.3197     2.5113     0.0112     0.2184
 1230.0000   118.2724     9.3147     2.5464    -0.0082     0.2819
 1230.5000   120.8593     9.3050     2.5867    -0.0225     0.3107
 1231.0000   121.7648     9.2950     2.6121    -0.0369     0.3378
 1231.5000   118.7642     9.2852     2.6339    -0.0517     0.3614
 1232.0000   117.2245     9.2746     2.6431    -0.0404     0.3599
 1232.5000   124.9524     9.2407     2.6123    -0.0261     0.3192
 1233.0000   126.7767     9.2073     2.5805    -0.0118     0.2766
 1233.5000   126.0588     9.1740     2.5526    -0.0001     0.2431
 1234.0000   130.7261     9.1409     2.5517     0.0046     0.2162
 1234.5000   127.5620     9.1076     2.5498     0.0071     0.1867
 1235.0000   127.6355     9.0744     2.5318     0.0134     0.1553
 1235.5000   129.0861     9.0413     2.5092     0.0272     0.1237
 1236.0000   130.3172     9.0080     2.4887     0.0388     0.1016
 1236.5000   129.6225     8.9746     2.4867     0.0348     0.0992
 1237.0000   128.4899     8.9417     2.4979     0.0308     0.0962
 1237.5000   127.3546     8.9177     2.5036     0.0279     0.0835
 1238.0000   124.7003     8.9546     2.4945     0.0298     0.0694
 1238.5000   120.8607     8.9907     2.4954     0.0333     0.0639
 1239.0000   118.3685     9.0265     2.4993     0.0367     0.0674
 1239.5000   119.1149     9.0623     2.4944     0.0402     0.0711
 1240.0000   118.7143     9.0982     2.4795     0.0466     0.0717
 1240.5000   114.4052     9.1340     2.4647     0.0563     0.0711
 1241.0000   115.4827     9.1699     2.4530     0.0609     0.0706
 1241.5000   118.0594     9.2058     2.4589     0.0505     0.0781
 1242.0000   120.6317     9.2418     2.4832     0.0349     0.0966
 1242.5000   121.9249     9.2751     2.5071     0.0196     0.1136
 1243.0000   119.1801     9.2759     2.5206     0.0180     0.1081
 1243.5000   116.4068     9.2757     2.5173     0.0265     0.1018
 1244.0000   113.9888     9.2757     2.5070     0.0334     0.0977
 1244.5000   119.2338     9.2757     2.4957     0.0353     0.1254
 1245.0000   122.6839     9.2757     2.5121     0.0198     0.1570
 1245.5000   122.9260     9.2757     2.5365     0.0041     0.1889
 1246.0000   123.1723     9.2756     2.5610    -0.0116     0.2206
 1246.5000   125.2090     9.2757     2.5857    -0.0289     0.2524
 1247.0000   128.4735     9.2760     2.5975    -0.0268     0.2694
 1247.5000   131.3864     9.2627     2.5949    -0.0232     0.2747
 1248.0000   130.7437     9.2459     2.5900    -0.0203     0.2801
 1248.5000   128.2620     9.2289     2.5849    -0.0221     0.2825
 1249.0000   126.8523     9.2119     2.5868    -0.0217     0.2664
 1249.5000   124.1135     9.1950     2.5899    -0.0081     0.2371
 1250.0000   121.0525     9.1780     2.5738     0.0055     0.1957
 1250.5000   120.3682     9.1610     2.5386     0.0190     0.1541
 1251.0000   125.1686     9.1441     2.4939     0.0330     0.1119
 1251.5000   128.9492     9.1270     2.5017     0.0272     0.1234
 1252.0000   131.2384     9.1098     2.5143     0.0195     0.1456
 1252.5000   127.8848     9.0962     2.5308     0.0141     0.1535
 1253.0000   124.4784     9.1330     2.5172     0.0216     0.1211
 1253.5000   121.1007     9.1693     2.4965     0.0416     0.0952
 1254.0000   118.5566     9.2054     2.4709     0.0481     0.0735
 1254.5000   119.2888     9.2413     2.4813     0.0374     0.0789
 1255.0000   122.1904     9.2773     2.4999     0.0301     0.0891
 1255.5000   125.0465     9.3134     2.5019     0.0383     0.0904
 1256.0000   127.4546     9.3491     2.4863     0.0461     0.0830
 1256.5000   122.8880     9.3770     2.4717     0.0477     0.0757
 1257.0000   118.2925     9.3763     2.4705     0.0482     0.0695
 1257.5000   114.7049     9.3762     2.4695     0.0487     0.0755
 1258.0000   114.5403     9.3763     2.4808     0.0492     0.1085
 1258.5000   116.4591     9.3763     2.4985     0.0356     0.1421
 1259.0000   119.0372     9.3763     2.5164     0.0225     0.1736
 1259.5000   122.3412     9.3763     2.5323     0.0135     0.1704
 1260.0000   121.1834     9.3716     2.5166     0.0218     0.1603
 1260.5000   118.8979     9.3642     2.4954     0.0358     0.1540
 1261.0000   116.6221     9.3568     2.5052     0.0319     0.1663
 1261.5000   114.7517     9.3494     2.5220     0.0224     0.1808
 1262.0000   114.5428     9.3419     2.5156     0.0168     0.1974
 1262.5000   116.9848     9.3322     2.5030     0.0236     0.1801
 1263.0000   120.5686     9.3132     2.5118     0.0277     0.1667
 1263.5000   124.1850     9.2942     2.5269     0.0158     0.2009
 1264.0000   125.6497     9.2751     2.5422     0.0008     0.2271
 1264.5000   122.0967     9.2561     2.5532    -0.0036     0.2177
 1265.0000   119.4626     9.2371     2.5570     0.0030     0.2078
 1265.5000   119.9798     9.2180     2.5584    -0.0044     0.2060
 1266.0000   124.4077     9.1990     2.5499    -0.0001     0.1997
 1266.5000   130.2166     9.1800     2.5379     0.0074     0.1721
 1267.0000   129.1545     9.1610     2.5282     0.0156     0.1511
 1267.5000   127.2633     9.1419     2.5358     0.0114     0.1607
 1268.0000   125.3379     9.1229     2.5503     0.0037     0.1743
 1268.5000   123.4000     9.1039     2.5562    -0.0016     0.1583
 1269.0000   121.5111     9.0848     2.5373     0.0109     0.1372
 1269.5000   120.3553     9.0658     2.5130     0.0275     0.1157
 1270.0000   123.8965     9.0470     2.4883     0.0385     0.1023
 1270.5000   126.6221     9.0401     2.4863     0.0354     0.1120
 1271.0000   129.3905     9.0615     2.4964     0.0274     0.1227
 1271.5000   130.1967     9.0819     2.5072     0.0236     0.1333
 1272.0000   129.9997     9.1023     2.5167     0.0193     0.1419
 1272.5000   127.7505     9.1227     2.5185     0.0240     0.1376
 1273.0000   124.8225     9.1432     2.5116     0.0331     0.1126
 1273.5000   121.4611     9.1636     2.4950     0.0401     0.0942
 1274.0000   122.8972     9.1840     2.4844     0.0347     0.1007
 1274.5000   125.4578     9.2045     2.5092     0.0209     0.1239
 1275.0000   128.0684     9.2249     2.5289     0.0101     0.1403
 1275.5000   130.6410     9.2444     2.5467     0.0045     0.1330
 1276.0000   132.1040     9.2383     2.5533    -0.0032     0.1261
 1276.5000   130.3520     9.2132     2.5581    -0.0021     0.1261
 1277.0000   128.6986     9.1934     2.5459     0.0001     0.1334
 1277.5000   127.0483     9.1735     2.5337     0.0077     0.1409
 1278.0000   125.3063     9.1534     2.5221     0.0212     0.1486
 1278.5000   126.9197     9.1334     2.5511     0.0078     0.1968
 1279.0000   129.9521     9.1133     2.5861    -0.0206     0.2943
 1279.5000   128.0460     9.0933     2.6173    -0.0411     0.3112
 1280.0000   125.4843     9.0732     2.6046    -0.0296     0.3071
 1280.5000   122.9035     9.0532     2.5881    -0.0202     0.2604
 1281.0000   119.5731     9.0331     2.5802    -0.0157     0.2478
 1281.5000   123.2356     9.0131     2.5915    -0.0058     0.2283
 1282.0000   128.9940     8.9933     2.5606     0.0117     0.1838
 1282.5000   134.7722     8.9741     2.5294     0.0292     0.1397
 1283.0000   135.8390     8.9960     2.4987     0.0429     0.1105
 1283.5000   132.2082     9.0013     2.4795     0.0399     0.1101
 1284.0000   129.1888     9.0350     2.5040     0.0254     0.1295
 1284.5000   125.7011     9.0686     2.5293     0.0108     0.1505
 1285.0000   128.3362     9.1019     2.5514     0.0024     0.1524
 1285.5000   132.5412     9.1354     2.5427     0.0121     0.1386
 1286.0000   135.8246     9.1687     2.5315     0.0247     0.1248
 1286.5000   134.3725     9.2022     2.5206     0.0321     0.1295
