~VERSION INFORMATION
 VERS.                2.0:   CWLS LOG ASCII STANDARD - VERSION 2.0
 WRAP.                 NO:   ONE LINE PER DEPTH STEP
~WELL INFORMATION
#MNEM.UNIT      DATA TYPE    INFORMATION
#----------   ------------   ------------------------------
 STRT.F           30.0000:   START DEPTH
 STOP.F          691.0000:   STOP DEPTH
 STEP.F            0.5000:   STEP LENGTH
 NULL.          -999.2500:   NO VALUE
 COMP. U.S. DEPARTMENT OF ENERGY:   COMPANY
 WELL. NAVAL PETROLEUM RESERVE #3 #77-S-34:   WELL
 FLD .        TEAPOT DOME:   FIELD
 LOC .      S34 T39N R78W:   LOCATION
 CNTY.            NATRONA:   COUNTY
 STAT.            WYOMING:   STATE
 CTRY. UNITED STATES OF AMERICA:   COUNTRY
 SRVC.              Welex:   SERVICE COMPANY
 DATE.        26-APR-1977:   LOGDATE
 API .       490251034700:   API NUMBER
~CURVE INFORMATION
#MNEM.UNIT       API CODE    CURVE DESCRIPTION
#----------   ------------   ------------------------------
 DEPT.F                  :   
 CALD.IN     45 280 60 00:   CALIPER FROM DENSITY LOG
 CORR.G/C3   45 356 01 00:   DENSITY CORRECTION
 DPHI.DEC    45 890 12 00:   DENSITY POROSITY SANDSTONE
 RHOB.G/C3   45 350 01 00:   BULK DENSITY
 GRD .GAPI   45 310 01 00:   GAMMA RAY FROM DENSITY LOG
 ILD .OHMM   07 120 46 00:   INDUCTION LOG DEEP
 ILM .OHMM   07 120 44 00:   INDUCTION LOG MEDIUM
 SGRD.OHMM   07 220 05 00:   SHALLOW GUARD RESISTIVITY
 SPR .MV     07 010 01 00:   SPONTANEOUS POTENTIAL FROM RES.
~PARAMETER INFORMATION
#MNEM.UNIT          VALUE    DESCRIPTION
#----------   ------------   ------------------------------
 PD  .                 GL:   PERMANENT DATUM
 EPD .F              5075:   ELEVATION PERMANENT DATUM
 LMF .                 GL:   LOG MEASURED FROM
 DMF .                 GL:   DRILLING MEASURED FROM
 EGL .F              5075:   GROUND LEVEL
 DATE.          4-26-1977:   RUN DATE
 RUN .                  1:   RUN NUMBER
 DD  .F               700:   DEPTH DRILLER
 DL  .F               693:   DEPTH LOGGER
 BLI .F               691:   BOTTOM LOG INTERVAL
 TLI .F                35:   TOP LOG INTERVAL
 CS  .IN            8.625:   CASING SIZE
 CBD .F                40:   CASING BOTTOM DRILLER
 CBL .F                39:   CASING BOTTOM LOGGER
 BS  .IN            7.875:   BIT SIZE
 BSD .F               700:   BIT SIZE AT DEPTH
 DFT .            KCL MUD:   DRILLING FLUID TYPE
 DFD .                9.5:   DRILLING FLUID DENSITY
 DFV .                 35:   DRILLING FLUID VISCOSITY
 DFPH.               10.5:   DRILLING FLUID PH
 DFL .                 12:   DRILLING FLUID LOSS
 MSS .           FLOWLINE:   MUD SAMPLE SOURCE
 RMS .OHMM            .32:   RESISTIVITY MUD SAMPLE
 MST .F                66:   MUD SAMPLE TEMPERATURE
 RMF .OHMM            .28:   RESISTIVITY MUD FILTRATE SAMPLE
 MFST.F                66:   MUD FILTRATE SAMPLE TEMPERATURE
 RMC .OHMM            .49:   RESISTIVITY MUD CAKE
 MCST.F                66:   MUD CAKE SAMPLE TEMPERATURE
 RMB .OHMM            .28:   RESISTIVITY MUD AT BHT
 BHT .F                74:   BOTTOM HOLE TEMPERATURE
 TCS .HRS             1.5:   TIME CURCULATED STOPPED
 MRT .F                74:   MAXIMUM RECORDED TEMPERATURE
 LUN .               8611:   LOGGING UNIT NUMBER
 LUL .           GILLETTE:   LOGGING UNIT LOCATION
 ENGI.            C. DOAK:   RECORDING ENGINEER
 WITN.       MR. ROB LYON:   WITNESSED BY
 CLNT.            A2DTECH:   CLIENT CODE
 ORIG.           5" PRINT:   ORIGIN OF DATA
 UWI .       490251034700:   UNIQUE WELL ID
 DICO. A2D Technologies, Inc.:   DIGITIZING COMPANY
~OTHER INFORMATION
~A   DEPT       CALD      CORR      DPHI         RHOB       GRD       ILD        ILM       SGRD        SPR   
# ...
  285.5000     7.9389     0.0204     0.1415     2.4508   125.3363     7.2596     8.7454    10.3580   -42.1525
  286.0000     7.9689     0.0220     0.1375     2.4538   128.3259     7.2596     8.6867    10.3606   -42.1525
  286.5000     7.9840     0.0233     0.1351     2.4553   126.9806     7.2596     8.6878    10.2908   -42.3019
  287.0000     7.9991     0.0188     0.1333     2.4553   126.2332     7.2097     8.5698    10.1523   -42.3019
  287.5000     8.0142     0.0158     0.1327     2.4531   125.9342     7.1602     8.4539    10.0151   -42.1525
  288.0000     8.0293     0.0142     0.1351     2.4486   125.7848     7.0621     8.3396     9.8798   -42.1525
  288.5000     8.0444     0.0112     0.1378     2.4471   126.4469     7.0621     8.2834     9.8138   -42.1525
  289.0000     8.0296     0.0097     0.1401     2.4456   129.2227     7.0621     8.2845     9.7482   -42.1525
  289.5000     8.0148     0.0081     0.1417     2.4449   131.1659     7.0621     8.3428     9.9545   -42.1525
  290.0000     8.0150     0.0066     0.1425     2.4471   132.2122     7.0621     8.4599    10.0258   -42.1525
  290.5000     8.0001     0.0051     0.1359     2.4531   131.6143     7.0621     8.6377    10.0972   -42.3019
  291.0000     8.0153     0.0050     0.1323     2.4576   129.7827     7.1602     8.6985    10.2395   -42.3019
  291.5000     8.0004     0.0050     0.1299     2.4629   128.3259     7.3603     8.8816    10.3876   -42.3019
  292.0000     7.9857     0.0050     0.1281     2.4673   127.1300     7.4625     8.9441    11.2828   -42.4514
  292.5000     7.9836     0.0065     0.1242     2.4703   126.5321     7.5142     8.8839    11.4412   -42.4514
  293.0000     7.9710     0.0079     0.1257     2.4644   129.2227     7.5142     8.8240    10.7550   -42.4514
  293.5000     7.9562     0.0095     0.1287     2.4569   132.1286     7.4625     8.7047    10.5339   -42.4514
  294.0000     7.9564     0.0124     0.1316     2.4584   134.7534     7.3603     8.5867    10.3944   -42.4514
  294.5000     7.9565     0.0123     0.1328     2.4621   135.5007     7.2596     8.5286    10.1839   -42.4514
  295.0000     7.9567     0.0138     0.1289     2.4689   135.0523     7.2097     8.4695     9.9773   -42.4514
  295.5000     7.9568     0.0153     0.1253     2.4779   134.3049     7.1602     8.3566     9.9106   -42.4514
  296.0000     7.9719     0.0183     0.1213     2.4831   135.3792     7.1602     8.3003     9.8444   -42.4514
  296.5000     7.9571     0.0212     0.1178     2.4839   136.8460     7.1110     8.2444     9.7786   -42.4514
  297.0000     7.9573     0.0212     0.1163     2.4809   137.7429     7.0621     8.2457     9.8487   -42.3019
  297.5000     7.9574     0.0227     0.1186     2.4742   138.6398     7.0621     8.3040     9.9188   -42.4514
  298.0000     7.9576     0.0226     0.1204     2.4742   137.2945     7.0136     8.3051     9.9212   -42.4514
  298.5000     7.9428     0.0211     0.1219     2.4734   135.9377     7.0136     8.3062     9.9231   -42.4514
  299.0000     7.9429     0.0226     0.1237     2.4704   135.7997     6.9654     8.3073     9.8564   -42.4514
  299.5000     7.9431     0.0225     0.1258     2.4667   135.7997     6.9654     8.3086     9.7237   -42.4514
  300.0000     7.9283     0.0225     0.1278     2.4645   135.8833     6.9655     8.4249     9.7260   -42.6011
  300.5000     7.9438     0.0240     0.1290     2.4630   135.3528     6.9665     8.4845     9.7953   -42.7520
  301.0000     7.9445     0.0270     0.1248     2.4675   134.1017     6.9674     8.4270     9.7298   -42.9029
  301.5000     7.9300     0.0300     0.1215     2.4735   129.6759     6.9683     8.3128     9.8118   -42.9043
  302.0000     7.9307     0.0315     0.1191     2.4787   125.6414     6.9692     8.2571     9.7469   -42.9061
  302.5000     7.9313     0.0330     0.1170     2.4818   123.9986     6.9704     8.2584     9.6826   -42.9075
  303.0000     7.9318     0.0359     0.1158     2.4825   126.5760     7.0195     8.2595     9.8201   -42.7591
  303.5000     7.9325     0.0374     0.1142     2.4848   130.1303     7.0204     8.2606     9.8906   -42.7609
  304.0000     7.9331     0.0404     0.1127     2.4915   132.8223     7.0213     8.2617     9.9616   -42.7623
  304.5000     7.9368     0.0404     0.1115     2.4930   134.7669     6.9740     8.2628     9.9642   -42.7640
  305.0000     7.9499     0.0389     0.1154     2.4833   136.7115     6.9751     8.2641     9.8304   -42.7655
  305.5000     7.9648     0.0389     0.1172     2.4759   138.8060     6.9760     8.2652     9.5663   -42.7669
  306.0000     7.9803     0.0359     0.1189     2.4759   138.3589     6.9769     8.2662     9.5688   -42.7683
  306.5000     7.9809     0.0343     0.1196     2.4766   134.9224     6.9299     8.2105     9.6375   -42.7701
  307.0000     7.9815     0.0328     0.1201     2.4744   132.3827     6.9310     8.2119     9.7073   -42.7715
  307.5000     7.9822     0.0298     0.1201     2.4767   129.9402     6.9319     8.1563     9.7769   -42.7729
  308.0000     7.9676     0.0298     0.1204     2.4759   130.2932     6.9328     8.0797     9.8471   -42.7743
  308.5000     7.9683     0.0268     0.1222     2.4706   131.9389     6.9340     7.9918     9.8496   -42.9255
  309.0000     7.9689     0.0268     0.1251     2.4655   131.1929     6.8870     7.9380     9.8523   -42.9270
  309.5000     7.9695     0.0237     0.1272     2.4640   131.5152     6.8881     7.8306     9.5869   -42.9284
  310.0000     7.9551     0.0237     0.1284     2.4625   133.2887     6.7947     7.7776     9.3294   -42.9298
  310.5000     7.9499     0.0237     0.1284     2.4656   132.3933     6.7025     7.9413     9.2036   -42.9312
  311.0000     7.9414     0.0267     0.1254     2.4730   129.4052     6.6116     8.1085     9.1425   -42.9330
  311.5000     7.9421     0.0312     0.1205     2.4820   126.1181     6.6127     8.2220     9.5982   -42.9344
  312.0000     7.9427     0.0357     0.1148     2.4940   123.4293     6.6593     8.2231    10.0058   -42.7863
  312.5000     7.9432     0.0357     0.1058     2.5062   124.7760     6.7064     8.2810    10.1466   -42.7877
  313.0000     7.9438     0.0356     0.0980     2.5135   126.2722     6.8004     8.2824     9.4743   -42.7895
  313.5000     7.9444     0.0326     0.0953     2.5142   127.4694     6.8483     8.2835     9.6162   -42.7909
  314.0000     7.9451     0.0281     0.0989     2.5120   127.6203     6.8966     8.2845     9.8799   -42.7923
  314.5000     7.9456     0.0251     0.1025     2.5030   126.4262     6.9935     8.3429    10.1286   -42.7938
  315.0000     7.9462     0.0236     0.1078     2.4948   125.8294     7.0428     8.3440    10.4451   -42.9447
  315.5000     7.9618     0.0206     0.1138     2.4851   128.2228     7.0924     8.4030    10.6660   -42.9464
  316.0000     7.9624     0.0145     0.1222     2.4717   129.7310     7.1918     8.4041    10.3082   -43.0973
  316.5000     7.9779     0.0055     0.1308     2.4477   130.7671     7.2426     8.4052    10.1691   -43.0987
  317.0000     7.9785     0.0025     0.1389     2.4373   130.7685     7.2938     8.4063    10.3136   -43.1002
  317.5000     7.9791    -0.0005     0.1416     2.4366   130.7699     7.2948     8.4077    10.5317   -43.1019
  318.0000     7.9887    -0.0020     0.1425     2.4381   133.3124     7.2957     8.3508    10.4628   -43.1033
  318.5000     7.9953    -0.0036     0.1454     2.4329   135.4069     7.1967     8.3521    10.1112   -43.1047
  319.0000     7.9959    -0.0036     0.1488     2.4276   135.7072     7.0993     8.3532     9.7714   -43.2556
  319.5000     7.9964    -0.0051     0.1514     2.4254   135.4097     7.0030     8.2969     9.7739   -43.4069
  320.0000     7.9970    -0.0051     0.1499     2.4322   134.9627     6.9080     8.2410     9.7765   -43.4083
  320.5000     7.9977    -0.0051     0.1451     2.4404   135.1281     6.8562     8.1858     9.7125   -43.4097
  321.0000     7.9983    -0.0033     0.1408     2.4501   135.7132     6.7221     8.1306     9.5157   -43.5606
  321.5000     7.9988    -0.0006     0.1364     2.4569   136.3126     6.6766     8.0205     9.3880   -43.7115
