~VERSION INFORMATION
 VERS.                2.0:   CWLS LOG ASCII STANDARD - VERSION 2.0
 WRAP.                 NO:   ONE LINE PER DEPTH STEP
~WELL INFORMATION
#MNEM.UNIT      DATA TYPE    INFORMATION
#----------   ------------   ------------------------------
 STRT.F           30.0000:   START DEPTH
 STOP.F          570.0000:   STOP DEPTH
 STEP.F            0.5000:   STEP LENGTH
 NULL.          -999.2500:   NO VALUE
 COMP.    FENIX & SCISSON:   COMPANY
 WELL.  NPR #3 #13SX11-11:   WELL
 FLD .             TEAPOT:   FIELD
 LOC .      S11 T38N R78W:   LOCATION
 CNTY.            NATRONA:   COUNTY
 STAT.            WYOMING:   STATE
 CTRY. UNITED STATES OF AMERICA:   COUNTRY
 SRVC.       Schlumberger:   SERVICE COMPANY
 DATE.        27-FEB-1977:   LOGDATE
 API .       490251029400:   API NUMBER
~CURVE INFORMATION
#MNEM.UNIT       API CODE    CURVE DESCRIPTION
#----------   ------------   ------------------------------
 DEPT.F                  :   
 GRD .GAPI   45 310 01 00:   GAMMA RAY FROM DENSITY LOG
 CALD.IN     45 280 60 00:   CALIPER FROM DENSITY LOG
 CORR.G/C3   45 356 01 00:   DENSITY CORRECTION
 DPHI.DEC    45 890 12 00:   DENSITY POROSITY STANDSTONE
 RHOB.G/C3   45 350 01 00:   BULK DENSITY
 SPR .MV     07 010 01 00:   SPONTANEOUS POTENTIAL
 ILD .OHMM   07 120 46 00:   INDUCTION LOG DEEP
 ILM .OHMM   07 120 44 00:   INDUCTION LOG MEDIUM
 LL8 .OHMM   07 220 08 00:   LATEROLOG-8 RES.
~PARAMETER INFORMATION
#MNEM.UNIT          VALUE    DESCRIPTION
#----------   ------------   ------------------------------
 PD  .                 GL:   PERMANENT DATUM
 EPD .F              5180:   ELEVATION PERMANENT DATUM
 LMF .                 GL:   LOG MEASURED FROM
 DAPD.F                 0:   FEET ABOVE PERMANENT DATUM
 DMF .                 GL:   DRILLING MEASURED FROM
 EKB .F              5183:   KELLING BUSHING
 EGL .F              5180:   GROUND LEVEL
 DATE.        27-FEB-1977:   RUN DATE
 RUN .                  1:   RUN NUMBER
 DD  .F               585:   DEPTH DRILLER
 DL  .F               571:   DEPTH LOGGER
 BLI .F               570:   BOTTOM LOG INTERVAL
 TLI .F                44:   TOP LOG INTERVAL
 CS  .IN            8.625:   CASING SIZE
 CBD .F                40:   CASING BOTTOM DRILLER
 CBL .F                44:   CASING BOTTOM LOGGER
 BS  .IN            7.875:   BIT SIZE
 BSD .F               585:   BIT SIZE AT DEPTH
 DFT .                KCL:   DRILLING FLUID TYPE
 DFD .                8.7:   DRILLING FLUID DENSITY
 DFV .                 42:   DRILLING FLUID VISCOSITY
 DFPH.                  8:   DRILLING FLUID PH
 DFL .                9.2:   DRILLING FLUID LOSS
 MSS .                PIT:   MUD SAMPLE SOURCE
 RMS .OHMM           .806:   RESISTIVITY MUD SAMPLE
 MST .F                70:   MUD SAMPLE TEMPERATURE
 RMF .OHMM           .720:   RESISTIVITY MUD FILTRATE SAMPLE
 MFST.F                70:   MUD FILTRATE SAMPLE TEMPERATURE
 MFSS.               MEAS:   MUD FILTRATE SAMPLE SOURCE
 RMB .OHMM           .973:   RESISTIVITY MUD AT BHT
 BHT .F                58:   BOTTOM HOLE TEMPERATURE
 TCS .HRS            0230:   TIME CURCULATED STOPPED
 MRT .F                58:   MAXIMUM RECORDED TEMPERATURE
 LUN .               5642:   LOGGING UNIT NUMBER
 LUL .             CASPER:   LOGGING UNIT LOCATION
 ENGI.         JIM MARTIN:   RECORDING ENGINEER
 WITN.         STUEBINGER:   WITNESSED BY
 CLNT.            A2DTECH:   CLIENT CODE
 ORIG.           5" PRINT:   ORIGIN OF DATA
 UWI .       490251029400:   UNIQUE WELL ID
 DICO. A2D Technologies, Inc.:   DIGITIZING COMPANY
~OTHER INFORMATION
~A   DEPT      GRD       CALD       CORR       DPHI       RHOB        SPR        ILD        ILM        LL8   
# ...
   66.5000   127.5093     8.1490     0.0358     0.1372     2.4233   -73.8666     6.6906     6.8261  1550.9807
   67.0000   130.5320     8.1338     0.0418     0.1409     2.4278   -72.9625     6.6427     6.7307  1550.7686
   67.5000   133.7060     8.1186     0.0260     0.1506     2.4059   -71.6052     6.6410     6.7293  1550.5565
   68.0000   132.0388     8.1185     0.0169     0.1551     2.3968   -70.8521     6.6393     6.7280  1561.1342
   68.5000   128.8588     8.1184     0.0139     0.1566     2.3960   -69.6459     6.6842     6.7737  1571.7788
   69.0000   126.8891     8.1183     0.0101     0.1579     2.3945   -68.2886     6.6820     6.8195  1571.5608
   69.5000   130.2143     8.1182     0.0063     0.1527     2.3899   -70.2546     6.7734     6.8655  1571.3004
   70.0000   133.6909     8.1181     0.0221     0.1452     2.4005   -70.1058     6.8191     6.8638  1571.0854
   70.5000   134.7476     8.1180     0.0280     0.1488     2.4075   -66.9359     6.8647     6.9105  1570.8706
   71.0000   132.6258     8.1179     0.0152     0.1519     2.4004   -64.6722     6.9102     7.0052  1570.6558
   71.5000   136.4049     8.1178     0.0070     0.1486     2.4034   -61.7963     7.0047     7.0038  1570.4409
   72.0000   139.8815     8.1176     0.0017     0.1634     2.3860   -59.6918     7.0516     7.0511  1570.2262
   72.5000   141.5434     8.1175     0.0001     0.1610     2.3812   -62.4282     7.2476     7.1978  1570.0115
   73.0000   137.6061     8.1174     0.0084     0.1513     2.3972   -63.0196     7.3977     7.2969  1569.7968
   73.5000   135.3338     8.1173     0.0138     0.1468     2.4085   -60.6054     7.6034     7.5006  1569.5820
   74.0000   133.6667     8.1172     0.0119     0.1517     2.4054   -59.3987     7.8177     7.6596  1569.3674
   74.5000   134.4201     8.1171     0.0074     0.1472     2.4031   -59.2498     7.9277     7.7680  1569.1527
   75.0000   136.3838     8.1169     0.0038     0.1441     2.4136   -59.4037     8.0392     7.9236  1568.9381
   75.5000   136.0782     8.1159     0.0022     0.1472     2.4068   -59.2549     8.0837     7.9772  1557.8813
   76.0000   134.8649     8.1149     0.0037     0.1529     2.4015   -57.8976     8.0254     7.9751  1546.9026
   76.5000   135.7695     8.1139     0.0068     0.1560     2.3977   -53.3681     7.8585     7.9735  1536.0009
   77.0000   136.6742     8.1129     0.0098     0.1566     2.3939   -51.8592     7.7485     7.8620  1535.7877
   77.5000   134.7045     8.1119     0.0126     0.1521     2.3999   -52.7684     7.5350     7.5925  1535.5747
   78.0000   132.1296     8.1109     0.0141     0.1479     2.4089   -52.1664     7.2769     7.2815  1535.3617
   78.5000   131.5214     8.1099     0.0148     0.1443     2.4141   -48.5432     7.0277     7.0809  1535.1084
   79.0000   132.8800     8.1089     0.0132     0.1458     2.4088   -44.9201     6.8341     6.9336  1545.5808
   79.5000   133.6341     8.1079     0.0094     0.1512     2.4028   -41.5991     6.7384     6.8367  1545.3694
   80.0000   133.3278     8.1069     0.0057     0.1552     2.3974   -40.6944     6.6441     6.8353  1555.9117
   80.5000   133.6273     8.1059     0.0026     0.1579     2.3921   -42.3588     6.6424     6.8339  1566.5795
   81.0000   133.6243     8.1049     0.0019     0.1604     2.3891   -42.6632     6.6869     6.8801  1566.3116
   81.5000   133.1682     8.1039     0.0080     0.1501     2.4041   -41.4570     6.8253     6.8787  1566.0974
   82.0000   135.4337     8.1029     0.0101     0.1513     2.3980   -39.6465     6.9187     6.9733  1565.8833
   82.5000   136.9435     8.1019     0.0003     0.1589     2.3920   -37.9720     7.0133     7.0204  1460.7621
   83.0000   136.4866     8.1009     0.0010     0.1489     2.3889   -35.5121     7.1128     7.0678  1122.2178
   83.5000   134.0630     8.0999     0.0077     0.1405     2.4092   -32.8175     7.2064     7.1715  1554.4760
   84.0000   131.9420     8.0989     0.0137     0.1381     2.4190   -32.2537     7.3050     7.2636   949.8485
   84.5000   130.8800     8.0979     0.0212     0.1438     2.4242   -34.6734     7.4558     7.4661    96.4001
   85.0000   130.7264     8.0969     0.0273     0.1496     2.4114   -34.0714     7.6103     7.6745   484.5815
   85.5000   127.8482     8.0959     0.0046     0.1532     2.4008   -33.6205     7.7144     7.7801  2000.0000
   86.0000   123.6092     8.0949     0.0076     0.1548     2.3962   -33.4711     7.8204     7.8876  2000.0000
   86.5000   122.2446     8.0939     0.0181     0.1421     2.4188   -33.6250     7.9268     7.9961  2000.0000
   87.0000   121.7877     8.0929     0.0256     0.1345     2.4324   -33.7783     7.9803     8.1061  2000.0000
   87.5000   122.0872     8.0919     0.0240     0.1288     2.4346   -33.9315     8.0890     8.2177  2000.0000
   88.0000   119.8149     8.0909     0.0198     0.1249     2.4466   -34.0848     8.1996     8.2155  2000.0000
   88.5000   116.4836     8.0899     0.0270     0.1234     2.4503   -34.3892     8.1975     8.2139  2000.0000
   89.0000   114.6652     8.0889     0.0232     0.1370     2.4314   -34.5425     8.1954     8.2122  2000.0000
   89.5000   113.6031     8.0879     0.0141     0.1470     2.4178   -34.6958     8.1933     8.2105  2000.0000
   90.0000   113.1470     8.0869     0.0036     0.1482     2.4042   -34.6980     8.1347     8.2088   108.1809
   90.5000   113.7491     8.0859     0.0073     0.1383     2.4072   -34.7003     8.0209     8.2071     9.4156
   91.0000   112.2325     8.0849     0.0118     0.1304     2.4230   -34.5515     7.8541     7.9809     9.4802
   91.5000   111.0192     8.0839     0.0140     0.1264     2.4305   -34.5537     7.7441     7.7610     9.3480
   92.0000   109.5033     8.0829     0.0207     0.1230     2.4373   -34.4048     7.5830     7.7057     8.3650
   92.5000   108.5925     8.0819     0.0237     0.1246     2.4455   -34.4071     7.4766     7.6509     7.6428
   93.0000   108.2877     8.0809     0.0267     0.1262     2.4379   -34.2583     7.4232     7.4397     7.7485
   93.5000   111.1583     8.0799     0.0207     0.1247     2.4311   -34.2606     7.2688     7.2346     7.9103
   94.0000   114.3323     8.0789     0.0139     0.1245     2.4379   -34.7482     7.1670     7.1335     8.0200
   94.5000   116.7499     8.0779     0.0093     0.1254     2.4424   -35.6709     7.0667     7.0828     8.2444
   95.0000   117.6553     8.0769     0.0086     0.1288     2.4378   -36.5337     7.0162     7.0813     8.3007
   95.5000   116.1387     8.0759     0.0100     0.1343     2.4272   -36.3849     7.0144     7.0799     8.3095
   96.0000   115.9844     8.0749     0.0025     0.1379     2.4204   -36.0850     7.0126     7.0784     7.8503
   96.5000   114.6198     8.0739     0.0107     0.1377     2.4181   -35.9356     7.0595     7.0770     7.5817
   97.0000   110.0782     8.0729     0.0204     0.1296     2.4339   -36.2405     7.1067     7.1251     7.6334
   97.5000   107.2007     8.0719     0.0249     0.1236     2.4466   -37.1491     7.1567     7.1233     7.7928
   98.0000   109.4670     8.0709     0.0091     0.1276     2.4383   -37.7556     7.2574     7.2213     7.9614
   98.5000   112.7922     8.0699     0.0053     0.1382     2.4292   -37.9089     7.3513     7.2198     8.1309
   99.0000   115.2098     8.0689     0.0083     0.1273     2.4420   -37.7601     7.4004     7.4214     8.1771
   99.5000   116.7196     8.0679     0.0165     0.1192     2.4540   -37.9134     7.3980     7.5235     7.7883
  100.0000   117.3212     8.0669     0.0083     0.1310     2.3982   -38.0665     7.4061     7.6801     7.6271
  100.5000   116.5606     8.0674     0.0015     0.1380     2.4083   -38.5223     7.5375     7.6134     7.7982
  101.0000   114.8919     8.0701     0.0082     0.1286     2.4296   -38.9777     7.5366     7.5698     7.9500
  101.5000   112.6181     8.0727     0.0127     0.1235     2.4484   -39.1310     7.5357     7.5678     8.1165
  102.0000   113.6726     8.0754     0.0141     0.1294     2.4486   -39.2843     7.5348     7.5657     8.1726
  102.5000   116.6938     8.0780     0.0158     0.1305     2.4227   -39.2865     7.5339     7.6168     8.1719
