~VERSION INFORMATION
 VERS.                2.0:   CWLS LOG ASCII STANDARD - VERSION 2.0
 WRAP.                 NO:   ONE LINE PER DEPTH STEP
~WELL INFORMATION
#MNEM.UNIT      DATA TYPE    INFORMATION
#----------   ------------   ------------------------------
 STRT.F            1.0000:   START DEPTH
 STOP.F          528.0000:   STOP DEPTH
 STEP.F            0.5000:   STEP LENGTH
 NULL.          -999.2500:   NO VALUE
 COMP. LAWRENCE/ALLISON INC:   COMPANY
 WELL.     78-31 STX #3-3:   WELL
 FLD .             TEAPOT:   FIELD
 LOC .       S3 T38N R78W:   LOCATION
 CNTY.            NATRONA:   COUNTY
 STAT.            WYOMING:   STATE
 CTRY. UNITED STATES OF AMERICA:   COUNTRY
 SRVC.           Gearhart:   SERVICE COMPANY
 DATE.        26-JUN-1988:   LOGDATE
 API .       490251123100:   API NUMBER
~CURVE INFORMATION
#MNEM.UNIT       API CODE    CURVE DESCRIPTION
#----------   ------------   ------------------------------
 DEPT.F                  :   
 GRR .GAPI   07 310 01 00:   GAMMA RAY
 RILD.OHMM   07 120 46 00:   INDUCTION LOG DEEP RESISTIVITY
 RILM.OHMM   07 120 44 00:   INDUCTION LOG MEDIUM RESISTIVITY
~PARAMETER INFORMATION
#MNEM.UNIT          VALUE    DESCRIPTION
#----------   ------------   ------------------------------
 PD  .                 GL:   PERMANENT DATUM
 EPD .F              5154:   ELEVATION PERMANENT DATUM
 LMF .                 KB:   LOG MEASURED FROM
 DAPD.F                10:   FEET ABOVE PERMANENT DATUM
 DMF .                 KB:   DRILLING MEASURED FROM
 EKB .F              5164:   KELLING BUSHING
 EGL .F              5154:   GROUND LEVEL
 DATE.        26-JUN-1988:   RUN DATE
 RUN .                  1:   RUN NUMBER
 DD  .F               520:   DEPTH DRILLER
 DL  .F               536:   DEPTH LOGGER
 BLI .F             527.5:   BOTTOM LOG INTERVAL
 TLI .F                51:   TOP LOG INTERVAL
 CS  .IN            9.625:   CASING SIZE
 CBD .F                51:   CASING BOTTOM DRILLER
 CBL .F                51:   CASING BOTTOM LOGGER
 BS  .IN             8.75:   BIT SIZE
 BSD .F               520:   BIT SIZE AT DEPTH
 DFT .                AIR:   DRILLING FLUID TYPE
 TLAB.HRS            1920:   TIME LOGGER AT BOTTOM
 MRT .F                70:   MAXIMUM RECORDED TEMPERATURE
 LUN .               7597:   LOGGING UNIT NUMBER
 LUL .           GILLETTE:   LOGGING UNIT LOCATION
 ENGI.          HUCKFELDT:   RECORDING ENGINEER
 WITN.              FIVAS:   WITNESSED BY
 CLNT.            A2DTECH:   CLIENT CODE
 ORIG.           5" PRINT:   ORIGIN OF DATA
 UWI .       490251123100:   UNIQUE WELL ID
 DICO. A2D Technologies, Inc.:   DIGITIZING COMPANY
~OTHER INFORMATION
~A    DEPT       GRR     RILD       RILM   
# ...
  456.0000   100.4133    13.8347    13.9064
  456.5000   100.1192    13.6403    13.9064
  457.0000    99.8229    13.6374    13.9064
  457.5000    99.2280    13.7300    13.9064
  458.0000    97.4188    13.7271    13.9064
  458.5000    95.9103    13.8204    13.9064
  459.0000    96.8306    13.8168    13.9064
  459.5000    97.7486    13.8140    13.9064
  460.0000    98.3636    13.6199    13.9064
  460.5000    97.4635    13.4955    13.6179
  461.0000    98.5029    13.2475    13.2425
  461.5000   101.1200    12.9995    13.0587
  462.0000   100.8236    12.7515    12.7878
  462.5000   100.8348    12.5035    12.4353
  463.0000   101.7529    12.2555    12.1773
  463.5000   105.7012    12.0074    12.0083
  464.0000   108.1344    11.7221    11.8417
  464.5000   108.1433    11.6375    11.8417
  465.0000   106.9401    11.6343    11.8417
  465.5000   105.7370    11.6311    11.6773
  466.0000   104.5338    11.4669    11.4350
  466.5000   103.6333    11.3841    11.2647
  467.0000   104.5517    11.2234    11.1198
  467.5000   106.3788    10.8359    11.0424
  468.0000   109.4789    10.3169    10.8891
  468.5000   111.8919    10.1713    10.6632
  469.0000   111.8602    10.4561    10.5890
  469.5000   110.9600    10.6734    10.5890
  470.0000   109.4560    10.6705    10.5890
  470.5000   108.5536    10.6676    10.5152
  471.0000   109.1709    10.6647    10.5152
  471.5000   110.3920    10.1539    10.5890
  472.0000   110.7039     9.9410    10.5152
  472.5000   109.4985    10.0785    10.3693
  473.0000   110.1157    10.0750    10.2254
  473.5000   111.0338    10.0723    10.0132
  474.0000   112.2548     9.3914     9.6021
  474.5000   112.2638     9.2588     9.3998
  475.0000   112.2727     9.2562     9.2078
  475.5000   111.6555     9.1209     9.1975
  476.0000   111.3815     8.9966     9.1437
  476.5000   112.6048     9.0572     9.2078
  477.0000   113.5229     9.0541     9.2078
  477.5000   112.6227     8.9887     9.1437
  478.0000   109.6013     8.9238     8.9540
  478.5000   108.3959     8.7367     8.7682
  479.0000   111.1344     8.1461     8.4671
  479.5000   114.4766     8.0311     8.2265
  480.0000   116.6068     7.9731     7.9165
  480.5000   116.9188     7.9709     7.7225
  481.0000   115.7156     8.0246     7.5714
  481.5000   114.2094     8.1349     7.7861
  482.0000   113.3091     8.3061     8.0068
  482.5000   113.3182     8.6029     8.3496
  483.0000   113.6506     8.9210     8.8297
  483.5000   114.5889     9.3413     9.4029
  484.0000   116.6806     9.8059     9.8743
  484.5000   115.4774    10.2935    10.2254
  485.0000   111.2439    10.6565    10.4013
  485.5000   109.7355    10.8780    10.6632
  486.0000   110.9588    10.9519    11.0424
  486.5000   112.4829    11.0255    11.1978
  487.0000   114.6130    11.0217    11.1978
  487.5000   115.5311    11.0187    11.2763
  488.0000   114.6309    11.0157    11.1978
  488.5000   114.3346    11.0127    11.1978
  489.0000   114.9518    11.0096    11.1978
  489.5000   115.8698    11.0065    11.1198
  490.0000   116.1818    11.0029    11.0424
  490.5000   116.1909    10.9999    10.8891
  491.0000   115.8967    10.9968    10.8891
  491.5000   114.6957    10.9938    10.8891
  492.0000   113.7956    10.9908    10.8891
  492.5000   112.5902    10.9878    10.8133
  493.0000   108.9650    10.9848    10.8133
  493.5000   105.9436    10.9055    10.7375
  494.0000   105.0412    10.9025    10.6632
  494.5000   105.0524    10.7486    10.5073
  495.0000   105.3644    10.5232    10.0756
  495.5000   105.9794    10.2296     9.7293
  496.0000   105.6853     9.4574     9.4606
  496.5000   106.3003     8.9471     9.1355
  497.0000   106.9354     8.4679     8.6389
  497.5000   106.3182     7.9507     8.1693
  498.0000   104.7919     7.2093     7.9388
  498.5000   103.9118     6.4017     7.5565
  499.0000   106.0442     5.6846     7.0050
  499.5000   106.3562     4.7079     5.8838
  500.0000   105.4538     4.1226     4.8397
  500.5000   107.2130     3.5602     3.8715
  501.0000   112.5458     3.0959     3.2746
  501.5000   115.5908     2.9068     2.7891
  502.0000   117.6394     2.8658     2.4598
  502.5000   114.6240     2.8451     2.4086
  503.0000   111.0026     2.9066     2.5113
  503.5000   108.2903     3.0566     2.7684
  504.0000   106.4871     3.5039     3.0948
  504.5000   105.2862     3.9437     3.6327
  505.0000   104.0928     4.4699     4.2939
  505.5000   103.8010     5.2826     5.3684
  506.0000   103.8197     6.2431     6.3522
  506.5000   104.4407     7.0268     6.9147
  507.0000   106.2738     7.6913     7.6021
  507.5000   108.7131     8.1872     8.1501
  508.0000   110.2432     8.4164     8.4383
  508.5000   110.2581     8.6521     8.6760
  509.0000   109.3636     8.8944     8.7970
  509.5000   108.1668     9.0168     8.8576
  510.0000   108.7879     8.9516     8.8563
  510.5000   110.3334     8.8864     8.8553
  511.0000   111.5455     8.8840     8.8543
  511.5000   111.5606     8.8816     8.9155
  512.0000   113.7000     8.8791     8.9142
  512.5000   115.5331     8.8767     8.9132
  513.0000   116.7602     8.8743     8.9121
  513.5000  -999.2500     8.9339     8.9111
  514.0000  -999.2500     8.9315     8.9101
  514.5000  -999.2500     8.8670     8.9091
  515.0000  -999.2500     8.8646     8.9081
  515.5000  -999.2500     8.6787     8.9068
  516.0000  -999.2500     8.6152     8.9058
  516.5000  -999.2500     8.5537     8.9047
  517.0000  -999.2500     8.5514     8.8419
  517.5000  -999.2500     8.5486     8.7794
  518.0000  -999.2500     8.5462     8.7174
  518.5000  -999.2500     8.5439     8.6559
  519.0000  -999.2500     8.5415     8.6549
  519.5000  -999.2500     8.5392     8.6539
  520.0000  -999.2500     8.5966     8.6529
  520.5000  -999.2500     8.6544     8.6519
  521.0000  -999.2500     8.7741     8.7114
  521.5000  -999.2500     8.8943     8.7714
  522.0000  -999.2500     8.9541     8.7704
  522.5000  -999.2500     8.7663     8.7034
  523.0000  -999.2500     8.6437     8.5782
  523.5000  -999.2500  -999.2500     8.1767
  524.0000  -999.2500  -999.2500     8.0065
  524.5000  -999.2500  -999.2500     7.8947
  525.0000  -999.2500  -999.2500     7.7845
  525.5000  -999.2500  -999.2500     7.5696
  526.0000  -999.2500  -999.2500     7.3094
  526.5000  -999.2500  -999.2500     6.9604
  527.0000  -999.2500  -999.2500     6.5820
  527.5000  -999.2500  -999.2500     6.4902
  528.0000  -999.2500  -999.2500     6.4894
