~VERSION INFORMATION
 VERS.                2.0:   CWLS LOG ASCII STANDARD - VERSION 2.0
 WRAP.                 NO:   ONE LINE PER DEPTH STEP
~WELL INFORMATION
#MNEM.UNIT      DATA TYPE    INFORMATION
#----------   ------------   ------------------------------
 STRT.F           50.0000:   START DEPTH
 STOP.F         1561.5000:   STOP DEPTH
 STEP.F            0.5000:   STEP LENGTH
 NULL.          -999.2500:   NO VALUE
 COMP. FENIX & SCISSON INC:   COMPANY
 WELL.  72 SH 3 STX #72-3:   WELL
 FLD .             TEAPOT:   FIELD
 LOC .       S3 T38N R78W:   LOCATION
 CNTY.            NATRONA:   COUNTY
 STAT.            WYOMING:   STATE
 CTRY. UNITED STATES OF AMERICA:   COUNTRY
 SRVC.           BIRDWELL:   SERVICE COMPANY
 DATE.        31-JUL-1979:   LOGDATE
 API .       490251078600:   API NUMBER
~CURVE INFORMATION
#MNEM.UNIT       API CODE    CURVE DESCRIPTION
#----------   ------------   ------------------------------
 DEPT.F                  :   
 CALD.IN     45 280 60 00:   CALIPER FROM DENSITY LOG
 GRD .GAPI   45 310 01 00:   GAMMA RAY FROM DENSITY LOG
 RHOB.G/C3   45 350 01 00:   BULK DENSITY
 CORR.G/C3   45 356 01 00:   DENSITY CORRECTION
 DPHI.DEC    45 890 12 00:   DENSITY POROSITY SANDSTONE
 GR  .GAPI   81 310 01 00:   GAMMA RAY
~PARAMETER INFORMATION
#MNEM.UNIT          VALUE    DESCRIPTION
#----------   ------------   ------------------------------
 PD  .                 GL:   PERMANENT DATUM
 EPD .F              5165:   ELEVATION PERMANENT DATUM
 LMF .                 KB:   LOG MEASURED FROM
 DAPD.F                10:   FEET ABOVE PERMANENT DATUM
 DMF .                 KB:   DRILLING MEASURED FROM
 EKB .F              5175:   KELLING BUSHING
 EGL .F              5165:   GROUND LEVEL
 DATE.            7-31-79:   RUN DATE
 RUN .                  1:   RUN NUMBER
 DD  .F              1564:   DEPTH DRILLER
 DL  .F              1560:   DEPTH LOGGER
 BLI .F              1560:   BOTTOM LOG INTERVAL
 TLI .F               700:   TOP LOG INTERVAL
 CS  .IN            9.625:   CASING SIZE
 CBD .F               691:   CASING BOTTOM DRILLER
 CBL .F               680:   CASING BOTTOM LOGGER
 BS  .IN            7.875:   BIT SIZE
 BSD .F              1564:   BIT SIZE AT DEPTH
 DFT .                OIL:   DRILLING FLUID TYPE
 BHT .F                92:   BOTTOM HOLE TEMPERATURE
 TCS .HRS               2:   TIME CURCULATED STOPPED
 MRT .F                92:   MAXIMUM RECORDED TEMPERATURE
 LUN .               3029:   LOGGING UNIT NUMBER
 LUL .                CPR:   LOGGING UNIT LOCATION
 ENGI.             MILLER:   RECORDING ENGINEER
 WITN.           DINSMORE:   WITNESSED BY
 CLNT.            A2DTECH:   CLIENT CODE
 ORIG.       2", 5" PRINT:   ORIGIN OF DATA
 UWI .       490251078600:   UNIQUE WELL ID
 DICO. A2D Technologies, Inc.:   DIGITIZING COMPANY
~OTHER INFORMATION
~A   DEPT     CALD        GRD       RHOB       CORR       DPHI          GR  
# ...
  778.0000     9.3921    99.1521     2.5306     0.0351     0.0057    89.8382
  778.5000     9.4078    98.3340     2.5494     0.0430     0.0027    93.5549
  779.0000     9.4173    99.0087     2.5511     0.0371     0.0046    90.6623
  779.5000     9.4110    99.6863     2.5331     0.0290     0.0064    87.8829
  780.0000     9.4049    97.4039     2.5318     0.0250     0.0063    85.1003
  780.5000     9.3988    92.1347     2.5357     0.0277     0.0051    82.2055
  781.0000     9.3927    88.4664     2.5375     0.0301     0.0039    81.4272
  781.5000     9.3866    87.5982     2.5281     0.0223     0.0097    82.1869
  782.0000     9.3804    89.9413     2.5185     0.0142     0.0161    83.9928
  782.5000     9.3842    94.6684     2.5089     0.0062     0.0194    84.2355
  783.0000     9.3918    99.3270     2.4995    -0.0010     0.0187    82.9423
  783.5000     9.4004    99.8646     2.5028     0.0016     0.0165    81.6265
  784.0000     9.4162    98.3018     2.5180     0.0053     0.0124    80.7126
  784.5000     9.4321    96.1276     2.5329     0.0090     0.0075    85.4340
  785.0000     9.4478    93.9524     2.5302     0.0126     0.0070    90.0183
  785.5000     9.4564    92.1003     2.5215     0.0074     0.0186    94.7400
  786.0000     9.4465    92.9766     2.5128     0.0011     0.0234    95.7358
  786.5000     9.4369    94.1470     2.5038    -0.0054     0.0232    93.0315
  787.0000     9.4273    95.2844     2.5017     0.0029     0.0128    90.7278
  787.5000     9.4218    94.4159     2.5342     0.0168     0.0034    89.1812
  788.0000     9.4493    93.2977     2.5528     0.0312     0.0034    94.4080
  788.5000     9.4773    92.1788     2.5490     0.0226     0.0043    92.4081
  789.0000     9.5051    91.2056     2.5401     0.0070     0.0060    90.8689
  789.5000     9.5253    91.1972     2.5312     0.0158     0.0092    89.4694
  790.0000     9.5379    91.9069     2.5175     0.0261     0.0136    91.9325
  790.5000     9.5503    93.3209     2.5078     0.0187     0.0185    95.0496
  791.0000     9.5556    94.7378     2.5134     0.0110     0.0182    93.0635
  791.5000     9.5423    96.1469     2.5186     0.0029     0.0154    90.7588
  792.0000     9.5294    97.3078     2.5240     0.0229     0.0142    88.4516
  792.5000     9.5164    94.9176     2.5134     0.0125     0.0176    87.5185
  793.0000     9.5035    90.2958     2.5035     0.0062     0.0154    87.4625
  793.5000     9.4906    88.0483     2.5175     0.0061     0.0132    86.5017
  794.0000     9.4781    93.1165     2.5224     0.0176     0.0154    85.5355
  794.5000     9.4693    97.9733     2.5136     0.0110     0.0181    87.4035
  795.0000     9.4605    96.2541     2.5034     0.0029     0.0209    89.7909
  795.5000     9.4517    94.0357     2.5046     0.0007     0.0220    92.2021
  796.0000     9.4429    93.5255     2.5127    -0.0014     0.0197    94.5908
  796.5000     9.4341    94.5826     2.5181    -0.0035     0.0189    96.7242
  797.0000     9.4253    95.6769     2.5133    -0.0056     0.0215    98.2917
  797.5000     9.4165    97.2416     2.5085    -0.0070     0.0242    98.9928
  798.0000     9.4078   100.0884     2.5038    -0.0023     0.0266    95.1943
  798.5000     9.3990   102.5088     2.4994     0.0029     0.0237    93.5257
  799.0000     9.3902   100.4125     2.5064     0.0081     0.0179    94.0098
  799.5000     9.3812   101.0768     2.5182     0.0133     0.0138    94.5374
  800.0000     9.3835   102.6261     2.5272     0.0171     0.0151    92.2125
  800.5000     9.3902    97.2030     2.5193     0.0130     0.0200    89.7301
  801.0000     9.3969    97.2535     2.5064     0.0051     0.0261    88.0353
  801.5000     9.4037    99.5606     2.4935    -0.0029     0.0327    92.6275
  802.0000     9.4104   101.8628     2.4842    -0.0114     0.0350    96.0883
  802.5000     9.4171   103.6734     2.4887     0.0025     0.0305    97.7159
  803.0000     9.4239   102.0517     2.4967     0.0039     0.0254    99.3698
  803.5000     9.4306   100.4704     2.5050    -0.0003     0.0232   101.0236
  804.0000     9.4377    98.8849     2.5132     0.0090     0.0233   102.5683
  804.5000     9.4320    98.1967     2.5124     0.0222     0.0266   101.5825
  805.0000     9.4230    99.5007     2.5039     0.0311     0.0243    98.9542
  805.5000     9.4139   101.1549     2.4958     0.0297     0.0203    96.6049
  806.0000     9.4049   102.8190     2.4988     0.0273     0.0204    97.6645
  806.5000     9.3959   104.4854     2.5202     0.0251     0.0180    98.8409
  807.0000     9.3869   106.1525     2.5383     0.0267     0.0065    97.8419
  807.5000     9.3779   107.3869     2.5338     0.0368     0.0046    96.1329
  808.0000     9.3688   105.0906     2.5185     0.0331     0.0135    95.0162
  808.5000     9.3598   102.7453     2.5035     0.0168     0.0225    97.6612
  809.0000     9.3508   100.3596     2.4884     0.0243     0.0315   100.2114
  809.5000     9.3415    99.4310     2.4731     0.0319     0.0405   102.8626
  810.0000     9.3488   108.1729     2.4663     0.0383     0.0430   103.5307
  810.5000     9.3637   112.7005     2.4842     0.0237     0.0376   102.1585
  811.0000     9.3789   111.1983     2.5029     0.0089     0.0338   100.6664
  811.5000     9.3940   109.5385     2.5088     0.0096     0.0300   100.2397
  812.0000     9.4092   107.8438     2.5007     0.0228     0.0240   102.4441
  812.5000     9.4243   106.1119     2.4950     0.0356     0.0154   103.9751
  813.0000     9.4395   106.4752     2.5262     0.0485     0.0079   102.2866
  813.5000     9.4553   107.4212     2.5454     0.0614     0.0036    99.4049
  814.0000     9.4561   107.4281     2.5389     0.0622     0.0022    96.4273
  814.5000     9.4523   105.7542     2.5277     0.0452     0.0142    95.3060
  815.0000     9.4484   104.0111     2.5164     0.0282     0.0130    96.0776
  815.5000     9.4445   103.3758     2.5050     0.0272     0.0154    96.9670
  816.0000     9.4405   106.3177     2.4937     0.0429     0.0182    97.8530
  816.5000     9.4336   110.0931     2.4931     0.0425     0.0210    98.7470
  817.0000     9.4197   109.2401     2.5006     0.0331     0.0262    99.6844
  817.5000     9.4340   107.3931     2.4939     0.0264     0.0322    97.8025
  818.0000     9.4499   107.6341     2.4836     0.0412     0.0322    98.6443
  818.5000     9.4657   108.9661     2.4839     0.0560     0.0163   100.7798
  819.0000     9.4815   110.3285     2.5220     0.0582     0.0106   102.8543
  819.5000     9.4973   111.5575     2.5283     0.0495     0.0231   104.7839
  820.0000     9.5133   110.1229     2.5194     0.0407     0.0208   103.8296
  820.5000     9.5165   108.6014     2.5095     0.0318     0.0174   101.5246
  821.0000     9.5127   107.5944     2.4996     0.0230     0.0232    99.0608
  821.5000     9.5089   108.5485     2.4897     0.0141     0.0342    98.0685
  822.0000     9.5049   107.0589     2.4845     0.0055     0.0328    97.1656
  822.5000     9.5011   105.2190     2.4917     0.0028     0.0278    96.4936
  823.0000     9.5013   104.5510     2.5008     0.0044     0.0291    95.8280
  823.5000     9.5118   104.9535     2.4993     0.0129     0.0312    95.1806
  824.0000     9.5219   102.7479     2.4940     0.0214     0.0330    95.1155
  824.5000     9.5320   100.7522     2.4886     0.0298     0.0325    96.8429
  825.0000     9.5421    99.1583     2.4894     0.0351     0.0318    98.2728
  825.5000     9.5522    98.9558     2.4926     0.0297     0.0312    96.8845
  826.0000     9.5623   103.5522     2.4957     0.0229     0.0307    95.5487
  826.5000     9.5722   107.7501     2.4990     0.0254     0.0234    94.5772
  827.0000     9.5741   106.9210     2.5063     0.0311     0.0119    93.9304
  827.5000     9.5577   105.5527     2.5306     0.0370     0.0070    92.1500
  828.0000     9.5415   105.2024     2.5359     0.0338     0.0117    85.5135
  828.5000     9.5253   106.9890     2.5274     0.0259     0.0214    87.5285
  829.0000     9.5095   108.7257     2.5032     0.0178     0.0374    90.1688
  829.5000     9.5093   109.9093     2.4790     0.0096     0.0388    89.2531
