~VERSION INFORMATION
 VERS.                2.0:   CWLS LOG ASCII STANDARD - VERSION 2.0
 WRAP.                 NO:   ONE LINE PER DEPTH STEP
~WELL INFORMATION
#MNEM.UNIT      DATA TYPE    INFORMATION
#----------   ------------   ------------------------------
 STRT.F           90.0000:   START DEPTH
 STOP.F          928.0000:   STOP DEPTH
 STEP.F            0.5000:   STEP LENGTH
 NULL.          -999.2500:   NO VALUE
 COMP.  UNITED STATE NAVY:   COMPANY
 WELL.      NPR 3 #58-S-2:   WELL
 FLD .             TEAPOT:   FIELD
 LOC .       S2 T38N R78W:   LOCATION
 CNTY.            NATRONA:   COUNTY
 STAT.            WYOMING:   STATE
 CTRY. UNITED STATES OF AMERICA:   COUNTRY
 SRVC.       Schlumberger:   SERVICE COMPANY
 DATE.        26-JUN-1962:   LOGDATE
 API .       490250639500:   API NUMBER
~CURVE INFORMATION
#MNEM.UNIT       API CODE    CURVE DESCRIPTION
#----------   ------------   ------------------------------
 DEPT.F                  :   
 ASN .OHMM   05 041 16 00:   AMPLIFIED SHORT NORMAL 16"
 ILD .OHMM   05 120 46 00:   INDUCTION LOG DEEP
 CILD.MMHO   05 110 46 00:   CONDUCTIVITY INDUCTION LOG DEEP
 SPR .MV     05 010 01 00:   SPONTANEOUS POTENTIAL FROM RES.
 GR  .GAPI   30 310 01 00:   GAMMA RAY
~PARAMETER INFORMATION
#MNEM.UNIT          VALUE    DESCRIPTION
#----------   ------------   ------------------------------
 PD  .                 KB:   PERMANENT DATUM
 EKB .F              5189:   KELLING BUSHING
 EGL .F              5184:   GROUND LEVEL
 DATE.        26-JUN-1962:   RUN DATE
 RUN .                  1:   RUN NUMBER
 DD  .F               925:   DEPTH DRILLER
 DL  .F               929:   DEPTH LOGGER
 BLI .F               928:   BOTTOM LOG INTERVAL
 TLI .F                90:   TOP LOG INTERVAL
 BS  .IN             6.75:   BIT SIZE
 BSD .F               925:   BIT SIZE AT DEPTH
 DFT .       OIL EMULSION:   DRILLING FLUID TYPE
 DFD .                 10:   DRILLING FLUID DENSITY
 DFV .                 50:   DRILLING FLUID VISCOSITY
 DFL .                3.7:   DRILLING FLUID LOSS
 RMS .OHMM            4.7:   RESISTIVITY MUD SAMPLE
 MST .F                83:   MUD SAMPLE TEMPERATURE
 RMF .OHMM            3.8:   RESISTIVITY MUD FILTRATE SAMPLE
 MFST.F                83:   MUD FILTRATE SAMPLE TEMPERATURE
 RMC .OHMM            4.4:   RESISTIVITY MUD CAKE
 MCST.F                83:   MUD CAKE SAMPLE TEMPERATURE
 TCS .HRS               1:   TIME CURCULATED STOPPED
 LUN .               2503:   LOGGING UNIT NUMBER
 LUL .               CSPR:   LOGGING UNIT LOCATION
 ENGI.             DANNER:   RECORDING ENGINEER
 WITN.          JORGENSEN:   WITNESSED BY
 CLNT.            A2DTECH:   CLIENT CODE
 ORIG.      2" & 5" PRINT:   ORIGIN OF DATA
 UWI .       490250639500:   UNIQUE WELL ID
 DICO. A2D Technologies, Inc.:   DIGITIZING COMPANY
~OTHER INFORMATION
~A   DEPT        ASN        ILD      CILD       SPR         GR   
# ...
  883.0000    16.7051    13.9916    68.9456   -55.9185    22.5854
  883.5000    15.7429    13.8135    71.1727   -55.7651    30.1634
  884.0000    15.8951    13.5471    72.6288   -57.7013    35.5126
  884.5000    16.0473    13.6252    72.5907   -55.9027    35.3640
  885.0000    16.0496    13.6282    71.8007   -52.6115    35.9584
  885.5000    16.1268    13.6312    71.0107   -52.1561    35.0669
  886.0000    15.9792    13.6402    70.9726   -51.7008    33.5810
  886.5000    15.4567    13.6372    70.9345   -51.3947    35.0669
  887.0000    15.5339    13.6403    70.8964   -52.5811    35.8098
  887.5000    15.9110    13.6434    70.8583   -53.3198    33.1352
  888.0000    16.0627    13.6464    71.5816   -53.7619    32.3923
  888.5000    15.6157    13.7244    70.7821   -53.1553  -999.2500
  889.0000    15.3182    13.6517    70.7519   -53.3602  -999.2500
  889.5000    15.2449    13.5798    70.8044   -54.0376  -999.2500
  890.0000    15.2478    13.4329    72.2305   -53.9901  -999.2500
  890.5000    15.2500    13.1369    73.6467   -51.9328  -999.2500
  891.0000    15.2523    12.8401    74.3609   -51.6267  -999.2500
  891.5000    15.2541    12.6932    75.8271   -51.3206  -999.2500
  892.0000    15.1714    12.6213    76.5414   -49.8205  -999.2500
  892.5000    15.0275    12.6374    77.2556   -50.5592  -999.2500
  893.0000    14.7336    12.8611    75.7119   -51.0012  -999.2500
  893.5000    14.4385    13.1597    73.4181   -51.2902  -999.2500
  894.0000    14.2159    13.3083    72.6282   -49.9394  -999.2500
  894.5000    15.5675    13.3853    72.5900   -50.9784  -999.2500
  895.0000    16.7692    13.3884    73.3133   -50.0734  -999.2500
  895.5000    16.1718    13.3165    73.2657   -49.1703  -999.2500
  896.0000    15.7987    13.1696    73.9890   -48.1179  -999.2500
  896.5000    15.6516    13.0227    74.7028   -48.4107  -999.2500
  897.0000    15.5040    12.8751    75.4166   -48.8636  -999.2500
  897.5000    14.9065    12.5040    76.1304   -49.4451  -999.2500
  898.0000    13.6344    11.9823    79.8421   -50.3283  -999.2500
  898.5000    13.3369    11.7224    83.0608   -50.9179  -999.2500
  899.0000    12.9643    11.4298    87.3733   -50.9101  -999.2500
  899.5000    12.7417    11.3160    89.5515   -50.6040  -999.2500
  900.0000    12.6514    11.3191    90.2256   -50.2506  -999.2500
  900.5000    12.4484    11.2401    90.2005   -49.9607  -999.2500
  901.0000    12.2957    11.1730    90.1710   -49.5305  -999.2500
  901.5000    12.2217    11.0999    90.8977   -49.3712  -999.2500
  902.0000    12.2226    11.1023    91.6245   -49.8114  -999.2500
  902.5000    12.2236    11.0287    93.1031   -49.6518  -999.2500
  903.0000    12.0746    11.0311    93.8361   -49.1742  -999.2500
  903.5000    12.0006    10.9580    94.5628   -48.4230  -999.2500
  904.0000    11.7766    10.8099    95.2895   -48.1295  -999.2500
  904.5000    11.6276    10.7364    95.2631   -48.1194  -999.2500
  905.0000    11.4037    10.7387    95.9910   -47.8109  -999.2500
  905.5000    11.4046    10.6656    96.0782   -47.3532  -999.2500
  906.0000    11.3306    10.6675    96.6926   -46.7461  -999.2500
  906.5000    11.2566    10.5190    96.6667   -46.7361  -999.2500
  907.0000    11.1826    10.4459    96.6416   -46.7260  -999.2500
  907.5000    11.1835    10.4483    97.3689   -46.5667  -999.2500
  908.0000    11.1844    10.4498    97.3434   -46.2582  -999.2500
  908.5000    11.1854    10.4517    97.3183   -46.0989  -999.2500
  909.0000    11.1863    10.5285    97.2932   -46.2406  -999.2500
  909.5000    11.1873    10.6053    97.2682   -46.0788  -999.2500
  910.0000    11.1882    10.6072    96.4912   -45.7703  -999.2500
  910.5000    11.1891    10.6841    96.4661   -45.4618  -999.2500
  911.0000    11.1901    10.6859    95.6890   -45.4517  -999.2500
  911.5000    11.2660    10.7628    94.1601   -45.4417  -999.2500
  912.0000    11.2669    10.7647    94.1349   -45.2824  -999.2500
  912.5000    11.3428    10.7665    93.3579   -44.9739  -999.2500
  913.0000    11.3438    10.7684    93.3327   -44.9638  -999.2500
  913.5000    11.3447    10.7703    94.0601   -44.5060  -999.2500
  914.0000    11.1957    10.7721    94.7869   -44.3493  -999.2500
  914.5000    11.1214    10.6990    95.5137   -45.0830  -999.2500
  915.0000    10.9727    10.7009    96.2405   -45.3740  -999.2500
  915.5000    10.8237    10.7777    96.9675   -45.5132  -999.2500
  916.0000    10.5998    10.7796    97.6943   -44.9036  -999.2500
  916.5000    10.5257    10.6978    99.1716   -44.4458  -999.2500
  917.0000    10.5267    10.3261    99.8983   -44.4378  -999.2500
  917.5000    10.4524    10.1105   100.6313   -44.7268  -999.2500
  918.0000    10.4537    10.1124   101.3580   -44.6966  -999.2500
  918.5000    10.3793    10.1143   101.3265   -44.0945  -999.2500
  919.0000    10.3055    10.1162   102.0595   -43.6418  -999.2500
  919.5000    10.3065    10.1181   102.0281   -43.4925  -999.2500
  920.0000    10.2325    10.1199   102.0029   -43.4826  -999.2500
  920.5000    10.2334    10.1218   101.9778   -43.4726  -999.2500
  921.0000    10.2343    10.1237   101.9526   -43.4527  -999.2500
  921.5000    10.2353    10.1256   101.9274   -43.4525  -999.2500
  922.0000    10.2362    10.1275   101.9023   -43.4425  -999.2500
  922.5000    10.2372    10.1293  -999.2500   -43.1339  -999.2500
  923.0000    10.2381    10.1312  -999.2500   -42.8254  -999.2500
  923.5000    10.2390    10.1331  -999.2500   -42.8153  -999.2500
  924.0000    10.2400    10.1350  -999.2500   -42.8053  -999.2500
  924.5000    10.2409    10.1368  -999.2500   -42.7953  -999.2500
  925.0000    10.2419    10.1387  -999.2500   -42.7852  -999.2500
  925.5000    10.2428    10.1406  -999.2500   -42.4767  -999.2500
  926.0000    10.2437    10.0675  -999.2500   -42.1681  -999.2500
  926.5000    10.1695     9.9944  -999.2500   -42.0089  -999.2500
  927.0000    10.1706     9.9213  -999.2500   -42.1506  -999.2500
  927.5000    10.0964     9.9232  -999.2500   -42.4366  -999.2500
  928.0000    10.0976     9.8501  -999.2500   -42.5783  -999.2500
