~VERSION INFORMATION
 VERS.                2.0:   CWLS LOG ASCII STANDARD - VERSION 2.0
 WRAP.                 NO:   ONE LINE PER DEPTH STEP
~WELL INFORMATION
#MNEM.UNIT      DATA TYPE    INFORMATION
#----------   ------------   ------------------------------
 STRT.F           40.0000:   START DEPTH
 STOP.F          684.0000:   STOP DEPTH
 STEP.F            0.5000:   STEP LENGTH
 NULL.          -999.2500:   NO VALUE
 COMP.    FENIX & SCISSON:   COMPANY
 WELL.   N P R-3 #26SX2-2:   WELL
 FLD .             TEAPOT:   FIELD
 LOC .       S2 T38N R78W:   LOCATION
 CNTY.            NATRONA:   COUNTY
 STAT.            WYOMING:   STATE
 CTRY. UNITED STATES OF AMERICA:   COUNTRY
 SRVC.            Unknown:   SERVICE COMPANY
 DATE.        26-JAN-1978:   LOGDATE
 API .       490251056400:   API NUMBER
~CURVE INFORMATION
#MNEM.UNIT       API CODE    CURVE DESCRIPTION
#----------   ------------   ------------------------------
 DEPT.F                  :   
 ILD .OHMM   05 120 46 00:   INDUCTION LOG DEEP
 SN  .OHMM   05 040 16 00:   SHORT NORMAL 16"
 SPR .MV     05 010 01 00:   SPONTANEOUS POTENTIAL FROM RES.
 CALD.IN     45 280 60 00:   CALIPER FROM DENSITY LOG
 CORR.G/C3   45 356 01 00:   DENSITY CORRECTION
 DPHI.DEC    45 890 12 00:   DENSITY POROSITY SANDSTONE
 GRD .GAPI   45 310 01 00:   GAMMA RAY FROM DENSITY LOG
 RHOB.G/C3   45 350 01 00:   BULK DENSITY
~PARAMETER INFORMATION
#MNEM.UNIT          VALUE    DESCRIPTION
#----------   ------------   ------------------------------
 PD  .                 GL:   PERMANENT DATUM
 EPD .F              5142:   ELEVATION PERMANENT DATUM
 LMF .                 KB:   LOG MEASURED FROM
 DMF .                 KB:   DRILLING MEASURED FROM
 EKB .F              5146:   KELLING BUSHING
 EGL .F              5142:   GROUND LEVEL
 DATE.        26-JAN-1978:   RUN DATE
 RUN .                  1:   RUN NUMBER
 DD  .F               690:   DEPTH DRILLER
 DL  .F               684:   DEPTH LOGGER
 BLI .F               684:   BOTTOM LOG INTERVAL
 TLI .F                50:   TOP LOG INTERVAL
 CS  .IN            8.625:   CASING SIZE
 CBD .F                39:   CASING BOTTOM DRILLER
 CBL .F                40:   CASING BOTTOM LOGGER
 BS  .IN            7.875:   BIT SIZE
 BSD .F               690:   BIT SIZE AT DEPTH
 DFT .                KCL:   DRILLING FLUID TYPE
 DFD .                8.5:   DRILLING FLUID DENSITY
 DFV .                 33:   DRILLING FLUID VISCOSITY
 DFPH.                  9:   DRILLING FLUID PH
 MSS .           FLOWLINE:   MUD SAMPLE SOURCE
 RMS .OHMM           0.48:   RESISTIVITY MUD SAMPLE
 MST .F                75:   MUD SAMPLE TEMPERATURE
 RMF .OHMM           0.46:   RESISTIVITY MUD FILTRATE SAMPLE
 MFST.F                75:   MUD FILTRATE SAMPLE TEMPERATURE
 RMC .OHMM              1:   RESISTIVITY MUD CAKE
 MCST.F                75:   MUD CAKE SAMPLE TEMPERATURE
 MFSS.               MEAS:   MUD FILTRATE SAMPLE SOURCE
 MCSS.               MEAS:   MUD CAKE SAMPLE SOURCE
 RMB .OHMM           0.47:   RESISTIVITY MUD AT BHT
 BHT .F                76:   BOTTOM HOLE TEMPERATURE
 TCS .HRS               1:   TIME CURCULATED STOPPED
 MRT .F                76:   MAXIMUM RECORDED TEMPERATURE
 LUN .               2958:   LOGGING UNIT NUMBER
 LUL .             CASPER:   LOGGING UNIT LOCATION
 ENGI.           REYNOLDS:   RECORDING ENGINEER
 WITN.       MR. MCGINLEY:   WITNESSED BY
 CLNT.            A2DTECH:   CLIENT CODE
 ORIG.      2.5" 5" PRINT:   ORIGIN OF DATA
 UWI .       490251056400:   UNIQUE WELL ID
 DICO. A2D Technologies, Inc.:   DIGITIZING COMPANY
~OTHER INFORMATION
~A   DEPT      ILD         SN        SPR       CALD       CORR       DPHI         GRD        RHOB 
# ...
   80.5000     1.9056     2.4084   -35.6540    10.0258     0.2121  -999.2500   108.6157     1.8062
   81.0000     1.8677     2.3444   -35.3278     9.8305     0.2273  -999.2500   110.3721     1.8038
   81.5000     1.8563     2.2979   -35.1898     9.7449     0.2455  -999.2500   112.7345     1.8108
   82.0000     1.9098     2.2835   -35.6184     9.7233     0.2637  -999.2500   112.1101     1.8214
   82.5000     2.2580     2.3169   -35.6054     9.7830     0.2880  -999.2500   108.6009     1.8420
   83.0000     2.5993     2.5006   -35.7439    10.2141     0.3155  -999.2500   103.1248     1.8671
   83.5000     2.9732     2.8518   -35.7277    10.2568     0.3258  -999.2500    97.0111     1.9204
   84.0000     3.3675     3.2299   -35.7147     9.9753     0.2993  -999.2500   108.6344     2.0158
   84.5000     3.7621     3.8124   -35.7017     9.7260     0.2824  -999.2500   112.3066     2.1390
   85.0000     4.9232     5.8457   -35.6886     9.5746     0.3253     0.3090    99.7709     2.2020
   85.5000     7.4954     7.4427   -35.6753     9.5143     0.3309     0.3297    90.9048     2.1657
   86.0000     8.9698     8.6650   -35.5112     9.4844     0.3273     0.2895    90.2956     2.1530
   86.5000     9.6156     9.4168   -35.4983     9.5152     0.3242     0.2913    90.2982     2.1803
   87.0000     9.6227     9.7524   -35.4853     9.5765     0.3182     0.2990    94.7350     2.1707
   87.5000     9.4982     9.9620   -35.4723     9.6074     0.3080     0.2812   101.8221     2.1768
   88.0000     9.2489    10.0369   -35.4593     9.5927     0.2891     0.2775   106.7584     2.1965
   88.5000     8.6405    10.0431   -35.4463     9.5780     0.2628     0.2758   110.0484     2.2026
   89.0000     7.4838     9.9131   -35.1368     9.5785     0.2441     0.2976   113.8889     2.2056
   89.5000     6.4376     9.3876   -34.9755     9.5790     0.2305     0.3169   119.9719     2.1890
   90.0000     5.6531     8.4718   -34.8143     9.5795     0.2244     0.3309   123.7513     2.1527
   90.5000     5.5037     7.4377   -35.3911     9.5800     0.2292     0.3430   126.1442     2.1163
   91.0000     5.4699     6.3963   -35.6747     9.5805     0.2626     0.3514   127.2834     2.0981
   91.5000     5.4365     5.8928   -36.8478     9.5811     0.2717     0.3551   127.9383     2.0874
   92.0000     5.4790     5.7353   -37.8727     9.5951     0.2718     0.3284   123.6799     2.0798
   92.5000     5.5590     5.6611   -36.8219     9.6125     0.2719     0.2855   115.0994     2.0770
   93.0000     5.6791     5.6646   -35.4745     9.6130     0.2750     0.2757   105.3165     2.1787
   93.5000     6.0880     6.1761   -35.1509     9.6440     0.2751     0.2716   103.4841     2.2051
   94.0000     7.3865     8.2750   -35.4485     9.7052     0.2783     0.2815   108.3795     2.2104
   94.5000     9.3401     9.7768   -35.4351     9.7361     0.2784     0.2859   109.9111     2.1994
   95.0000     9.9439    10.2656   -35.1227     9.7670     0.2785     0.2886   109.9136     2.1944
   95.5000    10.3705    10.2718   -35.1097     9.8283     0.2786     0.2897   109.3044     2.1902
   96.0000    10.3782    10.2781   -35.0967     9.8592     0.2756     0.2887   108.6952     2.1862
   96.5000    10.4575    10.4989   -35.0838     9.9205     0.2695     0.2844   109.0036     2.1847
   97.0000    10.6101    10.6508   -34.9225     9.9514     0.2634     0.2766   109.9439     2.1883
   97.5000    10.9219    10.8797   -34.7612     9.9823     0.2548     0.2688   110.8435     2.2042
   98.0000    11.2289    11.1902   -34.6000     9.9828     0.2483     0.2581   110.4995     2.2273
   98.5000    11.3929    11.5096   -34.4387     9.9580     0.2429     0.2493   109.9310     2.2459
   99.0000    11.6390    11.7570   -34.2603     9.5211     0.2461     0.2573   110.6881     2.2611
   99.5000    11.8904    11.8469   -33.8164     9.4895     0.2660     0.2710   111.7711     2.2273
  100.0000    12.2311    11.9526   -33.4977     9.4984     0.2794     0.2790   111.6399     2.2205
  100.5000    12.2562    12.0148   -33.3436     9.4988     0.2784     0.2814   110.8199     2.2123
  101.0000    12.2835    12.0770   -33.1896     9.4991     0.2775     0.2838   109.9998     2.2044
  101.5000    12.3109    12.2118   -33.0420     9.4994     0.2765     0.2863   108.6804     2.2013
  102.0000    12.3382    12.2209   -33.1833     9.4997     0.2795     0.2903   110.7890     2.1975
  102.5000    12.4389    12.3996   -33.4725     9.5000     0.2916     0.2991   112.7727     2.1882
  103.0000    12.6189    12.4947   -33.6135     9.5003     0.2977     0.3076   115.1896     2.1682
  103.5000    12.8016    12.5905   -34.1975     9.5006     0.3007     0.3145   116.2227     2.1468
  104.0000    13.0765    12.7766   -34.7832     9.5009     0.3007     0.3191   115.8186     2.1405
  104.5000    13.1748    12.9633   -35.0743     9.5012     0.3007     0.3217   114.7263     2.1373
  105.0000    13.2738    13.1528   -35.2153     9.5015     0.3008     0.3217   113.9246     2.1357
  105.5000    13.3736    13.2535   -35.2061     9.5018     0.3008     0.3217   113.0653     2.1351
  106.0000    13.3818    13.3550   -35.3489     9.5021     0.3008     0.3216   112.4596     2.1351
  106.5000    13.2982    13.5502   -35.3398     9.5024     0.3008     0.3216   111.8539     2.1336
  107.0000    13.3064    13.5603   -35.3325     9.5027     0.3008     0.3204   110.3308     2.1321
  107.5000    13.3147    13.5704   -35.3252     9.5030     0.3008     0.3192   107.5845     2.1322
  108.0000    13.4149    13.6743   -35.3179     9.5033     0.3008     0.3161   104.5323     2.1367
  108.5000    13.4248    13.7790   -35.1623     9.5037     0.3009     0.3107   102.3976     2.1458
  109.0000    13.4330    13.8845   -35.1549     9.5040     0.3009     0.3076   100.5229     2.1504
  109.5000    13.4412    14.0875   -35.1474     9.5043     0.3009     0.3058    98.7397     2.1535
  110.0000    13.4482    14.3989   -35.1386     9.5046     0.3009     0.3046   101.6514     2.1550
  110.5000    13.4576    14.7316   -35.2814     9.5049     0.2979     0.3046   102.7278     2.1553
  111.0000    13.4658    15.0241   -35.2722     9.5052     0.2979     0.3053   102.0357     2.1566
  111.5000    13.4731    15.0353   -35.2649     9.5055     0.2979     0.3070   102.2329     2.1566
  112.0000    13.4823    14.8408   -35.1094     9.4754     0.2949     0.3085   102.4404     2.1561
  112.5000    13.4905    14.9544   -35.1021     9.4757     0.2919     0.3104   101.5545     2.1515
  113.0000    13.5919    15.0689   -35.0947     9.4717     0.2919     0.3125    99.9959     2.1484
  113.5000    13.6003    15.2892   -35.0874     9.4459     0.2919     0.3145    98.3914     2.1438
  114.0000    13.6086    15.5127   -35.0801     9.4462     0.2920     0.3163    98.1529     2.1398
  114.5000    13.7109    15.5242   -35.0733     9.4465     0.2890     0.3175   100.3312     2.1355
  115.0000    13.7192    15.6431   -35.0655     9.4164     0.2890     0.3178   101.8662     2.1340
  115.5000    13.7276    15.6547   -35.2068     9.4167     0.2876     0.3172   103.7070     2.1325
  116.0000    13.7361    15.6664   -35.1992     9.4316     0.2844     0.3159   105.8536     2.1341
  116.5000    13.7446    15.5705   -35.3402     9.4477     0.2800     0.3141   106.7770     2.1356
  117.0000    13.7531    15.5822   -35.4870     9.4481     0.2800     0.3141   108.3120     2.1387
  117.5000    13.7633    15.5940   -35.7035     9.4484     0.2800     0.3135   109.5668     2.1417
  118.0000    13.6752    15.1843   -36.0596     9.4487     0.2800     0.3159   110.4954     2.1417
  118.5000    13.4062    14.9878   -36.2006     9.4490     0.2800     0.3183   108.1366     2.1386
  119.0000    13.3224    14.2934   -36.6362     9.4493     0.2831     0.3201   106.3690     2.1355
  119.5000    13.1464    13.5376   -36.9273     9.4496     0.2861     0.3220   105.2003     2.1327
  120.0000    13.0643    12.9104   -37.3648     9.4499     0.2801     0.3203   104.9837     2.1327
  120.5000    12.9846    12.7409   -37.8005     9.4198     0.2740     0.3083   106.3338     2.1342
