~VERSION INFORMATION
 VERS.                2.0:   CWLS LOG ASCII STANDARD - VERSION 2.0
 WRAP.                 NO:   ONE LINE PER DEPTH STEP
~WELL INFORMATION
#MNEM.UNIT      DATA TYPE    INFORMATION
#----------   ------------   ------------------------------
 STRT.F           30.0000:   START DEPTH
 STOP.F          468.0000:   STOP DEPTH
 STEP.F            0.1000:   STEP LENGTH
 NULL.          -999.2500:   NO VALUE
 COMP. LAWRENCE/ALLISON INC:   COMPANY
 WELL.    72-12 SX #10-10:   WELL
 FLD .             TEAPOT:   FIELD
 LOC .      S10 T38N R78W:   LOCATION
 CNTY.            NATRONA:   COUNTY
 STAT.            WYOMING:   STATE
 CTRY. UNITED STATES OF AMERICA:   COUNTRY
 SRVC.           Gearhart:   SERVICE COMPANY
 DATE.        17-MAY-1988:   LOGDATE
 API .       490251122400:   API NUMBER
~CURVE INFORMATION
#MNEM.UNIT       API CODE    CURVE DESCRIPTION
#----------   ------------   ------------------------------
 DEPT.F                  :   
 GRR .GAPI   07 310 01 00:   GAMMA RAY
 RILD.OHMM   07 120 46 00:   INDUCTION LOG DEEP RESISTIVITY
 RILM.OHMM   07 120 44 00:   INDUCTION LOG MEDIUM RESISTIVITY
~PARAMETER INFORMATION
#MNEM.UNIT          VALUE    DESCRIPTION
#----------   ------------   ------------------------------
 PD  .                 GL:   PERMANENT DATUM
 EPD .F              5166:   ELEVATION PERMANENT DATUM
 LMF .                 KB:   LOG MEASURED FROM
 DAPD.F              10.2:   FEET ABOVE PERMANENT DATUM
 DMF .                 KB:   DRILLING MEASURED FROM
 EKB .F            5176.2:   KELLING BUSHING
 EGL .F              5166:   GROUND LEVEL
 DATE.        17-MAY-1988:   RUN DATE
 RUN .                  1:   RUN NUMBER
 DD  .F               480:   DEPTH DRILLER
 DL  .F               476:   DEPTH LOGGER
 BLI .F               468:   BOTTOM LOG INTERVAL
 TLI .F                47:   TOP LOG INTERVAL
 CS  .IN            9.625:   CASING SIZE
 CBD .F                43:   CASING BOTTOM DRILLER
 CBL .F                47:   CASING BOTTOM LOGGER
 BS  .IN             8.75:   BIT SIZE
 BSD .F               480:   BIT SIZE AT DEPTH
 DFT .                AIR:   DRILLING FLUID TYPE
 TCS .HRS            0630:   TIME CURCULATED STOPPED
 TLAB.HRS            0930:   TIME LOGGER AT BOTTOM
 LUN .               7597:   LOGGING UNIT NUMBER
 LUL .           GILLETTE:   LOGGING UNIT LOCATION
 ENGI.             SLATKY:   RECORDING ENGINEER
 WITN.             STRONG:   WITNESSED BY
 CLNT.            A2DTECH:   CLIENT CODE
 ORIG.           5" PRINT:   ORIGIN OF DATA
 UWI .       490251122400:   UNIQUE WELL ID
 DICO. A2D Technologies, Inc.:   DIGITIZING COMPANY
~OTHER INFORMATION
~A   DEPT      GRR       RILD       RILM   
# ...
  266.6000    70.0690    21.5951    20.8177
  266.7000    69.1069    21.8402    21.0724
  266.8000    68.3321    21.9908    21.2922
  266.9000    67.6115    22.1837    21.5335
  267.0000    67.0202    22.3963    21.7774
  267.1000    66.7764    22.5318    21.9993
  267.2000    66.0558    22.8314    22.1293
  267.3000    65.7020    22.9387    22.3695
  267.4000    65.3427    23.0689    22.5319
  267.5000    64.9243    23.1997    22.7206
  267.6000    64.6861    23.3313    22.9472
  267.7000    64.6903    23.4804    23.0780
  267.8000    64.6945    23.5969    23.2081
  267.9000    64.6988    23.6462    23.3397
  268.0000    64.7596    23.7000    23.4721
  268.1000    65.0104    23.8132    23.6051
  268.2000    65.4881    23.8143    23.7388
  268.3000    65.9756    23.8152    23.8735
  268.4000    66.5770    23.9075    23.9024
  268.5000    67.2536    23.9835    23.9034
  268.6000    67.7589    24.0119    23.9044
  268.7000    68.1272    24.1530    23.8963
  268.8000    68.5097    24.1539    23.7407
  268.9000    68.8921    24.1549    23.7416
  269.0000    69.2745    24.1559    23.6646
  269.1000    69.6570    24.1908    23.5788
  269.2000    70.0394    24.3266    23.5659
  269.3000    70.4218    24.3276    23.4173
  269.4000    70.8043    24.3286    23.3049
  269.5000    71.1867    24.3296    23.2567
  269.6000    71.5216    24.3307    23.2077
  269.7000    71.7674    24.3392    23.0788
  269.8000    72.0528    24.5027    22.9381
  269.9000    72.4620    24.5036    22.9389
  270.0000    72.6667    24.5046    22.8550
  270.1000    72.7509    24.5056    22.7817
  270.2000    72.9782    24.5066    22.7597
  270.3000    72.9832    24.5078    22.6256
  270.4000    72.9867    24.5087    22.6265
  270.5000    72.7161    24.5097    22.6274
  270.6000    72.3131    24.5107    22.6868
  270.7000    72.0757    24.5118    22.8153
  270.8000    71.7923    24.5129    22.9476
  270.9000    71.4063    24.5138    23.0748
  271.0000    70.9273    24.5148    23.2056
  271.1000    70.3763    24.5158    23.2722
  271.2000    69.6662    24.5169    23.3066
  271.3000    69.1873    24.5179    23.4386
  271.4000    68.5177    24.5189    23.5716
  271.5000    67.6677    24.5199    23.7053
  271.6000    66.8412    24.5210    23.8396
  271.7000    66.3621    24.5220    23.9354
  271.8000    65.8833    24.5230    23.9433
  271.9000    65.4042    24.5240    24.1048
  272.0000    65.0505    24.5251    24.2157
  272.1000    64.9408    24.5261    24.3529
  272.2000    65.1867    24.5662    24.4456
  272.3000    65.4325    24.6994    24.4589
  272.4000    65.8610    24.7006    24.6186
  272.5000    66.2273    24.8135    24.7371
  272.6000    66.5927    24.8749    24.8773
  272.7000    67.3267    24.9219    25.0183
  272.8000    67.8108    25.0506    25.1423
  272.9000    68.2983    25.0518    25.1434
  273.0000    68.7859    25.1728    25.2697
  273.1000    69.2734    25.2287    25.4129
  273.2000    69.7722    25.2297    25.5570
  273.3000    70.2483    25.2499    25.7018
  273.4000    70.7357    25.4081    25.8588
  273.5000    71.2232    25.5373    25.9941
  273.6000    71.7108    25.5874    26.0415
  273.7000    72.2177    25.6489    26.0426
  273.8000    72.6856    25.7682    26.0731
  273.9000    72.8321    25.7694    26.2268
  274.0000    72.8364    25.7704    26.2278
  274.1000    72.8406    25.8735    26.2289
  274.2000    72.8451    25.9524    26.3006
  274.3000    72.8491    25.9535    26.4144
  274.4000    72.8533    25.9546    26.4155
  274.5000    72.8576    25.9557    26.4166
  274.6000    72.9055    26.0662    26.4177
  274.7000    73.1694    26.1391    26.4188
  274.8000    73.1733    26.1401    26.4199
  274.9000    73.3400    26.1460    26.4210
  275.0000    73.4848    26.2944    26.4221
  275.1000    73.5287    26.4437    26.4232
  275.2000    73.7967    26.5108    26.4243
  275.3000    74.0204    26.5592    26.4254
  275.4000    74.2662    26.6981    26.4265
  275.5000    74.5121    26.6994    26.4278
  275.6000    74.7935    26.7003    26.4287
  275.7000    75.3332    26.7918    26.4298
  275.8000    75.5527    26.8889    26.4309
  275.9000    75.7986    26.8901    26.4482
  276.0000    75.9515    26.8913    26.6179
  276.1000    75.8296    26.7592    26.6189
  276.2000    74.7484    26.7070    26.6200
  276.3000    73.2698    26.7081    26.6211
  276.4000    72.3345    26.7092    26.6222
  276.5000    71.9445    26.7104    26.6235
  276.6000    71.7071    26.5725    26.7601
  276.7000    71.4364    26.5274    26.8116
  276.8000    71.2323    26.4613    26.8127
  276.9000    70.9949    26.3457    26.8414
  277.0000    70.7576    26.3468    27.0023
  277.1000    70.5432    26.3479    27.1467
  277.2000    70.8516    26.4584    27.3006
  277.3000    71.0588    26.5340    27.3843
  277.4000    71.3047    26.5739    27.4194
  277.5000    71.5505    26.7215    27.5779
  277.6000    71.7964    26.7226    27.5791
  277.7000    72.0850    26.8415    27.8104
  277.8000    72.2881    26.9938    27.9681
  277.9000    72.3958    27.1469    28.0098
  278.0000    72.4000    27.3009    28.1684
  278.1000    72.4042    27.4826    28.3282
  278.2000    72.4093    27.4835    28.3650
  278.3000    72.2172    27.4847    28.3661
  278.4000    71.7115    27.5400    28.3673
  278.5000    70.9909    27.6788    28.3685
  278.6000    70.2816    27.6801    28.3699
  278.7000    69.8026    27.8173    28.3709
  278.8000    69.1320    27.8755    28.3721
  278.9000    68.6717    27.8767    28.3206
  279.0000    68.3657    27.8779    28.1775
  279.1000    67.8939    27.8791    28.1789
  279.2000    67.6566    27.8802    28.0460
  279.3000    67.2317    27.8814    27.9856
  279.4000    66.7527    27.8825    27.9290
  279.5000    66.3384    27.8837    27.7739
  279.6000    66.1010    27.8849    27.6022
  279.7000    65.8637    27.8860    27.6033
  279.8000    65.4428    27.8872    27.6044
  279.9000    65.2079    27.8124    27.6056
  280.0000    65.2121    27.6962    27.6067
  280.1000    65.2164    27.6973    27.6080
  280.2000    65.4614    27.5421    27.7528
  280.3000    65.8867    27.5076    27.9102
  280.4000    66.3742    27.5912    28.0684
  280.5000    66.8616    27.7477    28.1952
  280.6000    67.3589    27.9051    28.1965
  280.7000    67.5998    28.0926    28.3503
  280.8000    68.0210    28.2227    28.3958
  280.9000    68.5085    28.3829    28.4738
  281.0000    68.9959    28.5439    28.6352
  281.1000    69.5014    28.7058    28.7975
  281.2000    69.9709    28.8913    28.9607
  281.3000    70.4585    29.0326    29.0011
  281.4000    70.8360    29.1973    29.0869
  281.5000    71.1302    29.2995    29.2062
  281.6000    71.6439    29.3008    29.2074
  281.7000    72.1052    29.3021    29.2086
  281.8000    72.4255    29.1545    29.0798
  281.9000    72.7772    29.1013    29.0084
  282.0000    73.2202    29.1025    29.0096
  282.1000    73.4833    29.0726    28.9988
  282.2000    73.7119    28.9032    28.8109
  282.3000    74.1210    28.9044    28.6777
  282.4000    74.5067    28.7901    28.5185
  282.5000    74.7121    28.7064    28.4159
  282.6000    74.7167    28.6697    28.3995
  282.7000    74.7206    28.5098    28.2213
  282.8000    74.7249    28.3518    28.0850
  282.9000    74.6313    28.3145    27.9291
  283.0000    74.3575    28.2332    27.7739
  283.1000    73.8289    28.1206    27.6423
  283.2000    73.8327    28.1150    27.6438
  283.3000    73.6818    27.9282    27.5045
  283.4000    73.5382    27.8034    27.3518
  283.5000    73.5101    27.6488    27.1354
  283.6000    73.2441    27.5455    26.8888
  283.7000    73.0354    27.5331    26.8902
  283.8000    72.9491    27.3570    26.6081
  283.9000    72.9533    27.3580    26.4161
  284.0000    72.9293    27.2656    26.2694
  284.1000    72.6594    27.1140    26.0911
  284.2000    72.6630    26.9632    25.7954
  284.3000    72.8144    26.7976    25.5142
  284.4000    73.4030    26.6643    25.3354
  284.5000    74.6152    26.6139    25.1245
  284.6000    76.0140    26.5527    24.8809
  284.7000    76.6308    26.4314    24.7400
