~VERSION INFORMATION
 VERS.                2.0:   CWLS LOG ASCII STANDARD - VERSION 2.0
 WRAP.                 NO:   ONE LINE PER DEPTH STEP
~WELL INFORMATION
#MNEM.UNIT      DATA TYPE    INFORMATION
#----------   ------------   ------------------------------
 STRT.F           30.0000:   START DEPTH
 STOP.F          482.0000:   STOP DEPTH
 STEP.F            0.5000:   STEP LENGTH
 NULL.          -999.2500:   NO VALUE
 COMP. FENIX & SCISSON INC:   COMPANY
 WELL.        S 10 #72-10:   WELL
 FLD .             TEAPOT:   FIELD
 LOC .      S10 T38N R78W:   LOCATION
 CNTY.            NATRONA:   COUNTY
 STAT.            WYOMING:   STATE
 CTRY. UNITED STATES OF AMERICA:   COUNTRY
 SRVC.            Unknown:   SERVICE COMPANY
 DATE.        07-FEB-1978:   LOGDATE
 API .       490251056900:   API NUMBER
~CURVE INFORMATION
#MNEM.UNIT       API CODE    CURVE DESCRIPTION
#----------   ------------   ------------------------------
 DEPT.F                  :   
 CALD.IN     45 280 60 00:   CALIPER FROM DENSITY LOG
 CORR.G/C3   45 356 01 00:   DENSITY CORRECTION
 DPHI.DEC    45 890 12 00:   DENSITY POROSITY SANDSTONE
 GRD .GAPI   45 310 01 00:   GAMMA RAY FROM DENSITY LOG
 RHOB.G/C3   45 350 01 00:   BULK DENSITY
 SN  .OHMM   05 040 16 00:   SHORT NORMAL 16"
 SPR .MV     05 010 01 00:   SPONTANEOUS POTENTIAL FROM RES.
 ILD .OHMM   05 120 46 00:   INDUCTION LOG DEEP
~PARAMETER INFORMATION
#MNEM.UNIT          VALUE    DESCRIPTION
#----------   ------------   ------------------------------
 PD  .                 GL:   PERMANENT DATUM
 EPD .F              5174:   ELEVATION PERMANENT DATUM
 LMF .                 KB:   LOG MEASURED FROM
 DMF .                 KB:   DRILLING MEASURED FROM
 EKB .F              5177:   KELLING BUSHING
 EGL .F              5174:   GROUND LEVEL
 DATE.        07-FEB-1978:   RUN DATE
 RUN .                  1:   RUN NUMBER
 DD  .F               469:   DEPTH DRILLER
 DL  .F               482:   DEPTH LOGGER
 BLI .F               474:   BOTTOM LOG INTERVAL
 TLI .F                44:   TOP LOG INTERVAL
 CS  .IN            8.625:   CASING SIZE
 CBD .F                39:   CASING BOTTOM DRILLER
 CBL .F                42:   CASING BOTTOM LOGGER
 BS  .IN            7.875:   BIT SIZE
 BSD .F               469:   BIT SIZE AT DEPTH
 DFT .    LIGNO/SULF FULL:   DRILLING FLUID TYPE
 DFD .                8.7:   DRILLING FLUID DENSITY
 DFV .                 31:   DRILLING FLUID VISCOSITY
 DFPH.                  9:   DRILLING FLUID PH
 DFL .                4.8:   DRILLING FLUID LOSS
 MSS .           FLOWLINE:   MUD SAMPLE SOURCE
 RMS .OHMM             .9:   RESISTIVITY MUD SAMPLE
 MST .F                50:   MUD SAMPLE TEMPERATURE
 RMF .OHMM            .65:   RESISTIVITY MUD FILTRATE SAMPLE
 MFST.F                58:   MUD FILTRATE SAMPLE TEMPERATURE
 RMC .OHMM            1.2:   RESISTIVITY MUD CAKE
 MCST.F                58:   MUD CAKE SAMPLE TEMPERATURE
 MFSS.               MEAS:   MUD FILTRATE SAMPLE SOURCE
 RMB .OHMM            .55:   RESISTIVITY MUD AT BHT
 BHT .F                82:   BOTTOM HOLE TEMPERATURE
 TCS .HRS               3:   TIME CURCULATED STOPPED
 MRT .F                82:   MAXIMUM RECORDED TEMPERATURE
 LUN .               2958:   LOGGING UNIT NUMBER
 LUL .               CASP:   LOGGING UNIT LOCATION
 ENGI.            POINTER:   RECORDING ENGINEER
 WITN.         HARRINGTON:   WITNESSED BY
 CLNT.            A2DTECH:   CLIENT CODE
 ORIG.           5" PRINT:   ORIGIN OF DATA
 UWI .       490251056900:   UNIQUE WELL ID
 DICO. A2D Technologies, Inc.:   DIGITIZING COMPANY
~OTHER INFORMATION
~A   DEPT     CALD       CORR       DPHI         GRD      RHOB         SN        SPR        ILD   
# ...
  192.0000     8.1751     0.2042     0.1196    89.5853     2.4659     7.5326   -32.8055     7.6905
  192.5000     8.1756     0.2450     0.1063    87.1379     2.4930     7.2784   -32.7980     7.5354
  193.0000     8.1762     0.2647     0.0906    84.9938     2.5051     7.0328   -32.7906     7.2308
  193.5000     8.1917     0.2380     0.0870    85.5979     2.5104     6.7954   -33.2309     6.8905
  194.0000     8.1923     0.1912     0.1001    84.4163     2.4879     6.4756   -33.5220     6.5662
  194.5000     8.1780     0.1461     0.1122    86.0642     2.4669     6.0859   -33.6642     6.1710
  195.0000     8.1786     0.1222     0.1303    88.3052     2.4293     5.7196   -33.8060     5.8452
  195.5000     8.1792     0.1223     0.1393    89.2047     2.3977     5.2646   -33.7982     5.5259
  196.0000     8.1798     0.1315     0.1718    87.8742     2.3819     4.7461   -33.6415     5.1939
  196.5000     8.1655     0.1376     0.1863    90.1152     2.3519     4.2787   -33.4849     4.6823
  197.0000     8.1661     0.1182     0.2001    88.7870     2.3203     3.8306   -33.3282     4.0773
  197.5000     8.1815     0.0897     0.2389    82.5458     2.2677     3.5259   -33.0222     3.4057
  198.0000     8.1821     0.0913     0.2639    81.8084     2.2346     3.2454   -33.0148     2.9656
  198.5000     8.1829     0.1050     0.3019    82.5635     2.1730     3.2018   -33.0074     2.8457
  199.0000     8.2430     0.1398     0.3196    87.1854     2.1150     3.2252   -32.9999     2.8270
  199.5000     8.3924     0.3372     0.3226    87.7873     2.0991     3.2488   -32.9925     2.8477
  200.0000     8.6013     0.4985     0.1948    83.4786     2.2045     3.3413   -33.1845     2.9176
  200.5000     8.8991     0.4978     0.0496    87.9528     2.4640     3.4851   -33.7254     3.0552
  201.0000     8.2149     0.4843     0.0674    91.0836     2.5645     3.7368   -34.6150     3.5118
  201.5000     8.1854     0.2384     0.1060    88.2621     2.5058     4.5396   -34.6090     4.1790
  202.0000     8.1857     0.2717     0.1180    85.7321     2.4562     5.4768   -34.6030     4.8705
  202.5000     8.1562     0.2975     0.0987    87.5496     2.4804     6.2508   -34.7464     5.3330
  203.0000     8.1268     0.3202     0.1029    90.1290     2.4928     6.6102   -34.7403     5.6796
  203.5000     8.0973     0.3294     0.0984    91.7081     2.5158     6.7053   -34.8838     6.0070
  204.0000     8.0678     0.3054     0.0902    90.8211     2.5286     6.7081   -34.8776     6.1794
  204.5000     8.0086     0.2905     0.0809    92.7629     2.5272     6.7109   -34.8705     6.2692
  205.0000     7.9197     0.2756     0.0706    94.1066     2.5318     6.7604   -34.8645     6.3163
  205.5000     7.8456     0.2336     0.0750    92.4755     2.5348     6.7632   -33.8138     6.2328
  206.0000     7.8161     0.1645     0.0917    93.0780     2.5168     6.7185   -33.0616     6.1078
  206.5000     7.8014     0.1496     0.0961    92.1910     2.4988     6.7220   -33.0557     5.9440
  207.0000     7.8018     0.1316     0.1009    91.7490     2.4928     6.6321   -33.0497     5.7049
  207.5000     7.7872     0.1107     0.1079    97.7087     2.4658     6.4983   -33.0438     5.4754
  208.0000     7.7429     0.0762     0.1151   101.4348     2.4358     6.1929   -33.3364     5.2551
  208.5000     7.7133     0.0538     0.1554   100.2501     2.4050     5.8611   -33.3304     5.1142
  209.0000     7.6690     0.0614     0.1575    97.1310     2.3897     5.6239   -33.3245     4.9770
  209.5000     7.6545     0.1294     0.1313    96.3839     2.4042     5.5110   -33.3186     4.9111
  210.0000     7.6845     0.1183     0.1144    95.2976     2.4631     5.5516   -33.3126     4.9139
  210.5000     7.7156     0.0483     0.1189    93.5771     2.4345     5.6707   -33.3067     4.9166
  211.0000     7.7466     0.0628     0.1336    94.0294     2.4316     5.8327   -33.3008     4.9536
  211.5000     7.7748     0.0848     0.1237    92.8462     2.4549     6.0410   -33.2948     5.0605
  212.0000     7.7751     0.0699     0.1095    90.0246     2.4738     6.2567   -33.2889     5.2420
  212.5000     7.7753     0.0580     0.1110    90.1793     2.4701     6.5253   -33.2830     5.5058
  213.0000     7.7756     0.0446     0.1158    92.4173     2.4551     6.8527   -33.2770     5.8231
  213.5000     7.7908     0.0297     0.1230    98.3755     2.4424     7.1469   -33.4218     6.1162
  214.0000     7.8506     0.0419     0.1212    97.6373     2.4514     7.4536   -33.5637     6.4240
  214.5000     7.9104     0.0556     0.1133    95.2607     2.4650     7.7736   -33.8562     6.7007
  215.0000     7.9554     0.1039     0.1043    94.5240     2.4794     7.9403   -34.5966     6.9893
  215.5000     7.9854     0.0965     0.0994    94.3720     2.4870     7.9989   -34.8906     7.1402
  216.0000     7.9857     0.0921     0.1012    95.4286     2.4838     7.9469   -34.7340     7.2943
  216.5000     8.0009     0.0893     0.1081    92.9046     2.4795     7.9502   -34.1310     7.2984
  217.0000     8.0161     0.0849     0.1114    93.0595     2.4623     7.8977   -33.2295     7.3024
  217.5000     8.0461     0.0836     0.1232    93.0666     2.4488     7.9018   -33.2236     7.3065
  218.0000     8.0464     0.1214     0.1207    92.3284     2.4526     7.7960   -33.2177     7.3105
  218.5000     8.0616     0.1547     0.1177    94.8640     2.4579     7.6918   -33.2117     7.3146
  219.0000     8.0470     0.1624     0.1213    98.4413     2.4535     7.5890   -33.2058     7.2168
  219.5000     8.0474     0.1686     0.1298    96.8102     2.4302     7.4360   -32.9014     7.1719
  220.0000     8.0625     0.1938     0.1328    94.7313     2.4190     7.2859   -32.2984     7.1253
  220.5000     8.0480     0.2235     0.1438    95.6314     2.4092     7.1388   -32.4417     7.0310
  221.0000     8.0483     0.2789     0.1766    93.1080     2.4051     6.9946   -32.8836     6.8910
  221.5000     8.0485     0.3559     0.1330    91.9219     2.4251     6.8062   -33.1766     6.6598
  222.0000     8.0488     0.4253     0.1055    96.3935     2.4581     6.7151   -33.4687     6.4364
  222.5000     8.0491     0.4511     0.0895    97.4410     2.4975     6.5341   -33.7613     6.0924
  223.0000     8.0494     0.4557     0.0793    97.2966     2.5156     6.2704   -34.0538     5.8069
  223.5000     8.0795     0.3926     0.0907    97.8991     2.5172     6.0173   -34.0622     5.4208
  224.0000     8.1691     0.2783     0.1100   100.3293     2.4796     5.8551   -34.3405     5.1668
  224.5000     8.2140     0.2664     0.1428    97.6132     2.4164     5.7369   -34.3343     5.0625
  225.0000     8.1994     0.3404     0.1407    95.5357     2.4112     5.6997   -34.3035     5.1368
  225.5000     8.2176     0.3782     0.0900    95.7232     2.4391     5.7828   -34.0239     5.2114
  226.0000     8.3934     0.3362     0.1003    97.0357     2.5121     6.0310   -34.1660     5.3239
  226.5000     8.5873     0.2730     0.1112    94.5130     2.4844     6.2505   -34.3108     5.5148
  227.0000     8.0518     0.3244     0.1132    93.4772     2.4709     6.8476   -34.3034     5.7523
  227.5000     8.0669     0.3999     0.0803    92.8878     2.5439     7.4407   -34.4482     6.1262
  228.0000     8.0375     0.3819     0.0381    93.7865     2.5650     7.8700   -33.9930     6.6616
  228.5000     7.9932     0.3757     0.0583    95.2805     2.5627     8.0857   -33.3900     7.1937
  229.0000     7.9637     0.2938     0.0661    96.7744     2.5473     8.0890   -33.3841     7.4001
  229.5000     7.9342     0.2645     0.0643    95.1433     2.5381     8.1555   -33.8259     7.5077
  230.0000     7.8750     0.2380     0.0631    93.2147     2.5464     8.3235   -33.9707     7.5118
  230.5000     7.8604     0.2035     0.0640    92.9214     2.5495     8.3935   -33.9633     7.5160
  231.0000     7.8756     0.1690     0.0760    93.9704     2.5315     8.4468   -33.6589     7.5201
  231.5000     7.9057     0.1420     0.0808    95.1667     2.5195     8.4503   -33.3544     7.5243
  232.0000     7.8762     0.1121     0.0877    96.8452     2.5158     8.4538   -33.0500     7.5809
