~VERSION INFORMATION
 VERS.                2.0:   CWLS LOG ASCII STANDARD - VERSION 2.0
 WRAP.                 NO:   ONE LINE PER DEPTH STEP
~WELL INFORMATION
#MNEM.UNIT      DATA TYPE    INFORMATION
#----------   ------------   ------------------------------
 STRT.F           30.0000:   START DEPTH
 STOP.F          677.0000:   STOP DEPTH
 STEP.F            0.5000:   STEP LENGTH
 NULL.          -999.2500:   NO VALUE
 COMP. FENIX & SCISSON INC:   COMPANY
 WELL. TEAPOT DOME #27 SX -2:   WELL
 FLD .             TEAPOT:   FIELD
 LOC .       S2 T38N R78W:   LOCATION
 CNTY.            NATRONA:   COUNTY
 STAT.            WYOMING:   STATE
 CTRY. UNITED STATES OF AMERICA:   COUNTRY
 SRVC.            Unknown:   SERVICE COMPANY
 DATE.        28-JAN-1978:   LOGDATE
 API .       490251056500:   API NUMBER
~CURVE INFORMATION
#MNEM.UNIT       API CODE    CURVE DESCRIPTION
#----------   ------------   ------------------------------
 DEPT.F                  :   
 ILD .OHMM   05 120 46 00:   INDUCTION LOG DEEP
 SN  .OHMM   05 040 16 00:   SHORT NORMAL 16"
 SPR .MV     05 010 01 00:   SPONTANEOUS POTENSIAL
 CALD.IN     45 280 60 00:   CALIPER FROM DENSITY LOG
 CORR.G/C3   45 356 01 00:   DENSITY CORRECTION
 DPHI.DEC    45 890 12 00:   DENSITY POROSITY SANDSTONE
 GRD .GAPI   45 310 01 00:   GAMMA RAY FROM DENSITY LOG
 RHOB.G/C3   45 350 01 00:   BULK DENSITY
~PARAMETER INFORMATION
#MNEM.UNIT          VALUE    DESCRIPTION
#----------   ------------   ------------------------------
 PD  .                 GL:   PERMANENT DATUM
 EPD .F              5147:   ELEVATION PERMANENT DATUM
 LMF .                 KB:   LOG MEASURED FROM
 DAPD.F                 4:   FEET ABOVE PERMANENT DATUM
 DMF .                 KB:   DRILLING MEASURED FROM
 EKB .F              5151:   KELLING BUSHING
 EGL .F              5147:   GROUND LEVEL
 DATE.        28-JAN-1978:   RUN DATE
 RUN .                  1:   RUN NUMBER
 DD  .F               675:   DEPTH DRILLER
 DL  .F               678:   DEPTH LOGGER
 BLI .F               677:   BOTTOM LOG INTERVAL
 TLI .F                40:   TOP LOG INTERVAL
 CS  .IN            8.625:   CASING SIZE
 CBD .F                40:   CASING BOTTOM DRILLER
 CBL .F                40:   CASING BOTTOM LOGGER
 BS  .IN            7.875:   BIT SIZE
 BSD .F               675:   BIT SIZE AT DEPTH
 DFT .                KCL:   DRILLING FLUID TYPE
 DFD .                8.6:   DRILLING FLUID DENSITY
 DFV .                .34:   DRILLING FLUID VISCOSITY
 DFPH.                9.5:   DRILLING FLUID PH
 MSS .           FLOWLINE:   MUD SAMPLE SOURCE
 RMS .OHMM           0.38:   RESISTIVITY MUD SAMPLE
 MST .F                60:   MUD SAMPLE TEMPERATURE
 RMF .OHMM           0.36:   RESISTIVITY MUD FILTRATE SAMPLE
 MFST.F                62:   MUD FILTRATE SAMPLE TEMPERATURE
 RMC .OHMM            0.7:   RESISTIVITY MUD CAKE
 MCST.F                63:   MUD CAKE SAMPLE TEMPERATURE
 MFSS.               MEAS:   MUD FILTRATE SAMPLE SOURCE
 MCSS.               MEAS:   MUD CAKE SAMPLE SOURCE
 RMB .OHMM           0.31:   RESISTIVITY MUD AT BHT
 BHT .F                76:   BOTTOM HOLE TEMPERATURE
 TCS .HRS               3:   TIME CURCULATED STOPPED
 MRT .F                76:   MAXIMUM RECORDED TEMPERATURE
 LUN .               2958:   LOGGING UNIT NUMBER
 LUL .             CASPER:   LOGGING UNIT LOCATION
 ENGI.           REYNOLDS:   RECORDING ENGINEER
 WITN.     MR. HARRINGTON:   WITNESSED BY
 CLNT.            A2DTECH:   CLIENT CODE
 ORIG.           5" PRINT:   ORIGIN OF DATA
 UWI .       490251056500:   UNIQUE WELL ID
 DICO. A2D Technologies, Inc.:   DIGITIZING COMPANY
~OTHER INFORMATION
~A   DEPT      ILD         SN        SPR       CALD       CORR       DPHI        GRD       RHOB   
# ...
   70.5000     8.6668     7.8288   -28.7903     8.5877     0.1507     0.1666   131.8900     2.3846
   71.0000     7.6111     7.5709   -28.7633     8.5602     0.1284     0.1806   133.6878     2.3839
   71.5000     6.7301     7.0462   -28.7363     8.5178     0.1271     0.2045   134.0063     2.3541
   72.0000     6.0189     6.2139   -28.7093     8.4746     0.1258     0.2203   134.7686     2.3150
   72.5000     5.5610     5.7265   -30.3149     8.4041     0.1095     0.2235   130.8029     2.2990
   73.0000     5.3773     5.3875   -31.6292     8.3613     0.1037     0.2247   129.4942     2.2924
   73.5000     5.4561     5.3175   -32.4964     8.3337     0.1039     0.2234   129.2210     2.2865
   74.0000     5.6516     5.5101   -32.4694     8.3364     0.1101     0.2138   125.3669     2.2941
   74.5000     6.1851     5.8296   -31.8463     8.3533     0.1175     0.2189   116.1044     2.3047
   75.0000     7.0543     6.4826   -31.2164     8.3708     0.1236     0.2245   110.9496     2.2996
   75.5000     8.1345     6.9363   -30.8914     8.3878     0.1287     0.2248   102.9841     2.2870
   76.0000     9.3694     7.4375   -30.4173     8.4343     0.1274     0.2244   100.0482     2.2856
   76.5000    10.3960     7.8659   -30.2413     8.4809     0.1214     0.2229    98.7219     2.2857
   77.0000    11.2995     8.2052   -30.2143     8.5275     0.1113     0.2145    91.6672     2.2895
   77.5000    12.1138     8.4421   -30.1863     8.5901     0.0995     0.2028    88.7313     2.3063
   78.0000    12.2913     8.6303   -29.8555     8.6508     0.0967     0.1968    86.9788     2.3324
   78.5000    12.5623     8.8774   -29.5305     8.6529     0.1059     0.1982    86.4041     2.3348
   79.0000    13.2812     9.0710   -28.7583     8.6397     0.1155     0.1958    86.4324     2.3349
   79.5000    13.5689     9.3329   -28.1352     8.6423     0.1303     0.1943    86.9127     2.3365
   80.0000    13.6735     9.4711   -27.9583     8.6444     0.1620     0.1930    87.5189     2.3396
   80.5000    13.6843     9.6777   -27.9254     8.6471     0.1862     0.1929    88.2813     2.3404
   81.0000    13.5987     9.7536   -27.8984     8.6492     0.1969     0.1947    88.8956     2.3406
   81.5000    13.6122     9.7629   -27.8715     8.6514     0.2166     0.2025    90.1017     2.3392
   82.0000    13.6282     9.7047   -28.1431     8.6535     0.2618     0.2012    93.2309     2.3333
   82.5000    13.7307     9.7831   -28.7283     8.6407     0.2740     0.1916    94.6080     2.3401
   83.0000    13.8365     9.9279   -29.2808     8.6429     0.2742     0.1838    96.5364     2.3537
   83.5000    13.9431    10.0749   -29.8432     8.6011     0.2699     0.1781   100.5531     2.3628
   84.0000    14.1475    10.3658   -30.2633     8.5736     0.2536     0.1772   105.0136     2.3689
   84.5000    14.2565    10.5562   -30.3860     8.5461     0.2433     0.1807   106.6635     2.3683
   85.0000    14.2679    10.6754   -30.5216     8.5038     0.2450     0.1885   108.0375     2.3646
   85.5000    14.3780    10.8355   -30.6294     8.4017     0.2362     0.1818   109.8210     2.3498
   86.0000    14.4914    10.9960   -30.7515     8.1673     0.2184     0.1824   106.2878     2.3544
   86.5000    14.6031    11.0822   -30.7177     8.1700     0.2045     0.1880   106.6119     2.3560
   87.0000    15.0224    11.1691   -30.8405     8.1869     0.1558     0.1955   106.3388     2.3411
   87.5000    15.4538    11.1028   -30.8122     8.1890     0.1395     0.2080   105.3421     2.3360
   88.0000    15.8975    11.0369   -30.7790     8.2356     0.1322     0.2253   103.5772     2.3138
   88.5000    16.4669    11.1240   -30.6030     8.2840     0.1219     0.2252    99.8960     2.2787
   89.0000    16.8364    11.1364   -30.5760     8.3589     0.1161     0.2234    99.4805     2.2848
   89.5000    17.4297    11.2237   -30.6981     8.4943     0.1088     0.2228    98.7633     2.2879
   90.0000    17.8072    11.2342   -30.6706     8.5557     0.0970     0.2195    98.7870     2.2939
   90.5000    18.1930    11.2446   -30.7864     8.6171     0.0762     0.2027    98.5130     2.3187
   91.0000    18.2075    11.3328   -30.9152     8.6494     0.0689     0.2005    97.6538     2.3258
   91.5000    18.3478    11.4220   -31.0372     8.6812     0.0691     0.1987    97.3749     2.3332
   92.0000    18.4891    11.5139   -31.1525     8.6833     0.0693     0.1921    97.5512     2.3363
   92.5000    18.5043    11.5246   -31.1252     8.7002     0.0695     0.1846    98.6193     2.3401
   93.0000    18.6501    11.5353   -31.0918     8.7023     0.0712     0.1837    96.8626     2.3507
   93.5000    18.5333    11.6258   -31.2206     8.7045     0.0775     0.1872    95.4059     2.3531
   94.0000    18.5518    11.6366   -31.1868     8.7067     0.1061     0.1947    94.2452     2.3495
   94.5000    18.5666    11.7279   -31.1599     8.6939     0.1228     0.2033    93.0844     2.3339
   95.0000    18.5809    11.8339   -31.5847     8.6839     0.1485     0.2014    90.2964     2.3265
   95.5000    18.5962    12.1640   -32.1491     8.6692     0.1787     0.1993    86.8945     2.3281
   96.0000    18.4834    12.3440   -32.8605     8.6565     0.2061     0.1921    85.7616     2.3327
   96.5000    18.3713    12.5268   -33.8767     8.6433     0.2406     0.1906    83.8612     2.3471
   97.0000    18.3896    12.5384   -34.5949     8.6460     0.2468     0.1830    82.2567     2.3486
   97.5000    18.2745    12.5501   -35.0174     8.6481     0.2455     0.1716    81.0959     2.3697
   98.0000    18.1636    12.5160   -35.5774     8.6354     0.2277     0.1641    82.0061     2.3825
   98.5000    18.0571    12.3193   -35.6994     8.6381     0.2234     0.1746    82.6213     2.3864
   99.0000    17.9428    12.2433   -35.8282     8.6254     0.2221     0.1823    83.3885     2.3782
   99.5000    17.1209    11.9246   -35.9503     8.5386     0.2148     0.1837    85.0384     2.3633
  100.0000    16.4418    11.6089   -36.2128     8.5111     0.1947     0.1840    87.2800     2.3500
  100.5000    15.8986    11.2291   -36.6383     8.4836     0.1672     0.1852    87.8944     2.3524
  101.0000    15.6907    11.0098   -36.6167     8.4561     0.1449     0.1929    88.0651     2.3518
  101.5000    15.4887    11.0201   -36.5946     8.4438     0.1286     0.1983    88.6850     2.3444
  102.0000    15.3976    10.8795   -36.7225     8.4465     0.1183     0.2066    90.0391     2.3294
  102.5000    15.4103    10.7407   -36.9935     8.4494     0.1185     0.2155    92.2807     2.3153
  103.0000    15.4254    10.7532   -37.4190     8.4516     0.1187     0.2253    92.3033     2.3035
  103.5000    15.5443    10.7625   -38.2916     8.4539     0.1191     0.2253    93.0656     2.2863
  104.0000    15.5567    10.7732   -39.4622     8.4710     0.1197     0.2249    95.0355     2.2864
  104.5000    15.6765    10.7832   -40.3348     8.4881     0.1204     0.2243    96.9628     2.2873
  105.0000    15.6890    10.7936   -41.0631     8.5052     0.1175     0.2183    96.5360     2.2911
  105.5000    15.7015    10.7291   -41.4838     8.5228     0.1103     0.2147    97.1561     2.2979
  106.0000    15.6063    10.6679   -42.2019     8.5399     0.0925     0.2134    99.5456     2.3033
  106.5000    15.5117    10.6778   -42.9255     8.5422     0.0927     0.2134   100.0120     2.3063
  107.0000    15.4176    10.6120   -43.7980     8.5741     0.0928     0.2131   100.1834     2.3095
  107.5000    15.2221    10.4790   -44.9687     8.5912     0.0930     0.2109   100.2071     2.3125
  108.0000    15.0261    10.2744   -45.8412     8.6379     0.0931     0.2061   100.0866     2.3156
  108.5000    14.2329     9.9383   -46.2667     8.6704     0.0933     0.1965    99.6599     2.3187
  109.0000    12.5854     9.6110   -47.1952     8.7023     0.0890     0.1882    98.8007     2.3292
  109.5000    11.0749     8.9800   -48.9006     8.7046     0.0816     0.1737    99.5631     2.3490
  110.0000     9.1252     8.2757   -50.6674     8.7069     0.0818     0.1485   102.1006     2.3997
  110.5000     8.4670     7.6793   -52.8812     8.7091     0.0820     0.1437   104.6438     2.4230
