~VERSION INFORMATION
 VERS.                2.0:   CWLS LOG ASCII STANDARD - VERSION 2.0
 WRAP.                 NO:   ONE LINE PER DEPTH STEP
~WELL INFORMATION
#MNEM.UNIT      DATA TYPE    INFORMATION
#----------   ------------   ------------------------------
 STRT.F            0.0000:   START DEPTH
 STOP.F         1340.0000:   STOP DEPTH
 STEP.F            0.5000:   STEP LENGTH
 NULL.          -999.2500:   NO VALUE
 COMP. U S NAVY-INTEX OIL:   COMPANY
 WELL. NAVAL PETROLEUM RESERVE 3 S #81-14:   WELL
 FLD .             TEAPOT:   FIELD
 LOC .      S14 T38N R78W:   LOCATION
 CNTY.            NATRONA:   COUNTY
 STAT.            WYOMING:   STATE
 CTRY. UNITED STATES OF AMERICA:   COUNTRY
 SRVC.       Schlumberger:   SERVICE COMPANY
 DATE.        20-AUG-1966:   LOGDATE
 API .       490250971600:   API NUMBER
~CURVE INFORMATION
#MNEM.UNIT       API CODE    CURVE DESCRIPTION
#----------   ------------   ------------------------------
 DEPT.F                  :   
 SPR .MV     07 010 01 00:   SPONTANEOUS POTENTIAL
 CILD.MMHO   07 110 46 00:   CONDUCTIVITY INDUCTION LOG DEEP
 ILD .OHMM   07 120 46 00:   INDUCTION LOG DEEP
 ASN .OHMM   01 041 16 00:   AMPLIFIED SHORT NORMAL 16"
 CALD.IN     45 280 60 00:   CALIPER
 RHOB.G/C3   45 350 01 00:   BULK DENSITY
 DPHI.DEC    45 890 12 00:   DENSITY POROSITY SANDSTONE
 GRD .GAPI   45 310 01 00:   GAMMA RAY FROM DENSITY LOG
 CORR.G/C3   45 356 01 00:   DENSITY CORRECTION
~PARAMETER INFORMATION
#MNEM.UNIT          VALUE    DESCRIPTION
#----------   ------------   ------------------------------
 PD  .                 GL:   PERMANENT DATUM
 EPD .F              5283:   ELEVATION PERMANENT DATUM
 LMF .                 KB:   LOG MEASURED FROM
 DAPD.F                 5:   FEET ABOVE PERMANENT DATUM
 DMF .                 KB:   DRILLING MEASURED FROM
 EKB .F              5288:   KELLING BUSHING
 EGL .F              5283:   GROUND LEVEL
 DATE.            8-20-66:   RUN DATE
 RUN .                  1:   RUN NUMBER
 DD  .F              1340:   DEPTH DRILLER
 DL  .F              1337:   DEPTH LOGGER
 BLI .F              1336:   BOTTOM LOG INTERVAL
 TLI .F                17:   TOP LOG INTERVAL
 CS  .IN            8.625:   CASING SIZE
 CBD .F                15:   CASING BOTTOM DRILLER
 CBL .F                17:   CASING BOTTOM LOGGER
 BS  .IN            7.875:   BIT SIZE
 BSD .F              1340:   BIT SIZE AT DEPTH
 DFT .           GEL-CHEM:   DRILLING FLUID TYPE
 DFD .                9.8:   DRILLING FLUID DENSITY
 DFV .                 70:   DRILLING FLUID VISCOSITY
 DFL .                  8:   DRILLING FLUID LOSS
 MSS .          FLOW LINE:   MUD SAMPLE SOURCE
 RMS .OHMM           1.26:   RESISTIVITY MUD SAMPLE
 MST .F                71:   MUD SAMPLE TEMPERATURE
 RMF .OHMM            .71:   RESISTIVITY MUD FILTRATE SAMPLE
 MFST.F                71:   MUD FILTRATE SAMPLE TEMPERATURE
 MFSS.                  M:   MUD FILTRATE SAMPLE SOURCE
 RMB .OHMM           1.04:   RESISTIVITY MUD AT BHT
 BHT .F                86:   BOTTOM HOLE TEMPERATURE
 TCS .HRS               2:   TIME CURCULATED STOPPED
 MRT .F                86:   MAXIMUM RECORDED TEMPERATURE
 LUN .               3527:   LOGGING UNIT NUMBER
 LUL .               CSPR:   LOGGING UNIT LOCATION
 ENGI.          TOLLEFSON:   RECORDING ENGINEER
 WITN.                MAY:   WITNESSED BY
 CLNT.            A2DTECH:   CLIENT CODE
 ORIG.        2" 5" PRINT:   ORIGIN OF DATA
 UWI .       490250971600:   UNIQUE WELL ID
 DICO. A2D Technologies, Inc.:   DIGITIZING COMPANY
~OTHER INFORMATION
~A    DEPT     SPR       CILD        ILD        ASN         CALD     RHOB       DPHI          GRD     CORR   
# ...
  620.5000   -48.0999   318.6627     2.9422     3.9930     7.9848     2.3046     0.1573   100.4798     0.0744
  621.0000   -47.8368   315.4067     3.0296     3.9106     7.9738     2.3223     0.1500    98.2519     0.0764
  621.5000   -47.5783   312.1507     3.1498     3.9045     7.9628     2.3689     0.1259    96.3080     0.0660
  622.0000   -47.3896   303.8962     3.3166     4.0690     7.9515     2.4162     0.1387    96.1935     0.0440
  622.5000   -47.5055   285.3094     3.6807     4.3915     7.9403     2.4472     0.1307    96.8021     0.0461
  623.0000   -47.6541   262.9082     4.0366     4.7143     7.9624     2.4595     0.1217    97.0695     0.0479
  623.5000   -47.8045   240.5070     4.3951     4.9303     7.9651     2.4526     0.1248    97.4036     0.0499
  624.0000   -47.9545   218.1058     4.5387     5.0653     7.9672     2.4439     0.1280    98.7241     0.0503
  624.5000   -48.1029   211.9361     4.5417     5.1548     7.9691     2.4379     0.1293   100.0580     0.0351
  625.0000   -48.1974   212.0305     4.5413     5.1901     7.9711     2.4466     0.1264   100.8656     0.0378
  625.5000   -48.1963   215.3457     4.5352     5.2205     7.9731     2.4515     0.1252   101.3431     0.0420
  626.0000   -48.1965   218.6157     4.4917     5.2200     7.9751     2.4379     0.1310   102.1118     0.0453
  626.5000   -48.1965   221.6802     4.4483     5.1961     7.9770     2.4304     0.1368   102.5061     0.0490
  627.0000   -48.1965   224.7383     4.4042     5.1554     7.9790     2.4449     0.1275   101.9543     0.0432
  627.5000   -48.1857   228.0020     4.3656     5.0788     7.9812     2.4481     0.1370   101.6387     0.0317
  628.0000   -48.1291   235.9134     4.1148     4.9548     7.9815     2.4200     0.1468   102.2850     0.0278
  628.5000   -48.0741   260.3127     3.7606     4.7996     7.9664     2.4034     0.1507   100.6367     0.0278
  629.0000   -48.0184   280.9381     3.4006     4.5907     7.9625     2.3990     0.1513    99.1338     0.0322
  629.5000   -47.9971   326.9694     3.0092     4.3777     7.9406     2.3914     0.1605    99.3578     0.0387
  630.0000   -47.9273   371.1167     2.4734     4.0918     7.9420     2.3800     0.1677   100.0858     0.0427
  630.5000   -47.8209   399.6452     2.3449     3.7678     7.9418     2.3576     0.1713   100.0928     0.0372
  631.0000   -47.7132   414.6544     2.3451     3.4646     7.9418     2.3342     0.1860    99.6554     0.0263
  631.5000   -47.6057   413.5728     2.3450     3.2214     7.9418     2.3208     0.1985    99.7878     0.0275
  632.0000   -47.4982   409.9261     2.3436     3.2632     7.9418     2.3157     0.2032    99.8815     0.0326
  632.5000   -47.3902   403.1537     2.3984     3.2376     7.9418     2.3224     0.2060    98.6991     0.0370
  633.0000   -47.2817   393.8223     2.4950     3.2002     7.9418     2.3650     0.1766    95.6562     0.0421
  633.5000   -47.1962   372.5863     2.7819     3.3390     7.9417     2.4253     0.1511    92.3361     0.0460
  634.0000   -47.3748   339.1662     3.0647     3.8180     7.9454     2.4801     0.1246    91.0767     0.0528
  634.5000   -47.5609   297.8395     3.3467     4.2549     7.9501     2.5011     0.1046    90.4803     0.0684
  635.0000   -47.7529   263.1806     3.6300     4.3936     7.9547     2.4843     0.1182    91.2401     0.0862
  635.5000   -47.7957   250.0502     3.8038     4.4268     7.9594     2.4380     0.1325    92.0405     0.0765
  636.0000   -47.7962   237.1756     3.9093     4.4395     7.9619     2.4191     0.1385    94.2576     0.0696
  636.5000   -47.7956   235.1098     4.0179     4.4525     7.9597     2.4154     0.1399    98.2613     0.0792
  637.0000   -47.7956   242.0559     4.0184     4.4654     7.9573     2.4499     0.1353   100.0836     0.0843
  637.5000   -47.7956   249.0020     3.9862     4.4777     7.9549     2.4806     0.1196   101.9146     0.0855
  638.0000   -47.7956   250.3044     3.9533     4.5284     7.9525     2.4999     0.1066   101.3846     0.0652
  638.5000   -47.7956   251.6068     3.9208     4.5785     7.9500     2.4626     0.1210    99.8044     0.0519
  639.0000   -47.7956   252.9092     3.8880     4.5392     7.9476     2.4669     0.1170    98.2045     0.0540
  639.5000   -47.7956   255.2608     3.8567     4.4708     7.9452     2.4428     0.1328    99.0722     0.0644
  640.0000   -47.7956   263.1613     3.6915     4.3797     7.9428     2.4110     0.1433   100.3262     0.0778
  640.5000   -47.7956   273.0699     3.4409     4.2874     7.9404     2.4396     0.1309    99.5394     0.0871
  641.0000   -47.7956   289.9023     3.1886     4.1835     7.9380     2.4057     0.1406    97.7799     0.0806
  641.5000   -47.7956   316.6903     2.9365     4.0532     7.9356     2.4225     0.1449    95.9942     0.0730
  642.0000   -47.7960   352.1106     2.6841     3.8704     7.9331     2.4334     0.1393    94.2675     0.0729
  642.5000   -47.7957   387.6105     2.4259     3.6853     7.9307     2.4415     0.1281    94.4639     0.0637
  643.0000   -47.7668   423.0853     2.2276     3.5003     7.9283     2.4129     0.1399    96.8429     0.0483
  643.5000   -47.6273   450.6307     2.1834     3.3151     7.9259     2.3827     0.1590    99.1156     0.0643
  644.0000   -47.4920   461.5768     2.1446     3.1297     7.9235     2.3528     0.1781    99.6498     0.0619
  644.5000   -47.3567   452.5261     2.1449     2.9657     7.9216     2.3389     0.1924   100.1056     0.0512
  645.0000   -47.2206   437.1867     2.1705     2.9991     7.9216     2.3280     0.1856    99.5472     0.0695
  645.5000   -47.0867   421.8474     2.2016     3.0817     7.9227     2.3182     0.2020    97.7093     0.0758
  646.0000   -47.0248   404.5201     2.2306     3.1619     7.9238     2.3981     0.1660    95.9084     0.0676
  646.5000   -47.2885   375.1570     2.5002     3.3312     7.9249     2.4626     0.1162    94.9674     0.0607
  647.0000   -47.5513   346.8064     2.9449     3.5874     7.9260     2.4772     0.1198    95.9967     0.0936
  647.5000   -47.8124   300.6986     3.3917     4.1004     7.9271     2.4474     0.1249    95.2726     0.0891
  648.0000   -48.0067   258.6427     3.8350     4.5793     7.9282     2.4665     0.1205    95.4666     0.0543
  648.5000   -48.0684   225.8084     4.2339     4.7616     7.9293     2.4832     0.1114    97.6864     0.0455
  649.0000   -48.1339   212.0759     4.4463     4.8616     7.9304     2.4764     0.1145    99.8882     0.0511
  649.5000   -48.1991   207.0858     4.4404     4.9658     7.9316     2.4853     0.1124   100.6141     0.0443
  650.0000   -48.2645   212.5636     4.4001     5.0327     7.9327     2.4944     0.1094    99.3458     0.0345
  650.5000   -48.3303   217.7601     4.3576     5.0588     7.9338     2.4820     0.1090    97.5524     0.0442
  651.0000   -48.3960   224.2182     4.2304     5.0717     7.9349     2.4643     0.1225    96.1397     0.0510
  651.5000   -48.3394   240.5966     3.9160     5.0120     7.9360     2.4501     0.1278    96.2513     0.0636
  652.0000   -48.2647   257.9840     3.6048     4.9131     7.9371     2.4403     0.1356    98.4854     0.0605
  652.5000   -48.1972   292.9766     3.2927     4.6714     7.9382     2.4159     0.1450   101.6582     0.0462
  653.0000   -48.1966   326.0604     2.9871     4.3208     7.9394     2.3923     0.1555   103.8782     0.0492
  653.5000   -48.1951   359.7804     2.7244     3.9721     7.9405     2.3763     0.1709   106.0701     0.0554
  654.0000   -48.1011   365.7685     2.6237     3.6721     7.9416     2.3429     0.1805   105.9702     0.0495
  654.5000   -47.8390   372.3802     2.5426     3.4524     7.9418     2.3205     0.2029   105.4767     0.0432
  655.0000   -47.5807   377.2455     2.5448     3.3814     7.9418     2.3412     0.1929   105.0058     0.0510
  655.5000   -47.3910   375.7485     2.5933     3.3806     7.9418     2.3657     0.1736   104.5312     0.0487
  656.0000   -47.3945   367.1657     2.6698     3.4734     7.9418     2.4027     0.1540   103.5822     0.0408
  656.5000   -47.3950   341.2483     2.8287     3.6659     7.9418     2.4406     0.1344    99.5477     0.0352
