~VERSION INFORMATION
 VERS.                2.0:   CWLS LOG ASCII STANDARD - VERSION 2.0
 WRAP.                 NO:   ONE LINE PER DEPTH STEP
~WELL INFORMATION
#MNEM.UNIT      DATA TYPE    INFORMATION
#----------   ------------   ------------------------------
 STRT.F           14.0000:   START DEPTH
 STOP.F          692.5000:   STOP DEPTH
 STEP.F            0.5000:   STEP LENGTH
 NULL.          -999.2500:   NO VALUE
 COMP. FENIX & SCISSON INC:   COMPANY
 WELL. NPR #3 #27-51 SX 11 WP:   WELL
 FLD .        TEAPOT DOME:   FIELD
 LOC .      S11 T38N R78W:   LOCATION
 CNTY.            NATRONA:   COUNTY
 STAT.            WYOMING:   STATE
 CTRY. UNITED STATES OF AMERICA:   COUNTRY
 SRVC.      Dresser Atlas:   SERVICE COMPANY
 DATE.        16-AUG-1980:   LOGDATE
 API .       490251083900:   API NUMBER
~CURVE INFORMATION
#MNEM.UNIT       API CODE    CURVE DESCRIPTION
#----------   ------------   ------------------------------
 DEPT.F                  :   
 RHOB.G/C3   45 350 01 00:   BULK DENSITY
 CORR.G/C3   45 356 01 00:   DENSITY CORRECTION
 GRD .GAPI   45 310 01 00:   GAMMA RAY FROM DENSITY LOG
 CALD.IN     45 280 60 00:   CALIPER
 NPOR.DEC    42 890 03 00:   NEUTRON POROSITY SANDSTONE
 DPOR.DEC    45 890 12 00:   DENSITY POROSITY SANDSTONE
 SPR .MV     07 010 01 00:   SPONTANEOUS POTENTIAL
 SFL .OHMM   07 220 01 00:   SHALLOW FOCUSED LOG RESISTIVITY
 ILM .OHMM   07 120 44 00:   INDUCTION LOG MEDIUM
 ILD .OHMM   07 120 46 00:   INDUCTION LOG DEEP
~PARAMETER INFORMATION
#MNEM.UNIT          VALUE    DESCRIPTION
#----------   ------------   ------------------------------
 PD  .                 GL:   PERMANENT DATUM
 EPD .F              5194:   ELEVATION PERMANENT DATUM
 LMF .                 KB:   LOG MEASURED FROM
 DAPD.F                 5:   FEET ABOVE PERMANENT DATUM
 DMF .                 KB:   DRILLING MEASURED FROM
 EKB .F              5199:   KELLING BUSHING
 EGL .F              5194:   GROUND LEVEL
 DATE.            8-16-80:   RUN DATE
 RUN .                  1:   RUN NUMBER
 DD  .F               685:   DEPTH DRILLER
 DL  .F               693:   DEPTH LOGGER
 BLI .F               692:   BOTTOM LOG INTERVAL
 TLI .F                25:   TOP LOG INTERVAL
 BS  .IN            7.875:   BIT SIZE
 BSD .F               685:   BIT SIZE AT DEPTH
 DFT .                KCL:   DRILLING FLUID TYPE
 DFD .                9.4:   DRILLING FLUID DENSITY
 DFV .                 45:   DRILLING FLUID VISCOSITY
 DFPH.                 11:   DRILLING FLUID PH
 DFL .                7.2:   DRILLING FLUID LOSS
 MSS .           FLOWLINE:   MUD SAMPLE SOURCE
 RMS .OHMM            .74:   RESISTIVITY MUD SAMPLE
 MST .F                60:   MUD SAMPLE TEMPERATURE
 RMF .OHMM            .44:   RESISTIVITY MUD FILTRATE SAMPLE
 MFST.F                60:   MUD FILTRATE SAMPLE TEMPERATURE
 RMC .OHMM           1.35:   RESISTIVITY MUD CAKE
 MCST.F                60:   MUD CAKE SAMPLE TEMPERATURE
 MFSS.               MEAS:   MUD FILTRATE SAMPLE SOURCE
 MCSS.               MEAS:   MUD CAKE SAMPLE SOURCE
 TCS .HRS               1:   TIME CURCULATED STOPPED
 LUN .               6180:   LOGGING UNIT NUMBER
 LUL .               CODY:   LOGGING UNIT LOCATION
 ENGI.              HOYER:   RECORDING ENGINEER
 WITN.           MCINTYRE:   WITNESSED BY
 CLNT.            A2DTECH:   CLIENT CODE
 ORIG.      2" 2.5" PRINT:   ORIGIN OF DATA
 UWI .       490251083900:   UNIQUE WELL ID
 DICO. A2D Technologies, Inc.:   DIGITIZING COMPANY
~OTHER INFORMATION
~A   DEPT     RHOB       CORR        GRD       CALD       NPOR       DPOR        SPR        SFL         ILM       ILD   
   14.0000  -999.2500  -999.2500  -999.2500  -999.2500  -999.2500  -999.2500   -82.5349  1849.8295    25.6275  -999.2500
   14.5000  -999.2500  -999.2500  -999.2500  -999.2500  -999.2500  -999.2500   -81.6401  1562.9722    18.6869  -999.2500
   15.0000  -999.2500  -999.2500  -999.2500  -999.2500  -999.2500  -999.2500   -82.1614  1035.1139    14.0218    33.9135
   15.5000  -999.2500  -999.2500  -999.2500  -999.2500  -999.2500  -999.2500   -82.7173   825.7939    13.5998    39.8861
   16.0000  -999.2500  -999.2500  -999.2500  -999.2500  -999.2500  -999.2500   -83.4141   655.3656    17.6287    64.1964
   16.5000  -999.2500  -999.2500  -999.2500  -999.2500  -999.2500  -999.2500   -84.1246  1866.8943    21.5480   143.7594
   17.0000  -999.2500  -999.2500  -999.2500  -999.2500  -999.2500  -999.2500   -84.1266  1644.5609    23.1653   379.6403
   17.5000  -999.2500  -999.2500  -999.2500  -999.2500  -999.2500  -999.2500   -83.8435  1038.6816    19.9530   231.0284
   18.0000  -999.2500  -999.2500  -999.2500  -999.2500  -999.2500  -999.2500   -83.5524   658.9056    16.8495   108.5127
   18.5000  -999.2500  -999.2500  -999.2500  -999.2500  -999.2500  -999.2500   -83.2634  1532.3610    14.6942    54.3479
   19.0000  -999.2500  -999.2500  -999.2500  -999.2500  -999.2500  -999.2500   -82.9914  1529.6654    13.9451    48.7102
   19.5000  -999.2500  -999.2500  -999.2500  -999.2500  -999.2500  -999.2500   -82.2012  1064.1324    13.2341    42.3154
   20.0000     1.8062    -0.0349    99.1532     9.0874     0.2900    -0.0243   -82.0103   297.7917    12.2650    35.2337
   20.5000     1.7960    -0.0309    96.6532     9.4960     0.2863    -0.0243   -82.0929    60.7550    11.0644    30.4839
   21.0000     1.7758    -0.0268    96.0170     9.9314     0.2862     0.0038   -82.7033    68.3673     9.9527    28.3515
   21.5000     1.7556    -0.0228    97.1976    10.1414     0.2876    -0.0100   -83.5391    81.6917    10.6416    28.0923
   22.0000     1.7522    -0.0255    94.7177    10.3750     0.2876     0.0038   -84.3152   112.0488    11.7771    30.2435
   22.5000     1.7580    -0.0419    93.9113    10.2594     0.2870    -0.0010   -84.2129  1281.1803    13.0337    30.2481
   23.0000     1.7543    -0.0583    92.0609    10.0551     0.2860     0.0005   -83.9373   589.6865    13.3523    28.8638
   23.5000     1.7530    -0.0668    91.3570    10.0127     0.2868     0.0007   -83.7280   179.4322    11.9548    24.9980
   24.0000     1.7656    -0.0758    90.6879    10.3951     0.2932    -0.0019   -83.7321    54.5126    10.4961    21.7897
   24.5000     1.7934    -0.0751    90.8343    10.1823     0.3028     0.0006   -83.7324    31.5334     9.2154    20.3977
   25.0000     1.8326    -0.0584    92.2908     9.8700     0.3012    -0.0178   -83.7331    24.1322     8.1321    19.3480
   25.5000     1.8695    -0.0418    93.5788     9.5315     0.3129    -0.0352   -83.6948    19.5035     7.6626    18.2068
   26.0000     1.8965    -0.0343    95.7110     9.4189     0.3263    -0.0547   -83.6376    18.9532     7.2364    16.6983
   26.5000     1.8840    -0.0333    96.7259     9.9281     0.3391    -0.0547   -83.5779    18.4319     7.0209    15.3148
   27.0000     1.8714    -0.0273    94.8342    10.6544     0.3429    -0.0507   -83.4515    17.9324     7.2168    14.0460
   27.5000     1.8646    -0.0179    96.7487    10.4598     0.3423    -0.0477   -83.0428    17.4465     7.5319    13.4275
   28.0000     1.9005    -0.0230    98.9927     9.9650     0.3352    -0.0520   -82.6463    17.1094     7.8607    13.1570
   28.5000     1.8982    -0.0448    98.4906     9.3888     0.3253    -0.0564   -82.4025    18.4465     8.0578    13.1093
   29.0000     1.9189    -0.0437   100.6559     9.5641     0.3109    -0.0541   -82.8002    20.1845     8.0578    13.1093
   29.5000     1.9676    -0.0288   102.7006     9.8842     0.3133    -0.0714   -83.1888    19.2597     8.0578    13.1093
   30.0000     2.0066    -0.0140   100.1563    10.1883     0.3205    -0.0903   -83.2803    17.8098     8.0158    13.1093
   30.5000     2.0275     0.0002    99.4627     9.9072     0.3284    -0.0990   -83.1999    16.4932     7.8206    12.7438
   31.0000     2.0465     0.0155   100.5233     9.6440     0.3363    -0.0990   -83.0758    15.8316     7.6307    12.3074
   31.5000     2.0360     0.0130    97.5743     9.3602     0.3461    -0.0991   -82.7653    15.0146     7.5549    11.8848
   32.0000     2.0254     0.0065    95.2294     9.0817     0.3431    -0.0992   -82.4560    13.9540     7.5552    11.4777
   32.5000     2.0212     0.0039    95.4721     8.9982     0.3345    -0.0992   -82.3371    13.3523     7.5550    11.1623
   33.0000     2.0180     0.0047    96.4339     9.0024     0.3260    -0.0993   -82.3344    13.6602     7.6508    10.9113
   33.5000     2.0125     0.0159    96.6722     8.8333     0.3174    -0.0994   -82.3385    13.9797     7.8954    10.8085
   34.0000     2.0053     0.0280    95.0767     8.6358     0.3089    -0.0994   -82.4581    13.6777     8.1479    10.9397
   34.5000     1.9704     0.0325    93.4112     8.5426     0.3020    -0.0995   -82.5834    13.4755     8.3592    11.2189
   35.0000     1.9398     0.0278    92.6112     8.4467     0.3015    -0.0903   -82.7092    14.2388     8.1055    11.2130
   35.5000     1.9446     0.0222    94.1843     8.4399     0.3024    -0.0723   -82.6598    13.8874     7.7935    10.7471
   36.0000     1.9586     0.0168    93.3523     8.4361     0.3082    -0.0754   -82.4622    13.3046     7.4870    10.2877
   36.5000     1.9712     0.0112    93.6652     8.4317     0.3140    -0.0829   -82.4002    12.7438     7.0204     9.8498
   37.0000     1.9834     0.0043    96.3090     8.4244     0.3199    -0.0904   -82.5847    12.2583     6.5732     9.4191
   37.5000     1.9921    -0.0046    99.1415     8.4172     0.3220    -0.0933   -82.7658    11.8498     6.1545     8.8109
   38.0000     1.9889    -0.0135    99.2789     8.4133     0.3119    -0.0938   -82.9501    11.1214     5.9497     8.2268
   38.5000     1.9883    -0.0203    96.7388     8.4045     0.3028    -0.0940   -83.1174    10.4198     5.8072     7.6769
   39.0000     1.9933    -0.0171    94.0848     8.3978     0.3192    -0.0953   -82.7003     9.8617     5.6681     7.3237
   39.5000     1.9991    -0.0104    93.9040     8.4402     0.3307    -0.0988   -82.2307     9.8617     5.5808     7.0243
   40.0000     2.0084    -0.0044    94.8489     8.5048     0.3271  -999.2500   -82.2220     9.7715     5.5808     6.8440
   40.5000     2.0101    -0.0053    97.5676     8.7525     0.3236  -999.2500   -82.3262     9.4181     5.5808     6.6965
   41.0000     2.0060    -0.0062    96.8969     9.1007     0.3200  -999.2500   -82.1791     9.0619     5.5509     6.5529
   41.5000     2.0091    -0.0077    95.0431     9.3644     0.3156  -999.2500   -82.0105     8.7191     5.4669     6.4049
   42.0000     2.0284    -0.0061    94.7375     8.7083     0.3108  -999.2500   -82.0748     8.4016     5.3297     6.1553
   42.5000     2.0447    -0.0016    95.8784     8.8522     0.3060  -999.2500   -82.3221     8.1840     5.1524     5.9024
   43.0000     2.0612     0.0027    94.6834     9.0388     0.3036  -999.2500   -82.5411     7.9620     4.9809     5.6598
   43.5000     2.0636     0.0006    92.6942     9.1441     0.3088  -999.2500   -82.4766     7.8349     4.8148     5.4281
   44.0000     2.0555    -0.0045    93.5864     9.0382     0.3135  -999.2500   -82.0396     7.8411     4.6455     5.1941
   44.5000     2.0503    -0.0101    94.3616     9.0007     0.3176  -999.2500   -81.8065     7.3077     4.4561     4.9198
   45.0000     2.0569    -0.0095    94.1172     9.0387     0.3213  -999.2500   -82.0490     6.9798     4.2636     4.6579
   45.5000     2.0680    -0.0033    94.5920     8.9964     0.3251  -999.2500   -82.2860     6.8931     4.0790     4.4104
   46.0000     2.0765     0.0021    96.9404     8.9055     0.3268  -999.2500   -82.5238     6.8354     3.9024     4.1761
   46.5000     2.0679     0.0077    99.3747     8.9021     0.3204  -999.2500   -82.7495     6.3817     3.7326     3.9368
   47.0000     2.0600     0.0071    99.5296     8.9715     0.3228  -999.2500   -82.7370     5.9581     3.5598     3.7913
