~VERSION INFORMATION
 VERS.                2.0:   CWLS LOG ASCII STANDARD - VERSION 2.0
 WRAP.                 NO:   ONE LINE PER DEPTH STEP
~WELL INFORMATION
#MNEM.UNIT      DATA TYPE    INFORMATION
#----------   ------------   ------------------------------
 STRT.F           90.5000:   START DEPTH
 STOP.F          836.0000:   STOP DEPTH
 STEP.F            0.5000:   STEP LENGTH
 NULL.          -999.2500:   NO VALUE
 COMP.          U.S. NAVY:   COMPANY
 WELL.    NPR #3 #38-S-35:   WELL
 FLD .           TEAPOT E:   FIELD
 LOC .      S35 T39N R78W:   LOCATION
 CNTY.            NATRONA:   COUNTY
 STAT.            WYOMING:   STATE
 CTRY. UNITED STATES OF AMERICA:   COUNTRY
 SRVC. Schlumberger Well Surveying Corp:   SERVICE COMPANY
 DATE.        21-JUL-1963:   LOGDATE
 API .       490250649100:   API NUMBER
~CURVE INFORMATION
#MNEM.UNIT       API CODE    CURVE DESCRIPTION
#----------   ------------   ------------------------------
 DEPT.F                  :   
 SPR .MV     05 010 01 00:   SPONTANEOUS POTENTIAL FROM RES.
 ASN .OHMM   05 041 16 00:   AMPLIFIED SHORT NORMAL 16"
 ILD .OHMM   05 120 46 00:   INDUCTION LOG DEEP
 CILD.MMHO   05 110 46 00:   CONDUCTIVITY INDUCTION LOG DEEP
 DT  .US/F   60 520 33 00:   INTERVAL TRANSIT TIME
 GR  .GAPI   30 310 01 00:   GAMMA RAY
~PARAMETER INFORMATION
#MNEM.UNIT          VALUE    DESCRIPTION
#----------   ------------   ------------------------------
 LMF .                 KB:   LOG MEASURED FROM
 DMF .                 KB:   DRILLING MEASURED FROM
 EKB .F              5119:   KELLING BUSHING
 EGL .F              5114:   GROUND LEVEL
 DATE.          7-21-1963:   RUN DATE
 RUN .                  1:   RUN NUMBER
 DD  .F               836:   DEPTH DRILLER
 DL  .F               837:   DEPTH LOGGER
 BLI .F               836:   BOTTOM LOG INTERVAL
 TLI .F                90:   TOP LOG INTERVAL
 CBD .F                12:   CASING BOTTOM DRILLER
 BS  .IN             6.75:   BIT SIZE
 BSD .F               836:   BIT SIZE AT DEPTH
 DFT .            GEL-OIL:   DRILLING FLUID TYPE
 DFD .                9.2:   DRILLING FLUID DENSITY
 DFV .                 85:   DRILLING FLUID VISCOSITY
 DFPH.                  8:   DRILLING FLUID PH
 DFL .                3.6:   DRILLING FLUID LOSS
 MSS .           FLOWLINE:   MUD SAMPLE SOURCE
 RMS .OHMM           2.95:   RESISTIVITY MUD SAMPLE
 MST .F                88:   MUD SAMPLE TEMPERATURE
 RMF .OHMM           2.31:   RESISTIVITY MUD FILTRATE SAMPLE
 MFST.F                88:   MUD FILTRATE SAMPLE TEMPERATURE
 RMC .OHMM           2.65:   RESISTIVITY MUD CAKE
 MCST.F                88:   MUD CAKE SAMPLE TEMPERATURE
 MFSS.                  M:   MUD FILTRATE SAMPLE SOURCE
 MCSS.                  M:   MUD CAKE SAMPLE SOURCE
 TCS .HRS               1:   TIME CURCULATED STOPPED
 LUN .               2523:   LOGGING UNIT NUMBER
 LUL .              CSPR.:   LOGGING UNIT LOCATION
 ENGI.             KNOBEL:   RECORDING ENGINEER
 WITN.          JORGENSON:   WITNESSED BY
 CLNT.            A2DTECH:   CLIENT CODE
 ORIG.      2" , 5" PRINT:   ORIGIN OF DATA
 UWI .       490250649100:   UNIQUE WELL ID
 DICO. A2D Technologies, Inc.:   DIGITIZING COMPANY
~OTHER INFORMATION
~A   DEPT      SPR        ASN        ILD       CILD         DT         GR   
# ...
  610.5000   -17.4981     7.1111     5.7569   148.1521   104.4201    51.5612
  611.0000   -17.2245     7.0258     5.6420   153.0477   102.5974    50.4765
  611.5000   -16.9511     6.9211     5.5270   157.9433   105.6943    51.1849
  612.0000   -16.6777     6.7251     5.4122   162.0821   113.0669    55.1666
  612.5000   -16.4041     6.5306     5.2973   163.8305   132.9670    55.3595
  613.0000   -16.1303     6.3359     5.1777   165.6657   144.9550    54.3820
  613.5000   -15.8595     6.1406     5.2214   164.5579   120.1588    49.3601
  614.0000   -15.7512     5.9611     5.3084   163.3147   110.1898    46.1746
  614.5000   -15.8778     6.0566     5.3963   161.8161   112.3387    48.9730
  615.0000   -16.0021     6.2749     5.4839   157.4797   113.7862    48.2372
  615.5000   -16.1271     6.4915     5.5717   153.3641   113.2540    53.7743
  616.0000   -16.2519     6.7034     5.6534   151.7502   113.1303    53.6507
  616.5000   -16.3770     6.8190     5.6762   150.1363   140.8140    52.4909
  617.0000   -16.5024     6.7306     5.6998   150.6603   141.0589    51.3290
  617.5000   -16.6231     6.7328     5.7231   152.1073   106.9224    50.2610
  618.0000   -16.5459     6.8281     5.7495   153.5542   106.2506    50.5162
  618.5000   -16.1669     6.9304     5.6007   155.0012   105.4429    48.1323
  619.0000   -15.8768     6.7762     5.3660   156.4482   105.4462    47.0889
  619.5000   -15.8146     6.5219     5.1283   159.1446   105.8762    48.0313
  620.0000   -15.7484     6.3439     4.8908   168.2046   105.8234    48.9836
  620.5000   -15.7169     6.2181     4.6536   176.6767   105.5823    49.9303
  621.0000   -15.8016     6.0939     4.4161   189.9542   105.5491    50.8894
  621.5000   -15.8889     5.8979     4.1791   202.4962   106.1938    50.4067
  622.0000   -15.6974     5.6399     3.9398   214.6515   109.3285    49.8570
  622.5000   -15.4359     5.3819     3.8547   225.7441   112.2457    53.7645
  623.0000   -15.1728     5.1270     3.8529   224.8782   112.5421    52.4234
  623.5000   -14.9105     4.9408     3.8549   223.1298   112.1483    51.3940
  624.0000   -14.6506     4.9170     3.9447   221.3814   111.7381    50.1572
  624.5000   -14.5353     4.9395     4.1862   219.6968   111.0553    50.8983
  625.0000   -14.6218     5.0500     4.4257   215.7678   108.7912    51.7432
  625.5000   -14.7063     5.4533     4.6656   205.8460   106.5271    52.5624
  626.0000   -14.7916     5.8395     4.9054   187.9560   104.8951    50.6358
  626.5000   -14.8766     6.1736     5.1450   173.9740   104.9275    51.1011
  627.0000   -14.9619     6.3204     5.3947   165.2319   105.1734    49.5888
  627.5000   -15.0455     6.4717     5.4926   157.3774   105.4193    51.6578
  628.0000   -15.0707     6.5611     5.5456   155.2793   105.6652    56.2412
  628.5000   -14.9865     6.6494     5.5974   153.3837   104.9914    54.8947
  629.0000   -14.9040     6.7384     5.6498   152.1848   104.1939    54.1097
  629.5000   -14.8212     6.8274     5.7023   150.9858   103.3946    53.5797
  630.0000   -14.7384     6.9165     5.7547   149.7869   102.6663    51.2475
  630.5000   -14.6554     7.0058     5.8072   148.5880   102.1466    48.1690
  631.0000   -14.5724     7.0728     5.8597   147.3891   101.9829    47.8180
  631.5000   -14.5008     7.1279     5.9121   146.1902   102.1437    53.1230
  632.0000   -14.5290     7.1828     5.9646   144.9592   102.2977    53.0311
  632.5000   -14.5555     7.2390     6.0170   143.7160   101.2995    51.9161
  633.0000   -14.5817     7.3336     6.0695   142.4664   100.3417    51.7587
  633.5000   -14.6079     7.4289     6.1217   141.2174    99.9046    50.9851
  634.0000   -14.6341     7.5243     6.1763   139.9685    99.6434    48.9982
  634.5000   -14.6602     7.6155     6.2346   138.7197    99.3821    45.4986
  635.0000   -14.6871     7.6269     6.2930   137.4708    99.5165    41.6045
  635.5000   -14.7340     7.6348     6.3514   136.2219   100.9197    44.0224
  636.0000   -14.8038     7.6801     6.4097   135.9032   102.2124    47.8919
  636.5000   -14.8745     7.7362     6.4586   136.4076   101.7422    49.3348
  637.0000   -14.8640     7.7385     6.4230   136.9119   101.7503    50.8970
  637.5000   -14.8084     7.7374     6.3815   137.4163   102.2727    51.5944
  638.0000   -14.7515     7.6606     6.3400   137.9206   102.2487    55.0764
  638.5000   -14.6948     7.5757     6.2986   138.4250   101.9980    55.7828
  639.0000   -14.6379     7.4450     6.2573   138.9293   102.6251    56.3011
  639.5000   -14.5816     7.3050     6.2158   139.4337   103.2279    58.5737
  640.0000   -14.5237     7.1659     6.1749   139.9380   103.4965    54.1077
  640.5000   -14.6585     7.0497     6.0474   140.4424   103.2285    53.5709
  641.0000   -14.9360     6.9780     5.8548   143.3994   102.7806    53.1326
  641.5000   -15.2227     6.9099     5.6614   147.9453   102.3328    56.9056
  642.0000   -15.1131     6.7402     5.4599   152.4912   101.8850    61.5281
  642.5000   -14.8491     6.5214     5.1519   161.2012   102.0411    59.3552
  643.0000   -14.5820     6.2772     4.8275   171.3420   102.6289    56.6890
  643.5000   -14.3156     5.9937     4.5001   181.4828   103.2167    55.8539
  644.0000   -14.0495     5.6777     4.1747   200.7608   103.8797    55.2969
  644.5000   -13.7833     5.2887     3.8690   221.2649   105.0011    54.5572
  645.0000   -13.5171     4.9002     3.4890   258.2166   106.4444    52.3743
  645.5000   -13.2510     4.5124     3.1052   299.7414   108.0127    49.7784
  646.0000   -12.9848     4.1245     2.7216   341.2663   109.9641    50.9595
  646.5000   -12.7184     3.7366     2.3292   382.7911   114.5098    50.9562
  647.0000   -12.4526     3.3546     2.2130   422.4945   119.0553    49.1488
  647.5000   -12.1826     3.1230     2.1626   450.7207   123.6009    49.6366
  648.0000   -12.1485     3.0073     2.1133   465.9319   129.2707    47.7791
  648.5000   -12.2161     2.9540     2.0625   477.7578   127.8570    45.9668
  649.0000   -12.2864     2.9543     2.0498   480.4092   126.6981    44.1539
  649.5000   -12.3563     2.8918     2.2439   451.5156   127.3251    43.5969
  650.0000   -12.4261     2.8148     2.5464   424.5347   125.4713    45.2503
  650.5000   -12.4958     2.8501     2.8521   367.0119   117.4485    51.9843
  651.0000   -12.5655     3.3038     3.1574   314.1435   113.6969    58.9429
  651.5000   -12.6346     3.7574     3.4626   276.6123   112.7823    56.9870
  652.0000   -12.7051     3.9377     3.7677   249.4709   111.5615    54.4904
  652.5000   -12.8393     4.5905     4.0731   219.7197   108.4815    53.1580
  653.0000   -12.9705     5.0188     4.3875   196.9469   107.1728    56.6839
  653.5000   -13.1010     5.3482     4.5609   183.9339   107.7467    57.9638
  654.0000   -13.2315     5.4847     4.7501   172.9029   107.3137    54.3470
  654.5000   -13.3623     5.6144     4.9391   169.2593   107.3507    53.8102
  655.0000   -13.4933     5.6807     5.1260   166.6667   107.9611    56.0184
  655.5000   -13.6204     5.7180     5.2573   166.6632   108.2917    59.6900
  656.0000   -13.5683     5.7556     5.2564   166.6436   107.6276    62.6730
  656.5000   -13.2388     5.7975     5.2488   168.4581   107.0929    59.8616
  657.0000   -12.9170     5.8401     5.0420   170.6707   107.0929    64.5505
  657.5000   -12.6972     5.8828     4.8300   178.6787   107.4292    66.3411
  658.0000   -12.7019     5.9283     4.6191   187.3643   108.2888    64.4331
  658.5000   -12.6469     5.8771     4.4085   196.9542   109.1908    62.4588
  659.0000   -12.5819     5.7876     4.1978   208.1748   111.9125    59.6975
  659.5000   -12.5165     5.4642     3.9870   219.3678   114.2661    56.8770
  660.0000   -12.4512     5.1357     3.7746   227.5697   115.5421    56.4372
  660.5000   -12.3860     4.8470     3.5625   235.7884   116.8181    56.7707
  661.0000   -12.3199     4.8743     3.5775   244.0072   118.2817    57.4846
  661.5000   -12.3078     4.7252     3.6064   249.8499   116.3950    58.1897
  662.0000   -12.3183     4.5336     3.6330   252.4525   113.5345    58.8967
