~VERSION INFORMATION
 VERS.                2.0:   CWLS LOG ASCII STANDARD - VERSION 2.0
 WRAP.                 NO:   ONE LINE PER DEPTH STEP
~WELL INFORMATION
#MNEM.UNIT      DATA TYPE    INFORMATION
#----------   ------------   ------------------------------
 STRT.F          350.0000:   START DEPTH
 STOP.F         2259.0000:   STOP DEPTH
 STEP.F            0.5000:   STEP LENGTH
 NULL.          -999.2500:   NO VALUE
 COMP. LAWRENCE/ALLISON INC:   COMPANY
 WELL.        45 X #33-33:   WELL
 FLD .             TEAPOT:   FIELD
 LOC .      S33 T39N R78W:   LOCATION
 CNTY.            NATRONA:   COUNTY
 STAT.            WYOMING:   STATE
 CTRY. UNITED STATES OF AMERICA:   COUNTRY
 SRVC.      NL McCullough:   SERVICE COMPANY
 DATE.        19-MAY-1988:   LOGDATE
 API .       490251119400:   API NUMBER
~CURVE INFORMATION
#MNEM.UNIT       API CODE    CURVE DESCRIPTION
#----------   ------------   ------------------------------
 DEPT.F                  :   
 ROP .MIN/FT 91 810 01 00:   RATE OF DRILLING PENETRATION
 GR  .GAPI   81 310 01 00:   GAMMA RAY
 TGAS.UNITS  91 830 01 00:   TOTAL GAS FROM HOTWIRE
~PARAMETER INFORMATION
#MNEM.UNIT          VALUE    DESCRIPTION
#----------   ------------   ------------------------------
 PD  .                 GL:   PERMANENT DATUM
 EPD .F              5198:   ELEVATION PERMANENT DATUM
 LMF .                 KB:   LOG MEASURED FROM
 DAPD.F                11:   FEET ABOVE PERMANENT DATUM
 DMF .                 KB:   DRILLING MEASURED FROM
 EKB .F              5209:   KELLING BUSHING
 EGL .F              5198:   GROUND LEVEL
 DATE.            5-19-88:   RUN DATE
 RUN .                  1:   RUN NUMBER
 DD  .F              2232:   DEPTH DRILLER
 DL  .F               750:   DEPTH LOGGER
 BLI .F               746:   BOTTOM LOG INTERVAL
 TLI .F               350:   TOP LOG INTERVAL
 CS  .IN                7:   CASING SIZE
 CBD .F               808:   CASING BOTTOM DRILLER
 DFT .              WATER:   DRILLING FLUID TYPE
 TCS .HRS            0830:   TIME CURCULATED STOPPED
 TLAB.HRS            0930:   TIME LOGGER AT BOTTOM
 ENGI.          SANGERTER:   RECORDING ENGINEER
 WITN.             NORMAN:   WITNESSED BY
 CLNT.            A2DTECH:   CLIENT CODE
 ORIG.           5" PRINT:   ORIGIN OF DATA
 UWI .       490251119400:   UNIQUE WELL ID
 DICO. A2D Technologies, Inc.:   DIGITIZING COMPANY
~OTHER INFORMATION
~A   DEPT      ROP          GR      TGAS   
# ...
 1260.0000     0.4854  -999.2500     3.3441
 1260.5000     0.4541  -999.2500     3.3496
 1261.0000     0.4436  -999.2500     3.3551
 1261.5000     0.4019  -999.2500     3.3606
 1262.0000     0.3914  -999.2500     3.3661
 1262.5000     0.3706  -999.2500     3.3716
 1263.0000     0.3601  -999.2500     3.3771
 1263.5000     0.3601  -999.2500     3.3826
 1264.0000     0.3601  -999.2500     3.3880
 1264.5000     0.3392  -999.2500     3.3935
 1265.0000     0.3288  -999.2500     3.3990
 1265.5000     0.3184  -999.2500     3.4045
 1266.0000     0.3184  -999.2500     3.4100
 1266.5000     0.3184  -999.2500     3.4155
 1267.0000     0.3184  -999.2500     3.4210
 1267.5000     0.3184  -999.2500     3.4265
 1268.0000     0.3497  -999.2500     3.4320
 1268.5000     0.3810  -999.2500     3.4375
 1269.0000     0.4123  -999.2500     3.4430
 1269.5000     0.4436  -999.2500     3.4485
 1270.0000     0.4645  -999.2500     3.4540
 1270.5000     0.4854  -999.2500     3.4595
 1271.0000     0.4958  -999.2500     3.4650
 1271.5000     0.5271  -999.2500     3.4705
 1272.0000     0.5271  -999.2500     3.4760
 1272.5000     0.5167  -999.2500     3.4815
 1273.0000     0.5063  -999.2500     3.4870
 1273.5000     0.4854  -999.2500     3.4925
 1274.0000     0.4854  -999.2500     3.4980
 1274.5000     0.4541  -999.2500     3.5035
 1275.0000     0.4436  -999.2500     3.5090
 1275.5000     0.4332  -999.2500     3.5145
 1276.0000     0.4123  -999.2500     3.5200
 1276.5000     0.4019  -999.2500     3.5255
 1277.0000     0.4019  -999.2500     3.5310
 1277.5000     0.4019  -999.2500     3.5365
 1278.0000     0.4019  -999.2500     3.5420
 1278.5000     0.4019  -999.2500     3.5475
 1279.0000     0.4019  -999.2500     3.5530
 1279.5000     0.3914  -999.2500     3.5585
 1280.0000     0.3914  -999.2500     3.5640
 1280.5000     0.4019  -999.2500     3.5695
 1281.0000     0.4019  -999.2500     3.5750
 1281.5000     0.4019  -999.2500     3.5805
 1282.0000     0.4019  -999.2500     3.5860
 1282.5000     0.4019  -999.2500     3.5915
 1283.0000     0.4019  -999.2500     3.5970
 1283.5000     0.4019  -999.2500     3.6025
 1284.0000     0.4019  -999.2500     3.6080
 1284.5000     0.4123  -999.2500     3.6135
 1285.0000     0.4123  -999.2500     3.6190
 1285.5000     0.4123  -999.2500     3.6245
 1286.0000     0.4123  -999.2500     3.6300
 1286.5000     0.4123  -999.2500     3.6355
 1287.0000     0.4436  -999.2500     3.6410
 1287.5000     0.4749  -999.2500     3.6465
 1288.0000     0.4958  -999.2500     3.6520
 1288.5000     0.5271  -999.2500     3.6574
 1289.0000     0.5376  -999.2500     3.6629
 1289.5000     0.5480  -999.2500     3.6684
 1290.0000     0.5376  -999.2500     3.6739
 1290.5000     0.5376  -999.2500     3.6794
 1291.0000     0.5271  -999.2500     3.6849
 1291.5000     0.5063  -999.2500     3.6904
 1292.0000     0.4854  -999.2500     3.6959
 1292.5000     0.4749  -999.2500     3.7014
 1293.0000     0.4541  -999.2500     3.7069
 1293.5000     0.4332  -999.2500     3.7124
 1294.0000     0.4123  -999.2500     3.7179
 1294.5000     0.4019  -999.2500     3.7234
 1295.0000     0.3914  -999.2500     3.7289
 1295.5000     0.3914  -999.2500     3.7344
 1296.0000     0.3706  -999.2500     3.7399
 1296.5000     0.3706  -999.2500     3.7454
 1297.0000     0.3706  -999.2500     3.7509
 1297.5000     0.3706  -999.2500     3.7564
 1298.0000     0.3601  -999.2500     3.7619
 1298.5000     0.3497  -999.2500     3.7674
 1299.0000     0.3497  -999.2500     3.7729
 1299.5000     0.3497  -999.2500     3.7784
 1300.0000     0.3497  -999.2500     3.7830
 1300.5000     0.3601  -999.2500     3.7807
 1301.0000     0.3601  -999.2500     3.7787
 1301.5000     0.3601  -999.2500     3.7766
 1302.0000     0.3601  -999.2500     3.7746
 1302.5000     0.3601  -999.2500     3.7726
 1303.0000     0.3706  -999.2500     3.7706
 1303.5000     0.3810  -999.2500     3.7686
 1304.0000     0.4019  -999.2500     3.7666
 1304.5000     0.4436  -999.2500     3.7645
 1305.0000     0.4541  -999.2500     3.7625
 1305.5000     0.4958  -999.2500     3.7605
 1306.0000     0.5271  -999.2500     3.7585
 1306.5000     0.5271  -999.2500     3.7565
 1307.0000     0.4958  -999.2500     3.7544
 1307.5000     0.4749  -999.2500     3.7524
 1308.0000     0.4123  -999.2500     3.7504
 1308.5000     0.4472  -999.2500     3.7484
 1309.0000     0.4996  -999.2500     3.7464
 1309.5000     0.5416  -999.2500     3.7444
 1310.0000     0.5835  -999.2500     3.7423
 1310.5000     0.6046  -999.2500     3.7403
 1311.0000     0.6152  -999.2500     3.7383
 1311.5000     0.5945  -999.2500     3.7363
 1312.0000     0.5948  -999.2500     3.7343
 1312.5000     0.5845  -999.2500     3.7323
 1313.0000     0.6161  -999.2500     3.7302
 1313.5000     0.6372  -999.2500     3.7282
 1314.0000     0.6687  -999.2500     3.7262
 1314.5000     0.6794  -999.2500     3.7242
 1315.0000     0.6900  -999.2500     3.7222
 1315.5000     0.6693  -999.2500     3.7201
 1316.0000     0.6174  -999.2500     3.7181
 1316.5000     0.5549  -999.2500     3.7161
 1317.0000     0.5029  -999.2500     3.7141
 1317.5000     0.4614  -999.2500     3.7121
 1318.0000     0.4303  -999.2500     3.7101
 1318.5000     0.4200  -999.2500     3.7080
 1319.0000     0.4203  -999.2500     3.7060
 1319.5000     0.4205  -999.2500     3.7040
 1320.0000     0.4207  -999.2500     3.7020
 1320.5000     0.4209  -999.2500     3.7000
 1321.0000     0.4211  -999.2500     3.6980
 1321.5000     0.4318  -999.2500     3.6959
 1322.0000     0.4633  -999.2500     3.6939
 1322.5000     0.4739  -999.2500     3.6919
 1323.0000     0.5055  -999.2500     3.6899
 1323.5000     0.5161  -999.2500     3.6879
 1324.0000     0.5476  -999.2500     3.6858
 1324.5000     0.5478  -999.2500     3.6838
 1325.0000     0.5480  -999.2500     3.6818
 1325.5000     0.5483  -999.2500     3.6798
 1326.0000     0.5485  -999.2500     3.6778
 1326.5000     0.5487  -999.2500     3.6758
 1327.0000     0.5489  -999.2500     3.6737
 1327.5000     0.5491  -999.2500     3.6717
 1328.0000     0.5493  -999.2500     3.6697
 1328.5000     0.5704  -999.2500     3.6677
 1329.0000     0.6019  -999.2500     3.6657
 1329.5000     0.6439  -999.2500     3.6637
 1330.0000     0.6650  -999.2500     3.6616
 1330.5000     0.6338  -999.2500     3.6596
 1331.0000     0.5819  -999.2500     3.6576
 1331.5000     0.5507  -999.2500     3.6556
 1332.0000     0.5196  -999.2500     3.6536
 1332.5000     0.5094  -999.2500     3.6515
 1333.0000     0.4992  -999.2500     3.6495
 1333.5000     0.4785  -999.2500     3.6475
 1334.0000     0.4683  -999.2500     3.6455
 1334.5000     0.4685  -999.2500     3.6435
 1335.0000     0.4582  -999.2500     3.6415
 1335.5000     0.4375  -999.2500     3.6394
 1336.0000     0.4378  -999.2500     3.6374
 1336.5000     0.4380  -999.2500     3.6354
 1337.0000     0.4591  -999.2500     3.6334
 1337.5000     0.4697  -999.2500     3.6314
 1338.0000     0.4700  -999.2500     3.6294
 1338.5000     0.4806  -999.2500     3.6273
 1339.0000     0.4913  -999.2500     3.6253
 1339.5000     0.5124  -999.2500     3.6233
 1340.0000     0.5126  -999.2500     3.6213
 1340.5000     0.5127  -999.2500     3.6193
 1341.0000     0.5234  -999.2500     3.6172
 1341.5000     0.5341  -999.2500     3.6152
 1342.0000     0.5552  -999.2500     3.6132
 1342.5000     0.5554  -999.2500     3.6112
 1343.0000     0.5556  -999.2500     3.6092
 1343.5000     0.5244  -999.2500     3.6072
 1344.0000     0.4934  -999.2500     3.6051
 1344.5000     0.4726  -999.2500     3.6031
 1345.0000     0.4415  -999.2500     3.6011
 1345.5000     0.4313  -999.2500     3.5991
 1346.0000     0.4315  -999.2500     3.5971
 1346.5000     0.4213  -999.2500     3.5951
 1347.0000     0.4215  -999.2500     3.5930
 1347.5000     0.4008  -999.2500     3.5910
 1348.0000     0.4011  -999.2500     3.5890
 1348.5000     0.3908  -999.2500     3.5870
 1349.0000     0.3911  -999.2500     3.5850
 1349.5000     0.3913  -999.2500     3.5829
 1350.0000     0.3915  -999.2500     3.5809
 1350.5000     0.3917  -999.2500     3.5789
