~VERSION INFORMATION
 VERS.                2.0:   CWLS LOG ASCII STANDARD - VERSION 2.0
 WRAP.                 NO:   ONE LINE PER DEPTH STEP
~WELL INFORMATION
#MNEM.UNIT      DATA TYPE    INFORMATION
#----------   ------------   ------------------------------
 STRT.F           16.0000:   START DEPTH
 STOP.F          474.0000:   STOP DEPTH
 STEP.F            0.5000:   STEP LENGTH
 NULL.          -999.2500:   NO VALUE
 COMP. FENIX & SCISSON INCORPORATED:   COMPANY
 WELL.    NPR #3 #58-SX-3:   WELL
 FLD .             TEAPOT:   FIELD
 LOC .       S3 T38N R78W:   LOCATION
 CNTY.            NATRONA:   COUNTY
 STAT.            WYOMING:   STATE
 CTRY. UNITED STATES OF AMERICA:   COUNTRY
 SRVC.           BIRDWELL:   SERVICE COMPANY
 DATE.        19-OCT-1978:   LOGDATE
 API .       490251072000:   API NUMBER
~CURVE INFORMATION
#MNEM.UNIT       API CODE    CURVE DESCRIPTION
#----------   ------------   ------------------------------
 DEPT.F                  :   
 CALD.IN     45 280 60 00:   CALIPER FROM DENSITY LOG
 CORR.G/C3   45 356 01 00:   DENSITY CORRECTION
 DPHI.DEC    45 890 12 00:   DENSITY POROSITY SANDSTONE
 GRD .GAPI   45 310 01 00:   GAMMA RAY FROM DENSITY LOG
 RHOB.G/C3   45 350 01 00:   BULK DENSITY
 ILD .OHMM   05 120 46 00:   INDUCTION LOG DEEP
 SN  .OHMM   05 040 16 00:   SHORT NORMAL 16"
 SPR .MV     05 010 01 00:   SPONTANEOUS POTENTIAL FROM RES.
~PARAMETER INFORMATION
#MNEM.UNIT          VALUE    DESCRIPTION
#----------   ------------   ------------------------------
 PD  .                 GL:   PERMANENT DATUM
 EPD .F              5198:   ELEVATION PERMANENT DATUM
 LMF .                 KB:   LOG MEASURED FROM
 DAPD.F                 4:   FEET ABOVE PERMANENT DATUM
 DMF .                 KB:   DRILLING MEASURED FROM
 EKB .F              5202:   KELLING BUSHING
 EGL .F              5198:   GROUND LEVEL
 DATE.        19-OCT-1978:   RUN DATE
 RUN .                  1:   RUN NUMBER
 DD  .F               474:   DEPTH DRILLER
 DL  .F               474:   DEPTH LOGGER
 BLI .F               474:   BOTTOM LOG INTERVAL
 TLI .F                30:   TOP LOG INTERVAL
 CBD .F                40:   CASING BOTTOM DRILLER
 CBL .F                38:   CASING BOTTOM LOGGER
 BS  .IN            7.875:   BIT SIZE
 BSD .F               474:   BIT SIZE AT DEPTH
 DFT .                KCL:   DRILLING FLUID TYPE
 DFD .                8.7:   DRILLING FLUID DENSITY
 DFV .                 38:   DRILLING FLUID VISCOSITY
 DFPH.                9.0:   DRILLING FLUID PH
 DFL .                 13:   DRILLING FLUID LOSS
 MSS .           FLOWLINE:   MUD SAMPLE SOURCE
 RMS .OHMM            .25:   RESISTIVITY MUD SAMPLE
 MST .F                58:   MUD SAMPLE TEMPERATURE
 RMF .OHMM             .2:   RESISTIVITY MUD FILTRATE SAMPLE
 MFST.F                60:   MUD FILTRATE SAMPLE TEMPERATURE
 RMC .OHMM            .24:   RESISTIVITY MUD CAKE
 MCST.F                60:   MUD CAKE SAMPLE TEMPERATURE
 MFSS.               MEAS:   MUD FILTRATE SAMPLE SOURCE
 MCSS.               MEAS:   MUD CAKE SAMPLE SOURCE
 RMB .OHMM            .23:   RESISTIVITY MUD AT BHT
 BHT .F                70:   BOTTOM HOLE TEMPERATURE
 TCS .HRS               3:   TIME CURCULATED STOPPED
 MRT .F                70:   MAXIMUM RECORDED TEMPERATURE
 LUN .               2958:   LOGGING UNIT NUMBER
 LUL .               CASP:   LOGGING UNIT LOCATION
 ENGI.           REYNOLDS:   RECORDING ENGINEER
 WITN.           DINSMORE:   WITNESSED BY
 CLNT.            A2DTECH:   CLIENT CODE
 ORIG.           5" PRINT:   ORIGIN OF DATA
 UWI .       490251072000:   UNIQUE WELL ID
 DICO. A2D Technologies, Inc.:   DIGITIZING COMPANY
~OTHER INFORMATION
~A   DEPT     CALD       CORR       DPHI         GRD      RHOB        ILD         SN        SPR   
# ...
   97.0000     7.9614     0.0353     0.1210    48.7186     2.4855    13.0996     9.5338   -38.9723
   97.5000     8.0653     0.0500     0.1243    49.1659     2.4782    12.9271     9.4078   -38.8191
   98.0000     8.0960     0.0778     0.1272    49.3178     2.4708    12.7455     9.2835   -38.6659
   98.5000     8.0971     0.1086     0.1284    49.4707     2.4686    12.2525     9.2865   -38.6602
   99.0000     8.0835     0.1451     0.1219    49.6227     2.4694    11.9280     9.2890   -38.5070
   99.5000     8.0680     0.1802     0.1109    49.9223     2.4812    11.6121     9.4183   -38.5013
  100.0000     8.0268     0.1978     0.1018    49.9265     2.4982    11.3046     9.4208   -38.6431
  100.5000     7.8933     0.2051     0.0858    49.9216     2.5622    10.8465     9.4219   -38.7032
  101.0000     7.8044     0.2007     0.0598    49.9054     2.5983    10.6381     9.4232   -38.4925
  101.5000     7.7155     0.1394     0.0682    43.5605     2.5850    10.5682     9.4244   -38.3435
  102.0000     7.6247     0.0722     0.0808    38.3864     2.5327    10.4993     9.4257   -38.1946
  102.5000     7.4785     0.0226     0.0959    38.9730     2.5076    10.5014     9.4270   -38.1932
  103.0000     7.3896    -0.0037     0.1121    43.9909     2.4914    10.5034     9.4283   -38.0442
  103.5000     7.2859    -0.0169     0.1245    54.3264     2.4811    10.5055     9.4297   -37.8953
  104.0000     7.2118    -0.0198     0.1333    52.4786     2.4737    10.6513     9.4308   -37.8935
  104.5000     7.1673    -0.0096     0.1437    51.3627     2.4633    10.8765     9.4322   -37.7446
  105.0000     7.1228    -0.0038     0.1519    54.0172     2.4486    11.1115     9.4334   -37.7431
  105.5000     7.1078     0.0020     0.1608    59.0352     2.4220    11.4850     9.4347   -37.5942
  106.0000     7.1077     0.0049     0.1655    60.0649     2.4036    11.7394     9.4359   -37.4453
  106.5000     7.1815     0.0078     0.1647    58.5382     2.4051    12.0490     9.3734   -37.2964
  107.0000     7.2997     0.0122     0.1466    45.5797     2.4308    12.2995     9.3116   -37.1474
  107.5000     7.4660     0.0195     0.1340    41.4396     2.4462    12.4702     9.2498   -36.8510
  108.0000     7.6840     0.0253     0.1313    46.6052     2.4580    12.5577     9.0647   -36.8496
  108.5000     7.8318     0.0341     0.1310    54.1342     2.4676    12.4751     8.8833   -36.7006
  109.0000     7.9204     0.0516     0.1343    56.9444     2.4503    12.3010     8.7053   -36.6988
  109.5000     7.9795     0.1012     0.1502    57.3754     2.4351    11.9012     8.4737   -36.6974
  110.0000     8.0237     0.1727     0.1414    55.3022     2.4284    11.4282     8.3606   -36.6960
  110.5000     8.0235     0.2664     0.1245    51.7529     2.4468    11.0487     8.2987   -36.6945
  111.0000     7.9938     0.3376     0.1080    50.7147     2.5043    10.6819     8.2501   -36.6931
  111.5000     7.9345     0.3599     0.0853    51.3013     2.5759    10.3273     8.1957   -36.8392
  112.0000     7.8308     0.3405     0.0541    52.5219     2.6052     9.8497     8.1411   -36.8377
  112.5000     7.7123     0.2967     0.0417    53.6551     2.6126     9.5227     8.0874   -36.8363
  113.0000     7.5908     0.2135     0.0517    54.0940     2.5536     9.2672     8.0338   -37.2771
  113.5000     7.4309     0.1458     0.0788    53.9421     2.4990     9.0044     8.0349   -37.7181
  114.0000     7.2680     0.0777     0.1169    53.4947     2.4384     8.8424     8.0359   -37.8645
  114.5000     7.1495     0.0310     0.1588    53.0355     2.4002     8.9656     8.0370   -37.8627
  115.0000     7.0902     0.0134     0.1821    51.2695     2.3744     9.1519     7.9837   -37.8613
  115.5000     7.1495     0.0090     0.1850    45.9477     2.3670     9.3422     7.9850   -38.0074
  116.0000     7.2674     0.0061     0.1750    48.8977     2.3795     9.5364     7.9861   -38.0059
  116.5000     7.3856     0.0046     0.1688    50.0762     2.4031     9.6687     7.9870   -38.0041
  117.0000     7.4890     0.0046     0.1543    50.3663     2.4340     9.8029     7.9342   -38.0027
  117.5000     7.5924     0.0046     0.1432    50.6565     2.4414     9.8717     7.9352   -37.8540
  118.0000     7.6959     0.0046     0.1367    51.2431     2.4465     9.9414     7.8294   -37.8525
  118.5000     7.7862     0.0046     0.1326    52.8637     2.4575     9.9431     7.8304   -37.8509
  119.0000     7.9026     0.0067     0.1255    54.1899     2.4863     9.9454     7.7785   -37.8496
  119.5000     7.9321     0.0075     0.1146    54.3323     2.5076     9.9473     7.7798   -37.8481
  120.0000     7.9468     0.0104     0.1020    54.3279     2.5157     9.9493     7.7808   -37.8466
  120.5000     7.9466     0.0118     0.1060    54.1751     2.5142     9.8834     7.7818   -37.8451
  121.0000     7.9465     0.0147     0.1113    54.1708     2.4972     9.8189     7.8358   -37.8437
  121.5000     7.9463     0.0176     0.1155    54.1666     2.4810     9.8209     7.8369   -37.6944
  122.0000     7.9462     0.0191     0.1231    54.1624     2.4692     9.8229     7.8379   -37.6930
  122.5000     7.9460     0.0220     0.1335    54.0103     2.4625     9.7588     7.9460   -37.3966
  123.0000     7.9458     0.0234     0.1361    54.0051     2.4566     8.9353     8.1656   -37.1001
  123.5000     7.9457     0.0234     0.1394    54.0009     2.4507     8.8770     8.2782   -37.0487
  124.0000     7.9456     0.0248     0.1403    53.9967     2.4477     8.8183     8.0580   -36.8024
  124.5000     7.9454     0.0248     0.1323    54.1401     2.4536     8.7010     7.7376   -36.6534
  125.0000     7.9452     0.0277     0.1305    53.9882     2.4624     8.6442     7.4806   -36.5044
  125.5000     7.9451     0.0328     0.1417    53.2443     2.4641     8.5293     7.2814   -36.5029
  126.0000     7.9450     0.0642     0.1468    50.4336     2.4502     8.3552     7.0395   -36.3540
  126.5000     7.9300     0.0934     0.1474    49.9873     2.4366     8.2478     6.6686   -36.2048
  127.0000     7.9299     0.1153     0.1364    52.3454     2.4299     8.2498     6.4910   -36.0558
  127.5000     7.9445     0.1357     0.1182    55.2953     2.4896     8.2514     6.5472   -36.0349
  128.0000     7.9444     0.1357     0.1005    53.8375     2.5168     8.2531     6.8550   -35.9055
  128.5000     7.9442     0.1143     0.0949    50.1160     2.5251     8.2547     6.9025   -35.9041
  129.0000     7.9441     0.0875     0.1008    48.9300     2.5153     8.2563     6.8104   -35.7552
  129.5000     7.9291     0.0553     0.1126    50.6983     2.5050     8.2020     6.5842   -35.6062
  130.0000     7.9290     0.0305     0.1173    55.5685     2.4909     8.2037     6.4522   -35.6047
  130.5000     7.9288     0.0130     0.1209    56.1630     2.4776     8.2054     6.6759   -35.6032
  131.0000     7.9287     0.0013     0.1288    56.7407     2.4676     8.2073     6.9541   -35.6018
  131.5000     7.9285    -0.0048     0.1356    57.0319     2.4540     8.2649     7.0980   -35.6003
  132.0000     7.9284    -0.0104     0.1403    57.3231     2.4474     8.3229     7.0989   -35.5986
  132.5000     7.9282    -0.0134     0.1377    57.9097     2.4518     8.3813     7.1150   -35.5972
  133.0000     7.9133    -0.0148     0.1329    59.2348     2.4562     8.4976     7.1980   -35.5958
  133.5000     7.9132    -0.0163     0.1326    61.5929     2.4591     8.6155     7.2972   -35.7422
  134.0000     7.9041    -0.0163     0.1338    63.3612     2.4605     8.7351     7.4482   -35.8879
  134.5000     7.8981    -0.0149     0.1350    63.5057     2.4583     8.7368     7.5509   -35.8864
  135.0000     7.8683    -0.0149     0.1365    62.3188     2.4546     8.7386     7.7072   -35.9046
  135.5000     7.8534    -0.0149     0.1380    59.2126     2.4502     8.7407     7.7606   -36.1786
  136.0000     7.8237    -0.0135     0.1398    54.5820     2.4472     8.6241     7.5951   -36.6192
  136.5000     7.7939    -0.0120     0.1421    53.4424     2.4494     8.5094     7.0597   -36.7657
  137.0000     7.7790    -0.0106     0.1421    53.1427     2.4530     8.4539     6.9182   -37.0588
