~VERSION INFORMATION
 VERS.                2.0:   CWLS LOG ASCII STANDARD - VERSION 2.0
 WRAP.                 NO:   ONE LINE PER DEPTH STEP
~WELL INFORMATION
#MNEM.UNIT      DATA TYPE    INFORMATION
#----------   ------------   ------------------------------
 STRT.F           36.0000:   START DEPTH
 STOP.F          592.0000:   STOP DEPTH
 STEP.F            0.5000:   STEP LENGTH
 NULL.          -999.2500:   NO VALUE
 COMP. FENIX & SCISSON INC:   COMPANY
 WELL.           S #35-10:   WELL
 FLD .              NPR-3:   FIELD
 LOC .      S10 T38N R78W:   LOCATION
 CNTY.            NATRONA:   COUNTY
 STAT.            WYOMING:   STATE
 CTRY. UNITED STATES OF AMERICA:   COUNTRY
 SRVC.              Welex:   SERVICE COMPANY
 DATE.        07-MAR-1977:   LOGDATE
 API .       490251029000:   API NUMBER
~CURVE INFORMATION
#MNEM.UNIT       API CODE    CURVE DESCRIPTION
#----------   ------------   ------------------------------
 DEPT.F                  :   
 SPR .MV     07 010 01 00:   SPONTANEOUS POTENTIAL
 ILM .OHMM   07 120 44 00:   INDUCTION LOG MEDIUM
 ILD .OHMM   07 120 46 00:   INDUCTION LOG DEEP
 SGRD.OHMM   07 220 05 00:   SHALLOW GUARD RESISTIVITY
 CALD.IN     45 280 60 00:   CALIPER FROM DENSITY LOG
 RHOB.G/C3   45 350 01 00:   BULK DENSITY
 CORR.G/C3   45 356 01 00:   DENSITY CORRECTION
 DPHI.DEC    45 890 12 00:   DENSITY POROSITY SANDSTONE
 GRD .GAPI   45 310 01 00:   GAMMA RAY FROM DENSITY LOG
~PARAMETER INFORMATION
#MNEM.UNIT          VALUE    DESCRIPTION
#----------   ------------   ------------------------------
 PD  .                 GL:   PERMANENT DATUM
 EPD .F              5234:   ELEVATION PERMANENT DATUM
 LMF .                 GL:   LOG MEASURED FROM
 DMF .                 GL:   DRILLING MEASURED FROM
 EGL .F              5234:   GROUND LEVEL
 DATE.             3-7-77:   RUN DATE
 RUN .                  1:   RUN NUMBER
 DD  .F               600:   DEPTH DRILLER
 DL  .F               593:   DEPTH LOGGER
 BLI .F               591:   BOTTOM LOG INTERVAL
 TLI .F                35:   TOP LOG INTERVAL
 CS  .IN            8.625:   CASING SIZE
 CBD .F                42:   CASING BOTTOM DRILLER
 CBL .F                42:   CASING BOTTOM LOGGER
 BS  .IN            7.875:   BIT SIZE
 BSD .F               600:   BIT SIZE AT DEPTH
 DFT .            KCL MUD:   DRILLING FLUID TYPE
 MSS .          FLOW LINE:   MUD SAMPLE SOURCE
 RMS .OHMM            .40:   RESISTIVITY MUD SAMPLE
 MST .F                58:   MUD SAMPLE TEMPERATURE
 RMF .OHMM            .33:   RESISTIVITY MUD FILTRATE SAMPLE
 MFST.F                58:   MUD FILTRATE SAMPLE TEMPERATURE
 RMC .OHMM            .44:   RESISTIVITY MUD CAKE
 MCST.F                58:   MUD CAKE SAMPLE TEMPERATURE
 MFSS.           FANN KIT:   MUD FILTRATE SAMPLE SOURCE
 MCSS.           FANN KIT:   MUD CAKE SAMPLE SOURCE
 RMB .OHMM            .31:   RESISTIVITY MUD AT BHT
 BHT .F                62:   BOTTOM HOLE TEMPERATURE
 TCS .HRS               3:   TIME CURCULATED STOPPED
 MRT .F                62:   MAXIMUM RECORDED TEMPERATURE
 LUN .               8611:   LOGGING UNIT NUMBER
 LUL .           GILLETTE:   LOGGING UNIT LOCATION
 ENGI.            C. DOAK:   RECORDING ENGINEER
 WITN.      L. STUEBINGER:   WITNESSED BY
 CLNT.            A2DTECH:   CLIENT CODE
 ORIG.        2" 5" PRINT:   ORIGIN OF DATA
 UWI .       490251029000:   UNIQUE WELL ID
 DICO. A2D Technologies, Inc.:   DIGITIZING COMPANY
~OTHER INFORMATION
~A   DEPT      SPR        ILM        ILD       SGRD         CALD       RHOB      CORR        DPHI       GRD  
# ...
  255.0000   -51.9674    10.0094     8.2776    10.8466     7.9384     2.4677     0.0332     0.1072   127.5750
  255.5000   -51.9843    10.0625     8.2631    10.5715     7.9384     2.4690     0.0365     0.1052   126.1666
  256.0000   -52.0330    10.1048     8.2416    10.9052     7.9384     2.4702     0.0396     0.1038   126.5327
  256.5000   -52.0856    10.1470     8.2032    11.2326     7.9384     2.4697     0.0411     0.1062   128.3018
  257.0000   -52.1384    10.1904     8.1650    11.5872     7.9384     2.4636     0.0389     0.1090   130.0257
  257.5000   -52.1910    10.1750     8.1270    11.3493     7.9384     2.4574     0.0369     0.1118   131.8107
  258.0000   -52.2435    10.1465     8.0892    11.1040     7.9373     2.4520     0.0348     0.1146   133.1908
  258.5000   -52.2960    10.1182     8.0515    10.9667     7.9362     2.4542     0.0328     0.1157   131.9776
  259.0000   -52.3489    10.0901     8.0140    11.2726     7.9350     2.4611     0.0318     0.1128   129.2670
  259.5000   -52.4238    10.0620     7.9767    11.1054     7.9338     2.4679     0.0318     0.1080   126.2571
  260.0000   -52.5560    10.0340     7.9395    10.9519     7.9326     2.4747     0.0335     0.1026   124.5144
  260.5000   -52.6872    10.0054     7.9026    10.8004     7.9315     2.4788     0.0363     0.0994   123.2293
  261.0000   -52.8185     9.9502     7.8658    10.6690     7.9303     2.4822     0.0378     0.0975   121.3134
  261.5000   -52.9497     9.8798     7.8292    10.7277     7.9291     2.4857     0.0378     0.0957   120.0730
  262.0000   -53.0809     9.8099     7.7927    10.7700     7.9280     2.4892     0.0372     0.0938   119.2718
  262.5000   -53.2121     9.7405     7.7564    10.5294     7.9268     2.4874     0.0356     0.0942   118.4858
  263.0000   -53.3433     9.6715     7.7279    10.2629     7.9256     2.4820     0.0340     0.0978   117.7016
  263.5000   -53.4745     9.6031     7.6936    10.0994     7.9245     2.4766     0.0325     0.1024   117.5115
  264.0000   -53.6058     9.5352     7.6596    10.4261     7.9233     2.4708     0.0309     0.1047   118.1283
  264.5000   -53.7370     9.4695     7.6257    10.6690     7.9221     2.4684     0.0298     0.1060   119.9549
  265.0000   -53.8682     9.2405     7.5919    10.2869     7.9210     2.4679     0.0304     0.1070   120.7240
  265.5000   -53.9994     8.9729     7.5571    10.0990     7.9198     2.4690     0.0312     0.1059   120.1733
  266.0000   -54.1306     8.7132     7.4632    10.4736     7.9186     2.4689     0.0317     0.1049   120.5127
  266.5000   -54.2618     8.4609     7.2781    10.2353     7.9175     2.4667     0.0287     0.1055   122.7044
  267.0000   -54.3932     8.2151     7.0888     9.9176     7.9163     2.4625     0.0257     0.1090   124.4985
  267.5000   -54.5243     7.9557     6.9031     9.6482     7.9151     2.4554     0.0226     0.1125   125.8234
  268.0000   -54.6824     7.7163     6.7226     9.2567     7.9139     2.4483     0.0197     0.1154   127.1743
  268.5000   -54.8490     7.5982     6.5616     8.6103     7.9128     2.4411     0.0179     0.1188   127.3982
  269.0000   -54.8911     7.5288     6.4393     7.8700     7.9116     2.4360     0.0178     0.1213   126.4013
  269.5000   -54.6092     7.6461     6.4397     6.9354     7.9104     2.4424     0.0221     0.1185   125.2526
  270.0000   -54.3335     7.7371     6.4388     7.8791     7.9093     2.4529     0.0270     0.1141   124.1062
  270.5000   -54.0566     7.8292     6.4380     9.2376     7.9081     2.4629     0.0319     0.1092   123.0269
  271.0000   -53.7810     7.9224     6.6056     9.7379     7.9069     2.4729     0.0354     0.1040   123.4391
  271.5000   -53.5578     8.0156     6.7322     9.6061     7.9058     2.4804     0.0324     0.0998   124.0855
  272.0000   -53.4886     8.1497     6.8630     9.5569     7.9046     2.4827     0.0298     0.0986   123.9955
  272.5000   -53.4180     8.2886     6.9964     9.7345     7.9034     2.4780     0.0298     0.1015   123.8135
  273.0000   -53.3472     8.4308     7.1324     9.8739     7.9023     2.4730     0.0325     0.1034   123.4134
  273.5000   -53.2768     8.5753     7.2700    10.0157     7.9011     2.4787     0.0353     0.1001   122.4318
  274.0000   -53.2037     8.7223     7.3500    10.0982     7.8999     2.4850     0.0382     0.0967   121.4432
  274.5000   -53.2948     8.8717     7.4071    10.0390     7.8987     2.4873     0.0385     0.0974   123.6711
  275.0000   -53.4660     9.0238     7.4601    10.0054     7.8960     2.4810     0.0358     0.1005   124.2937
  275.5000   -53.6397     9.1284     7.3913    10.0999     7.8906     2.4744     0.0330     0.1034   125.9764
  276.0000   -53.8133     8.9946     7.2954    10.1919     7.8849     2.4717     0.0323     0.1038   127.8157
  276.5000   -53.9867     8.8763     7.2008    10.1921     7.8807     2.4767     0.0355     0.1006   129.1068
  277.0000   -54.1600     8.7183     7.1073    10.0723     7.8577     2.4813     0.0388     0.0986   128.0214
  277.5000   -54.3334     8.7180     7.0151     9.9520     7.8590     2.4771     0.0418     0.1017   126.9841
  278.0000   -54.5068     8.8305     6.9322     9.7090     7.8579     2.4727     0.0397     0.1046   127.1021
  278.5000   -54.6802     9.0450     6.6914     9.6219     7.8684     2.4708     0.0382     0.1057   128.3420
  279.0000   -54.8536     8.9532     6.4986     9.5354     7.8977     2.4735     0.0413     0.1041   128.1391
  279.5000   -55.0270     8.8294     6.3114     9.4499     7.8989     2.4693     0.0445     0.1059   125.9938
  280.0000   -55.2004     8.7074     6.1295     9.3831     7.8987     2.4635     0.0420     0.1089   123.6592
  280.5000   -55.3741     8.5158     5.9529     9.2086     7.8986     2.4553     0.0363     0.1157   121.2390
  281.0000   -55.5445     8.2405     5.7814     9.0458     7.8986     2.4473     0.0304     0.1227   121.3118
  281.5000   -55.6700     7.9726     5.6325     8.8752     7.8988     2.4393     0.0271     0.1264   122.3330
  282.0000   -55.7636     7.7122     5.5269     7.3868     7.9038     2.4323     0.0257     0.1283   123.3473
  282.5000   -55.4752     7.4601     5.4612     4.9370     7.9091     2.4299     0.0243     0.1301   123.1301
  283.0000   -55.1659     7.8145     5.6249     6.1337     7.9142     2.4317     0.0244     0.1304   122.5341
  283.5000   -54.8577     8.1933     5.7969     9.3611     7.9182     2.4338     0.0252     0.1302   122.7723
  284.0000   -54.5493     8.5905     5.9742     9.9297     7.9156     2.4315     0.0260     0.1300   122.6120
  284.5000   -54.2412     8.9309     6.1569     9.9886     7.9131     2.4292     0.0269     0.1269   121.8633
  285.0000   -53.9530     9.1016     6.3452    10.1058     7.9107     2.4444     0.0277     0.1208   121.7026
  285.5000   -53.8426     9.3181     6.5392    10.2474     7.9082     2.4603     0.0294     0.1107   123.3393
  286.0000   -53.7258     9.4224     6.7392    10.3911     7.9058     2.4719     0.0313     0.1055   124.8649
  286.5000   -53.6085     9.5323     6.9453    10.4750     7.9033     2.4680     0.0288     0.1066   124.1778
  287.0000   -53.4912     9.6426     7.1113    10.2490     7.9009     2.4608     0.0240     0.1101   121.5291
  287.5000   -53.3738     9.7543     7.2243    10.0976     7.8985     2.4542     0.0261     0.1138   120.4417
  288.0000   -53.2578     9.8673     7.3393    10.5174     7.8800     2.4607     0.0281     0.1141   119.7137
  288.5000   -53.1799     9.9815     7.4560    10.6770     7.8593     2.4679     0.0301     0.1087   120.3381
  289.0000   -53.1811    10.0976     7.5746    10.7276     7.8384     2.4748     0.0321     0.1034   120.9006
  289.5000   -53.1808    10.0976     7.6952    10.7673     7.8192     2.4786     0.0338     0.0998   121.8830
  290.0000   -53.1809    10.0976     7.7733    10.8225     7.8200     2.4762     0.0312     0.1011   124.4740
  290.5000   -53.1809    10.0976     7.8273    10.8766     7.8416     2.4736     0.0284     0.1033   126.4710
  291.0000   -53.1810    10.0976     7.8817    10.9309     7.8625     2.4715     0.0258     0.1050   125.2536
