~VERSION INFORMATION
 VERS.                2.0:   CWLS LOG ASCII STANDARD - VERSION 2.0
 WRAP.                 NO:   ONE LINE PER DEPTH STEP
~WELL INFORMATION
#MNEM.UNIT      DATA TYPE    INFORMATION
#----------   ------------   ------------------------------
 STRT.F            6.0000:   START DEPTH
 STOP.F         4020.0000:   STOP DEPTH
 STEP.F            0.5000:   STEP LENGTH
 NULL.          -999.2500:   NO VALUE
 COMP. LAWRENCE/ALLISON INC:   COMPANY
 WELL.       66 JX #33-33:   WELL
 FLD .              NPR-3:   FIELD
 LOC .      S33 T39N R78W:   LOCATION
 CNTY.            NATRONA:   COUNTY
 STAT.            WYOMING:   STATE
 CTRY. UNITED STATES OF AMERICA:   COUNTRY
 SRVC.      Dresser Atlas:   SERVICE COMPANY
 DATE.        02-DEC-1983:   LOGDATE
 API .       490251095100:   API NUMBER
~CURVE INFORMATION
#MNEM.UNIT       API CODE    CURVE DESCRIPTION
#----------   ------------   ------------------------------
 DEPT.F                  :   
 CALD.IN     45 280 60 00:   CALIPER
 CNC .DEC    42 890 03 00:   NEUTRON POROSITY SANDSTONE
 PORD.DEC    45 890 12 00:   POROSITY DENSITY SANDSTONE
 DEN .G/C3   45 350 01 00:   COMPENSATED BULK DENSTIY
 CORR.G/C3   45 356 01 00:   DENSITY CORRECTION
 RFOC.OHMM   07 220 04 00:   RESISTIVITY FOCUSED LOG
 RILD.OHMM   07 120 46 00:   INDUCTION LOG DEEP RESISTIVITY
 RILM.OHMM   07 120 44 00:   INDUCTION LOG MEDIUM RESISTIVITY
 GRR .GAPI   07 310 01 00:   GAMMA RAY FROM RES. LOG.
 DT  .US/F   60 520 00 00:   INTERVAL TRANSIT TIME
 SPR .MV     07 010 01 00:   SPONTANEOUS POTENTIAL
~PARAMETER INFORMATION
#MNEM.UNIT          VALUE    DESCRIPTION
#----------   ------------   ------------------------------
 PD  .                 GL:   PERMANENT DATUM
 EPD .F              5141:   ELEVATION PERMANENT DATUM
 LMF .                 KB:   LOG MEASURED FROM
 DAPD.F                10:   FEET ABOVE PERMANENT DATUM
 DMF .                 KB:   DRILLING MEASURED FROM
 EKB .F              5151:   KELLING BUSHING
 EGL .F              5141:   GROUND LEVEL
 DATE.            12-2-83:   RUN DATE
 RUN .                  1:   RUN NUMBER
 DD  .F              4025:   DEPTH DRILLER
 DL  .F              4020:   DEPTH LOGGER
 BLI .F              4018:   BOTTOM LOG INTERVAL
 TLI .F                10:   TOP LOG INTERVAL
 CS  .IN            8.625:   CASING SIZE
 CBD .F               718:   CASING BOTTOM DRILLER
 CBL .F               722:   CASING BOTTOM LOGGER
 BS  .IN            7.875:   BIT SIZE
 BSD .F              4025:   BIT SIZE AT DEPTH
 DFT .            GEL/KCL:   DRILLING FLUID TYPE
 DFD .                  9:   DRILLING FLUID DENSITY
 DFV .                 45:   DRILLING FLUID VISCOSITY
 DFPH.                8.5:   DRILLING FLUID PH
 DFL .                 12:   DRILLING FLUID LOSS
 MSS .           FLOWLINE:   MUD SAMPLE SOURCE
 RMS .OHMM            .37:   RESISTIVITY MUD SAMPLE
 MST .F                88:   MUD SAMPLE TEMPERATURE
 RMF .OHMM            .29:   RESISTIVITY MUD FILTRATE SAMPLE
 MFST.F                88:   MUD FILTRATE SAMPLE TEMPERATURE
 RMC .OHMM            .46:   RESISTIVITY MUD CAKE
 MCST.F                88:   MUD CAKE SAMPLE TEMPERATURE
 MFSS.               MEAS:   MUD FILTRATE SAMPLE SOURCE
 MCSS.               CALC:   MUD CAKE SAMPLE SOURCE
 RMB .OHMM            .26:   RESISTIVITY MUD AT BHT
 BHT .F               127:   BOTTOM HOLE TEMPERATURE
 TCS .HRS               4:   TIME CURCULATED STOPPED
 MRT .F               127:   MAXIMUM RECORDED TEMPERATURE
 LUN .               6264:   LOGGING UNIT NUMBER
 LUL .              WLSTN:   LOGGING UNIT LOCATION
 ENGI.            PANASUK:   RECORDING ENGINEER
 WITN.              SCOTT:   WITNESSED BY
 CLNT.            A2DTECH:   CLIENT CODE
 ORIG.       2", 5" PRINT:   ORIGIN OF DATA
 UWI .       490251095100:   UNIQUE WELL ID
 DICO. A2D Technologies, Inc.:   DIGITIZING COMPANY
~OTHER INFORMATION
~A    DEPT    CALD        CNC       PORD        DEN       CORR       RFOC       RILD       RILM          GRR       DT        SPR   
# ...
 1805.5000     9.0550     0.2956     0.0702     2.5314     0.1209     6.2267     5.5758     5.2403   113.4464  -999.2500   -34.5197
 1806.0000     9.0571     0.2894     0.0682     2.5414     0.0987     5.4180     5.4401     5.0772   113.5122  -999.2500   -33.8900
 1806.5000     9.0592     0.2898     0.0574     2.5561     0.0758     4.9846     5.4150     5.0772   115.2028  -999.2500   -33.4369
 1807.0000     9.0613     0.2968     0.0479     2.5697     0.0731     5.0310     5.4650     5.2182   117.1075  -999.2500   -33.4650
 1807.5000     9.0635     0.2986     0.0438     2.5744     0.0759     5.6773     5.5665     5.3987   118.9394  -999.2500   -33.8224
 1808.0000     9.0622     0.2883     0.0463     2.5700     0.0722     6.2709     5.8612     5.5855   119.7137  -999.2500   -34.2148
 1808.5000     9.0600     0.2722     0.0516     2.5637     0.0552     6.7636     6.1147     5.7787   118.4751  -999.2500   -34.5971
 1809.0000     9.0577     0.2710     0.0520     2.5626     0.0406     7.1584     6.3792     5.9786   115.4203  -999.2500   -35.0006
 1809.5000     9.0555     0.2772     0.0497     2.5635     0.0414     7.4946     6.6551     6.1854   112.0722  -999.2500   -35.2706
 1810.0000     9.0533     0.2796     0.0494     2.5631     0.0421     7.6527     6.8045     6.3994   110.4781  -999.2500   -35.5400
 1810.5000     9.0510     0.2776     0.0534     2.5541     0.0428     7.5332     6.8839     6.6207   112.9475  -999.2500   -35.8137
 1811.0000     9.0488     0.2788     0.0600     2.5451     0.0443     7.4180     6.9421     6.8785   115.7808  -999.2500   -36.0845
 1811.5000     9.0466     0.2859     0.0650     2.5432     0.0458     7.3361     6.9768     6.8785   118.5813  -999.2500   -36.3495
 1812.0000     9.0444     0.2902     0.0623     2.5475     0.0476     7.3854     7.0092     6.8785   120.2309  -999.2500   -36.4695
 1812.5000     9.0421     0.2846     0.0573     2.5540     0.0679     7.4312     7.0418     6.8785   120.2647  -999.2500   -36.5319
 1813.0000     9.0399     0.2787     0.0552     2.5564     0.0893     7.4724     7.0710     6.8785   118.5439  -999.2500   -36.6036
 1813.5000     9.0377     0.2727     0.0582     2.5543     0.0865     7.5614     7.0710     6.8372   117.7485  -999.2500   -36.6707
 1814.0000     9.0355     0.2694     0.0624     2.5478     0.0552     7.6815     7.0152     6.7921   118.4948  -999.2500   -36.7404
 1814.5000     9.0332     0.2792     0.0650     2.5415     0.0235     7.5881     6.9398     6.7531   119.1987  -999.2500   -36.8084
 1815.0000     9.0310     0.2961     0.0646     2.5414     0.0038     7.4141     6.8629     6.6853   118.8265  -999.2500   -36.8778
 1815.5000     9.0288     0.3031     0.0636     2.5429     0.0142     7.2442     6.7868     6.6133   118.4370  -999.2500   -36.9460
 1816.0000     9.0265     0.3094     0.0605     2.5481     0.0418     7.0062     6.7116     6.5422   118.8697  -999.2500   -37.0134
 1816.5000     9.0242     0.2978     0.0565     2.5552     0.0690     7.0142     6.6375     6.4717   120.1255  -999.2500   -36.9087
 1817.0000     9.0278     0.2845     0.0524     2.5624     0.0801     7.0283     6.5644     6.4021   121.2809  -999.2500   -36.7533
 1817.5000     9.0325     0.2722     0.0503     2.5657     0.0559     7.0425     6.4922     6.3318   122.1966  -999.2500   -36.6042
 1818.0000     9.0372     0.2730     0.0508     2.5654     0.0325     7.0567     6.4483     6.3318   123.1638  -999.2500   -36.4579
 1818.5000     9.0418     0.2843     0.0510     2.5677     0.0530     7.0710     6.5559     6.3318   121.5360  -999.2500   -36.2983
 1819.0000     9.0465     0.2950     0.0459     2.5732     0.0725     7.0852     6.6665     6.3318   117.9516  -999.2500   -36.2201
 1819.5000     9.0511     0.2964     0.0411     2.5789     0.0864     7.0995     6.7790     6.4441   115.8653  -999.2500   -36.2301
 1820.0000     9.0558     0.2825     0.0414     2.5772     0.0826     7.1139     6.8934     6.5863   116.9969  -999.2500   -36.2257
 1820.5000     9.0604     0.2678     0.0471     2.5700     0.0596     7.1282     7.0096     6.7316   118.8699  -999.2500   -36.2276
 1821.0000     9.0636     0.2598     0.0518     2.5628     0.0390     7.2324     7.1276     6.8801   118.5279  -999.2500   -36.2283
 1821.5000     9.0621     0.2617     0.0514     2.5619     0.0471     7.4595     7.2474     7.0319   119.1425  -999.2500   -36.2137
 1822.0000     9.0607     0.2651     0.0503     2.5637     0.0567     7.6937     7.3689     7.1871   120.1025  -999.2500   -36.1687
 1822.5000     9.0593     0.2684     0.0498     2.5653     0.0663     7.9428     7.4936     7.3361   118.5870  -999.2500   -36.1263
 1823.0000     9.0578     0.2757     0.0518     2.5619     0.0724     8.1187     7.6111     7.1728   117.6267  -999.2500   -36.0805
 1823.5000     9.0564     0.2901     0.0544     2.5585     0.0569     8.0905     7.5091     7.0628   118.1072  -999.2500   -36.0359
 1824.0000     9.0550     0.2957     0.0543     2.5559     0.0526     8.0615     7.4147     6.9544   120.9045  -999.2500   -35.9999
 1824.5000     9.0536     0.2998     0.0504     2.5638     0.0660     7.9377     7.3215     6.8478   124.7157  -999.2500   -35.9422
 1825.0000     9.0522     0.2998     0.0465     2.5716     0.0814     7.5753     7.2295     6.7427   127.3029  -999.2500   -35.8943
 1825.5000     9.0508     0.2997     0.0426     2.5793     0.0828     7.2302     7.1386     6.6393   128.2714  -999.2500   -35.8312
 1826.0000     9.0494     0.2992     0.0382     2.5826     0.0633     6.9421     7.0489     6.5375   122.8011  -999.2500   -35.8812
 1826.5000     9.0480     0.2987     0.0367     2.5850     0.0402     6.9575     6.8694     6.4494   116.3006  -999.2500   -36.0308
 1827.0000     9.0466     0.2890     0.0353     2.5876     0.0376     6.9791     6.6136     6.0899   115.5996  -999.2500   -36.1573
 1827.5000     9.0451     0.2744     0.0339     2.5924     0.0441     7.0007     6.1876     5.4627   116.6566  -999.2500   -36.3140
 1828.0000     9.0436     0.2731     0.0439     2.5856     0.0861     7.0654     5.4720     4.9001   116.0686  -999.2500   -36.3565
 1828.5000     9.0414     0.2994     0.0819     2.5362     0.1249     7.2023     4.8393     4.3954   113.7098  -999.2500   -35.6947
 1829.0000     9.0392     0.3312     0.1089     2.4878     0.1306     7.2023     4.2796     3.9427   112.5680  -999.2500   -35.0008
 1829.5000     9.0370     0.3525     0.1258     2.4465     0.1361     6.0753     3.9532     3.5367   113.8577  -999.2500   -34.2858
 1830.0000     9.0347     0.3211     0.1006     2.4715     0.0953     4.5012     3.9340     3.2050   116.3812  -999.2500   -33.6280
 1830.5000     9.0325     0.2903     0.0723     2.5180     0.0490     3.3350     3.9148     3.3254   117.5559  -999.2500   -32.8332
 1831.0000     9.0303     0.2737     0.0590     2.5499     0.0436     2.9232     3.8881     3.6599   117.2219  -999.2500   -32.4434
 1831.5000     9.0280     0.2646     0.0626     2.5477     0.0454     3.6980     3.9241     4.0280   114.6555  -999.2500   -32.9866
 1832.0000     9.0258     0.2712     0.0642     2.5441     0.0224     4.9168     4.0339     4.4332   110.5755  -999.2500   -33.4480
 1832.5000     9.0240     0.2875     0.0586     2.5525     0.0321     6.8785     4.3500     4.8791   109.7321  -999.2500   -33.9423
 1833.0000     9.0251     0.2948     0.0498     2.5664     0.0488     7.1122     4.7728     5.3698   110.3218  -999.2500   -34.4319
 1833.5000     9.0262     0.2994     0.0443     2.5757     0.0654     7.0756     5.2366     5.7223   111.9147  -999.2500   -34.8299
 1834.0000     9.0272     0.2802     0.0454     2.5736     0.0821     6.9919     5.7456     5.8809   114.3617  -999.2500   -35.0638
 1834.5000     9.0282     0.2701     0.0467     2.5712     0.0994     6.8854     6.2738     6.0263   117.8303  -999.2500   -35.3121
 1835.0000     9.0293     0.2632     0.0484     2.5688     0.1001     6.9037     6.5306     6.1752   120.8703  -999.2500   -35.5554
 1835.5000     9.0303     0.2573     0.0511     2.5664     0.0923     6.9883     6.6146     6.3288   121.8146  -999.2500   -35.7955
