~VERSION INFORMATION
 VERS.                2.0:   CWLS LOG ASCII STANDARD - VERSION 2.0
 WRAP.                 NO:   ONE LINE PER DEPTH STEP
~WELL INFORMATION
#MNEM.UNIT      DATA TYPE    INFORMATION
#----------   ------------   ------------------------------
 STRT.F           20.0000:   START DEPTH
 STOP.F          503.5000:   STOP DEPTH
 STEP.F            0.5000:   STEP LENGTH
 NULL.          -999.2500:   NO VALUE
 COMP.   FLUOR DANIEL INC:   COMPANY
 WELL. NAVAL PETROLEUM RESERVE 3 X-10 #71-3-10:   WELL
 FLD .          N.P.R. #3:   FIELD
 LOC .      S10 T37N R78W:   LOCATION
 CNTY.            NATRONA:   COUNTY
 STAT.            WYOMING:   STATE
 CTRY. UNITED STATES OF AMERICA:   COUNTRY
 SRVC.      Western Atlas:   SERVICE COMPANY
 DATE.        02-MAY-1996:   LOGDATE
 API .       490252277900:   API NUMBER
~CURVE INFORMATION
#MNEM.UNIT       API CODE    CURVE DESCRIPTION
#----------   ------------   ------------------------------
 DEPT.F                  :   
 AMP .MV     81 524 00 00:   AMPLITUD
 GR  .GAPI   81 310 01 00:   GAMMA RAY
~PARAMETER INFORMATION
#MNEM.UNIT          VALUE    DESCRIPTION
#----------   ------------   ------------------------------
 PD  .                 GL:   PERMANENT DATUM
 EPD .F            5165.5:   ELEVATION PERMANENT DATUM
 LMF .                 KB:   LOG MEASURED FROM
 DAPD.F                10:   FEET ABOVE PERMANENT DATUM
 DMF .                 KB:   DRILLING MEASURED FROM
 EKB .F            5175.5:   KELLING BUSHING
 EDF .F            5174.5:   DRILLING FLOOR
 EGL .F            5165.5:   GROUND LEVEL
 DATE.        02-MAY-1996:   RUN DATE
 RUN .                  1:   RUN NUMBER
 DD  .F               515:   DEPTH DRILLER
 DL  .F               511:   DEPTH LOGGER
 BLI .F               504:   BOTTOM LOG INTERVAL
 TLI .F                20:   TOP LOG INTERVAL
 CS  .IN              4.5:   CASING SIZE
 BSD .F               515:   BIT SIZE AT DEPTH
 DFT .              WATER:   DRILLING FLUID TYPE
 TCS .HRS              75:   TIME CURCULATED STOPPED
 LUN .            ML 4116:   LOGGING UNIT NUMBER
 LUL .             CASPER:   LOGGING UNIT LOCATION
 ENGI.          MARK HAMM:   RECORDING ENGINEER
 WITN.        STEVE HARDY:   WITNESSED BY
 CLNT.            A2DTECH:   CLIENT CODE
 ORIG.           5" PRINT:   ORIGIN OF DATA
 UWI .       490252277900:   UNIQUE WELL ID
 DICO. A2D Technologies, Inc.:   DIGITIZING COMPANY
~OTHER INFORMATION
~A   DEPT        AMP        GR  
# ...
  141.5000    27.2499    42.2404
  142.0000    26.1846    41.0916
  142.5000    25.1003    37.2710
  143.0000    24.7038    38.3805
  143.5000    25.3528    42.9878
  144.0000    24.7178    42.6024
  144.5000    23.8691    40.6903
  145.0000    23.4463    39.5415
  145.5000    24.0954    42.2095
  146.0000    24.5291    43.3518
  146.5000    22.8254    41.0570
  147.0000    15.8723    37.0456
  147.5000     7.4061    35.4834
  148.0000     2.3267    37.9924
  148.5000     0.6230    39.1654
  149.0000     0.6292    39.5116
  149.5000     0.6355    39.8886
  150.0000     0.0000    42.5563
  150.5000     0.0064    41.7873
  151.0000     0.0128    40.2550
  151.5000     0.0192    41.2035
  152.0000     0.0269    43.2971
  152.5000     0.6744    42.7190
  153.0000     0.8945    40.4233
  153.5000     0.6871    41.3718
  154.0000     0.4796    44.6105
  154.5000     0.2706    44.6234
  155.0000     0.0632    43.4542
  155.5000     0.0711    43.2576
  156.0000     0.0775    44.0687
  156.5000     0.5113    44.9640
  157.0000     0.7313    41.3310
  157.5000     0.3102    38.8444
  158.0000     0.1026    39.4113
  158.5000     0.1091    42.8408
  159.0000     0.1154    45.8886
  159.5000     0.1218    50.0814
  160.0000     0.0997    47.0223
  160.5000    -0.0794    44.7266
  161.0000     0.1412    44.3393
  161.5000     0.1475    43.5703
  162.0000     0.1539    41.6563
  162.5000    -0.2850    41.6190
  163.0000    -0.0470    43.3626
  163.5000     0.1744    45.4726
  164.0000     0.1807    48.5853
  164.5000     0.4008    50.8206
  165.0000     0.4071    51.1644
  165.5000     0.4134    50.2032
  166.0000     0.4198    48.4800
  166.5000     0.6398    45.8026
  167.0000     0.2171    42.5527
  167.5000     0.2250    44.2646
  168.0000     0.1092    46.9308
  168.5000     0.0223    46.5434
  169.0000    -0.1838    44.6294
  169.5000    -0.3911    42.5245
  170.0000    -0.3846    40.9922
  170.5000    -0.1646    40.0323
  171.0000    -0.1482    40.0242
  171.5000    -0.1519    42.5344
  172.0000    -0.3593    44.0687
  172.5000    -0.1377    44.5900
  173.0000    -0.3451    41.9112
  173.5000    -0.3388    40.3788
  174.0000    -0.3325    41.5182
  174.5000    -0.3261    43.4210
  175.0000    -0.1061    43.2245
  175.5000     0.1140    42.4555
  176.0000     0.1203    43.0224
  176.5000     0.1266    43.2090
  177.0000     0.5604    42.0569
  177.5000     0.7805    40.5246
  178.0000     1.0006    39.5647
  178.5000     1.0069    39.9408
  179.0000     1.0132    41.8461
  179.5000     1.0195    42.2196
  180.0000     0.8121    40.8270
  180.5000     0.6047    39.9168
  181.0000     0.3973    42.2012
  181.5000     0.4052    46.0124
  182.0000     0.4115    48.4891
  182.5000     0.4168    45.6195
  183.0000     0.4232    41.6062
  183.5000     0.4296    42.1731
  184.0000     0.4360    45.6025
  184.5000     0.4436    49.0320
  185.0000     0.4500    51.6981
  185.5000     0.4563    53.7917
  186.0000     0.4626    53.4044
  186.5000     0.4689    50.7270
  187.0000     0.4753    48.2176
  187.5000     0.4816    44.3543
  188.0000     0.2726    39.7201
  188.5000     0.4942    38.2999
  189.0000     0.5005    39.4379
  189.5000     0.5069    42.4857
  190.0000     0.7269    44.3899
  190.5000     1.1607    42.8561
  191.0000     1.3808    41.8963
  191.5000     1.3872    39.4097
  192.0000     1.3936    39.5949
  192.5000     1.4000    40.5435
  193.0000     2.0489    40.9209
  193.5000     2.2690    40.7231
  194.0000     2.4890    39.9541
  194.5000     2.4953    39.7576
  195.0000     2.7154    40.7125
  195.5000     2.9355    42.2825
  196.0000     2.9418    43.1758
  196.5000     2.9481    42.0237
  197.0000     2.9544    41.4456
  197.5000     2.7454    41.6322
  198.0000     2.7533    41.6251
  198.5000     2.5456    40.6653
  199.0000     2.5522    39.8963
  199.5000     2.3447    41.4174
  200.0000     1.7113    43.5115
  200.5000     1.2901    44.2748
  201.0000     1.0847    45.8015
  201.5000     0.8793    45.9924
  202.0000     0.6740    45.9924
  202.5000     0.4686    45.8015
  203.0000    -0.1624    45.2290
  203.5000    -0.3676    43.8931
  204.0000    -0.3591    42.3664
  204.5000    -0.3505    41.6031
  205.0000    -0.3404    40.8143
  205.5000    -0.3320    39.6947
  206.0000    -0.3237    39.6947
  206.5000    -0.3153    39.8855
  207.0000    -0.0932    39.3130
  207.5000    -0.0848    38.3588
  208.0000     0.1373    37.0229
  208.5000     0.1456    36.2595
  209.0000     0.1540    37.0229
  209.5000    -0.0514    37.9771
  210.0000    -0.0427    38.9313
  210.5000    -0.0326    39.3130
  211.0000     0.1895    39.6947
  211.5000     0.8391    38.9275
  212.0000     1.0612    37.7685
  212.5000     1.2833    36.8003
  213.0000     1.5033    36.2595
  213.5000     0.8726    36.4504
  214.0000     0.8809    37.7863
  214.5000     0.6754    38.1679
  215.0000     0.4631    37.0229
  215.5000     0.2648    34.9237
  216.0000     0.2752    35.8779
  216.5000     0.2836    38.7405
  217.0000     0.2920    40.4580
  217.5000     0.3003    41.9847
  218.0000     0.5224    42.9389
  218.5000     0.5308    42.9300
  219.0000     0.7529    42.7481
  219.5000     0.7612    42.3664
  220.0000     0.9833    41.7939
  220.5000     1.2055    41.2214
  221.0000     1.0001    41.2214
  221.5000     1.0105    41.2214
  222.0000     0.8031    39.6947
  222.5000     0.5998    37.9771
  223.0000     0.3923    35.8779
  223.5000    -0.0247    35.3053
  224.0000    -0.0164    34.3511
  224.5000    -0.0080    32.8244
  225.0000    -0.2134    29.0076
  225.5000     0.0087    26.8944
  226.0000     0.0200    26.3359
  226.5000     0.2394    28.2443
  227.0000     0.2496    32.4427
  227.5000     0.4717    36.8321
  228.0000     0.4801    38.5496
  228.5000     0.4885    38.1679
  229.0000     0.4968    36.0687
  229.5000     0.7189    33.5878
  230.0000     0.7273    34.5420
  230.5000     0.7356    37.7863
  231.0000     0.9577    37.5954
  231.5000     0.9661    32.4427
  232.0000     0.7607    29.9618
  232.5000     0.5553    31.4696
  233.0000     0.5658    36.4249
  233.5000     0.3583    39.8855
  234.0000     0.3688    43.5115
  234.5000     0.3771    43.7023
  235.0000     0.3855    41.6031
  235.5000     0.3939    40.0763
  236.0000     0.4022    40.0763
  236.5000     0.4106    39.6947
  237.0000     0.6327    37.4046
  237.5000     0.6412    36.8321
  238.0000     0.6868    37.5954
  238.5000     1.3011    39.6947
  239.0000     1.7369    40.0763
  239.5000     2.1728    39.4796
  240.0000     2.1811    35.1145
  240.5000     2.6170    34.7328
  241.0000     2.8391    33.7786
  241.5000     2.8474    31.2977
  242.0000     2.8558    29.9618
  242.5000     3.0779    30.1527
  243.0000     3.3002    30.5344
  243.5000     3.5574    30.5344
  244.0000     3.7463    29.9618
  244.5000     3.3251    29.9351
  245.0000     2.9060    30.7252
  245.5000     2.9164    33.7837
  246.0000     2.7089    37.0534
  246.5000     2.2898    38.6082
  247.0000     1.8728    39.3130
  247.5000     1.2399    39.6947
  248.0000     0.8208    39.3130
  248.5000     0.4017    38.3588
  249.0000     0.1639    35.4962
  249.5000    -0.0091    31.6794
  250.0000     0.0000    30.1527
  250.5000     0.0085    35.1145
  251.0000     0.0171    35.4962
  251.5000     0.0256    36.0687
  252.0000     0.0342    36.0687
  252.5000     0.0427    35.3053
  253.0000     0.0513    33.3702
  253.5000     0.0609    32.0611
  254.0000    -0.1458    33.1145
  254.5000     0.0784    36.2595
  255.0000     0.0868    37.5954
  255.5000     0.3090    37.7863
  256.0000     0.3174    37.0229
  256.5000     0.3258    35.8779
  257.0000     0.5479    35.4962
  257.5000     1.6250    35.1145
  258.0000     4.6258    34.7328
  258.5000     5.9166    34.3511
  259.0000     7.0092    34.1603
  259.5000     4.0098    34.5420
  260.0000     1.4533    35.4962
  260.5000     3.2012    37.4046
  261.0000     2.9684    39.7176
  261.5000     1.6943    40.0763
  262.0000     0.4203    37.2977
  262.5000    -0.2125    35.3053
