~VERSION INFORMATION
 VERS.                2.0:   CWLS LOG ASCII STANDARD - VERSION 2.0
 WRAP.                 NO:   ONE LINE PER DEPTH STEP
~WELL INFORMATION
#MNEM.UNIT      DATA TYPE    INFORMATION
#----------   ------------   ------------------------------
 STRT.F           88.0000:   START DEPTH
 STOP.F          991.0000:   STOP DEPTH
 STEP.F            0.5000:   STEP LENGTH
 NULL.          -999.2500:   NO VALUE
 COMP. US NAVY /INTEX OIL CO.:   COMPANY
 WELL.    NPR #3 #S-11 63:   WELL
 FLD .             TEAPOT:   FIELD
 LOC .      S11 T38N R78W:   LOCATION
 CNTY.            NATRONA:   COUNTY
 STAT.            WYOMING:   STATE
 CTRY. UNITED STATES OF AMERICA:   COUNTRY
 SRVC.       Schlumberger:   SERVICE COMPANY
 DATE.        24-JUL-1964:   LOGDATE
 API .       490250636200:   API NUMBER
~CURVE INFORMATION
#MNEM.UNIT       API CODE    CURVE DESCRIPTION
#----------   ------------   ------------------------------
 DEPT.F                  :   
 SPR .MV     05 010 01 00:   SPONTANEOUS POTENTIAL FROM RES.
 ASN .OHMM   05 041 16 00:   AMPLIFIED SHORT NORMAL 16"
 ILD .OHMM   05 120 46 00:   INDUCTION LOG DEEP
 CILD.MMHO   05 110 46 00:   CONDUCTIVITY INDUCTION LOG DEEP
 CALS.IN     60 280 50 00:   CALIPER FROM SONIC LOG
 DT  .US/F   60 520 33 00:   INTERVAL TRANSIT TIME
 GR  .GAPI   30 310 01 00:   GAMMA RAY
~PARAMETER INFORMATION
#MNEM.UNIT          VALUE    DESCRIPTION
#----------   ------------   ------------------------------
 PD  .                 GL:   PERMANENT DATUM
 LMF .                 KB:   LOG MEASURED FROM
 DAPD.F                 5:   FEET ABOVE PERMANENT DATUM
 DMF .                 KB:   DRILLING MEASURED FROM
 EKB .F              5914:   KELLING BUSHING
 DATE.          7-24-1964:   RUN DATE
 RUN .                  1:   RUN NUMBER
 DD  .F               990:   DEPTH DRILLER
 DL  .F               992:   DEPTH LOGGER
 BLI .F               991:   BOTTOM LOG INTERVAL
 TLI .F               990:   TOP LOG INTERVAL
 CS  .IN            8.625:   CASING SIZE
 CBD .F                15:   CASING BOTTOM DRILLER
 BS  .IN             6.75:   BIT SIZE
 BSD .F               990:   BIT SIZE AT DEPTH
 DFT .            GEL OIL:   DRILLING FLUID TYPE
 DFD .                9.2:   DRILLING FLUID DENSITY
 DFV .                 47:   DRILLING FLUID VISCOSITY
 MSS .            MUD PIT:   MUD SAMPLE SOURCE
 RMS .OHMM           1.24:   RESISTIVITY MUD SAMPLE
 MST .F                75:   MUD SAMPLE TEMPERATURE
 RMF .OHMM           .801:   RESISTIVITY MUD FILTRATE SAMPLE
 MFST.F                80:   MUD FILTRATE SAMPLE TEMPERATURE
 MFSS.                 FP:   MUD FILTRATE SAMPLE SOURCE
 RMB .OHMM           1.09:   RESISTIVITY MUD AT BHT
 BHT .F                85:   BOTTOM HOLE TEMPERATURE
 TCS .HRS              .5:   TIME CURCULATED STOPPED
 MRT .F                85:   MAXIMUM RECORDED TEMPERATURE
 LUN .               2572:   LOGGING UNIT NUMBER
 LUL .                 MC:   LOGGING UNIT LOCATION
 ENGI.             BOWLER:   RECORDING ENGINEER
 WITN.          JORGENSEN:   WITNESSED BY
 CLNT.            A2DTECH:   CLIENT CODE
 ORIG.      2" & 5" PRINT:   ORIGIN OF DATA
 UWI .       490250636200:   UNIQUE WELL ID
 DICO. A2D Technologies, Inc.:   DIGITIZING COMPANY
~OTHER INFORMATION
~A   DEPT      SPR          ASN        ILD      CILD      CALS         DT         GR   
# ...
  133.5000   -46.6050     7.9013     7.1936   137.3019  -999.2500  -999.2500  -999.2500
  134.0000   -46.5979     7.9767     7.1965   135.7876  -999.2500  -999.2500  -999.2500
  134.5000   -46.5908     8.0521     7.1994   134.2732  -999.2500  -999.2500  -999.2500
  135.0000   -46.5838     8.0675     7.0535   133.5051  -999.2500  -999.2500  -999.2500
  135.5000   -46.5767     8.0530     6.9083   135.7275  -999.2500  -999.2500  -999.2500
  136.0000   -46.5696     8.0234     6.6880   140.1779  -999.2500  -999.2500  -999.2500
  136.5000   -46.5625     7.8739     6.3933   144.6337  -999.2500  -999.2500  -999.2500
  137.0000   -46.5552     7.6313     6.0985   148.3432  -999.2500  -999.2500  -999.2500
  137.5000   -46.5466     7.2801     5.6550   152.8609  -999.2500  -999.2500  -999.2500
  138.0000   -46.5396     7.0508     5.4347   157.2493  -999.2500  -999.2500  -999.2500
  138.5000   -46.5325     6.9313     5.3631   159.4717  -999.2500  -999.2500  -999.2500
  139.0000   -46.2347     6.7968     5.4405   161.6887  -999.2500  -999.2500  -999.2500
  139.5000   -46.0823     6.7222     5.5992   164.6465  -999.2500  -999.2500  -999.2500
  140.0000   -46.0752     6.8576     5.8934   168.3615  -999.2500  -999.2500  -999.2500
  140.5000   -45.9228     7.1129     6.1196   166.8417  -999.2500  -999.2500  -999.2500
  141.0000   -46.0611     7.1883     6.2713   161.5960  -999.2500  -999.2500  -999.2500
  141.5000   -46.2180     7.2187     6.4230   157.8428  -999.2500  -999.2500  -999.2500
  142.0000   -46.6283     7.2493     6.4259   153.3433  -999.2500  -999.2500  -999.2500
  142.5000   -46.6195     7.3247     6.5032   150.3359  -999.2500  -999.2500  -999.2500
  143.0000   -46.6124     7.4001     6.5805   147.3241  -999.2500  -999.2500  -999.2500
  143.5000   -46.6053     7.4755     6.8066   143.5709  -999.2500  -999.2500  -999.2500
  144.0000   -46.5983     7.6408     6.8839   141.3103  -999.2500  -999.2500  -999.2500
  144.5000   -46.5912     7.8961     7.0476   138.3034  -999.2500  -999.2500  -999.2500
  145.0000   -46.4388     8.0615     7.1880   135.2965  -999.2500  -999.2500  -999.2500
  145.5000   -46.4317     8.1819     7.3397   132.2896  -999.2500  -999.2500  -999.2500
  146.0000   -46.4244     8.3036     7.4170   129.2827  -999.2500  -999.2500  -999.2500
  146.5000   -46.4158     8.4377     7.4943   126.2758  -999.2500  -999.2500  -999.2500
  147.0000   -46.4087     8.4981     7.5717   124.7611  -999.2500  -999.2500  -999.2500
  147.5000   -46.4016     8.5585     7.7234   123.2463  -999.2500  -999.2500  -999.2500
  148.0000   -46.3946     8.6189     7.7263   123.2198  -999.2500  -999.2500  -999.2500
  148.5000   -46.3875     8.6793     7.8036   123.1980  -999.2500  -999.2500  -999.2500
  149.0000   -46.3804     8.7248     7.7321   124.6687  -999.2500  -999.2500  -999.2500
  149.5000   -46.5189     8.7402     7.7357   125.3986  -999.2500  -999.2500  -999.2500
  150.0000   -46.5116     8.7406     7.6450   127.4261  -999.2500  -999.2500  -999.2500
  150.5000   -46.7957     8.5837     7.4178   130.8547  -999.2500  -999.2500  -999.2500
  151.0000   -46.7901     8.4567     7.2238   133.5224  -999.2500  -999.2500  -999.2500
  151.5000   -46.7844     8.3672     7.0778   134.9853  -999.2500  -999.2500  -999.2500
  152.0000   -46.7787     8.3077     7.0807   134.9552  -999.2500  -999.2500  -999.2500
  152.5000   -46.6277     8.2481     7.0836   135.6736  -999.2500  -999.2500  -999.2500
  153.0000   -46.4767     8.1886     7.0865   135.6373  -999.2500  -999.2500  -999.2500
  153.5000   -46.4709     8.2040     7.0894   135.6084  -999.2500  -999.2500  -999.2500
  154.0000   -46.3186     8.2346     7.0923   135.5794  -999.2500  -999.2500  -999.2500
  154.5000   -46.1676     8.2500     7.0954   135.5504  -999.2500  -999.2500  -999.2500
  155.0000   -46.1619     8.2804     7.0987   134.7752  -999.2500  -999.2500  -999.2500
  155.5000   -46.3030     8.2809     7.1016   134.7462  -999.2500  -999.2500  -999.2500
  156.0000   -46.2960     8.2063     7.1045   134.7164  -999.2500  -999.2500  -999.2500
  156.5000   -46.2903     8.1468     7.1074   134.6810  -999.2500  -999.2500  -999.2500
  157.0000   -46.2846     8.1322     7.1103   134.6520  -999.2500  -999.2500  -999.2500
  157.5000   -46.2790     8.1627     7.0387   134.6230  -999.2500  -999.2500  -999.2500
  158.0000   -46.2732     8.1782     7.0416   134.5940  -999.2500  -999.2500  -999.2500
  158.5000   -46.2675     8.1786     6.9701   134.5650  -999.2500  -999.2500  -999.2500
  159.0000   -46.2606     8.1791     6.8986   134.5361  -999.2500  -999.2500  -999.2500
  159.5000   -46.2549     8.1495     6.8271   135.2537  -999.2500  -999.2500  -999.2500
  160.0000   -46.2492     8.1349     6.8307   135.9706  -999.2500  -999.2500  -999.2500
  160.5000   -46.2436     8.0455     6.8336   136.6879  -999.2500  -999.2500  -999.2500
  161.0000   -46.2379     7.9559     6.7613   137.4052  -999.2500  -999.2500  -999.2500
  161.5000   -46.2323     7.8962     6.7649   137.3690  -999.2500  -999.2500  -999.2500
  162.0000   -46.2266     7.8369     6.7678   138.8398  -999.2500  -999.2500  -999.2500
  162.5000   -46.2209     7.8374     6.6963   139.5571  -999.2500  -999.2500  -999.2500
  163.0000   -46.2152     7.8528     6.6248   140.2744  -999.2500  -999.2500  -999.2500
  163.5000   -46.2082     7.8533     6.5533   141.7307  -999.2500  -999.2500  -999.2500
  164.0000   -46.2025     7.8687     6.4825   142.4675  -999.2500  -999.2500  -999.2500
  164.5000   -46.1969     7.8691     6.4854   143.1652  -999.2500  -999.2500  -999.2500
  165.0000   -46.1912     7.8846     6.4131   143.8825  -999.2500  -999.2500  -999.2500
  165.5000   -46.1855     7.8700     6.4911   144.5998  -999.2500  -999.2500  -999.2500
  166.0000   -46.0345     7.8395     6.4940   144.5636  -999.2500  -999.2500  -999.2500
  166.5000   -46.0289     7.7661     6.5720   144.5346  -999.2500  -999.2500  -999.2500
  167.0000   -45.8778     7.6915     6.5749   144.5056  -999.2500  -999.2500  -999.2500
  167.5000   -45.8721     7.5570     6.5778   143.7304  -999.2500  -999.2500  -999.2500
  168.0000   -45.8663     7.4974     6.5807   143.7014  -999.2500  -999.2500  -999.2500
  168.5000   -46.0062     7.6479     6.6580   142.9253  -999.2500  -999.2500  -999.2500
  169.0000   -46.1459     7.7682     6.7353   142.8899  -999.2500  -999.2500  -999.2500
  169.5000   -46.1388     7.8886     6.8869   142.1147  -999.2500  -999.2500  -999.2500
  170.0000   -46.2799     7.9790     6.8899   141.3394  -999.2500  -999.2500  -999.2500
  170.5000   -46.2728     8.1029     6.9678   140.5618  -999.2500  -999.2500  -999.2500
  171.0000   -46.2672     8.1899     6.9707   139.7889  -999.2500  -999.2500  -999.2500
  171.5000   -46.1162     8.2053     6.9736   139.0137  -999.2500  -999.2500  -999.2500
  172.0000   -46.1105     8.0858     7.0509   138.2384  -999.2500  -999.2500  -999.2500
  172.5000   -46.1046     8.0712     7.0538   136.7164  -999.2500  -999.2500  -999.2500
  173.0000   -45.9524     8.1467     7.0567   135.9344  -999.2500  -999.2500  -999.2500
  173.5000   -45.9468     8.3420     7.2084   134.2463  -999.2500  -999.2500  -999.2500
  174.0000   -45.9411     8.7622     7.2114   132.8914  -999.2500  -999.2500  -999.2500
  174.5000   -45.9354     8.8526     7.2893   132.1161  -999.2500  -999.2500  -999.2500
  175.0000   -45.9298     8.8356     7.5154   130.5946  -999.2500  -999.2500  -999.2500
  175.5000   -45.9241     8.7487     7.5182   130.5656  -999.2500  -999.2500  -999.2500
  176.0000   -45.9184     8.6741     7.5955   129.7904  -999.2500  -999.2500  -999.2500
  176.5000   -45.9128     8.6896     7.6728   128.2687  -999.2500  -999.2500  -999.2500
  177.0000   -45.8934     8.6900     7.7501   127.4925  -999.2500  -999.2500  -999.2500
  177.5000   -45.7547     8.7354     7.8274   126.7111  -999.2500  -999.2500  -999.2500
  178.0000   -45.6037     8.8258     7.8304   125.1896  -999.2500  -999.2500  -999.2500
  178.5000   -45.5980     8.9612     7.9083   124.4143  -999.2500  -999.2500  -999.2500
