~VERSION INFORMATION
 VERS.                2.0:   CWLS LOG ASCII STANDARD - VERSION 2.0
 WRAP.                 NO:   ONE LINE PER DEPTH STEP
~WELL INFORMATION
#MNEM.UNIT      DATA TYPE    INFORMATION
#----------   ------------   ------------------------------
 STRT.F           30.0000:   START DEPTH
 STOP.F          732.0000:   STOP DEPTH
 STEP.F            0.5000:   STEP LENGTH
 NULL.          -999.2500:   NO VALUE
 COMP. FENIX & SCISSON INC:   COMPANY
 WELL.        31-S #31-14:   WELL
 FLD .             TEAPOT:   FIELD
 LOC .      S14 T38N R78W:   LOCATION
 CNTY.            NATRONA:   COUNTY
 STAT.            WYOMING:   STATE
 CTRY. UNITED STATES OF AMERICA:   COUNTRY
 SRVC.              Welex:   SERVICE COMPANY
 DATE.        16-FEB-1977:   LOGDATE
 API .       490251027300:   API NUMBER
~CURVE INFORMATION
#MNEM.UNIT       API CODE    CURVE DESCRIPTION
#----------   ------------   ------------------------------
 DEPT.F                  :   
 CALD.IN     45 280 60 00:   CALIPER FROM DENSITY LOG
 CORR.G/C3   45 356 01 00:   DENSITY CORRECTION
 DPHI.DEC    45 890 12 00:   DENSITY POROSITY SANDSTONE
 GRD .GAPI   45 310 01 00:   GAMMA RAY FROM DENSITY LOG
 RHOB.G/C3   45 350 01 00:   BULK DENSITY
 GURD.OHMM   07 270 05 00:   SHALLOW SHORT GUARD RESISTIVITY
 ILM .OHMM   07 120 44 00:   INDUCTION LOG MEDIUM
 ILD .OHMM   07 120 46 00:   INDUCTION LOG DEEP
 SPR .MV     07 010 01 00:   SPONTANEOUS POTENTIAL
~PARAMETER INFORMATION
#MNEM.UNIT          VALUE    DESCRIPTION
#----------   ------------   ------------------------------
 PD  .                 GL:   PERMANENT DATUM
 EPD .F              5186:   ELEVATION PERMANENT DATUM
 LMF .                 GL:   LOG MEASURED FROM
 DMF .                 GL:   DRILLING MEASURED FROM
 EKB .F              5195:   KELLING BUSHING
 EGL .F              5186:   GROUND LEVEL
 DATE.        16-FEB-1977:   RUN DATE
 RUN .                  1:   RUN NUMBER
 DD  .F               740:   DEPTH DRILLER
 DL  .F               736:   DEPTH LOGGER
 BLI .F               734:   BOTTOM LOG INTERVAL
 TLI .F                30:   TOP LOG INTERVAL
 CS  .IN            8.625:   CASING SIZE
 CBD .F                40:   CASING BOTTOM DRILLER
 CBL .F                44:   CASING BOTTOM LOGGER
 BS  .IN            7.875:   BIT SIZE
 BSD .F               740:   BIT SIZE AT DEPTH
 DFT .   OIL EMULSION MUD:   DRILLING FLUID TYPE
 DFD .                8.3:   DRILLING FLUID DENSITY
 DFV .                 48:   DRILLING FLUID VISCOSITY
 DFPH.               10.5:   DRILLING FLUID PH
 DFL .                7.5:   DRILLING FLUID LOSS
 MSS .           FLOWLINE:   MUD SAMPLE SOURCE
 RMS .OHMM           0.80:   RESISTIVITY MUD SAMPLE
 MST .F                64:   MUD SAMPLE TEMPERATURE
 RMF .OHMM           0.68:   RESISTIVITY MUD FILTRATE SAMPLE
 MFST.F                64:   MUD FILTRATE SAMPLE TEMPERATURE
 RMC .OHMM           1.01:   RESISTIVITY MUD CAKE
 MCST.F                63:   MUD CAKE SAMPLE TEMPERATURE
 MFSS.               MEAS:   MUD FILTRATE SAMPLE SOURCE
 MCSS.               MEAS:   MUD CAKE SAMPLE SOURCE
 RMB .OHMM           0.74:   RESISTIVITY MUD AT BHT
 BHT .F                69:   BOTTOM HOLE TEMPERATURE
 TCS .HRS               5:   TIME CURCULATED STOPPED
 MRT .F                69:   MAXIMUM RECORDED TEMPERATURE
 LUN .               8611:   LOGGING UNIT NUMBER
 LUL .           GILLETTE:   LOGGING UNIT LOCATION
 ENGI.           D.LAWSON:   RECORDING ENGINEER
 WITN.             K.JAPP:   WITNESSED BY
 CLNT.            A2DTECH:   CLIENT CODE
 ORIG.         2.5" PRINT:   ORIGIN OF DATA
 UWI .       490251027300:   UNIQUE WELL ID
 DICO. A2D Technologies, Inc.:   DIGITIZING COMPANY
~OTHER INFORMATION
~A   DEPT       CALD      CORR      DPHI         GRD        RHOB     GURD        ILM        ILD        SPR   
# ...
  103.0000     8.2507     0.1437     0.1651   112.5945     2.3702   751.2426     4.4793     4.2150   -45.9849
  103.5000     8.2419     0.1414     0.1708   115.0104     2.3608   698.4216     4.2286     4.1014   -45.9835
  104.0000     8.2220     0.1443     0.1733   118.0593     2.3554   660.9982     4.0232     3.9364   -45.9821
  104.5000     8.1918     0.1442     0.1665   118.8559     2.3559   632.0295     3.8931     3.8833   -45.9807
  105.0000     8.1913     0.1501     0.1576   116.8101     2.3646   681.1053     3.8946     3.8838   -45.9792
  105.5000     8.1909     0.1561     0.1522   114.7661     2.3788   709.7764     3.8961     3.8843   -45.9777
  106.0000     8.1905     0.1595     0.1546   113.8160     2.3911   713.5316     3.8977     3.8849   -45.9763
  106.5000     8.1900     0.1619     0.1598   116.4884     2.3759   700.5770     3.7198     3.8638   -45.9748
  107.0000     8.2193     0.1607     0.1727   119.1605     2.3576   679.7148     3.5441     3.8060   -45.9733
  107.5000     8.2188     0.1544     0.1862   121.8325     2.3393   640.9705     3.3684     3.6789   -45.9716
  108.0000     8.2184     0.1511     0.1947   123.3176     2.3210   632.0295     3.1927     3.5310   -46.2669
  108.5000     8.2180     0.1438     0.2025   123.9125     2.3079   644.5568     3.0663     3.2972   -46.2655
  109.0000     8.1878     0.1437     0.2098   123.8704     2.3006   642.0832     2.9790     3.0789   -46.2641
  109.5000     8.1428     0.1407     0.2128   122.5771     2.2964   622.2838     2.8713     2.8728   -46.2626
  110.0000     8.0088     0.1406     0.2116   120.9494     2.2955   597.2592     2.8118     2.7912   -46.2611
  110.5000     7.9194     0.1376     0.2045   121.3556     2.3238   578.3836     2.7939     2.7221   -46.2596
  111.0000     7.8893     0.1375     0.1688   121.1128     2.3520   599.2459     2.9116     2.7897   -46.2582
  111.5000     7.9185     0.1374     0.1374   119.8650     2.3743   712.8859     3.0761     3.0807   -46.2567
  112.0000     7.9478     0.1414     0.1350   116.8014     2.4114   733.1222     3.3404     3.4867   -46.2550
  112.5000     8.0067     0.1463     0.1362   112.6485     2.4190   724.0445     3.5374     3.7865   -46.5504
  113.0000     8.0359     0.1462     0.1399   111.4630     2.4081   715.0894     3.7487     4.0560   -46.5489
  113.5000     8.0652     0.1432     0.1460   113.5416     2.3927   709.1145     3.9185     4.2855   -46.5475
  114.0000     8.0944     0.1371     0.1501   114.7300     2.3843   703.1397     4.1525     4.4054   -46.5460
  114.5000     8.1236     0.1341     0.1526   114.0569     2.3812   703.1252     4.4004     4.4669   -46.5445
  115.0000     8.1400     0.1310     0.1543   113.1800     2.3781   706.0917     4.5824     4.4675   -46.5430
  115.5000     8.1524     0.1340     0.1558   112.9538     2.3749   706.0757     4.7103     4.4463   -46.5415
  116.0000     8.1519     0.1343     0.1599   114.3521     2.3712   706.0609     4.7106     4.3521   -46.8368
  116.5000     8.1515     0.1398     0.1647   117.7463     2.3697   704.6601     4.5208     4.1974   -46.8351
  117.0000     8.1510     0.1438     0.1706   121.5641     2.3668   701.3519     4.3301     4.0051   -46.8337
  117.5000     8.1803     0.1470     0.1754   122.1590     2.3593   691.1122     4.0868     3.7917   -47.1291
  118.0000     8.1798     0.1486     0.1813   123.0506     2.3489   685.1374     3.8572     3.5896   -47.1276
  118.5000     8.1794     0.1485     0.1874   123.9422     2.3366   673.2019     3.6404     3.3971   -46.8294
  119.0000     8.1789     0.1485     0.1936   125.1325     2.3210   655.3058     3.3655     3.1632   -46.8279
  119.5000     8.1785     0.1454     0.1984   125.7868     2.3081   633.0132     3.0376     2.9363   -46.8264
  120.0000     8.1780     0.1424     0.2013   126.7359     2.3038   602.2261     2.8363     2.7421   -46.5282
  120.5000     8.1775     0.1393     0.2027   127.6850     2.3068   585.8046     2.7978     2.7089   -46.5267
  121.0000     8.1771     0.1363     0.2002   128.1036     2.3267   587.9206     2.8758     2.8102   -46.2282
  121.5000     8.1470     0.1326     0.1730   124.2656     2.3563   597.2492     3.0858     3.1755   -46.2268
  122.0000     8.1169     0.1302     0.1499   119.2050     2.3815   696.9384     3.3235     3.5446   -45.9287
  122.5000     8.1165     0.1301     0.1386   111.1946     2.4068   747.5897     3.6256     3.9025   -45.9273
  123.0000     8.1160     0.1317     0.1332   103.4809     2.4216   753.5363     3.9551     4.2967   -45.6291
  123.5000     8.1453     0.1360     0.1309   102.8887     2.4261   756.5029     4.3144     4.8208   -45.6276
  124.0000     8.1745     0.1389     0.1297   103.1870     2.4293   756.4880     4.7158     5.3248   -45.6261
  124.5000     8.2038     0.1419     0.1289   104.4585     2.4355   756.4731     4.9823     5.7297   -45.6246
  125.0000     8.2329     0.1388     0.1270   106.9486     2.4417   757.2034     5.3366     6.1293   -45.6231
  125.5000     8.2324     0.1387     0.1251   109.5168     2.4479   760.4816     5.6381     6.4483   -45.6214
  126.0000     8.2411     0.1357     0.1226   112.3324     2.4556   763.7600     5.9611     6.5811   -45.6200
  126.5000     8.2316     0.1363     0.1189   115.2834     2.4641   772.9990     6.2216     6.6729   -45.6186
  127.0000     8.2311     0.1386     0.1071   119.6429     2.4721   786.1995     6.4934     6.6738   -45.9139
  127.5000     8.2604     0.1427     0.1018   121.4021     2.4706   801.0870     6.8133     6.8604   -45.9125
  128.0000     8.2303     0.1444     0.1036   120.4097     2.4632   812.9942     7.0732     6.8677   -45.9110
  128.5000     8.2298     0.1414     0.1071   119.2241     2.4572   821.9210     7.3212     7.0533   -45.9095
  129.0000     8.2294     0.1413     0.1107   118.3354     2.4557   827.8675     7.3217     7.0819   -46.0351
  129.5000     8.2289     0.1412     0.1137   118.3477     2.4558   827.2707     7.3222     7.1915   -46.2033
  130.0000     8.2285     0.1412     0.1142   118.9317     2.4624   821.8764     7.2228     7.2526   -46.2015
  130.5000     8.2280     0.1411     0.1095   117.6335     2.4695   817.6741     7.1248     7.3540   -46.2001
  131.0000     8.2275     0.1411     0.1053   115.1800     2.4686   812.9056     7.0281     7.3550   -46.1988
  131.5000     8.2271     0.1440     0.1041   115.3299     2.4648   809.9077     7.0287     7.4576   -46.1973
  132.0000     8.2267     0.1448     0.1078   117.0267     2.4616   809.0609     7.1631     7.4586   -46.1958
  132.5000     8.2263     0.1469     0.1119   119.2362     2.4611   809.8806     7.3741     7.4596   -46.1338
  133.0000     8.2555     0.1468     0.1095   120.1278     2.4690   818.8062     7.5296     7.4606   -45.8961
  133.5000     8.2550     0.1467     0.1018   119.2390     2.4794   830.8174     7.7397     7.4616   -45.7683
  134.0000     8.2546     0.1467     0.0988   118.3502     2.4854   833.6795     7.7402     7.3607   -45.5964
  134.5000     8.2641     0.1436     0.0994   117.4604     2.4854   826.2426     7.6352     7.2616   -45.2980
  135.0000     8.2834     0.1436     0.1025   116.8398     2.4807   816.6607     7.4255     7.1636   -45.2966
  135.5000     8.2829     0.1405     0.1054   116.8709     2.4744   805.4548     7.2141     6.9707   -44.9984
  136.0000     8.2824     0.1405     0.1067   117.6400     2.4705   799.1663     7.0087     6.8765   -44.9970
  136.5000     8.2226     0.1434     0.1077   119.7107     2.4730   797.8376     6.8091     6.7837   -44.9955
  137.0000     8.2222     0.1472     0.1066   122.5054     2.4814   806.7645     6.6582     6.6921   -44.9941
  137.5000     8.1921     0.1534     0.1016   123.1086     2.4968   815.6913     6.6587     6.6017   -44.9926
  138.0000     8.1917     0.1596     0.0911   122.5165     2.5076   821.6379     6.6592     6.6027   -44.9911
  138.5000     8.1912     0.1641     0.0816   121.6278     2.5002   821.6230     6.8449     6.5134   -45.1481
  139.0000     8.1908     0.1670     0.0828   121.3323     2.4927   821.0420     7.0359     6.5144   -45.2849
