~VERSION INFORMATION
 VERS.                2.0:   CWLS LOG ASCII STANDARD - VERSION 2.0
 WRAP.                 NO:   ONE LINE PER DEPTH STEP
~WELL INFORMATION
#MNEM.UNIT      DATA TYPE    INFORMATION
#----------   ------------   ------------------------------
 STRT.F           90.0000:   START DEPTH
 STOP.F         1312.0000:   STOP DEPTH
 STEP.F            0.5000:   STEP LENGTH
 NULL.          -999.2500:   NO VALUE
 COMP. US NAVY/ INTEX OIL CO:   COMPANY
 WELL. RES 3 TEAPOT DOME NPR "S' #42-2:   WELL
 FLD .             TEAPOT:   FIELD
 LOC .       S2 T38N R78W:   LOCATION
 CNTY.            NATRONA:   COUNTY
 STAT.            WYOMING:   STATE
 CTRY. UNITED STATES OF AMERICA:   COUNTRY
 SRVC. Schlumberger Well Surveying Corp:   SERVICE COMPANY
 DATE.        17-JUL-1964:   LOGDATE
 API .       490250646400:   API NUMBER
~CURVE INFORMATION
#MNEM.UNIT       API CODE    CURVE DESCRIPTION
#----------   ------------   ------------------------------
 DEPT.F                  :   
 GR  .GAPI   30 310 01 00:   GAMMA RAY
 CALS.IN     60 280 50 00:   CALIPER FROM SONIC LOG
 DT  .US/F   60 520 32 00:   INTERVAL TRANSIT TIME
 SPR .MV     05 010 01 00:   SPONTANEOUS POTENTIAL FROM RES.
 CILD.MMHO   05 110 46 00:   CONDUCTIVITY INDUCTION LOG DEEP
 ILD .OHMM   05 120 46 00:   INDUCTION LOG DEEP
 ASN .OHMM   05 040 16 00:   AMPLIFIED SHORT NORMAL 16"
~PARAMETER INFORMATION
#MNEM.UNIT          VALUE    DESCRIPTION
#----------   ------------   ------------------------------
 PD  .                 GL:   PERMANENT DATUM
 EPD .F              5142:   ELEVATION PERMANENT DATUM
 LMF .                 KB:   LOG MEASURED FROM
 DAPD.F                 8:   FEET ABOVE PERMANENT DATUM
 DMF .                 KB:   DRILLING MEASURED FROM
 EKB .F              5150:   KELLING BUSHING
 EGL .F              5142:   GROUND LEVEL
 DATE.          7-17-1964:   RUN DATE
 RUN .                  1:   RUN NUMBER
 DD  .F              1300:   DEPTH DRILLER
 DL  .F              1310:   DEPTH LOGGER
 BLI .F              1309:   BOTTOM LOG INTERVAL
 TLI .F               107:   TOP LOG INTERVAL
 CS  .IN            12.25:   CASING SIZE
 CBD .F                10:   CASING BOTTOM DRILLER
 BS  .IN               11:   BIT SIZE
 BSD .F              1300:   BIT SIZE AT DEPTH
 DFT .            GEL-OIL:   DRILLING FLUID TYPE
 DFD .                9.6:   DRILLING FLUID DENSITY
 DFV .                 63:   DRILLING FLUID VISCOSITY
 DFPH.                  8:   DRILLING FLUID PH
 DFL .                9.6:   DRILLING FLUID LOSS
 MSS .           FLOWLINE:   MUD SAMPLE SOURCE
 RMS .OHMM           2.07:   RESISTIVITY MUD SAMPLE
 MST .F                92:   MUD SAMPLE TEMPERATURE
 RMF .OHMM           1.42:   RESISTIVITY MUD FILTRATE SAMPLE
 MFST.F                92:   MUD FILTRATE SAMPLE TEMPERATURE
 RMC .OHMM           2.33:   RESISTIVITY MUD CAKE
 MCST.F                92:   MUD CAKE SAMPLE TEMPERATURE
 MFSS.                 FP:   MUD FILTRATE SAMPLE SOURCE
 MCSS.                 FP:   MUD CAKE SAMPLE SOURCE
 TCS .HRS               1:   TIME CURCULATED STOPPED
 LUN .               4507:   LOGGING UNIT NUMBER
 LUL .              CSPR.:   LOGGING UNIT LOCATION
 ENGI.             DANNER:   RECORDING ENGINEER
 WITN.          JORGENSEN:   WITNESSED BY
 CLNT.            A2DTECH:   CLIENT CODE
 ORIG.        2" 5" PRINT:   ORIGIN OF DATA
 UWI .       490250646400:   UNIQUE WELL ID
 DICO. A2D Technologies, Inc.:   DIGITIZING COMPANY
~OTHER INFORMATION
~A   DEPT       GR       CALS         DT        SPR        CILD         ILD        ASN 
# ...
  499.5000    90.2728    11.1942    99.0790   -48.2961   122.9340     9.0311     9.0629
  500.0000    89.8863    11.1977    99.7983   -48.2234   123.6236     9.0150     8.9983
  500.5000    89.2048    11.1934   100.5029   -48.0984   123.7639     8.9988     8.9718
  501.0000    88.4758    11.1891   100.9322   -47.9913   123.9686     8.9827     8.9599
  501.5000    90.7123    11.1849   101.0909   -47.8835   124.1738     8.9667     8.9732
  502.0000    93.6382    11.1761   101.1070   -47.7599   124.3769     8.9505     8.9802
  502.5000    96.4388    11.1358   100.6946   -47.6834   124.6184     8.9349     8.9954
  503.0000    97.1185    11.1043   100.2510   -47.6935   124.6166     8.9179     8.9787
  503.5000    97.9533    11.1439   100.3294   -47.6885   125.1075     8.9036     8.9104
  504.0000    99.7931    11.1832   100.5694   -47.6913   125.7123     8.8843     8.8443
  504.5000   105.1657    11.1793   100.8094   -47.6899   126.3156     8.8747     8.7763
  505.0000   103.5795    11.1394   101.0494   -47.6909   126.9159     8.8026     8.7066
  505.5000    99.5559    11.0992   101.2550   -47.6906   127.5980     8.6355     8.6811
  506.0000    92.2200    11.0131   101.2550   -47.6913   129.7690     8.4722     8.6626
  506.5000    91.9058    10.8854   101.2550   -47.6907   132.5961     8.3052     8.6417
  507.0000    91.8231    10.8820   101.2550   -47.6922   136.0390     8.1400     8.6165
  507.5000    89.2644    10.7821   101.4518   -47.6897   139.9504     7.9660     8.4963
  508.0000    86.2269    10.8262   102.1067   -47.6952   143.8619     7.8111     8.2227
  508.5000    85.0704    10.9046   103.0178   -47.6547   147.7732     7.6499     7.9058
  509.0000    84.9061    10.9171   103.9289   -47.5418   151.6857     7.4862     7.6024
  509.5000    85.0047    10.9094   104.8400   -47.4322   155.6012     7.3266     7.4909
  510.0000    85.0927    10.9029   105.7511   -47.3197   159.7110     7.1641     7.4123
  510.5000    84.7811    10.9374   106.6767   -47.2088   160.7221     7.2140     7.3169
  511.0000    77.0597    11.0396   107.2023   -47.0971   159.4673     7.3694     7.2708
  511.5000    74.4704    11.1392   107.0823   -46.9858   156.7594     7.5094     7.2854
  512.0000    74.6498    11.1901   106.5763   -46.8742   154.0461     7.6561     7.3807
  512.5000    77.6229    11.1591   105.0368   -46.7627   151.3786     7.8015     7.4937
  513.0000    80.4944    11.1447   103.8608   -46.6512   148.8052     7.9431     7.6018
  513.5000    82.9383    11.1551   102.7215   -46.5398   146.2317     8.0956     7.7121
  514.0000    83.0535    11.1651   101.6347   -46.4282   143.6582     8.1660     7.8183
  514.5000    80.0552    11.1750   100.5446   -46.3170   141.0847     8.1530     7.9092
  515.0000    79.9744    11.1735   100.1046   -46.2045   138.6386     8.1228     8.0006
  515.5000    83.0339    11.1551   100.2289   -46.0971   138.9684     8.0828     8.0528
  516.0000    83.3661    11.1402   100.3514   -46.1156   139.5631     8.0477     8.0682
  516.5000    82.7723    11.1665    99.5920   -46.1579   140.1578     8.0092     8.0827
  517.0000    85.6142    11.2072    98.6756   -46.1948   140.7525     7.9744     8.0528
  517.5000    87.0898    11.1991    98.7851   -46.2344   141.3472     7.9329     8.0034
  518.0000    89.8375    11.1664    99.7932   -46.2724   141.9419     7.8851     7.9555
  518.5000    84.9564    11.1552    99.6486   -46.3114   142.5367     7.8421     7.9360
  519.0000    82.4768    11.2200    99.9813   -46.3495   143.1314     7.7940     7.9374
  519.5000    76.0049    11.2171   100.3514   -46.3891   143.6436     7.7645     7.9423
  520.0000    74.8699    11.2125   101.4157   -46.4260   142.1636     7.8083     7.9892
  520.5000    73.8047    11.2081   102.3594   -46.4683   140.8637     7.8535     8.0353
  521.0000    73.8374    11.2026   102.6275   -46.4877   139.5638     7.8988     8.0793
  521.5000    72.3584    11.1459   102.8795   -46.4874   138.2640     7.9425     8.1285
  522.0000    71.5923    11.0282   103.0622   -46.4846   136.9641     7.9727     8.2292
  522.5000    76.3043    10.9162   102.2590   -46.4922   135.6642     7.9964     8.3251
  523.0000    75.1323    10.8669   101.1546   -46.4279   134.6346     8.0179     8.4015
  523.5000    74.5863    10.7411   101.6814   -46.2842   135.3325     8.0425     8.4199
  524.0000    75.2415    10.3622   102.2771   -46.1551   135.9102     8.0536     8.4170
  524.5000    79.4663    10.4201   102.5037   -46.0150   136.4879     8.0200     8.3863
  525.0000    78.9273    10.5697   102.6263   -45.8870   137.0656     7.9891     8.3645
  525.5000    78.9826    10.9595   103.2768   -45.7403   137.6434     7.9577     8.2462
  526.0000    78.8857    11.1292   103.8021   -45.6955   138.2211     7.9265     8.1488
  526.5000    78.8260    11.2398   103.1219   -45.7495   138.6818     7.8954     8.1621
  527.0000    79.9391    11.2022   102.8309   -45.7866   138.8373     7.8618     8.1596
  527.5000    79.3319    11.1556   102.5459   -45.8323   138.9928     7.8569     8.1767
  528.0000    77.9024    11.1227   102.3768   -45.8736   139.1514     7.8580     8.1886
  528.5000    79.9373    11.1315   101.7048   -45.9168   139.3056     7.8575     8.2021
  529.0000    73.2002    11.1395   101.1546   -45.9597   139.4602     7.8579     8.2181
  529.5000    71.6218    11.1478   101.1618   -46.0016   139.6378     7.8577     8.2038
  530.0000    72.5263    11.1562   101.4522   -46.0466   140.4843     7.8578     8.1585
  530.5000    78.6003    11.1587   101.8187   -46.0757   141.4897     7.8579     8.1141
  531.0000    81.1578    11.0356   102.0707   -46.0119   142.4964     7.8579     8.0704
  531.5000    82.9598    10.7023   102.1151   -45.9404   143.6436     7.8582     8.0225
  532.0000    87.4088    10.7186   102.1628   -45.8705   143.2477     7.8578     7.9901
  532.5000    94.9800    11.0564   102.4598   -45.8000   142.7984     7.8586     7.9822
  533.0000    92.6482    11.1268   102.8631   -45.7295   142.3490     7.8572     8.0085
  533.5000    92.3858    10.5833   102.8517   -45.6594   141.8997     7.8603     8.0474
  534.0000    91.9865    10.2798   102.6366   -45.5880   141.6416     7.8369     8.0810
  534.5000    90.1546    10.6321   102.1533   -45.5197   141.6416     7.7814     8.1210
  535.0000    89.5154    11.0097   101.6566   -45.4456   141.6416     7.7295     8.1374
  535.5000    91.5150    11.0720   103.3634   -45.3824   141.6416     7.6754     8.0998
  536.0000    92.8158    10.5808   103.0751   -45.2988   141.6416     7.6225     8.0598
  536.5000    92.9776     9.9894   102.7570   -45.3518   143.1676     7.5691     8.0188
  537.0000    88.7653     9.7178   103.3107   -45.5005   144.7403     7.5157     7.9788
  537.5000    89.4463     9.7539   104.7390   -45.6329   146.3130     7.4626     7.9374
  538.0000    92.3533     9.8003   106.7046   -45.6776   147.8857     7.4085     7.9042
  538.5000    92.4796     9.1608   107.4458   -45.6448   148.7643     7.3606     7.8794
  539.0000    91.7543     8.4940   107.2731   -45.6290   148.9890     7.3567     7.8528
  539.5000    93.0082     8.3472   106.7691   -45.6049   149.2137     7.3562     7.8278
  540.0000    96.4173     9.1784   106.4759   -45.5849   149.4383     7.3582     7.8005
  540.5000    98.3945    10.1554   105.4478   -45.5632   149.6496     7.3535     7.7806
  541.0000    96.4001    10.9193   104.4398   -45.5411   149.2926     7.3907     7.7880
  541.5000    89.8168    11.0718   103.9257   -45.5213   148.9556     7.4640     7.8031
  542.0000    87.8282    11.1276   104.3392   -45.4962   148.6487     7.5290     7.8079
  542.5000    79.7027    11.1403   104.8009   -45.4938   146.7055     7.5978     7.8675
  543.0000    79.6515    11.0949   104.9237   -45.5908   144.9214     7.6646     7.9700
  543.5000    79.9299    11.0562   104.7530   -45.6850   143.1373     7.7326     8.0616
  544.0000    82.6067    11.0415   104.3620   -45.7768   141.3531     7.7998     8.1571
  544.5000    84.6765    11.0262   103.9038   -45.8735   139.5690     7.8679     8.2467
