~VERSION INFORMATION
 VERS.                2.0:   CWLS LOG ASCII STANDARD - VERSION 2.0
 WRAP.                 NO:   ONE LINE PER DEPTH STEP
~WELL INFORMATION
#MNEM.UNIT      DATA TYPE    INFORMATION
#----------   ------------   ------------------------------
 STRT.F           20.0000:   START DEPTH
 STOP.F          488.0000:   STOP DEPTH
 STEP.F            0.5000:   STEP LENGTH
 NULL.          -999.2500:   NO VALUE
 COMP.    FENIX & SCISSON:   COMPANY
 WELL.  SX-3 NPR #3-3 #43:   WELL
 FLD .             TEAPOT:   FIELD
 LOC .       S3 T38N R78W:   LOCATION
 CNTY.            NATRONA:   COUNTY
 STAT.            WYOMING:   STATE
 CTRY. UNITED STATES OF AMERICA:   COUNTRY
 SRVC.           BIRDWELL:   SERVICE COMPANY
 DATE.        04-JAN-1978:   LOGDATE
 API .       490251044800:   API NUMBER
~CURVE INFORMATION
#MNEM.UNIT       API CODE    CURVE DESCRIPTION
#----------   ------------   ------------------------------
 DEPT.F                  :   
 ILD .OHMM   05 120 46 00:   INDUCTION LOG DEEP
 SN  .OHMM   05 040 16 00:   SHORT NORMAL 16"
 SPR .MV     05 010 01 00:   SPONTANEOUS POTENTIAL FROM RES.
 CALD.IN     45 280 60 00:   CALIPER FROM DENSITY LOG
 DPHI.DEC    45 890 12 00:   DENSITY POROSITY SANDSTONE
 DRHO.G/C3   45 356 01 00:   DENSITY CORRECTION
 GRD .GAPI   45 310 01 00:   GAMMA RAY FROM DENSITY LOG
 RHOB.G/C3   45 350 01 00:   BULK DENSITY
~PARAMETER INFORMATION
#MNEM.UNIT          VALUE    DESCRIPTION
#----------   ------------   ------------------------------
 PD  .                 GL:   PERMANENT DATUM
 LMF .                 KB:   LOG MEASURED FROM
 DAPD.F                 4:   FEET ABOVE PERMANENT DATUM
 DMF .                 KB:   DRILLING MEASURED FROM
 EKB .F              5163:   KELLING BUSHING
 EGL .F              5159:   GROUND LEVEL
 DATE.        04-JAN-1978:   RUN DATE
 RUN .                  1:   RUN NUMBER
 DD  .F               490:   DEPTH DRILLER
 DL  .F               490:   DEPTH LOGGER
 BLI .F               485:   BOTTOM LOG INTERVAL
 TLI .F                20:   TOP LOG INTERVAL
 CS  .IN            8.625:   CASING SIZE
 CBD .F                40:   CASING BOTTOM DRILLER
 CBL .F                44:   CASING BOTTOM LOGGER
 BS  .IN            7.875:   BIT SIZE
 BSD .F               490:   BIT SIZE AT DEPTH
 DFT .                KCL:   DRILLING FLUID TYPE
 DFD .                8.4:   DRILLING FLUID DENSITY
 DFV .                 32:   DRILLING FLUID VISCOSITY
 DFPH.                 11:   DRILLING FLUID PH
 DFL .                  8:   DRILLING FLUID LOSS
 MSS .                PIT:   MUD SAMPLE SOURCE
 RMS .OHMM           0.32:   RESISTIVITY MUD SAMPLE
 MST .F                62:   MUD SAMPLE TEMPERATURE
 RMF .OHMM           0.30:   RESISTIVITY MUD FILTRATE SAMPLE
 MFST.F                62:   MUD FILTRATE SAMPLE TEMPERATURE
 RMC .OHMM           0.35:   RESISTIVITY MUD CAKE
 MCST.F                62:   MUD CAKE SAMPLE TEMPERATURE
 MFSS.               MEAS:   MUD FILTRATE SAMPLE SOURCE
 MCSS.               MEAS:   MUD CAKE SAMPLE SOURCE
 RMB .OHMM           0.26:   RESISTIVITY MUD AT BHT
 BHT .F                75:   BOTTOM HOLE TEMPERATURE
 TCS .HRS               2:   TIME CURCULATED STOPPED
 MRT .F                75:   MAXIMUM RECORDED TEMPERATURE
 LUN .               2958:   LOGGING UNIT NUMBER
 LUL .             CASPER:   LOGGING UNIT LOCATION
 ENGI.             HUGHES:   RECORDING ENGINEER
 WITN.         HARRINGTON:   WITNESSED BY
 CLNT.            A2DTECH:   CLIENT CODE
 ORIG.           5" PRINT:   ORIGIN OF DATA
 UWI .       490251044800:   UNIQUE WELL ID
 DICO. A2D Technologies, Inc.:   DIGITIZING COMPANY
~OTHER INFORMATION
~A   DEPT      ILD         SN        SPR       CALD       DPHI       DRHO         GRD      RHOB   
# ...
  222.5000     9.7970     8.0842   -68.9697     8.3650     0.1063     0.0325   117.4988     2.4857
  223.0000     9.5988     7.9732   -68.9654     8.3650     0.1072     0.0378   120.9377     2.4850
  223.5000     9.0157     7.8095   -68.9603     8.3650     0.1090     0.0303   122.8383     2.4805
  224.0000     8.2867     7.6491   -68.9561     8.3650     0.1130     0.0214   116.8557     2.4641
  224.5000     7.6819     7.3383   -68.9519     8.3650     0.1194     0.0296   112.7709     2.4402
  225.0000     7.4698     6.9916   -68.9467     8.3650     0.1263     0.0431   109.8540     2.4327
  225.5000     7.4679     6.7540   -68.6417     8.3504     0.1236     0.0566   111.4633     2.4373
  226.0000     7.6224     6.5697   -68.4872     8.3650     0.1248     0.0349   118.6194     2.4470
  226.5000     7.6740     6.3905   -68.3315     8.3504     0.1410     0.0155   117.6003     2.4433
  227.0000     7.7787     6.3465   -68.0266     8.3523     0.1646     0.0050   115.2673     2.4096
  227.5000     7.8853     6.6153   -67.7217     8.3796     0.1556    -0.0009   115.1241     2.3910
  228.0000     8.1045     6.9916   -67.7164     8.3796     0.1227     0.0216   114.8350     2.3745
  228.5000     8.3309     7.4405   -67.7122     8.3942     0.1137     0.0306   118.9260     2.3955
  229.0000     9.3050     7.9857   -67.5577     8.3942     0.1122     0.0268   118.3449     2.4314
  229.5000    10.0401     8.4851   -67.1023     8.3942     0.1116     0.0291   116.0119     2.4509
  230.0000    10.3924     8.6033   -66.4956     8.3942     0.1107     0.0359   117.9125     2.4689
  230.5000    10.3890     8.7231   -66.1907     8.3942     0.1086     0.0276   120.5430     2.4779
  231.0000    10.3861     8.7231   -65.8857     8.3942     0.1083     0.0307   118.5027     2.4794
  231.5000    10.4825     8.8445   -65.8805     8.3942     0.1086     0.0240   122.7391     2.4787
  232.0000    10.5999     8.9059   -65.8763     8.3942     0.1101     0.0390   123.9091     2.4757
  232.5000    10.6694     8.9059   -65.8721     8.3942     0.1116     0.0285   122.7447     2.4720
  233.0000    10.6662     8.9059   -65.8669     8.3942     0.1122     0.0253   124.6453     2.4689
  233.5000    10.6634     8.9677   -65.7123     8.3942     0.1122     0.0392   126.2539     2.4660
  234.0000    10.6600     8.9677   -65.5577     8.3942     0.1086     0.0450   122.1698     2.4690
  234.5000    10.6573     9.0299   -65.4021     8.3942     0.1038     0.0338   119.8368     2.4743
  235.0000    10.6545     9.0299   -65.3979     8.3796     0.1011     0.0286   120.7155     2.4781
  235.5000    10.6511     9.0299   -65.3937     8.3796     0.1032     0.0369   121.1563     2.4781
  236.0000    10.6487     8.9677   -65.3895     8.3796     0.1074     0.0414   120.3669     2.4751
  236.5000    10.6457     9.0299   -65.3843     8.3650     0.1098     0.0422   117.8049     2.4742
  237.0000    10.6428     9.0299   -65.3801     8.3650     0.1098     0.0332   117.9537     2.4729
  237.5000    10.6395     9.0299   -65.2256     8.3650     0.1101     0.0242   119.2703     2.4722
  238.0000    10.6367     8.9677   -65.2203     8.3650     0.1101     0.0385   121.0249     2.4715
  238.5000    10.6339     8.9677   -65.2161     8.3504     0.1104     0.0400   123.3869     2.4722
  239.0000    10.6306     8.9677   -65.2119     8.3504     0.1101     0.0344   125.8487     2.4723
  239.5000    10.6278     8.9059   -65.3581     8.3358     0.1095     0.0213   116.9464     2.4723
  240.0000    10.6251     8.9059   -65.3529     8.3358     0.1068     0.0423   111.6937     2.4723
  240.5000    10.6217     8.9059   -65.3487     8.3358     0.1017     0.0378   109.7980     2.4770
  241.0000    10.6190     8.7836   -65.7956     8.3504     0.0981     0.0311   118.7066     2.4821
  241.5000    10.3257     8.6630   -65.7904     8.3504     0.1062     0.0219   124.8350     2.4814
  242.0000     9.7653     8.6033   -65.7862     8.3504     0.1100     0.0282   129.9537     2.4717
  242.5000     9.2359     8.4851   -65.7820     8.3504     0.1115     0.0417   124.7010     2.4679
  243.0000     8.7351     8.3109   -65.7768     8.3504     0.1124     0.0424   120.3243     2.4663
  243.5000     8.4934     7.9732   -65.7726     8.3504     0.1142     0.0395   118.2833     2.4635
  244.0000     8.5503     7.7557   -65.7684     8.3504     0.1205     0.0257   114.9284     2.4568
  244.5000     8.6675     7.4405   -65.7632     8.3504     0.1468     0.0028   122.0852     2.4329
  245.0000     8.6647     7.0889   -65.7590     8.3504     0.1576     0.0066   126.3215     2.3843
  245.5000     8.6026     7.0401   -65.7548     8.3504     0.1495     0.0313   129.5360     2.3873
  246.0000     8.4819     7.0401   -65.7495     8.3504     0.1377     0.0463   128.8089     2.4150
  246.5000     8.1902     7.0889   -65.7454     8.3358     0.1187     0.0516   129.8491     2.4606
  247.0000     7.8001     7.1381   -65.7412     8.3504     0.1094     0.0456   132.7567     2.4726
  247.5000     7.5847     7.1876   -65.7368     8.3504     0.1115     0.0479   129.8398     2.4734
  248.0000     7.3753     7.0889   -65.7317     8.3504     0.1331     0.0547   124.4412     2.4712
  248.5000     7.3729     6.8955   -65.7101     8.3504     0.1384     0.0607   122.6914     2.4637
  249.0000     7.1693     6.6153   -65.6034     8.3504     0.1315     0.0608   124.5927     2.4510
  249.5000     7.1675     6.2988   -65.5684     8.3504     0.1393     0.0456   122.7367     2.4054
  250.0000     7.3573     6.4348   -64.9617     8.3467     0.1621     0.0008   125.4749     2.3822
  250.5000     7.3236     6.6612   -63.7545     8.3359     0.1531    -0.0104   129.2733     2.3606
  251.0000     7.7324     6.9916   -63.1488     8.3361     0.1428     0.0248   130.1520     2.3688
  251.5000     8.2299     7.3415   -62.5421     8.3362     0.1250     0.0338   125.1913     2.4250
  252.0000     8.8818     7.6491   -62.2371     8.3510     0.1103     0.0368   122.2277     2.4624
  252.5000     9.7866     7.9732   -61.9322     8.3511     0.1040     0.0294   122.8618     2.4759
  253.0000    10.2018     8.0842   -61.9270     8.3513     0.0998     0.0324   126.3683     2.4819
  253.5000    10.2011     8.0285   -61.9228     8.3368     0.0986     0.0429   129.8747     2.4819
  254.0000    10.0507     8.0285   -61.9186     8.3369     0.1004     0.0427   125.0600     2.4827
  254.5000     9.3851     7.9732   -61.9143     8.3371     0.1034     0.0339   125.2107     2.4819
  255.0000     8.6351     7.8637   -61.9092     8.3373     0.1067     0.0257   125.7955     2.4797
  255.5000     8.2826     7.6486   -61.9050     8.3228     0.1104     0.0213   121.2734     2.4738
  256.0000     7.9997     7.3892   -61.9007     8.3229     0.1141     0.0310   116.4587     2.4618
  256.5000     7.8890     7.1876   -61.8956     8.3085     0.1179     0.0385   110.9140     2.4492
  257.0000     7.7260     6.8955   -61.2899     8.3086     0.1209     0.0325   106.5373     2.4530
  257.5000     7.7254     6.6153   -60.9849     8.3088     0.1301     0.0191   104.2043     2.4538
  258.0000     7.7788     6.4795   -60.2278     8.3089     0.1445    -0.0049   114.5727     2.4254
  258.5000     7.8869     6.6153   -60.0733     8.3091     0.1513     0.0044   118.8091     2.4000
  259.0000     7.9412     6.8480   -59.4676     8.3092     0.1328     0.0296   120.4177     2.4247
  259.5000     8.1641     7.1876   -59.4623     8.3093     0.1142     0.0222   118.8147     2.4658
  260.0000     8.5695     7.5441   -59.4582     8.3095     0.1031     0.0012   115.8491     2.4833
  260.5000     9.1209     7.8637   -59.1532     8.3096     0.0989     0.0117   114.3446     2.4644
  261.0000     9.9116     8.2536   -57.6442     8.3098     0.1037     0.0256   112.4652     2.4555
  261.5000    10.4764     8.6033   -57.0385     8.3099     0.0965     0.0372   113.9306     2.4749
  262.0000    10.7705     8.9059   -56.5832     8.3101     0.0899     0.0402   117.5857     2.5030
  262.5000    10.7696     9.2832   -56.4035     8.3102     0.0896     0.0253   120.2190     2.5154
