~VERSION INFORMATION
 VERS.                2.0:   CWLS LOG ASCII STANDARD - VERSION 2.0
 WRAP.                 NO:   ONE LINE PER DEPTH STEP
~WELL INFORMATION
#MNEM.UNIT      DATA TYPE    INFORMATION
#----------   ------------   ------------------------------
 STRT.F           38.0000:   START DEPTH
 STOP.F          818.0000:   STOP DEPTH
 STEP.F            0.5000:   STEP LENGTH
 NULL.          -999.2500:   NO VALUE
 COMP. FENIX & SCISSON INC:   COMPANY
 WELL. NAVAL PETROLEUM RESERVE 3 SX-1 #32-14:   WELL
 FLD .             TEAPOT:   FIELD
 LOC .      S14 T38N R78W:   LOCATION
 CNTY.            NATRONA:   COUNTY
 STAT.            WYOMING:   STATE
 CTRY. UNITED STATES OF AMERICA:   COUNTRY
 SRVC.            Unknown:   SERVICE COMPANY
 DATE.        03-MAY-1978:   LOGDATE
 API .       490251061900:   API NUMBER
~CURVE INFORMATION
#MNEM.UNIT       API CODE    CURVE DESCRIPTION
#----------   ------------   ------------------------------
 DEPT.F                  :   
 SPR .MV     05 010 01 00:   SPONTANEOUS POTENTIAL FROM RES.
 ILD .OHMM   05 120 46 00:   INDUCTION LOG DEEP
 SN  .OHMM   05 040 16 00:   SHORT NORMAL 16"
 CALD.IN     45 280 60 00:   CALIPER
 GRD .GAPI   45 310 01 00:   GAMMA RAY FROM DENSITY LOG
 RHOB.G/C3   45 350 01 00:   BULK DENSITY
 DPHI.DEC    45 890 12 00:   DENSITY POROSITY SANDSTONE
 CORR.G/C3   45 356 01 00:   DENSITY CORRECTION
~PARAMETER INFORMATION
#MNEM.UNIT          VALUE    DESCRIPTION
#----------   ------------   ------------------------------
 PD  .                 GL:   PERMANENT DATUM
 EPD .F              5209:   ELEVATION PERMANENT DATUM
 LMF .                 KB:   LOG MEASURED FROM
 DAPD.F                 4:   FEET ABOVE PERMANENT DATUM
 DMF .                 KB:   DRILLING MEASURED FROM
 EKB .F              5213:   KELLING BUSHING
 EGL .F              5209:   GROUND LEVEL
 DATE.           5-3-1978:   RUN DATE
 RUN .                  1:   RUN NUMBER
 DD  .F               806:   DEPTH DRILLER
 DL  .F               824:   DEPTH LOGGER
 BLI .F               818:   BOTTOM LOG INTERVAL
 TLI .F                50:   TOP LOG INTERVAL
 CS  .IN            8.625:   CASING SIZE
 CBD .F                40:   CASING BOTTOM DRILLER
 BS  .IN            7.875:   BIT SIZE
 BSD .F               806:   BIT SIZE AT DEPTH
 DFT .                KCL:   DRILLING FLUID TYPE
 DFD .                8.6:   DRILLING FLUID DENSITY
 DFV .                 34:   DRILLING FLUID VISCOSITY
 DFPH.                  9:   DRILLING FLUID PH
 DFL .               16.4:   DRILLING FLUID LOSS
 MSS .           FLOWLINE:   MUD SAMPLE SOURCE
 RMS .OHMM            .75:   RESISTIVITY MUD SAMPLE
 MST .F                52:   MUD SAMPLE TEMPERATURE
 RMF .OHMM            .65:   RESISTIVITY MUD FILTRATE SAMPLE
 MFST.F                60:   MUD FILTRATE SAMPLE TEMPERATURE
 RMC .OHMM            1.2:   RESISTIVITY MUD CAKE
 MCST.F                62:   MUD CAKE SAMPLE TEMPERATURE
 MFSS.               MEAS:   MUD FILTRATE SAMPLE SOURCE
 RMB .OHMM            .54:   RESISTIVITY MUD AT BHT
 BHT .F                72:   BOTTOM HOLE TEMPERATURE
 TCS .HRS               1:   TIME CURCULATED STOPPED
 MRT .F                72:   MAXIMUM RECORDED TEMPERATURE
 LUN .               2958:   LOGGING UNIT NUMBER
 LUL .               CASP:   LOGGING UNIT LOCATION
 ENGI.             MILLER:   RECORDING ENGINEER
 WITN.           MCGINLEY:   WITNESSED BY
 CLNT.            A2DTECH:   CLIENT CODE
 ORIG.           5" PRINT:   ORIGIN OF DATA
 UWI .       490251061900:   UNIQUE WELL ID
 DICO. A2D Technologies, Inc.:   DIGITIZING COMPANY
~OTHER INFORMATION
~A   DEPT      SPR        ILD         SN         CALD      GRD       RHOB       DPHI       CORR   
# ...
  362.0000   -34.9112     9.1827     8.9337     8.2504   101.6181     2.4910     0.1289     0.0165
  362.5000   -34.6996     9.1628     8.9337     8.2271   102.8405     2.4831     0.1311     0.0165
  363.0000   -34.5648     9.1428     8.9338     8.1565   104.9336     2.4854     0.1283     0.0165
  363.5000   -34.6000     9.1232     8.9347     8.0762   104.4084     2.4866     0.1301     0.0165
  364.0000   -34.6324     9.1035     8.9354     7.9956    94.8392     2.4840     0.1308     0.0165
  364.5000   -34.6653     8.9381     8.7473     7.9157    84.2190     2.4818     0.1290     0.0165
  365.0000   -34.6979     8.7417     8.5228     7.8376    82.2542     2.4879     0.1266     0.0165
  365.5000   -34.7299     8.5498     8.3030     7.7316    85.5489     2.4950     0.1243     0.0165
  366.0000   -34.7657     8.3759     8.1460     7.6298    91.5608     2.4946     0.1243     0.0165
  366.5000   -34.8769     8.5587     8.2509     7.5478    97.5484     2.4885     0.1275     0.0165
  367.0000   -34.9863     8.7324     8.4086     7.5502   102.8881     2.4825     0.1315     0.0165
  367.5000   -35.0953     8.8590     8.5678     7.5574   102.8647     2.4765     0.1379     0.0165
  368.0000   -35.2034     8.8815     8.6402     7.5645   102.5719     2.4704     0.1399     0.0164
  368.5000   -35.3145     8.9040     8.6808     7.5712   101.9862     2.4705     0.1330     0.0131
  369.0000   -35.1626     8.9267     8.7216     7.5792   101.2074     2.4745     0.1314     0.0095
  369.5000   -34.8267     8.9493     8.7626     7.5968    98.4015     2.4785     0.1315     0.0059
  370.0000   -34.4871     8.9720     8.8038     7.8433    93.7623     2.4779     0.1351     0.0047
  370.5000   -34.1694     8.9948     8.8512     8.1652    90.3520     2.4668     0.1423     0.0051
  371.0000   -34.1620     9.0163     8.8489     8.2699    86.1602     2.4654     0.1347     0.0054
  371.5000   -34.1584     9.0163     8.8455     8.2956    80.0443     2.4750     0.1330     0.0058
  372.0000   -34.4560     9.0164     8.8421     8.3204    78.5473     2.4734     0.1266     0.0062
  372.5000   -34.8676     9.0163     8.8387     8.3456    78.4770     2.4883     0.1255     0.0065
  373.0000   -35.1639     9.0163     8.8353     8.3604    76.4951     2.4910     0.1268     0.0078
  373.5000   -35.1587     9.0163     8.8319     8.3505    76.1522     2.4893     0.1283     0.0097
  374.0000   -35.1597     9.0163     8.8285     8.3390    76.1525     2.4874     0.1277     0.0116
  374.5000   -35.1594     9.0162     8.8251     8.2948    76.1114     2.4879     0.1242     0.0136
  375.0000   -35.1594     9.0223     8.8217     8.2514    78.5837     2.4935     0.1207     0.0155
  375.5000   -35.1594     9.0298     8.8184     8.2045    81.5659     2.4988     0.1222     0.0173
  376.0000   -35.1594     9.0374     8.8150     8.1509    81.3161     2.4985     0.1227     0.0174
  376.5000   -35.1594     9.0450     8.8116     8.0974    79.5770     2.4982     0.1183     0.0150
  377.0000   -35.1594     9.0525     8.8082     8.0435    78.0539     2.5019     0.1252     0.0126
  377.5000   -35.1594     9.0601     8.8048     8.0227    77.9774     2.5018     0.1327     0.0105
  378.0000   -35.1592     9.0677     8.8014     8.0508    78.9554     2.4817     0.1320     0.0116
  378.5000   -35.1592     9.0753     8.7980     8.1226    79.9789     2.4880     0.1210     0.0155
  379.0000   -35.1549     9.0829     8.7947     8.1829    80.9931     2.4961     0.1211     0.0196
  379.5000   -35.3740     9.0906     8.7913     8.2015    81.9624     2.4961     0.1261     0.0205
  380.0000   -35.5427     9.0991     8.7879     8.2896    83.8447     2.4908     0.1294     0.0209
  380.5000   -35.4940     9.0874     8.7845     8.3769    85.7873     2.4842     0.1263     0.0213
  381.0000   -35.4486     9.0716     8.7812     8.4226    86.9470     2.4853     0.1271     0.0217
  381.5000   -35.4023     9.0559     8.7778     8.4674    85.1911     2.4861     0.1282     0.0221
  382.0000   -35.3562     9.0403     8.7748     8.5120    82.8703     2.4845     0.1287     0.0225
  382.5000   -35.3101     9.0245     8.7710     8.5326    81.7349     2.4827     0.1308     0.0241
  383.0000   -35.2641     8.9730     8.6687     8.5124    81.7208     2.4807     0.1208     0.0277
  383.5000   -35.2181     8.8833     8.5534     8.4929    81.3840     2.4943     0.1141     0.0315
  384.0000   -35.1726     8.7945     8.4522     8.4732    80.5660     2.5079     0.1098     0.0330
  384.5000   -35.0425     8.7706     8.4524     8.4535    80.1110     2.5144     0.1071     0.0338
  385.0000   -34.8824     8.7706     8.4533     8.4339    81.0316     2.5201     0.1145     0.0345
  385.5000   -34.7204     8.7706     8.4534     8.4039    82.0473     2.5198     0.1243     0.0273
  386.0000   -34.5706     8.6289     8.3168     8.3496    83.0953     2.4964     0.1287     0.0147
  386.5000   -34.7150     8.4534     8.1476     8.2958    83.7322     2.4824     0.1289     0.0143
  387.0000   -34.8727     8.4534     8.1514     8.2442    83.7299     2.4820     0.1301     0.0166
  387.5000   -35.0292     8.4532     8.1571     8.2187    83.7276     2.4833     0.1307     0.0183
  388.0000   -35.1856     8.4534     8.1626     8.2112    83.6275     2.4852     0.1296     0.0172
  388.5000   -35.3394     8.4534     8.1679     8.2039    83.4528     2.4871     0.1287     0.0163
  389.0000   -35.4118     8.4534     8.1732     8.1968    82.8415     2.4891     0.1297     0.0153
  389.5000   -35.4713     8.4534     8.1785     8.1896    80.5802     2.4862     0.1307     0.0145
  390.0000   -35.5308     8.4534     8.1839     8.1825    78.3051     2.4831     0.1317     0.0148
  390.5000   -35.5905     8.4534     8.1892     8.1753    77.5367     2.4802     0.1319     0.0151
  391.0000   -35.6503     8.4534     8.1945     8.1681    77.6012     2.4810     0.1323     0.0154
  391.5000   -35.7098     8.4534     8.1999     8.1609    79.4140     2.4819     0.1331     0.0157
  392.0000   -35.7538     8.4534     8.2052     8.1538    83.8174     2.4876     0.1235     0.0159
  392.5000   -35.7287     8.4533     8.2105     8.1466    85.1242     2.4823     0.1351     0.0162
  393.0000   -35.7049     8.4522     8.2159     8.1394    85.3525     2.4736     0.1336     0.0165
  393.5000   -35.6813     8.4534     8.2212     8.1322    85.8641     2.4741     0.1319     0.0170
  394.0000   -35.6577     8.5772     8.3160     8.1251    87.5378     2.4750     0.1326     0.0174
  394.5000   -35.6342     8.7220     8.4564     8.1179    89.0398     2.4796     0.1273     0.0178
  395.0000   -35.6107     8.8518     8.6105     8.1108    93.2854     2.4846     0.1256     0.0182
  395.5000   -35.5874     8.8518     8.6162     8.1038   105.3692     2.4897     0.1251     0.0178
  396.0000   -35.5675     8.8518     8.6239     8.0799   108.8699     2.4931     0.1268     0.0159
  396.5000   -35.3567     8.8572     8.6317     8.0501   110.0472     2.4904     0.1290     0.0139
  397.0000   -35.0926     8.8669     8.6395     8.0202   108.6664     2.4858     0.1295     0.0120
  397.5000   -34.8271     8.8765     8.6473     7.9903   107.0933     2.4833     0.1243     0.0107
  398.0000   -34.5627     8.8862     8.6551     7.9605   106.5216     2.4913     0.1247     0.0121
  398.5000   -34.3544     8.8959     8.6629     7.9308   102.8543     2.4960     0.1244     0.0135
  399.0000   -34.4793     8.9056     8.6707     7.8996    97.6305     2.4961     0.1229     0.0149
  399.5000   -34.6182     8.9154     8.6785     7.8313    90.5182     2.4989     0.1187     0.0164
  400.0000   -34.7570     8.9252     8.6866     7.7946    89.9559     2.5066     0.1209     0.0133
  400.5000   -34.8958     8.9401     8.7217     7.8487    92.4386     2.5012     0.1227     0.0098
  401.0000   -35.0112     8.9926     8.7831     7.9000    95.2983     2.4987     0.1215     0.0062
  401.5000   -35.1092     9.0455     8.8453     7.8960    95.0387     2.5037     0.1164     0.0026
  402.0000   -35.2062     9.0987     8.9078     7.8885    90.2555     2.5087     0.1155     0.0036
