~VERSION INFORMATION
 VERS.                2.0:   CWLS LOG ASCII STANDARD - VERSION 2.0
 WRAP.                 NO:   ONE LINE PER DEPTH STEP
~WELL INFORMATION
#MNEM.UNIT      DATA TYPE    INFORMATION
#----------   ------------   ------------------------------
 STRT.F           12.5000:   START DEPTH
 STOP.F          688.0000:   STOP DEPTH
 STEP.F            0.5000:   STEP LENGTH
 NULL.          -999.2500:   NO VALUE
 COMP. FENIX & SCISSON INC:   COMPANY
 WELL. 26-66 SX 11 WO #26-11:   WELL
 FLD .             TEAPOT:   FIELD
 LOC .      S11 T38N R78W:   LOCATION
 CNTY.            NATRONA:   COUNTY
 STAT.            WYOMING:   STATE
 CTRY. UNITED STATES OF AMERICA:   COUNTRY
 SRVC.      Dresser Atlas:   SERVICE COMPANY
 DATE.        28-AUG-1980:   LOGDATE
 API .       490251084700:   API NUMBER
~CURVE INFORMATION
#MNEM.UNIT       API CODE    CURVE DESCRIPTION
#----------   ------------   ------------------------------
 DEPT.F                  :   
 SFL .OHMM   07 220 01 00:   SHALLOW FOCUSED LOG RESISTIVITY
 ILD .OHMM   07 120 46 00:   INDUCTION LOG DEEP
 ILM .OHMM   07 120 44 00:   INDUCTION LOG MEDIUM
 SPR .MV     07 010 01 00:   SPONTANEOUS POTENTIAL
 CORR.G/C3   45 356 01 00:   DENSITY CORRECTION
 RHOB.G/C3   45 350 01 00:   BULK DENSITY
 DPOR.DEC    45 890 12 00:   DENSITY POROSITY SANDSTONE
 NPOR.DEC    42 890 03 00:   NEUTRON POROSITY SANDSTONE
 GRD .GAPI   45 310 01 00:   GAMMA RAY FROM DENSITY LOG
~PARAMETER INFORMATION
#MNEM.UNIT          VALUE    DESCRIPTION
#----------   ------------   ------------------------------
 PD  .                 GL:   PERMANENT DATUM
 EPD .F              5194:   ELEVATION PERMANENT DATUM
 LMF .                 KB:   LOG MEASURED FROM
 DAPD.F                 5:   FEET ABOVE PERMANENT DATUM
 DMF .                 KB:   DRILLING MEASURED FROM
 EKB .F              5199:   KELLING BUSHING
 EGL .F              5194:   GROUND LEVEL
 DATE.          8-28-1980:   RUN DATE
 RUN .                  1:   RUN NUMBER
 DD  .F               700:   DEPTH DRILLER
 DL  .F               689:   DEPTH LOGGER
 BLI .F               688:   BOTTOM LOG INTERVAL
 TLI .F                14:   TOP LOG INTERVAL
 BS  .IN             8.75:   BIT SIZE
 BSD .F               700:   BIT SIZE AT DEPTH
 DFT .                KCL:   DRILLING FLUID TYPE
 DFD .                8.8:   DRILLING FLUID DENSITY
 DFV .                 55:   DRILLING FLUID VISCOSITY
 DFPH.                 11:   DRILLING FLUID PH
 DFL .                  8:   DRILLING FLUID LOSS
 MSS .           FLOWLINE:   MUD SAMPLE SOURCE
 RMS .OHMM            .72:   RESISTIVITY MUD SAMPLE
 MST .F                66:   MUD SAMPLE TEMPERATURE
 RMF .OHMM            .21:   RESISTIVITY MUD FILTRATE SAMPLE
 MFST.F                66:   MUD FILTRATE SAMPLE TEMPERATURE
 RMC .OHMM           1.24:   RESISTIVITY MUD CAKE
 MCST.F                66:   MUD CAKE SAMPLE TEMPERATURE
 MFSS.               MEAS:   MUD FILTRATE SAMPLE SOURCE
 MCSS.               MEAS:   MUD CAKE SAMPLE SOURCE
 BHT .F               100:   BOTTOM HOLE TEMPERATURE
 TCS .HRS               2:   TIME CURCULATED STOPPED
 MRT .F               100:   MAXIMUM RECORDED TEMPERATURE
 LUN .               6240:   LOGGING UNIT NUMBER
 LUL .               RYTN:   LOGGING UNIT LOCATION
 ENGI.           J. GETTY:   RECORDING ENGINEER
 WITN.              FIVAS:   WITNESSED BY
 CLNT.            A2DTECH:   CLIENT CODE
 ORIG.      1" 2.5" PRINT:   ORIGIN OF DATA
 UWI .       490251084700:   UNIQUE WELL ID
 DICO. A2D Technologies, Inc.:   DIGITIZING COMPANY
~OTHER INFORMATION
~A   DEPT      SFL        ILD        ILM        SPR       CORR       RHOB       DPOR         NPOR      GRD   
# ...
  450.5000     7.6299     5.8381     6.0823   -73.4080     0.0451     2.4076     0.1594     0.3274   156.3200
  451.0000     6.1277     5.6437     5.8842   -73.6107     0.0404     2.4122     0.1546     0.3313   157.4383
  451.5000     5.4606     5.4557     5.6926   -73.8188     0.0327     2.4232     0.1437     0.3298   158.4788
  452.0000     5.9083     5.3361     5.5072   -74.0284     0.0257     2.4394     0.1283     0.3261   158.7741
  452.5000     6.4645     5.2787     5.3654   -74.2353     0.0190     2.4549     0.1306     0.3226   158.4958
  453.0000     7.0719     5.2220     5.3654   -74.4423     0.0138     2.4581     0.1358     0.3256   154.9895
  453.5000     7.4896     5.1659     5.3654   -74.6516     0.0191     2.4469     0.1410     0.3303   147.6217
  454.0000     7.4101     5.0752     5.3654   -74.8594     0.0243     2.4360     0.1462     0.3396   147.3602
  454.5000     7.1295     5.0868     5.3654   -75.0626     0.0301     2.4214     0.1547     0.3621   148.8410
  455.0000     6.3012     5.1189     5.3654   -75.2767     0.0330     2.3988     0.1681     0.3697   155.7018
  455.5000     4.9595     5.1513     5.5801   -75.5021     0.0255     2.3878     0.1728     0.3699   157.7369
  456.0000     4.3759     5.1702     5.8317   -75.4911     0.0105     2.3838     0.1745     0.3726   154.7174
  456.5000     4.8527     5.4709     6.0947   -75.1014    -0.0024     2.3972     0.1585     0.3599   147.3773
  457.0000     5.3349     5.7731     6.3696   -74.7277     0.0122     2.4263     0.1408     0.3238   146.8705
  457.5000     5.6310     6.0920     6.6568   -74.3763     0.0268     2.4551     0.1251     0.3098   146.9059
  458.0000     5.9435     6.4285     6.9547   -73.9976     0.0311     2.4654     0.1243     0.2940   147.4334
  458.5000     6.2733     6.7836     6.8926   -74.0506     0.0248     2.4658     0.1243     0.2993   145.4213
  459.0000     6.6214     6.9547     6.8316   -74.1077     0.0185     2.4573     0.1293     0.3171   146.0783
  459.5000     6.8832     6.7094     6.7711   -74.1798     0.0164     2.4492     0.1379     0.3149   147.4937
  460.0000     7.0146     6.4154     6.7111   -74.2547     0.0132     2.4437     0.1337     0.3109   148.8563
  460.5000     7.1484     6.1343     6.6517   -74.3195     0.0222     2.4568     0.1220     0.3069   145.4338
  461.0000     7.2848     5.8655     6.5928   -74.3706     0.0335     2.4881     0.1100     0.3028   141.8971
  461.5000     7.4238     5.6085     6.3251   -74.5319     0.0442     2.4957     0.1100     0.3020   138.4506
  462.0000     7.6299     5.3627     5.7186   -74.7986     0.0396     2.4646     0.1374     0.3132   137.1714
  462.5000     7.3328     5.1565     5.4321   -75.0648     0.0368     2.4051     0.1793     0.3401   136.4939
  463.0000     5.9082     5.0828     5.2669   -75.1609     0.0402     2.3693     0.1801     0.3774   135.3755
  463.5000     4.3759     5.0101     5.1702   -74.9876     0.0443     2.3951     0.1578     0.3655   136.3407
  464.0000     4.5580     4.8906     5.3391   -74.8282     0.0539     2.4678     0.1357     0.3725   138.1203
  464.5000     5.3920     4.8906     5.6281   -74.7023     0.0630     2.4810     0.1100     0.3893   139.8610
  465.0000     6.3392     5.0752     5.9326   -74.5806     0.0721     2.5025     0.1060     0.3980   140.0557
  465.5000     6.7093     5.3317     6.2536   -74.4597     0.0767     2.5126     0.0970     0.3027   137.2797
  466.0000     6.9095     5.7393     6.5920   -74.3396     0.0630     2.5235     0.0884     0.2841   136.0527
  466.5000     7.1157     6.1781     6.9487   -74.2191     0.0440     2.5302     0.0929     0.2630   138.6972
  467.0000     7.3280     6.6504     7.3247   -74.0984     0.0253     2.5027     0.1044     0.2508   145.5889
  467.5000     7.4942     7.2173     7.7211   -73.9777     0.0063     2.4658     0.1256     0.2406   147.3129
  468.0000     7.5114     7.2410     7.9337   -73.8569    -0.0121     2.4229     0.1489     0.2414   146.6687
  468.5000     7.5286     7.2678     7.9594   -73.7362    -0.0276     2.3839     0.1745     0.2672   146.1139
  469.0000     7.5459     7.2946     7.9846   -73.6157    -0.0138     2.4170     0.1588     0.2885   145.4173
  469.5000     7.5632     7.3216     8.0098   -73.4950     0.0054     2.4621     0.1275     0.2804   142.5043
  470.0000     7.5806     7.3486     8.0353   -73.3747     0.0252     2.4941     0.1096     0.2674   139.9495
  470.5000     7.5980     7.3758     8.0614   -73.2549     0.0442     2.5099     0.1021     0.2335   138.6785
  471.0000     7.6154     7.4030     7.9134   -73.1329     0.0636     2.5286     0.0900     0.2335   140.4867
  471.5000     7.6329     7.4304     7.9222   -73.0126     0.0683     2.5445     0.0773     0.2661   140.6504
  472.0000     7.6504     7.4578     7.9161   -72.8973     0.0520     2.5501     0.0789     0.2669   139.2639
  472.5000     7.6679     7.4854     7.9156   -72.7768     0.0286     2.5170     0.1032     0.2646   134.2498
  473.0000     7.6855     7.5131     7.9171   -72.9918     0.0136     2.4578     0.1450     0.2645   129.9581
  473.5000     7.7031     7.5408     7.9177   -73.2994     0.0283     2.4339     0.1426     0.2980   127.4117
  474.0000     7.7208     7.5687     7.9177   -73.6097     0.0509     2.4797     0.1136     0.3544   120.5544
  474.5000     7.7385     7.5967     7.9172   -73.9173     0.0664     2.5339     0.0837     0.3496   123.1923
  475.0000     7.7563     7.6299     7.9183   -74.2266     0.0461     2.5282     0.0837     0.3171   135.8570
  475.5000     7.7726     7.5457     7.9180   -74.5322     0.0303     2.4923     0.1058     0.3016   134.9376
  476.0000     7.4276     7.3583     7.9180   -74.7881     0.0124     2.4754     0.1203     0.2986   135.1791
  476.5000     7.0848     7.1760     7.9180   -74.7899     0.0162     2.4811     0.1155     0.2956   135.0275
  477.0000     7.0848     6.9985     8.0404   -74.7913     0.0240     2.4845     0.1161     0.2850   134.6641
  477.5000     7.4029     7.1737     8.2873   -74.7898     0.0232     2.4796     0.1187     0.2805   134.5649
  478.0000     7.6939     7.4619     8.5418   -74.5977     0.0325     2.4974     0.1109     0.2760   134.3672
  478.5000     7.9962     7.9092     8.8492   -74.3662     0.0579     2.5209     0.0853     0.2718   133.6676
  479.0000     8.3105     7.5199     8.4033   -74.1312     0.0585     2.5371     0.0912     0.2669   132.2939
  479.5000     8.6371     6.7072     7.5158   -73.8976     0.0291     2.5089     0.1140     0.2685   130.9613
  480.0000     9.0147     5.9881     6.7221   -73.6645     0.0001     2.4649     0.1394     0.2996   130.0999
  480.5000     9.0147     5.3460     6.0121   -73.4307     0.0086     2.4174     0.1512     0.2951   129.9729
  481.0000     9.0147     4.8008     5.3772   -73.1972     0.0386     2.3936     0.1756     0.2857   130.1249
  481.5000     6.2205     4.5412     4.9820   -72.9637     0.0361     2.3459     0.2049     0.2776   130.9748
  482.0000     4.3711     4.6533     4.9820   -72.7304     0.0337     2.3081     0.2128     0.2820   138.0911
  482.5000     3.6357     4.8530     5.4422   -72.4978     0.0323     2.3693     0.1529     0.2892   145.0529
  483.0000     4.1277     5.0612     6.2645   -72.2623     0.0407     2.4630     0.1071     0.2852   149.4587
  483.5000     5.7902     5.2783     6.7000   -72.0287     0.0512     2.5273     0.0907     0.2775   149.1805
  484.0000     8.1222     5.4658     7.1658   -71.8022     0.0512     2.5183     0.0968     0.2725   145.3580
  484.5000     8.8492     6.4084     7.6639   -71.5690     0.0322     2.4978     0.1076     0.2788   135.0210
  485.0000     8.8221     7.3428     8.2170   -71.7743     0.0233     2.4943     0.1110     0.2809   128.1511
  485.5000     8.7967     8.4133     8.3265   -72.0900     0.0205     2.4884     0.1141     0.2813   127.3940
  486.0000     8.7714     9.0265     8.4418   -72.4057     0.0169     2.4821     0.1163     0.2880   128.4214
  486.5000     8.7462     9.0505     8.5586   -72.7243     0.0204     2.4862     0.1143     0.2929   130.1854
