~VERSION INFORMATION
 VERS.                2.0:   CWLS LOG ASCII STANDARD - VERSION 2.0
 WRAP.                 NO:   ONE LINE PER DEPTH STEP
~WELL INFORMATION
#MNEM.UNIT      DATA TYPE    INFORMATION
#----------   ------------   ------------------------------
 STRT.F           70.0000:   START DEPTH
 STOP.F          806.0000:   STOP DEPTH
 STEP.F            0.5000:   STEP LENGTH
 NULL.          -999.2500:   NO VALUE
 COMP. U S NAVY/INTEX OIL CO:   COMPANY
 WELL. RES 3 TEAPOT DOME #33-S-2:   WELL
 FLD .             TEAPOT:   FIELD
 LOC .       S2 T38N R78W:   LOCATION
 CNTY.            NATRONA:   COUNTY
 STAT.            WYOMING:   STATE
 CTRY. UNITED STATES OF AMERICA:   COUNTRY
 SRVC.         Lane Wells:   SERVICE COMPANY
 DATE.        15-MAR-1980:   LOGDATE
 API .       490250644600:   API NUMBER
~CURVE INFORMATION
#MNEM.UNIT       API CODE    CURVE DESCRIPTION
#----------   ------------   ------------------------------
 DEPT.F                  :   
 GR  .GAPI   30 310 01 00:   GAMMA RAY
 SPR .MV     05 010 01 00:   SPONTANEOUS POTENTIAL FROM RES.
 CILD.MMHO   05 110 46 00:   CONDUCTIVITY INDUCTION LOG DEEP
 ASN .OHMM   05 041 16 00:   AMPLIFIED SHORT NORMAL 16"
 ILD .OHMM   05 120 46 00:   INDUCTION LOG DEEP
~PARAMETER INFORMATION
#MNEM.UNIT          VALUE    DESCRIPTION
#----------   ------------   ------------------------------
 PD  .                 GL:   PERMANENT DATUM
 EPD .F              5119:   ELEVATION PERMANENT DATUM
 LMF .                 KB:   LOG MEASURED FROM
 DAPD.F                 5:   FEET ABOVE PERMANENT DATUM
 DMF .                 KB:   DRILLING MEASURED FROM
 EKB .F              5124:   KELLING BUSHING
 EGL .F              5119:   GROUND LEVEL
 DATE.            3-15-60:   RUN DATE
 RUN .                  1:   RUN NUMBER
 DD  .F               810:   DEPTH DRILLER
 DL  .F               808:   DEPTH LOGGER
 BLI .F               806:   BOTTOM LOG INTERVAL
 TLI .F                70:   TOP LOG INTERVAL
 CS  .IN            8.625:   CASING SIZE
 CBD .F                12:   CASING BOTTOM DRILLER
 BS  .IN            7.875:   BIT SIZE
 BSD .F               810:   BIT SIZE AT DEPTH
 DFT .   GEL/OIL EMULSION:   DRILLING FLUID TYPE
 DFD .                6.8:   DRILLING FLUID DENSITY
 DFV .                 34:   DRILLING FLUID VISCOSITY
 DFPH.                7.6:   DRILLING FLUID PH
 DFL .                9.4:   DRILLING FLUID LOSS
 MSS .           FLOWLINE:   MUD SAMPLE SOURCE
 RMS .OHMM            4.2:   RESISTIVITY MUD SAMPLE
 MST .F                65:   MUD SAMPLE TEMPERATURE
 RMF .OHMM            3.3:   RESISTIVITY MUD FILTRATE SAMPLE
 MFST.F                68:   MUD FILTRATE SAMPLE TEMPERATURE
 RMC .OHMM              4:   RESISTIVITY MUD CAKE
 MCST.F                68:   MUD CAKE SAMPLE TEMPERATURE
 MFSS.                MUD:   MUD FILTRATE SAMPLE SOURCE
 MCSS.              PRESS:   MUD CAKE SAMPLE SOURCE
 RMB .OHMM            3.9:   RESISTIVITY MUD AT BHT
 BHT .F                71:   BOTTOM HOLE TEMPERATURE
 MRT .F                71:   MAXIMUM RECORDED TEMPERATURE
 LUN .             L-4474:   LOGGING UNIT NUMBER
 LUL .             CASPER:   LOGGING UNIT LOCATION
 ENGI.      GRIGGS/NELSON:   RECORDING ENGINEER
 WITN.   JORGENSEN/HUDSON:   WITNESSED BY
 CLNT.            A2DTECH:   CLIENT CODE
 ORIG. 1", 2.5", 5" PRINT:   ORIGIN OF DATA
 UWI .       490250644600:   UNIQUE WELL ID
 DICO. A2D Technologies, Inc.:   DIGITIZING COMPANY
~OTHER INFORMATION
~A   DEPT       GR        SPR        CILD         ASN        ILD 
# ...
  497.0000  -999.2500   -32.0897   188.9810     6.0766     7.1943
  497.5000  -999.2500   -32.2673   190.3140     5.8665     7.0556
  498.0000  -999.2500   -32.4319   192.5356     5.7405     6.9132
  498.5000  -999.2500   -32.4139   195.8704     5.4915     6.7495
  499.0000  -999.2500   -32.1404   199.2052     5.3137     6.5872
  499.5000  -999.2500   -31.7754   203.1991     5.1007     6.4758
  500.0000    87.6404   -31.5482   202.9215     5.0652     6.1301
  500.5000    86.8533   -32.8251   202.5757     5.2423     6.0742
  501.0000    82.0641   -32.8251   202.2298     5.3682     6.0182
  501.5000    84.7838   -32.7421   201.8839     5.4941     5.9538
  502.0000    86.4035   -32.6124   201.5380     5.5628     5.9538
  502.5000    81.1735   -32.4664   201.1921     5.6151     5.9538
  503.0000    76.5502   -32.6773   201.4452     5.6141     5.9611
  503.5000    77.9734   -32.4711   200.8462     5.6435     5.9551
  504.0000    71.7526   -32.3955   200.5004     5.6812     5.9559
  504.5000    68.6688   -32.6582   200.1545     5.7167     5.9552
  505.0000    66.0803   -33.0592   199.6445     5.7518     5.9458
  505.5000    68.9750   -33.0732   200.1422     5.7874     5.9153
  506.0000    66.2633   -32.5827   201.0888     5.8216     5.8660
  506.5000    72.3929   -32.1093   202.0354     5.8442     5.8190
  507.0000    82.4393   -32.1245   202.9820     5.8399     5.7908
  507.5000    74.0418   -32.4159   203.9287     5.8081     5.7690
  508.0000    79.8062   -32.4324   204.8753     5.7671     5.7305
  508.5000    76.2436   -32.0957   205.8219     5.7249     5.6810
  509.0000    84.9979   -31.8615   206.7536     5.6655     5.6468
  509.5000    82.2568   -31.9531   211.9736     5.5811     5.6204
  510.0000    76.0506   -32.0154   217.1124     5.4888     5.5585
  510.5000    69.3788   -31.7651   220.9716     5.3857     5.4442
  511.0000    73.9067   -31.5198   228.4597     5.2300     5.3058
  511.5000    73.0149   -31.6637   234.4550     5.0049     5.1687
  512.0000    71.0074   -31.9776   240.4502     4.7535     5.0374
  512.5000    77.0662   -31.9772   246.4455     4.5164     4.9275
  513.0000    88.1910   -31.6372   251.6825     4.2972     4.8672
  513.5000    90.6881   -31.3525   256.5166     4.1289     4.8656
  514.0000    89.4181   -31.3749   254.9289     4.0959     4.9124
  514.5000    95.5460   -31.6220   251.9313     4.2406     4.9988
  515.0000    98.6929   -31.8865   249.4076     4.5076     5.1128
  515.5000    91.7946   -32.0129   238.9929     4.8126     5.2307
  516.0000    83.2307   -32.0058   230.0000     5.1067     5.3384
  516.5000    80.5319   -32.0470   221.0071     5.3594     5.4433
  517.0000    75.7876   -32.2492   210.3081     5.5490     5.5535
  517.5000    79.7082   -32.4162   209.0936     5.6894     5.6651
  518.0000    79.2175   -32.2783   207.5948     5.8140     5.7734
  518.5000    71.9618   -31.9127   206.7536     5.9305     5.8815
  519.0000    66.7053   -31.6460   201.7773     6.0324     5.9916
  519.5000    70.0546   -31.5748   198.3185     6.1418     6.1017
  520.0000    66.1354   -31.5111   194.8596     6.2909     6.2095
  520.5000    94.2049   -31.4144   191.4008     6.4665     6.3119
  521.0000    89.4598   -31.5054   188.9810     6.6167     6.4057
  521.5000    90.1934   -31.8322   185.0829     6.7091     6.4897
  522.0000    90.5766   -32.0727   181.8720     6.7626     6.5655
  522.5000    77.2583   -31.9845   180.9439     6.8190     6.6354
  523.0000    79.2646   -31.7940   179.9447     6.9019     6.7027
  523.5000    81.8321   -31.8500   178.9455     7.0064     6.7728
  524.0000    87.4647   -32.0791   177.9463     7.1184     6.8456
  524.5000    93.5803   -32.1451   176.9471     7.2298     6.9133
  525.0000    96.5143   -32.0530   175.9479     7.3351     6.9763
  525.5000    95.1520   -32.1314   174.7630     7.4297     7.0498
  526.0000   104.8049   -32.3759   173.5426     7.5124     7.1327
  526.5000    93.9922   -32.3671   171.9550     7.5778     7.1862
  527.0000    89.7660   -32.0333   171.1729     7.6107     7.1751
  527.5000    93.3919   -31.9071   172.4358     7.6048     7.1230
  528.0000    96.7554   -32.2894   173.7983     7.5788     7.0836
  528.5000    73.9781   -32.7066   174.6288     7.5500     7.0597
  529.0000    72.1068   -32.6215   175.8140     7.5080     6.9976
  529.5000    79.8629   -32.1937   177.0296     7.4346     6.8705
  530.0000    86.3529   -31.8790   178.1605     7.3369     6.7225
  530.5000    75.9814   -31.7015   180.0389     7.2407     6.6042
  531.0000    68.1371   -31.4197   182.4863     7.1621     6.5018
  531.5000    67.4028   -31.0980   185.3506     7.0982     6.3751
  532.0000    75.7191   -31.0249   188.6118     7.0301     6.2396
  532.5000    75.5607   -31.2157   195.1370     6.9226     6.1439
  533.0000    72.4479   -31.3747   201.0990     6.7248     6.0665
  533.5000    80.4529   -31.3046   207.5769     6.4018     5.9117
  534.0000    83.7445   -31.1309   213.7435     5.9814     5.6313
  534.5000    79.9626   -31.1147   217.2876     5.5487     5.2753
  535.0000    86.7887   -31.3446   236.8177     5.1625     4.9096
  535.5000    90.5292   -31.6267   249.8264     4.7994     4.5591
  536.0000    86.7193   -31.6785   260.5882     4.4028     4.2324
  536.5000    73.8562   -31.4312   293.7067     3.9592     3.9233
  537.0000    69.0247   -31.0873   321.8683     3.5045     3.6022
  537.5000    75.7355   -30.8638   347.6455     3.0919     3.2741
  538.0000    81.7091   -30.7620   375.9666     2.7733     3.0081
  538.5000    81.8412   -30.6517   398.4052     2.5713     2.8521
  539.0000    72.9661   -30.4814   413.8523     2.4672     2.7875
  539.5000    68.3652   -30.3020   412.7351     2.4432     2.8087
  540.0000    52.9503   -30.1428   403.0759     2.4990     2.9580
  540.5000    42.0542   -29.9658   402.1036     2.6101     3.2361
  541.0000    50.3493   -29.7581   385.2386     2.7529     3.5652
  541.5000    64.1763   -29.6405   351.4835     2.9994     3.8702
  542.0000    71.4467   -29.8209   328.0655     3.4638     4.1416
  542.5000    78.9198   -30.3258   304.3570     4.1104     4.4174
  543.0000    79.9243   -30.7972   281.3981     4.7358     4.7369
  543.5000    72.8003   -30.8104   261.2974     5.1836     5.0806
  544.0000    65.6844   -30.4584   235.1896     5.4648     5.3531
  544.5000    68.8012   -30.2792   231.2322     5.6438     5.4812
  545.0000    73.2976   -30.4656   225.2370     5.7341     5.5105
  545.5000    73.1069   -30.6141   220.9716     5.7492     5.5374
  546.0000    78.2482   -30.4981   216.3365     5.7576     5.5838
  546.5000    84.0393   -30.4848   213.8626     5.8201     5.6131
  547.0000    77.4761   -30.7709   213.8626     5.9103     5.6131
  547.5000    75.0147   -30.8797   213.8626     5.9541     5.5883
  548.0000    87.5723   -30.4897   213.8626     5.9350     5.5190
  548.5000    93.7828   -30.1203   220.7583     5.8920     5.3934
  549.0000    85.4131   -30.3352   226.7536     5.8004     5.2412
  549.5000    93.3051   -30.8311   232.7488     5.5602     5.0955
  550.0000   107.0878   -30.9645   238.7647     5.1588     4.9568
  550.5000   105.3174   -30.6887   242.2810     4.7462     4.8220
  551.0000    90.0324   -30.3854   248.6679     4.4780     4.7165
  551.5000    79.6535   -30.2051   253.0410     4.3774     4.6810
  552.0000    85.0038   -30.0905   253.0005     4.3833     4.7360
  552.5000    75.5122   -30.1044   253.1022     4.4396     4.8622
  553.0000    90.3236   -30.3076   249.3908     4.5205     5.0134
  553.5000    93.6404   -30.5721   244.3563     4.6519     5.1546
  554.0000    94.5298   -30.7783   238.0870     4.8849     5.2863
  554.5000    89.7822   -30.9788   232.3950     5.1895     5.4226
  555.0000    89.6521   -31.2116   227.9258     5.4554     5.5617
  555.5000    83.0940   -31.3716   217.5422     5.6521     5.6958
  556.0000    79.0604   -31.3981   208.9271     5.8751     5.8317
  556.5000    84.8627   -31.3916   201.1557     6.1857     5.9750
  557.0000    88.6124   -31.4173   192.2651     6.5261     6.1111
  557.5000    64.2350   -31.3476   190.0474     6.8211     6.2356
