~VERSION INFORMATION
 VERS.                2.0:   CWLS LOG ASCII STANDARD - VERSION 2.0
 WRAP.                 NO:   ONE LINE PER DEPTH STEP
~WELL INFORMATION
#MNEM.UNIT      DATA TYPE    INFORMATION
#----------   ------------   ------------------------------
 STRT.F         1500.0000:   START DEPTH
 STOP.F         3480.0000:   STOP DEPTH
 STEP.F            0.5000:   STEP LENGTH
 NULL.          -999.2500:   NO VALUE
 COMP. FLUOR DANIEL (NOPSR). INC.:   COMPANY
 WELL.   22-STX-26 #22-26:   WELL
 FLD .             NPR #3:   FIELD
 LOC .      S26 T38N R78W:   LOCATION
 CNTY.            NATRONA:   COUNTY
 STAT.            WYOMING:   STATE
 CTRY. UNITED STATES OF AMERICA:   COUNTRY
 SRVC.            Unknown:   SERVICE COMPANY
 DATE.        14-JUN-1995:   LOGDATE
 API .       490252272400:   API NUMBER
~CURVE INFORMATION
#MNEM.UNIT       API CODE    CURVE DESCRIPTION
#----------   ------------   ------------------------------
 DEPT.F                  :   
 ROP .MIN/FT 91 810 01 00:   RATE OF DRILLING PENETRATION
 TGAS.UNITS  91 830 01 00:   TOTAL GAS FROM HOTWIRE
~PARAMETER INFORMATION
#MNEM.UNIT          VALUE    DESCRIPTION
#----------   ------------   ------------------------------
 EKB .F              5348:   KELLING BUSHING
 EGL .F              5338:   GROUND LEVEL
 DATE.            6-14-95:   RUN DATE
 DD  .F              3480:   DEPTH DRILLER
 BLI .F              3480:   BOTTOM LOG INTERVAL
 TLI .F              1500:   TOP LOG INTERVAL
 CS  .IN            9.625:   CASING SIZE
 CBD .F                87:   CASING BOTTOM DRILLER
 ENGI.               HUSK:   RECORDING ENGINEER
 WITN.              TOWER:   WITNESSED BY
 CLNT.            A2DTECH:   CLIENT CODE
 ORIG.           5" PRINT:   ORIGIN OF DATA
 UWI .       490252272400:   UNIQUE WELL ID
 DICO. A2D Technologies, Inc.:   DIGITIZING COMPANY
~OTHER INFORMATION
~A  DEPT         ROP       TGAS 
# ...
 1621.5000     0.7031     2.6310
 1622.0000     0.8501     2.6191
 1622.5000     0.8609     2.6072
 1623.0000     0.8584     2.5954
 1623.5000     0.8559     2.5835
 1624.0000     0.8535     2.5716
 1624.5000     0.8510     2.5597
 1625.0000     0.8485     2.5478
 1625.5000     0.8461     2.5360
 1626.0000     0.8436     2.5241
 1626.5000     0.8411     2.5122
 1627.0000     0.8386     2.5003
 1627.5000     0.8362     2.4884
 1628.0000     0.8337     2.4766
 1628.5000     1.0527     2.4647
 1629.0000     1.0529     2.4528
 1629.5000     1.0532     2.4409
 1630.0000     1.0535     2.4290
 1630.5000     0.8021     2.4172
 1631.0000     0.8024     2.4053
 1631.5000     0.8027     2.3934
 1632.0000     0.8029     2.3815
 1632.5000     0.8032     2.3696
 1633.0000     0.8035     2.3578
 1633.5000     0.8037     2.3459
 1634.0000     0.8040     2.3340
 1634.5000     0.8042     2.3221
 1635.0000     0.8045     2.3102
 1635.5000     0.8048     2.2984
 1636.0000     0.8050     2.2865
 1636.5000     0.8053     2.2746
 1637.0000     0.8056     2.2627
 1637.5000     0.8058     2.2508
 1638.0000     0.8061     2.2390
 1638.5000     0.8063     2.2271
 1639.0000     0.8066     2.2152
 1639.5000     0.8069     2.2033
 1640.0000     0.8071     2.1914
 1640.5000     0.8074     2.1868
 1641.0000     0.8077     2.1898
 1641.5000     0.8079     2.1927
 1642.0000     0.8082     2.1957
 1642.5000     0.8084     2.1987
 1643.0000     0.8087     2.2016
 1643.5000     0.8090     2.2046
 1644.0000     1.3019     2.2076
 1644.5000     1.3022     2.2106
 1645.0000     1.3129     2.2135
 1645.5000     1.3132     2.2165
 1646.0000     1.3239     2.2195
 1646.5000     1.0715     2.2224
 1647.0000     1.0651     2.2254
 1647.5000     1.0587     2.2284
 1648.0000     0.8113     2.2314
 1648.5000     0.8116     2.2343
 1649.0000     0.8118     2.2373
 1649.5000     0.8121     2.2403
 1650.0000     0.8124     2.2432
 1650.5000     0.8126     2.2462
 1651.0000     0.8129     2.2492
 1651.5000     0.8132     2.2521
 1652.0000     0.8134     2.2551
 1652.5000     0.8137     2.2581
 1653.0000     0.8139     2.2611
 1653.5000     0.8142     2.2640
 1654.0000     0.8145     2.2670
 1654.5000     0.8147     2.2700
 1655.0000     0.8150     2.2729
 1655.5000     0.8153     2.2759
 1656.0000     0.8155     2.2789
 1656.5000     0.8158     2.2819
 1657.0000     0.8160     2.2848
 1657.5000     0.8163     2.2878
 1658.0000     0.8166     2.2908
 1658.5000     0.8168     2.2937
 1659.0000     0.8171     2.2967
 1659.5000     0.8173     2.2997
 1660.0000     0.8176     2.3027
 1660.5000     0.8179     2.3056
 1661.0000     0.8181     2.3086
 1661.5000     0.8184     2.3116
 1662.0000     0.8187     2.3145
 1662.5000     0.6932     2.3175
 1663.0000     0.6934     2.3205
 1663.5000     0.6937     2.3235
 1664.0000     0.6939     2.3264
 1664.5000     0.6942     2.3294
 1665.0000     0.6944     2.3324
 1665.5000     0.6947     2.3353
 1666.0000     0.6950     2.3383
 1666.5000     0.6952     2.3413
 1667.0000     0.6955     2.3443
 1667.5000     0.6958     2.3472
 1668.0000     0.6960     2.3502
 1668.5000     0.6963     2.3532
 1669.0000     0.6965     2.3561
 1669.5000     0.6968     2.3591
 1670.0000     0.6971     2.3621
 1670.5000     0.8231     2.3651
 1671.0000     0.8234     2.3680
 1671.5000     0.8236     2.3710
 1672.0000     0.8239     2.3740
 1672.5000     0.8242     2.3769
 1673.0000     0.8244     2.3799
 1673.5000     0.8247     2.3829
 1674.0000     0.8249     2.3858
 1674.5000     0.8252     2.3888
 1675.0000     0.8255     2.3918
 1675.5000     0.8257     2.3948
 1676.0000     0.5849     2.3977
 1676.5000     0.5852     2.4007
 1677.0000     0.5854     2.4037
 1677.5000     0.5857     2.4066
 1678.0000     0.5860     2.4096
 1678.5000     0.5862     2.4126
 1679.0000     0.5865     2.4156
 1679.5000     0.5867     2.4185
 1680.0000     0.7862     2.4215
 1680.5000     0.7864     2.4245
 1681.0000     0.7867     2.4274
 1681.5000     0.7869     2.4304
 1682.0000     1.0388     2.4334
 1682.5000     1.0391     2.4364
 1683.0000     1.0394     2.4393
 1683.5000     1.0291     2.4423
 1684.0000     1.0294     2.4453
 1684.5000     1.0297     2.4482
 1685.0000     1.0299     2.4512
 1685.5000     1.0302     2.4542
 1686.0000     0.8732     2.4572
 1686.5000     0.8735     2.4601
 1687.0000     0.8737     2.4631
 1687.5000     0.8740     2.4661
 1688.0000     0.8742     2.4690
 1688.5000     0.8745     2.4720
 1689.0000     0.8747     2.4750
 1689.5000     0.8750     2.4780
 1690.0000     0.8753     2.4809
 1690.5000     0.8755     2.4839
 1691.0000     0.8758     2.4869
 1691.5000     0.8760     2.4898
 1692.0000     0.7820     2.4928
 1692.5000     0.7823     2.4958
 1693.0000     0.7801     2.4987
 1693.5000     0.7775     2.5017
 1694.0000     0.7748     2.5047
 1694.5000     0.7722     2.5077
 1695.0000     0.7695     2.5106
 1695.5000     0.7669     2.5136
 1696.0000     0.7642     2.5166
 1696.5000     0.7616     2.5195
 1697.0000     0.7589     2.5225
 1697.5000     0.7562     2.5255
 1698.0000     0.8795     2.5285
 1698.5000     0.8797     2.5314
 1699.0000     0.8800     2.5344
 1699.5000     0.8802     2.5374
 1700.0000     0.8805     2.5403
 1700.5000     0.8808     2.5433
 1701.0000     0.8810     2.5465
 1701.5000     0.8813     2.5355
 1702.0000     0.8816     2.5234
 1702.5000     0.8818     2.5113
 1703.0000     0.8821     2.4992
 1703.5000     0.8823     2.4871
 1704.0000     0.9665     2.4750
 1704.5000     0.9562     2.4629
 1705.0000     0.9587     2.4508
 1705.5000     0.9633     2.4387
 1706.0000     0.8418     2.4266
 1706.5000     0.8420     2.4145
 1707.0000     0.8422     2.4024
 1707.5000     0.8425     2.3903
 1708.0000     0.8428     2.3782
 1708.5000     0.8430     2.3662
 1709.0000     0.8433     2.3541
 1709.5000     0.8436     2.3420
 1710.0000     0.9172     2.3299
 1710.5000     0.9178     2.3178
 1711.0000     0.9186     2.3057
 1711.5000     0.9195     2.2936
 1712.0000     0.9203     2.2815
 1712.5000     0.9211     2.2694
 1713.0000     0.9219     2.2573
 1713.5000     0.9227     2.2452
 1714.0000     0.9235     2.2331
 1714.5000     0.9243     2.2210
 1715.0000     0.9251     2.2089
 1715.5000     0.9259     2.1968
 1716.0000     0.9267     2.1847
 1716.5000     0.9275     2.1726
 1717.0000     0.9283     2.1605
 1717.5000     0.9291     2.1485
 1718.0000     0.9299     2.1364
 1718.5000     0.9307     2.1243
 1719.0000     0.9316     2.1122
 1719.5000     0.9324     2.1001
 1720.0000     0.7233     2.0880
 1720.5000     0.7235     2.0759
 1721.0000     0.7238     2.0638
 1721.5000     0.7241     2.0517
 1722.0000     0.7243     2.0396
 1722.5000     0.7246     2.0275
 1723.0000     0.7248     2.0154
 1723.5000     0.7251     2.0033
 1724.0000     0.7438     1.9912
 1724.5000     0.6811     1.9791
 1725.0000     0.6813     1.9670
 1725.5000     0.6816     1.9549
 1726.0000     0.7761     1.9428
 1726.5000     0.7763     1.9308
 1727.0000     0.7765     1.9187
 1727.5000     0.7767     1.9066
 1728.0000     0.7769     1.8945
 1728.5000     0.7771     1.8824
 1729.0000     0.7774     1.8703
 1729.5000     0.7776     1.8582
 1730.0000     0.8512     1.8461
 1730.5000     0.8514     1.8340
 1731.0000     0.8516     1.8219
 1731.5000     0.8518     1.8098
 1732.0000     0.8101     1.7977
 1732.5000     0.8103     1.7856
 1733.0000     0.8105     1.7735
 1733.5000     0.8107     1.7614
 1734.0000     0.8109     1.7493
 1734.5000     0.8111     1.7372
 1735.0000     0.8113     1.7251
 1735.5000     0.8115     1.7130
 1736.0000     0.8117     1.7010
 1736.5000     0.8958     1.6889
 1737.0000     0.8961     1.6768
 1737.5000     0.8963     1.6647
 1738.0000     0.7287     1.6526
 1738.5000     0.7604     1.6405
 1739.0000     0.7606     1.6284
 1739.5000     0.7608     1.6163
 1740.0000     0.7820     1.6042
 1740.5000     0.7822     1.5921
 1741.0000     0.7824     1.5800
 1741.5000     0.7826     1.5679
 1742.0000     0.7828     1.5558
 1742.5000     0.7830     1.5437
