~VERSION INFORMATION
 VERS.                2.0:   CWLS LOG ASCII STANDARD - VERSION 2.0
 WRAP.                 NO:   ONE LINE PER DEPTH STEP
~WELL INFORMATION
#MNEM.UNIT      DATA TYPE    INFORMATION
#----------   ------------   ------------------------------
 STRT.F           43.0000:   START DEPTH
 STOP.F          973.0000:   STOP DEPTH
 STEP.F            0.5000:   STEP LENGTH
 NULL.          -999.2500:   NO VALUE
 COMP. LAWRENCE/ALLISON INC:   COMPANY
 WELL.    68-11 SX #11-11:   WELL
 FLD .           NPR NO 3:   FIELD
 LOC .      S11 T38N R78W:   LOCATION
 CNTY.            NATRONA:   COUNTY
 STAT.            WYOMING:   STATE
 CTRY. UNITED STATES OF AMERICA:   COUNTRY
 SRVC.           Gearhart:   SERVICE COMPANY
 DATE.        15-MAY-1986:   LOGDATE
 API .       490251105800:   API NUMBER
~CURVE INFORMATION
#MNEM.UNIT       API CODE    CURVE DESCRIPTION
#----------   ------------   ------------------------------
 DEPT.F                  :   
 GRN .GAPI   42 310 01 00:   GAMMA RAY FROM COMPENSATED NEUTRON LOG
 CNS .DEC    42 890 01 00:   NEUTRON POROSITY LIMESTONE
~PARAMETER INFORMATION
#MNEM.UNIT          VALUE    DESCRIPTION
#----------   ------------   ------------------------------
 PD  .                 GL:   PERMANENT DATUM
 LMF .                 KB:   LOG MEASURED FROM
 DMF .                 KB:   DRILLING MEASURED FROM
 DATE.        15-MAY-1986:   RUN DATE
 RUN .                  1:   RUN NUMBER
 DD  .F               974:   DEPTH DRILLER
 DL  .F               974:   DEPTH LOGGER
 BLI .F               973:   BOTTOM LOG INTERVAL
 TLI .F                39:   TOP LOG INTERVAL
 CS  .IN              4.5:   CASING SIZE
 BS  .IN             7.87:   BIT SIZE
 BSD .F               974:   BIT SIZE AT DEPTH
 DFT .              WATER:   DRILLING FLUID TYPE
 DFD .               8.34:   DRILLING FLUID DENSITY
 BHT .F                66:   BOTTOM HOLE TEMPERATURE
 LUN .               6084:   LOGGING UNIT NUMBER
 LUL .           GILLETTE:   LOGGING UNIT LOCATION
 ENGI.              BAUER:   RECORDING ENGINEER
 WITN.       STRONG/FIVAS:   WITNESSED BY
 CLNT.            A2DTECH:   CLIENT CODE
 ORIG.           5" PRINT:   ORIGIN OF DATA
 UWI .       490251105800:   UNIQUE WELL ID
 DICO. A2D Technologies, Inc.:   DIGITIZING COMPANY
 R1  . POROSITY WITH LIMESTONE:   REMARKS 1
~OTHER INFORMATION
~A   DEPT       GRN       CNS   
# ...
  650.5000    90.5896     0.2766
  651.0000    91.2113     0.2814
  651.5000    94.2627     0.2751
  652.0000    95.4905     0.2727
  652.5000    92.4629     0.2684
  653.0000    90.9551     0.2609
  653.5000    89.7512     0.2579
  654.0000    89.1551     0.2636
  654.5000    89.7751     0.2600
  655.0000    89.8074     0.2539
  655.5000    89.7568     0.2479
  656.0000    88.8991     0.2542
  656.5000    89.5219     0.2563
  657.0000    90.4457     0.2575
  657.5000    91.3695     0.2625
  658.0000    90.7705     0.2682
  658.5000    91.0894     0.2729
  659.0000    90.7974     0.2690
  659.5000    88.9856     0.2653
  660.0000    87.1739     0.2671
  660.5000    87.1858     0.2665
  661.0000    88.1096     0.2635
  661.5000    90.2493     0.2617
  662.0000    89.0173     0.2653
  662.5000    87.8414     0.2713
  663.0000    89.0722     0.2734
  663.5000    90.2999     0.2756
  664.0000    89.4000     0.2789
  664.5000    87.2843     0.2751
  665.0000    85.7765     0.2612
  665.5000    85.1775     0.2469
  666.0000    87.0162     0.2487
  666.5000    89.7637     0.2586
  667.0000    89.7756     0.2737
  667.5000    88.8757     0.2797
  668.0000    88.5836     0.2824
  668.5000    88.8997     0.2818
  669.0000    88.9119     0.2788
  669.5000    88.0116     0.2685
  670.0000    88.0265     0.2646
  670.5000    88.6463     0.2688
  671.0000    90.7859     0.2806
  671.5000    91.0989     0.2845
  672.0000    88.6822     0.2867
  672.5000    86.5664     0.2884
  673.0000    85.6665     0.2772
  673.5000    82.9429     0.2691
  674.0000    80.8272     0.2655
  674.5000    81.7510     0.2703
  675.0000    85.1064     0.2751
  675.5000    88.2025     0.2763
  676.0000    90.3425     0.2769
  676.5000    90.3094     0.2784
  677.0000    89.4095     0.2796
  677.5000    90.0323     0.2814
  678.0000    92.1719     0.2847
  678.5000    93.7036     0.2896
  679.0000    91.2839     0.2920
  679.5000    87.6484     0.2920
  680.0000    85.8367     0.2895
  680.5000    87.0644     0.2850
  681.0000    91.3317     0.2784
  681.5000    94.3831     0.2723
  682.0000    91.3320     0.2759
  682.5000    88.9057     0.2892
  683.0000    87.6800     0.3088
  683.5000    88.0509     0.3206
  684.0000    92.0142     0.3079
  684.5000    93.2419     0.2877
  685.0000    92.0381     0.2819
  685.5000    91.4391     0.2810
  686.0000    93.5817     0.2726
  686.5000    94.8094     0.2711
  687.0000    95.1253     0.2793
  687.5000    95.1373     0.2873
  688.0000    94.5410     0.2846
  688.5000    93.6414     0.2843
  689.0000    93.0454     0.2873
  689.5000    92.4115     0.2912
  690.0000    91.8535     0.2915
  690.5000    92.1724     0.2912
  691.0000    93.0962     0.2858
  691.5000    93.7160     0.2800
  692.0000    94.3359     0.2704
  692.5000    94.9557     0.2734
  693.0000    94.6637     0.2773
  693.5000    93.7638     0.2795
  694.0000    93.1648     0.2797
  694.5000    93.4837     0.2755
  695.0000    94.1035     0.2700
  695.5000    95.6372     0.2676
  696.0000    96.8876     0.2746
  696.5000    99.0962     0.2788
  697.0000    99.3185     0.2809
  697.5000    96.5978     0.2785
  698.0000    93.5703     0.2772
  698.5000    92.3664     0.2824
  699.0000    92.3783     0.2839
  699.5000    92.3903     0.2809
  700.0000    91.6943     0.2769
  700.5000    89.6787     0.2685
  701.0000    90.2986     0.2694
  701.5000    91.8304     0.2766
  702.0000    93.0582     0.2902
  702.5000    94.8939     0.2971
  703.0000    95.8178     0.2932
  703.5000    93.7021     0.2914
  704.0000    92.1825     0.2878
  704.5000    91.2946     0.2788
  705.0000    91.3070     0.2754
  705.5000    90.6566     0.2788
  706.0000    90.1148     0.2872
  706.5000    89.5189     0.2917
  707.0000    88.3151     0.2945
  707.5000    88.6341     0.2924
  708.0000    90.1659     0.2928
  708.5000    94.1293     0.2966
  709.0000    94.4453     0.3041
  709.5000    95.0652     0.2987
  710.0000    96.2930     0.2909
  710.5000    98.1287     0.2897
  711.0000    99.3565     0.2987
  711.5000    99.9765     0.3096
  712.0000    99.9885     0.3151
  712.5000    99.0886     0.3084
  713.0000    96.3651     0.3029
  713.5000    92.7297     0.2993
  714.0000    91.8298     0.3036
  714.5000    93.9757     0.3061
  715.0000    94.2855     0.3079
  715.5000    92.7438     0.3105
  716.0000    92.1819     0.2984
  716.5000    94.6285     0.2897
  717.0000    96.4642     0.2846
  717.5000    96.7802     0.2882
  718.0000    94.6646     0.2945
  718.5000    93.4578     0.2894
  719.0000    95.2965     0.2837
  719.5000    99.5639     0.2822
  720.0000   100.7887     0.2879
  720.5000    98.9800     0.2954
  721.0000    96.5604     0.3145
  721.5000    93.2290     0.3356
  722.0000    91.1133     0.3651
  722.5000    91.1253     0.3806
  723.0000    93.2650     0.3670
  723.5000    94.4928     0.3426
  724.0000    94.5328     0.2993
  724.5000    93.6050     0.2930
  725.0000    93.0091     0.2922
  725.5000    92.7172     0.3009
  726.0000    93.6696     0.3078
  726.5000    95.2157     0.3154
  727.0000    96.0973     0.3232
  727.5000    96.1117     0.3217
  728.0000    96.1237     0.3079
  728.5000    96.1358     0.2973
  729.0000    96.4517     0.2922
  729.5000    96.1568     0.3036
  730.0000    96.1718     0.3124
  730.5000    95.5759     0.3148
  731.0000    95.2840     0.3121
  731.5000    93.7763     0.3031
  732.0000    92.8734     0.2943
  732.5000    95.0161     0.2949
  733.0000    96.2439     0.3058
  733.5000    96.8638     0.3118
  734.0000    96.5714     0.3148
  734.5000    95.6718     0.3135
  735.0000    95.3799     0.3087
  735.5000    95.6961     0.2934
  736.0000    97.5400     0.2777
  736.5000    97.8480     0.2796
  737.0000    97.5199     0.2907
  737.5000    96.2512     0.3124
  738.0000    93.3276     0.3209
  738.5000    93.6436     0.3140
  739.0000    96.3911     0.3103
  739.5000    97.9229     0.3140
  740.0000    96.4152     0.3079
  740.5000    94.9074     0.2995
  741.0000    94.9195     0.2913
  741.5000    94.9315     0.2901
  742.0000    94.3356     0.2995
  742.5000    93.7397     0.3076
  743.0000    92.8399     0.3137
  743.5000    91.6361     0.3101
  744.0000    91.0372     0.3058
  744.5000    93.7878     0.3122
  745.0000    95.3195     0.3290
  745.5000    95.3316     0.3517
  746.0000    96.5594     0.3656
  746.5000    99.6132     0.3807
  747.0000    99.6229     0.3988
  747.5000    97.7810     0.3985
  748.0000    95.7676     0.3982
  748.5000    90.8454     0.3982
  749.0000    86.9061     0.3982
  749.5000    85.0944     0.3985
  750.0000    85.1064     0.3970
  750.5000    92.0697     0.3699
  751.0000    96.6877     0.3212
  751.5000    98.8303     0.3122
  752.0000    99.1492     0.3264
  752.5000    99.4681     0.3285
  753.0000    99.8013     0.3225
  753.5000   100.1397     0.3164
  754.0000   101.0863     0.3107
  754.5000   102.2673     0.3035
  755.0000   103.1941     0.2995
  755.5000   104.7288     0.2983
  756.0000   106.2635     0.3035
  756.5000   106.5825     0.3152
  757.0000   106.2897     0.3373
  757.5000   106.0007     0.3606
  758.0000   106.0194     0.3629
  758.5000   106.0344     0.3508
  759.0000   103.6177     0.3460
  759.5000    99.3774     0.3614
  760.0000    96.6568     0.3695
  760.5000    95.1520     0.3605
  761.0000    94.5410     0.3544
  761.5000    94.8785     0.3529
  762.0000    95.1976     0.3502
  762.5000    98.8630     0.3339
  763.0000    99.1782     0.3128
  763.5000    97.9811     0.3026
  764.0000    98.3000     0.2965
  764.5000   102.5703     0.2938
  765.0000   104.1012     0.3022
  765.5000   102.6002     0.3142
  766.0000   100.7914     0.3228
  766.5000    98.6750     0.3237
  767.0000    98.9976     0.3261
  767.5000    99.6205     0.3303
  768.0000   102.6750     0.3342
  768.5000   102.0760     0.3297
  769.0000   100.8812     0.3282
  769.5000   102.4579     0.3273
  770.0000   102.1307     0.3300
  770.5000   100.6259     0.3267
  771.0000   100.3331     0.3204
  771.5000   100.3518     0.3189
