~VERSION INFORMATION
 VERS.                2.0:   CWLS LOG ASCII STANDARD - VERSION 2.0
 WRAP.                 NO:   ONE LINE PER DEPTH STEP
~WELL INFORMATION
#MNEM.UNIT      DATA TYPE    INFORMATION
#----------   ------------   ------------------------------
 STRT.F           40.0000:   START DEPTH
 STOP.F          876.5000:   STOP DEPTH
 STEP.F            0.5000:   STEP LENGTH
 NULL.          -999.2500:   NO VALUE
 COMP. FENIX & SCISSON INC:   COMPANY
 WELL.     NPR 3 #41-S-14:   WELL
 FLD .             TEAPOT:   FIELD
 LOC .      S14 T38N R78W:   LOCATION
 CNTY.            NATRONA:   COUNTY
 STAT.            WYOMING:   STATE
 CTRY. UNITED STATES OF AMERICA:   COUNTRY
 SRVC.            Unknown:   SERVICE COMPANY
 DATE.        12-MAR-1978:   LOGDATE
 API .       490251060200:   API NUMBER
~CURVE INFORMATION
#MNEM.UNIT       API CODE    CURVE DESCRIPTION
#----------   ------------   ------------------------------
 DEPT.F                  :   
 CALD.IN     45 280 60 00:   CALIPER FROM DENSITY LOG
 GRD .GAPI   45 310 01 00:   GAMMA RAY FROM DENSITY LOG
 RHOB.G/C3   45 350 01 00:   BULK DENSITY
 DPHI.DEC    45 890 12 00:   DENSITY POROSITY SANDSTONE
 CORR.G/C3   45 356 01 00:   DENSITY CORRECTION
 SPR .MV     05 010 01 00:   SPONTANEOUS POTENTIAL FROM RES.
 IL  .OHMM   05 120 00 00:   INDUCTION LOG
 SN  .OHMM   05 040 16 00:   SHORT NORMAL 16"
~PARAMETER INFORMATION
#MNEM.UNIT          VALUE    DESCRIPTION
#----------   ------------   ------------------------------
 PD  .                 GL:   PERMANENT DATUM
 EPD .F              5211:   ELEVATION PERMANENT DATUM
 LMF .                 KB:   LOG MEASURED FROM
 DMF .                 KB:   DRILLING MEASURED FROM
 EKB .F              5215:   KELLING BUSHING
 EGL .F              5211:   GROUND LEVEL
 DATE.            3-12-78:   RUN DATE
 RUN .                  1:   RUN NUMBER
 DD  .F               870:   DEPTH DRILLER
 DL  .F               872:   DEPTH LOGGER
 BLI .F               866:   BOTTOM LOG INTERVAL
 TLI .F                50:   TOP LOG INTERVAL
 CS  .IN            8.625:   CASING SIZE
 CBD .F                40:   CASING BOTTOM DRILLER
 CBL .F                40:   CASING BOTTOM LOGGER
 BS  .IN            7.875:   BIT SIZE
 BSD .F               870:   BIT SIZE AT DEPTH
 DFT .                KCL:   DRILLING FLUID TYPE
 DFD .                8.6:   DRILLING FLUID DENSITY
 DFV .                 33:   DRILLING FLUID VISCOSITY
 DFPH.                 10:   DRILLING FLUID PH
 DFL .               12.1:   DRILLING FLUID LOSS
 MSS .           FLOWLINE:   MUD SAMPLE SOURCE
 RMS .OHMM            .32:   RESISTIVITY MUD SAMPLE
 MST .F                54:   MUD SAMPLE TEMPERATURE
 RMF .OHMM            .36:   RESISTIVITY MUD FILTRATE SAMPLE
 MFST.F                55:   MUD FILTRATE SAMPLE TEMPERATURE
 RMC .OHMM             .5:   RESISTIVITY MUD CAKE
 MCST.F                56:   MUD CAKE SAMPLE TEMPERATURE
 MFSS.           MEASURED:   MUD FILTRATE SAMPLE SOURCE
 MCSS.           MEASURED:   MUD CAKE SAMPLE SOURCE
 RMB .OHMM            .24:   RESISTIVITY MUD AT BHT
 BHT .F                72:   BOTTOM HOLE TEMPERATURE
 TCS .HRS               4:   TIME CURCULATED STOPPED
 MRT .F                72:   MAXIMUM RECORDED TEMPERATURE
 LUN .               2958:   LOGGING UNIT NUMBER
 LUL .               CASP:   LOGGING UNIT LOCATION
 ENGI.             MILLER:   RECORDING ENGINEER
 WITN.         HARRINGTON:   WITNESSED BY
 CLNT.            A2DTECH:   CLIENT CODE
 ORIG.        2" 5" PRINT:   ORIGIN OF DATA
 UWI .       490251060200:   UNIQUE WELL ID
 DICO. A2D Technologies, Inc.:   DIGITIZING COMPANY
~OTHER INFORMATION
~A   DEPT     CALD         GRD      RHOB       DPHI       CORR        SPR         IL         SN   
# ...
  161.5000     8.2238    93.1475     2.3911     0.1355     0.0084   -56.2176     5.8427     6.3234
  162.0000     8.2231    92.3290     2.4005     0.1323     0.0068   -56.7590     5.7761     6.2909
  162.5000     8.2225    87.9486     2.4058     0.1312     0.0037   -56.9595     5.7101     6.2586
  163.0000     8.2219    84.5770     2.3956     0.1388     0.0007   -56.9035     5.6450     6.1693
  163.5000     8.2212    86.2348     2.3847     0.1468     0.0081   -56.8449     5.5806     6.0351
  164.0000     8.2206    87.4480     2.3736     0.1553     0.0162   -56.7802     5.5169     5.9038
  164.5000     8.2200    85.9931     2.3700     0.1540     0.0245   -56.9395     5.4170     5.7749
  165.0000     8.2193    84.3558     2.3756     0.1518     0.0287   -57.1472     5.2869     5.6487
  165.5000     8.2187    86.1040     2.3808     0.1495     0.0266   -57.3589     5.1600     5.4624
  166.0000     8.2181    88.5932     2.3819     0.1494     0.0228   -57.5628     5.0064     5.2261
  166.5000     8.2175    90.1420     2.3772     0.1543     0.0192   -57.4365     4.6274     5.0000
  167.0000     8.2168    90.8877     2.3675     0.1592     0.0164   -57.4725     4.2772     4.7835
  167.5000     8.2162    94.5422     2.3549     0.1654     0.0166   -57.8546     4.0183     4.5763
  168.0000     8.2156    97.5965     2.3424     0.1718     0.0277   -58.6527     3.9347     4.3556
  168.5000     8.2149    96.6610     2.3299     0.1782     0.0406   -59.1790     3.9593     4.3707
  169.0000     8.2143    92.7137     2.3212     0.1829     0.0426   -59.0659     3.9712     4.3931
  169.5000     8.2137    88.7422     2.3452     0.1719     0.0345   -58.4448     3.9712     4.3960
  170.0000     8.2130    87.1356     2.3721     0.1592     0.0276   -57.7618     3.9712     4.6047
  170.5000     8.2124    87.1194     2.3886     0.1466     0.0243   -57.4419     4.1392     4.8102
  171.0000     8.2118    86.5571     2.3952     0.1408     0.0210   -57.3060     4.3436     5.0243
  171.5000     8.2111    85.9972     2.3925     0.1418     0.0205   -57.2153     4.5581     5.1926
  172.0000     8.2105    86.4590     2.3910     0.1425     0.0181   -57.1728     4.7832     5.1765
  172.5000     8.2099    84.8829     2.3926     0.1401     0.0127   -57.1726     4.8400     5.1608
  173.0000     8.2092    82.2450     2.3902     0.1417     0.0090   -57.1757     4.8622     5.1442
  173.5000     8.2086    82.6863     2.3835     0.1432     0.0120   -57.1751     4.8662     5.2390
  174.0000     8.2080    84.3704     2.3916     0.1397     0.0102   -57.6818     4.8662     5.2219
  174.5000     8.2073    85.9031     2.4018     0.1357     0.0064   -58.1833     4.8662     5.1806
  175.0000     8.2067    86.0643     2.4013     0.1397     0.0026   -58.2408     4.8662     5.1394
  175.5000     8.2061    87.7157     2.3881     0.1479    -0.0012   -58.2973     4.8143     5.0985
  176.0000     8.2055    86.5737     2.3745     0.1560    -0.0029   -58.3356     4.7484     5.0580
  176.5000     8.2048    84.2438     2.3590     0.1641     0.0009   -59.2396     4.5797     4.8496
  177.0000     8.2051    84.1640     2.3434     0.1724     0.0026   -59.5055     4.3901     4.6070
  177.5000     8.2080    85.3514     2.3277     0.1767     0.0032   -59.4401     3.9712     4.3766
  178.0000     8.2108    86.1048     2.3111     0.1881     0.0038   -59.3689     3.4352     4.0603
  178.5000     8.2137    86.8652     2.2928     0.1995     0.0047   -59.7789     2.9716     3.6156
  179.0000     8.2165    87.4313     2.2682     0.2159     0.0165   -59.7661     2.5686     3.2197
  179.5000     8.2194    87.3585     2.2388     0.2363     0.0296   -59.7605     2.4321     2.7191
  180.0000     8.2222    88.6876     2.2007     0.2568     0.0369   -60.1862     2.4325     2.7327
  180.5000     8.2251    84.2966     2.1406     0.2786     0.0559   -60.1687     2.4331     2.7899
  181.0000     8.2280    76.4864     2.1290     0.2908     0.1275   -59.2955     2.4332     2.9299
  181.5000     8.2308    68.4697     2.1248     0.2974     0.1056   -58.4566     2.5011     3.0770
  182.0000     8.2337    68.7470     2.2222     0.2710     0.0580   -57.9905     2.5969     3.3442
  182.5000     8.2365    74.6272     2.3191     0.1889     0.0390   -57.7648     2.8571     3.9122
  183.0000     8.2394    80.6762     2.3954     0.1642     0.0229   -57.7710     3.3211     4.6465
  183.5000     8.2422    86.0240     2.3863     0.1496     0.0108   -57.7717     3.8605     4.6897
  184.0000     8.2441    82.8254     2.3781     0.1543     0.0026   -57.7715     4.4875     4.6922
  184.5000     8.2441    84.3466     2.3617     0.1605     0.0025   -57.7715     4.6465     4.6975
  185.0000     8.2441    87.0097     2.3557     0.1589     0.0005   -57.7712     4.6038     4.7028
  185.5000     8.2441    88.7733     2.3561     0.1649    -0.0018   -57.7720     4.4393     4.7080
  186.0000     8.2441    85.8911     2.3552     0.1628    -0.0040   -57.8046     4.2923     4.7133
  186.5000     8.2441    83.5184     2.3624     0.1573    -0.0063   -57.9730     4.1589     4.7183
  187.0000     8.2441    83.7044     2.3667     0.1516    -0.0068   -58.1374     4.1952     4.7239
  187.5000     8.2441    83.8645     2.3609     0.1570    -0.0039   -58.2975     4.2292     4.7280
  188.0000     8.2441    83.8442     2.3530     0.1649    -0.0011   -58.1324     4.2721     4.7332
  188.5000     8.2441    84.1779     2.3560     0.1611    -0.0007   -57.5716     4.2364     4.4938
  189.0000     8.2441    86.6877     2.3580     0.1612    -0.0034   -58.5507     4.1752     4.3877
  189.5000     8.2441    89.3760     2.3543     0.1625    -0.0059   -59.3617     4.1151     4.2842
  190.0000     8.2441    89.5440     2.3442     0.1700    -0.0097   -59.7522     4.0559     4.1831
  190.5000     8.2441    87.2814     2.3307     0.1792    -0.0067   -59.5724     3.8535     4.0844
  191.0000     8.2441    86.3198     2.3193     0.1838    -0.0021   -59.4064     3.6316     3.9792
  191.5000     8.2441    85.9855     2.3081     0.1874     0.0024   -59.2410     3.4225     3.8444
  192.0000     8.2441    86.1452     2.3077     0.1900     0.0070   -59.2841     3.2254     3.7145
  192.5000     8.2441    86.8795     2.3040     0.1924     0.0114   -59.4803     3.0379     3.5887
  193.0000     8.2441    90.6272     2.2979     0.1962     0.0165   -59.6795     3.0379     3.4894
  193.5000     8.2441    92.9873     2.2918     0.2005     0.0189   -59.7685     3.1169     3.4894
  194.0000     8.2441    87.8766     2.2910     0.2001     0.0186   -59.7376     3.2208     3.5750
  194.5000     8.2441    84.9876     2.3158     0.1835     0.0077   -59.3778     3.3282     3.7287
  195.0000     8.2441    83.7334     2.3467     0.1664    -0.0018   -58.0586     3.4392     3.9264
  195.5000     8.2441    81.4582     2.3777     0.1544     0.0022   -57.0826     3.5538     4.3466
  196.0000     8.2441    80.7938     2.3836     0.1492     0.0061   -57.0046     3.7415     4.8117
  196.5000     8.2441    81.9891     2.3862     0.1463     0.0099   -57.0583     4.3829     5.1570
  197.0000     8.2441    84.1738     2.3897     0.1434     0.0125   -57.1123     4.9005     5.2394
  197.5000     8.2441    87.5135     2.3930     0.1404     0.0117   -57.1729     5.0519     5.2234
  198.0000     8.2441    87.1828     2.3959     0.1392     0.0089   -57.3579     5.0326     5.1936
  198.5000     8.2441    84.4514     2.3941     0.1384     0.0065   -57.5629     4.9731     5.1639
  199.0000     8.2441    83.3499     2.3917     0.1406     0.0065   -57.5263     4.9164     5.1343
  199.5000     8.2441    83.4337     2.3890     0.1439     0.0065   -57.4704     4.8603     5.1047
  200.0000     8.2441    83.7670     2.3844     0.1469     0.0052   -57.4098     4.8049     5.0744
  200.5000     8.2441    84.0296     2.3731     0.1542     0.0026   -57.4257     4.5708     5.0474
  201.0000     8.2441    85.7009     2.3591     0.1609     0.0000   -58.6150     4.1809     4.7291
  201.5000     8.2441    88.9548     2.3436     0.1675    -0.0019   -59.0592     3.8242     4.4559
