~VERSION INFORMATION
 VERS.                2.0:   CWLS LOG ASCII STANDARD - VERSION 2.0
 WRAP.                 NO:   ONE LINE PER DEPTH STEP
~WELL INFORMATION
#MNEM.UNIT      DATA TYPE    INFORMATION
#----------   ------------   ------------------------------
 STRT.F           30.0000:   START DEPTH
 STOP.F          526.0000:   STOP DEPTH
 STEP.F            0.5000:   STEP LENGTH
 NULL.          -999.2500:   NO VALUE
 COMP. FENIX & SCISSON INC:   COMPANY
 WELL.       NPR #37-SX-3:   WELL
 FLD .             TEAPOT:   FIELD
 LOC .       S3 T38N R78W:   LOCATION
 CNTY.            NATRONA:   COUNTY
 STAT.            WYOMING:   STATE
 CTRY. UNITED STATES OF AMERICA:   COUNTRY
 SRVC.              Welex:   SERVICE COMPANY
 DATE.        10-MAR-1977:   LOGDATE
 API .       490251028600:   API NUMBER
~CURVE INFORMATION
#MNEM.UNIT       API CODE    CURVE DESCRIPTION
#----------   ------------   ------------------------------
 DEPT.F                  :   
 ILD .OHMM   07 120 46 00:   INDUCTION LOG DEEP
 ILM .OHMM   07 120 44 00:   INDUCTION LOG MEDIUM
 SPR .MV     07 010 01 00:   SPONTANEOUS POTENTIAL
 SGRD.OHMM   07 220 05 00:   SHALLOW RESISTIVITY
 GRD .GAPI   45 310 01 00:   GAMMA RAY FROM DENSITY LOG
 CALD.IN     45 280 60 00:   CALIPER
 CORR.G/C3   45 356 01 00:   DENSITY CORRECTION
 RHOB.G/C3   45 350 01 00:   BULK DENSITY
 DPOR.DEC    45 890 12 00:   DENSITY POROSITY SANDSTONE
~PARAMETER INFORMATION
#MNEM.UNIT          VALUE    DESCRIPTION
#----------   ------------   ------------------------------
 PD  .                 GL:   PERMANENT DATUM
 EPD .F              5232:   ELEVATION PERMANENT DATUM
 LMF .                 GL:   LOG MEASURED FROM
 DMF .                 GL:   DRILLING MEASURED FROM
 EGL .F              5232:   GROUND LEVEL
 DATE.            3-10-77:   RUN DATE
 RUN .                  1:   RUN NUMBER
 DD  .F               530:   DEPTH DRILLER
 DL  .F               528:   DEPTH LOGGER
 BLI .F               526:   BOTTOM LOG INTERVAL
 TLI .F                35:   TOP LOG INTERVAL
 CS  .IN            8.625:   CASING SIZE
 CBD .F                40:   CASING BOTTOM DRILLER
 CBL .F                42:   CASING BOTTOM LOGGER
 BS  .IN            7.875:   BIT SIZE
 BSD .F               530:   BIT SIZE AT DEPTH
 DFT .            KCL MUD:   DRILLING FLUID TYPE
 DFD .                8.8:   DRILLING FLUID DENSITY
 DFV .                 32:   DRILLING FLUID VISCOSITY
 DFPH.                  8:   DRILLING FLUID PH
 DFL .                7.7:   DRILLING FLUID LOSS
 MSS .            MUD PIT:   MUD SAMPLE SOURCE
 RMS .OHMM            .48:   RESISTIVITY MUD SAMPLE
 MST .F                47:   MUD SAMPLE TEMPERATURE
 RMF .OHMM            .43:   RESISTIVITY MUD FILTRATE SAMPLE
 MFST.F                47:   MUD FILTRATE SAMPLE TEMPERATURE
 RMC .OHMM            .52:   RESISTIVITY MUD CAKE
 MCST.F                47:   MUD CAKE SAMPLE TEMPERATURE
 MFSS.           FANN KIT:   MUD FILTRATE SAMPLE SOURCE
 MCSS.           FANN KIT:   MUD CAKE SAMPLE SOURCE
 RMB .OHMM            .41:   RESISTIVITY MUD AT BHT
 BHT .F                55:   BOTTOM HOLE TEMPERATURE
 TCS .HRS             1.5:   TIME CURCULATED STOPPED
 MRT .F                55:   MAXIMUM RECORDED TEMPERATURE
 LUN .               8611:   LOGGING UNIT NUMBER
 LUL .           GILLETTE:   LOGGING UNIT LOCATION
 ENGI.               DOAK:   RECORDING ENGINEER
 WITN.              BURKE:   WITNESSED BY
 CLNT.            A2DTECH:   CLIENT CODE
 ORIG.       2", 5" PRINT:   ORIGIN OF DATA
 UWI .       490251028600:   UNIQUE WELL ID
 DICO. A2D Technologies, Inc.:   DIGITIZING COMPANY
~OTHER INFORMATION
~A   DEPT      ILD        ILM        SPR       SGRD         GRD        CALD      CORR        RHOB     DPOR   
# ...
  285.5000     7.2818     8.8881   -47.1397    11.0547   139.6886     8.0053     0.0630     2.4928     1.0093
  286.0000     7.2424     8.9310   -47.2124    10.7881   137.6900     8.0037     0.0598     2.4892     1.0009
  286.5000     7.2033     8.9736   -47.2785    10.5586   136.4489     8.0021     0.0567     2.4862     0.9984
  287.0000     7.1644     9.0307   -47.0720    10.3339   138.0068     8.0005     0.0575     2.4867     1.0021
  287.5000     7.1258     8.8866   -46.5480    10.1769   139.2264     7.9989     0.0592     2.4870     1.0056
  288.0000     7.0873     8.7065   -46.5945    10.5201   139.3711     7.9973     0.0610     2.4883     1.0116
  288.5000     7.0491     8.8538   -47.0397    10.8533   142.6705     7.9957     0.0627     2.4934     1.0214
  289.0000     7.0110     8.9872   -47.4950    10.6625   140.7083     7.9941     0.0636     2.4987     1.0266
  289.5000     6.9732     9.1141   -47.6258    10.4253   138.3098     7.9925     0.0608     2.4967     1.0253
  290.0000     6.9356     9.0331   -47.4572    10.0838   138.7574     7.9909     0.0581     2.4933     1.0120
  290.5000     6.7703     8.9572   -47.2810    10.1577   142.5022     7.9893     0.0554     2.4864     0.9968
  291.0000     6.4956     8.8820   -47.1393    10.3015   145.5492     7.9877     0.0527     2.4794     0.9816
  291.5000     6.2320     8.4409   -47.4724    10.4473   146.7033     7.9861     0.0501     2.4736     0.9738
  292.0000     6.0884     7.9307   -47.8061    10.5581   147.6101     7.9845     0.0501     2.4709     0.9746
  292.5000     5.9768     7.4514   -48.1381     9.4121   147.4509     7.9829     0.0501     2.4625     0.9467
  293.0000     5.8672     7.0010   -48.4764     7.4309   146.1120     7.9827     0.0525     2.4618     0.9297
  293.5000     5.7596     6.6678   -48.2460     5.4470   147.3582     7.9841     0.0561     2.4632     0.9453
  294.0000     5.6540     6.7102   -47.9331     6.5486   149.6550     7.9854     0.0598     2.4768     0.9718
  294.5000     5.5504     6.7818   -47.6172     9.6268   151.3459     7.9868     0.0634     2.4893     0.9993
  295.0000     5.4486     6.8542   -47.3361     9.2155   152.3730     7.9882     0.0659     2.4913     1.0115
  295.5000     5.3488     6.9275   -47.5779     8.8662   150.8673     7.9895     0.0643     2.4850     0.9973
  296.0000     5.2507     7.0014   -47.8316     9.2482   149.3112     7.9909     0.0629     2.4738     0.9626
  296.5000     5.1543     7.0459   -48.0832     9.4554   146.4622     7.9922     0.0604     2.4579     0.9279
  297.0000     5.0595     6.4249   -48.3329     8.2883   144.0698     7.9936     0.0567     2.4362     0.8931
  297.5000     4.9232     6.0162   -48.5770     6.7108   142.1414     7.9949     0.0515     2.4147     0.8589
  298.0000     4.9582     5.7559   -48.4625     5.3947   140.1361     7.9963     0.0413     2.4101     0.8355
  298.5000     5.0264     5.8486   -48.1660     5.9505   138.6851     7.9977     0.0387     2.4191     0.8769
  299.0000     5.0955     6.0828   -47.8574     7.1110   139.3116     7.9990     0.0440     2.4590     0.9378
  299.5000     5.2928     6.3264   -47.5460     8.4925   137.9863     8.0004     0.0493     2.4799     0.9884
  300.0000     5.5258     6.5798   -47.2355     9.6308   137.5966     8.0018     0.0541     2.4824     1.0020
  300.5000     5.7690     6.8432   -46.9248     9.5869   133.9055     8.0031     0.0549     2.4900     1.0141
  301.0000     6.0229     7.1175   -46.6139     9.5530   133.3359     8.0045     0.0556     2.4975     1.0242
  301.5000     6.2880     7.4028   -46.3046     9.5192   137.0320     8.0058     0.0563     2.5007     1.0313
  302.0000     6.5464     7.7956   -46.1328     9.4855   140.6655     8.0072     0.0570     2.4955     1.0199
  302.5000     6.4859     7.7786   -46.2926     9.4554   143.6242     8.0086     0.0577     2.4897     1.0046
  303.0000     6.4271     7.7538   -46.6287     9.6578   143.8109     8.0099     0.0577     2.4836     0.9893
  303.5000     6.1682     7.7242   -46.9639     9.8446   141.4320     8.0113     0.0567     2.4769     0.9740
  304.0000     5.9080     7.7956   -47.3002     9.9916   139.0364     8.0126     0.0558     2.4702     0.9586
  304.5000     5.6588     7.2969   -47.6361     9.6618   140.8383     8.0140     0.0549     2.4635     0.9431
  305.0000     5.4198     6.9814   -47.9722     9.3483   142.2445     8.0154     0.0543     2.4591     0.9392
  305.5000     5.1918     6.4616   -48.3097     8.9539   140.1173     8.0167     0.0555     2.4560     0.9374
  306.0000     5.0128     5.7559   -48.6451     4.2712   140.0414     8.0181     0.0566     2.4560     0.9428
  306.5000     4.9845     5.8709   -48.8508     4.3382   143.2828     8.0195     0.0577     2.4659     0.9605
  307.0000     4.9687     6.1002   -48.4931     9.4425   141.8569     8.0208     0.0588     2.4776     0.9780
  307.5000     5.2071     6.3845   -48.1484    10.5581   138.5320     8.0217     0.0600     2.4787     0.9892
  308.0000     5.3761     6.6821   -47.8042    10.1245   137.1066     8.0204     0.0611     2.4776     0.9874
  308.5000     5.5505     6.9935   -47.4603     9.3689   140.6740     8.0191     0.0622     2.4815     0.9942
  309.0000     5.7305     7.3195   -47.1164     9.6557   137.9823     8.0179     0.0633     2.4897     1.0081
  309.5000     5.9639     7.6606   -46.7725    10.1293   134.9810     8.0166     0.0638     2.4976     1.0227
  310.0000     6.3318     8.0177   -46.4286    10.6556   132.1138     8.0154     0.0624     2.5015     1.0345
  310.5000     6.7224     8.3917   -46.0845    10.6187   130.9041     8.0141     0.0611     2.4993     1.0283
  311.0000     7.0715     8.7953   -45.7391    10.5796   130.7895     8.0128     0.0597     2.4949     1.0200
  311.5000     7.1921     9.1982   -45.3965    10.5581   128.8489     8.0115     0.0584     2.4906     1.0116
  312.0000     7.3147     9.2827   -45.1927    11.3637   129.9147     8.0103     0.0571     2.4877     1.0032
  312.5000     7.4454     9.3628   -45.4823    11.3346   132.1462     8.0090     0.0558     2.4902     1.0071
  313.0000     7.4775     9.4437   -45.7577    11.3027   134.1709     8.0077     0.0545     2.4853     1.0047
  313.5000     7.5102     9.5252   -46.0336    11.2709   134.1474     8.0065     0.0531     2.4793     0.9916
  314.0000     7.5435     9.6074   -46.3090    11.2594   132.9458     8.0052     0.0519     2.4733     0.9788
  314.5000     7.5770     9.6905   -46.5802    11.2585   130.5435     8.0040     0.0510     2.4718     0.9688
  315.0000     7.6107     9.7738   -46.5677    11.2583   128.7370     8.0027     0.0501     2.4729     0.9726
  315.5000     7.6445     9.8177   -46.2369    11.5270   129.3908     8.0020     0.0492     2.4741     0.9761
  316.0000     7.6785     9.8304   -45.9072    12.0081   130.9997     8.0020     0.0483     2.4759     0.9797
  316.5000     7.7126     9.8437   -45.5765    11.7359   133.6389     8.0020     0.0474     2.4804     0.9874
  317.0000     7.7469     9.8570   -45.2455    11.1567   135.4219     8.0020     0.0465     2.4871     1.0045
  317.5000     7.7813     9.8703   -45.2726    11.5030   135.5078     8.0020     0.0438     2.4949     1.0186
  318.0000     7.8355     9.8836   -45.5456    11.8982   133.2128     8.0020     0.0397     2.4934     1.0048
  318.5000     7.9041     9.8970   -45.8242    11.4905   132.6500     8.0020     0.0356     2.4897     0.9526
  319.0000     7.9732     9.9103   -45.7393    11.2070   136.3488     8.0020     0.0320     2.4860     0.9514
  319.5000     8.0429     9.9237   -45.4240    10.9304   138.9292     8.0020     0.0343     2.4876     0.9751
  320.0000     8.1137     9.9371   -45.1489    10.6556   132.2272     8.0020     0.0546     2.5250     1.0466
  320.5000     8.1842     9.9505   -45.3171    11.1431   126.8690     8.0020     0.0623     2.5194     1.0787
  321.0000     8.2376     9.9640   -45.4847    11.6631   125.5277     8.0020     0.0634     2.5103     1.0496
  321.5000     7.8585     9.9774   -45.6500    12.2073   127.4278     8.0020     0.0617     2.5079     1.0442
