~VERSION INFORMATION
 VERS.                2.0:   CWLS LOG ASCII STANDARD - VERSION 2.0
 WRAP.                 NO:   ONE LINE PER DEPTH STEP
~WELL INFORMATION
#MNEM.UNIT      DATA TYPE    INFORMATION
#----------   ------------   ------------------------------
 STRT.F           86.0000:   START DEPTH
 STOP.F          770.0000:   STOP DEPTH
 STEP.F            0.5000:   STEP LENGTH
 NULL.          -999.2500:   NO VALUE
 COMP.           U S NAVY:   COMPANY
 WELL. NPR 3 TEAPOT DOM #85-S-34:   WELL
 FLD .        TEAPOT DOME:   FIELD
 LOC .      S34 T39N R78W:   LOCATION
 CNTY.            NATRONA:   COUNTY
 STAT.            WYOMING:   STATE
 CTRY. UNITED STATES OF AMERICA:   COUNTRY
 SRVC. Schlumberger Well Surveying Corp:   SERVICE COMPANY
 DATE.        31-JUL-1963:   LOGDATE
 API .       490250652800:   API NUMBER
~CURVE INFORMATION
#MNEM.UNIT       API CODE    CURVE DESCRIPTION
#----------   ------------   ------------------------------
 DEPT.F                  :   
 ASN .OHMM   05 041 16 00:   AMPLIFIED SHORT NORMAL 16"
 CILD.MMHO   05 110 46 00:   CONDUCTIVITY INDUCTION LOG DEEP
 ILD .OHMM   05 120 46 00:   INDUCTION LOG DEEP
 SPR .MV     05 010 01 00:   SPONTANEOUS POTENTIAL FROM RES.
 GR  .GAPI   30 310 01 00:   GAMMA RAY
~PARAMETER INFORMATION
#MNEM.UNIT          VALUE    DESCRIPTION
#----------   ------------   ------------------------------
 PD  .                 GL:   PERMANENT DATUM
 EPD .F              5071:   ELEVATION PERMANENT DATUM
 LMF .                 KB:   LOG MEASURED FROM
 DAPD.F                 5:   FEET ABOVE PERMANENT DATUM
 DMF .                 KB:   DRILLING MEASURED FROM
 EKB .F              5076:   KELLING BUSHING
 EGL .F              5071:   GROUND LEVEL
 DATE.        31-JUL-1963:   RUN DATE
 RUN .                  1:   RUN NUMBER
 DD  .F               770:   DEPTH DRILLER
 DL  .F               771:   DEPTH LOGGER
 BLI .F               770:   BOTTOM LOG INTERVAL
 TLI .F                86:   TOP LOG INTERVAL
 CS  .IN            8.625:   CASING SIZE
 CBD .F                10:   CASING BOTTOM DRILLER
 BS  .IN             6.75:   BIT SIZE
 BSD .F               770:   BIT SIZE AT DEPTH
 DFT .          GEL & OIL:   DRILLING FLUID TYPE
 DFD .                9.6:   DRILLING FLUID DENSITY
 DFV .                 39:   DRILLING FLUID VISCOSITY
 DFPH.                9.0:   DRILLING FLUID PH
 DFL .                8.8:   DRILLING FLUID LOSS
 MSS .           FLOWLINE:   MUD SAMPLE SOURCE
 RMS .OHMM           3.06:   RESISTIVITY MUD SAMPLE
 MST .F                94:   MUD SAMPLE TEMPERATURE
 RMF .OHMM           2.64:   RESISTIVITY MUD FILTRATE SAMPLE
 MFST.F                94:   MUD FILTRATE SAMPLE TEMPERATURE
 MFSS.               MEAS:   MUD FILTRATE SAMPLE SOURCE
 TCS .HRS               1:   TIME CURCULATED STOPPED
 MRT .F           LESS 80:   MAXIMUM RECORDED TEMPERATURE
 LUN .               4507:   LOGGING UNIT NUMBER
 LUL .               CSPR:   LOGGING UNIT LOCATION
 ENGI.            WINKLER:   RECORDING ENGINEER
 WITN.          JORGENSON:   WITNESSED BY
 CLNT.            A2DTECH:   CLIENT CODE
 ORIG.           5" PRINT:   ORIGIN OF DATA
 UWI .       490250652800:   UNIQUE WELL ID
 DICO. A2D Technologies, Inc.:   DIGITIZING COMPANY
~OTHER INFORMATION
~A   DEPT        ASN      CILD         ILD      SPR         GR   
# ...
  330.0000     8.1221   132.3344     7.6646   -30.6743  -999.2500
  330.5000     8.4187   128.4280     7.8158   -30.8391  -999.2500
  331.0000     9.1234   122.9706     8.0453   -32.2582  -999.2500
  331.5000     9.0746   120.6932     8.1966   -32.7355  -999.2500
  332.0000     9.0415   120.7571     8.2696   -32.5847  -999.2500
  332.5000     9.1026   122.4632     8.1073   -32.1200  -999.2500
  333.0000     9.1479   125.6151     7.9451   -31.8108  -999.2500
  333.5000     9.1305   128.8328     7.7829   -31.6600  -999.2500
  334.0000     8.8462   132.0505     7.6991   -32.6098  -999.2500
  334.5000     8.5777   135.3865     7.5332   -32.7730  -999.2500
  335.0000     8.3876   140.3257     7.2962   -32.7793  -999.2500
  335.5000     8.1190   145.9359     7.1272   -32.6270  -999.2500
  336.0000     7.9760   150.4542     6.8851   -32.4763  -999.2500
  336.5000     7.8644   151.3057     6.7213   -32.4841  -999.2500
  337.0000     7.8312   152.1572     6.5690   -32.6473  -999.2500
  337.5000     7.8138   153.0086     6.5635   -32.4950  -999.2500
  338.0000     7.8121   151.4785     6.6366   -32.1873  -999.2500
  338.5000     7.8265   148.3867     6.6298   -31.7242  -999.2500
  339.0000     7.8715   143.7334     6.7824   -31.4165  -999.2500
  339.5000     8.0738   139.8530     7.0891   -31.2642  -999.2500
  340.0000     8.4489   136.7613     7.3187   -31.4290  -999.2500
  340.5000     8.7925   135.2468     7.3930   -31.2767  -999.2500
  341.0000     8.4298   132.9437     7.4659   -30.9690  -999.2500
  341.5000     8.3772   131.4292     7.5388   -30.9768  -999.2500
  342.0000     8.8345   130.6877     7.5320   -31.2970  -999.2500
  342.5000     8.8171   129.9619     7.5266   -31.6173  -999.2500
  343.0000     8.5642   130.8291     7.5211   -32.7224  -999.2500
  343.5000     8.5154   131.6806     7.5156   -33.1996  -999.2500
  344.0000     8.5769   130.9390     7.5277   -33.5199  -999.2500
  344.5000     8.7016   130.2132     7.5845   -33.6831  -999.2500
  345.0000     8.7781   128.7145     7.6574   -33.2184  -999.2500
  345.5000     8.8082   128.7773     7.6506   -32.1258  -999.2500
  346.0000     8.8540   127.2628     7.6451   -31.9582  -999.2500
  346.5000     8.8841   127.3257     7.7194   -34.1791  -999.2500
  347.0000     8.9115   127.3885     7.7909   -35.7552  -999.2500
  347.5000     8.9094   129.0286     7.7855   -36.0755  -999.2500
  348.0000     8.8606   132.2460     7.7016   -36.0817  -999.2500
  348.5000     8.7647   133.8862     7.6178   -36.2450  -999.2500
  349.0000     8.6060   135.5263     7.4556   -36.2512  -999.2500
  349.5000     8.4159   137.1664     7.2934   -36.2575  -999.2500
  350.0000     8.2731   138.0179     7.2096   -36.2637  -999.2500
  350.5000     8.2094   139.6214     6.9710   -36.1098  -999.2500
  351.0000     8.2244   140.4417     6.9671   -35.9567  -999.2500
  351.5000     8.2546   142.0567     6.9624   -35.4888  -999.2500
  352.0000     8.2537   142.0877     6.9586   -35.9628  -999.2500
  352.5000     8.2057   142.9074     6.9547   -36.4368  -999.2500
  353.0000     8.1716   142.9384     6.9509   -36.1259  -999.2500
  353.5000     8.1538   142.9694     6.9470   -35.6580  -999.2500
  354.0000     8.1401   143.0005     6.9432   -35.5033  -999.2500
  354.5000     8.2017   143.0315     6.9394   -35.5071  -999.2500
  355.0000     8.2008   143.0625     6.9355   -35.0392  -999.2500
  355.5000     8.2158   142.2971     6.9317   -34.3987  -999.2500
  356.0000     8.2774   142.3359     6.9278   -33.0053  -999.2500
  356.5000     8.3393   140.7887     6.9240   -33.0084  -999.2500
  357.0000     8.3384   138.4548     6.9985   -33.3254  -999.2500
  357.5000     8.3689   136.9085     7.0730   -33.3285  -999.2500
  358.0000     8.5563   136.9401     7.2250   -33.1746  -999.2500
  358.5000     8.8380   136.9716     7.2211   -32.7067  -999.2500
  359.0000     8.7429   137.0094     7.3750   -32.2388  -999.2500
  359.5000     8.4898   136.2440     7.3702   -31.9279  -999.2500
  360.0000     8.7849   134.7055     7.3663   -32.0879  -999.2500
  360.5000     8.9285   133.1515     7.3625   -33.0330  -999.2500
  361.0000     8.7703   133.1903     7.3586   -33.1937  -999.2500
  361.5000     8.7066   133.2213     7.3548   -33.5107  -999.2500
  362.0000     8.7371   133.2523     7.3509   -34.2987  -999.2500
  362.5000     8.8146   133.2833     7.3471   -34.4588  -999.2500
  363.0000     8.8765   132.5180     7.4216   -33.9909  -999.2500
  363.5000     8.9072   131.7604     7.4961   -33.6792  -999.2500
  364.0000     8.9061   130.2208     7.6490   -33.0551  -999.2500
  364.5000     8.9836   127.0983     7.8010   -32.7441  -999.2500
  365.0000     9.1083   124.7634     7.8755   -32.4333  -999.2500
  365.5000     9.2644   124.0058     7.9510   -32.1224  -999.2500
  366.0000     9.4208   123.9327     8.0246   -31.9684  -999.2500
  366.5000     9.6420   122.4983     8.1000   -31.9723  -999.2500
  367.0000     9.7664   122.5293     8.0952   -32.6033  -999.2500
  367.5000     9.7944   121.7640     8.2481   -33.3913  -999.2500
  368.0000     9.7932   121.0064     8.3227   -34.4932  -999.2500
  368.5000     9.8083   119.4679     8.3972   -35.1242  -999.2500
  369.0000     9.8385   119.4989     8.3933   -35.2843  -999.2500
  369.5000     9.8847   118.7335     8.3895   -35.2874  -999.2500
  370.0000     9.9203   117.9759     8.5424   -34.9765  -999.2500
  370.5000     9.9321   117.2183     8.5496   -34.6342  -999.2500
  371.0000     9.9447   116.4607     8.6905   -33.2565  -999.2500
  371.5000    10.0276   114.1335     8.6866   -32.4739  -999.2500
  372.0000    10.1160   113.3754     8.7621   -32.1630  -999.2500
  372.5000    10.2044   111.0410     8.8366   -32.3238  -999.2500
  373.0000    10.2928   109.4948     8.9886   -32.7978  -999.2500
  373.5000    10.3812   108.7371     9.1415   -33.1148  -999.2500
  374.0000    10.4728   107.9795     9.2170   -33.1179  -999.2500
  374.5000    10.7074   106.4410     9.3698   -32.8070  -999.2500
  375.0000    10.8634   104.1061     9.5219   -32.6531  -999.2500
  375.5000    10.9467   102.5521     9.5964   -32.4991  -999.2500
  376.0000    11.0971   100.2250     9.7492   -32.5030  -999.2500
  376.5000    11.2531    99.4596     9.7453   -31.5641  -999.2500
  377.0000    11.4089    97.9133     9.8199   -30.3113  -999.2500
  377.5000    11.4080    97.9521     9.8151   -29.9996  -999.2500
  378.0000    11.4071    97.9831     9.8896   -30.6314  -999.2500
  378.5000    11.2492    98.0142     9.8858   -32.0473  -999.2500
  379.0000    11.1698    98.8338     9.8819   -33.4633  -999.2500
  379.5000    11.0903    99.6535     9.8781   -34.4082  -999.2500
  380.0000    10.9324   101.2618     9.7959   -34.5683  -999.2500
  380.5000    10.9315   101.3460     9.7920   -35.0424  -999.2500
  381.0000    10.7736   102.9022     9.7882   -35.2031  -999.2500
  381.5000    10.7727   102.9400     9.7843   -35.3632  -999.2500
  382.0000    10.6933   102.9710     9.7805   -34.4243  -999.2500
  382.5000    10.6923   103.0020     9.6983   -32.5436  -999.2500
  383.0000    10.6914   103.0330     9.6944   -31.7617  -999.2500
  383.5000    10.6902   103.8527     9.5230   -31.6070  -999.2500
  384.0000    10.6893   103.8837     9.3723   -31.7678  -999.2500
  384.5000    10.6099   103.9148     9.2901   -32.8698  -999.2500
  385.0000    10.6090   103.9458     9.2862   -33.8148  -999.2500
  385.5000    10.6868   103.9768     9.2824   -34.7755  -999.2500
  386.0000    10.6856   104.7965     9.2785   -34.4496  -999.2500
  386.5000    10.6847   104.8275     9.1963   -34.1379  -999.2500
  387.0000    10.6053   105.6472     9.1925   -33.8278  -999.2500
  387.5000    10.6044   105.6782     9.1886   -33.8308  -999.2500
  388.0000    10.4464   106.4984     9.1848   -32.2640  -999.2500
  388.5000    10.4455   106.6351     9.1809   -31.0112  -999.2500
  389.0000    10.4446   108.1450     9.1771   -30.0724  -999.2500
  389.5000    10.4436   108.1760     9.1732   -29.4475  -999.2500
  390.0000    10.4425   108.2071     9.1693   -29.2936  -999.2500
  390.5000    10.5201   109.0267     9.1646   -29.4851  -999.2500
