~VERSION INFORMATION
 VERS.                2.0:   CWLS LOG ASCII STANDARD - VERSION 2.0
 WRAP.                 NO:   ONE LINE PER DEPTH STEP
~WELL INFORMATION
#MNEM.UNIT      DATA TYPE    INFORMATION
#----------   ------------   ------------------------------
 STRT.F           36.0000:   START DEPTH
 STOP.F          521.0000:   STOP DEPTH
 STEP.F            0.5000:   STEP LENGTH
 NULL.          -999.2500:   NO VALUE
 COMP. FENIX & SCISSON INC:   COMPANY
 WELL.        NPR-3 #36-3:   WELL
 FLD .             TEAPOT:   FIELD
 LOC .       S3 T38N R78W:   LOCATION
 CNTY.            NATRONA:   COUNTY
 STAT.            WYOMING:   STATE
 CTRY. UNITED STATES OF AMERICA:   COUNTRY
 SRVC.            Unknown:   SERVICE COMPANY
 DATE.        09-JUL-1978:   LOGDATE
 API .       490251066200:   API NUMBER
~CURVE INFORMATION
#MNEM.UNIT       API CODE    CURVE DESCRIPTION
#----------   ------------   ------------------------------
 DEPT.F                  :   
 CALD.IN     45 280 60 00:   CALIPER FROM DENSITY LOG
 GRD .GAPI   45 310 01 00:   GAMMA RAY FROM DENSITY LOG
 CORR.G/C3   45 356 01 00:   DENSITY CORRECTION
 DPHI.DEC    45 890 12 00:   DENSITY POROSITY SANDSTONE
 RHOB.G/C3   45 350 01 00:   BULK DENSITY
 SPR .MV     07 010 01 00:   SPONTANEOUS POTENTIAL
 ILD .OHMM   07 120 46 00:   INDUCTION LOG DEEP
 SN  .OHMM   07 040 16 00:   SHORT NORMAL 16"
~PARAMETER INFORMATION
#MNEM.UNIT          VALUE    DESCRIPTION
#----------   ------------   ------------------------------
 PD  .                 GL:   PERMANENT DATUM
 EPD .F              5216:   ELEVATION PERMANENT DATUM
 LMF .                 KB:   LOG MEASURED FROM
 DAPD.F                 4:   FEET ABOVE PERMANENT DATUM
 DMF .                 KB:   DRILLING MEASURED FROM
 EKB .F              5220:   KELLING BUSHING
 EGL .F              5216:   GROUND LEVEL
 DATE.        09-JUL-1978:   RUN DATE
 RUN .                  1:   RUN NUMBER
 DD  .F               520:   DEPTH DRILLER
 DL  .F               524:   DEPTH LOGGER
 BLI .F               519:   BOTTOM LOG INTERVAL
 TLI .F                50:   TOP LOG INTERVAL
 CS  .IN            8.625:   CASING SIZE
 CBD .F                40:   CASING BOTTOM DRILLER
 BS  .IN            7.875:   BIT SIZE
 BSD .F               520:   BIT SIZE AT DEPTH
 DFT .                KCL:   DRILLING FLUID TYPE
 DFD .                8.6:   DRILLING FLUID DENSITY
 DFV .                 32:   DRILLING FLUID VISCOSITY
 DFPH.                9.5:   DRILLING FLUID PH
 DFL .               14.4:   DRILLING FLUID LOSS
 MSS .           FLOWLINE:   MUD SAMPLE SOURCE
 RMS .OHMM           0.24:   RESISTIVITY MUD SAMPLE
 MST .F                70:   MUD SAMPLE TEMPERATURE
 RMF .OHMM           0.24:   RESISTIVITY MUD FILTRATE SAMPLE
 MFST.F                70:   MUD FILTRATE SAMPLE TEMPERATURE
 RMC .OHMM           0.42:   RESISTIVITY MUD CAKE
 MCST.F                72:   MUD CAKE SAMPLE TEMPERATURE
 MFSS.               MEAS:   MUD FILTRATE SAMPLE SOURCE
 BHT .F                80:   BOTTOM HOLE TEMPERATURE
 TCS .HRS               3:   TIME CURCULATED STOPPED
 MRT .F                80:   MAXIMUM RECORDED TEMPERATURE
 LUN .               2958:   LOGGING UNIT NUMBER
 LUL .               CASP:   LOGGING UNIT LOCATION
 ENGI.             MILLER:   RECORDING ENGINEER
 WITN.           MCGINLEY:   WITNESSED BY
 CLNT.            A2DTECH:   CLIENT CODE
 ORIG.           5" PRINT:   ORIGIN OF DATA
 UWI .       490251066200:   UNIQUE WELL ID
 DICO. A2D Technologies, Inc.:   DIGITIZING COMPANY
~OTHER INFORMATION
~A   DEPT     CALD        GRD       CORR       DPHI       RHOB        SPR        ILD         SN   
# ...
  279.0000     8.0662    95.9237     0.0247     0.1334     2.4642   -22.7460     7.0226     7.4045
  279.5000     8.0667    96.2335     0.0128     0.1421     2.4530   -22.7545     6.8792     7.2998
  280.0000     8.0671    95.7981     0.0009     0.1545     2.4329   -22.7630     6.4623     7.1965
  280.5000     8.0675    93.8724    -0.0020     0.1721     2.4135   -22.6214     5.9874     6.9964
  281.0000     8.0829    90.3074     0.0071     0.1835     2.3874   -22.6321     5.7028     6.6627
  281.5000     8.0833    96.4293     0.0191     0.1862     2.3800   -22.6407     5.4673     6.3449
  282.0000     8.1434    96.8881     0.0267     0.1787     2.3950   -22.6492     5.3181     5.9592
  282.5000     8.7767    92.7720     0.0073     0.1533     2.4175   -22.6577     5.3537     5.9989
  283.0000     8.1073    88.6637     0.0104     0.1368     2.4354   -22.6684     5.4259     6.1211
  283.5000     8.0702    87.0901     0.0225     0.1204     2.4871   -22.6769     5.5378     6.4226
  284.0000     8.0707    88.1451     0.0271     0.1150     2.4916   -22.6855     5.6943     6.8329
  284.5000     8.0861    92.0316     0.0272     0.1146     2.4933   -22.6940     6.0537     7.2193
  285.0000     8.1014    95.1729     0.0257     0.1107     2.4977   -22.7027     6.3516     7.5226
  285.5000     8.1167    96.6750     0.0258     0.1094     2.5015   -22.7132     6.7569     7.6857
  286.0000     8.1470    96.8328     0.0242     0.1190     2.4858   -22.7218     7.0894     7.9992
  286.5000     8.1772    94.4629     0.0215     0.1202     2.4874   -22.7297     7.6517     8.2778
  287.0000     8.2075    90.5998     0.0186     0.1126     2.4942   -22.7403     7.8584     8.3907
  287.5000     8.2526    88.2270     0.0187     0.1128     2.4972   -22.7488     7.8552     8.4449
  288.0000     8.2680    88.8348     0.0188     0.1139     2.4898   -22.7574     7.7986     8.5001
  288.5000     8.2983    90.1878     0.0219     0.1064     2.4981   -22.7659     7.6890     8.4959
  289.0000     8.2987    92.6318     0.0280     0.1019     2.5078   -22.7766     7.7398     8.4925
  289.5000     8.3141    95.1297     0.0281     0.0992     2.5116   -22.6328     7.7909     8.4892
  290.0000     8.3443    93.2065     0.0207     0.1066     2.5118   -22.4912     7.7876     8.4858
  290.5000     8.3746    92.6221     0.0147     0.1149     2.4923   -22.5019     7.7851     8.4239
  291.0000     8.3750    92.3328     0.0179     0.1197     2.4811   -22.5105     7.7825     8.3039
  291.5000     8.3605    94.8810     0.0149     0.1200     2.4842   -22.5211     7.7800     8.2433
  292.0000     8.3610    97.5753     0.0105     0.1211     2.4738   -22.5296     7.7768     8.2401
  292.5000     8.3614    96.0966     0.0104     0.1277     2.4693   -22.5382     7.8287     8.1800
  293.0000     8.3618    95.5122     0.0212     0.1256     2.4828   -22.5467     7.8804     8.1763
  293.5000     8.3623    93.8846     0.0243     0.1158     2.4904   -22.5556     7.9325     8.1163
  294.0000     8.3628    89.7234     0.0259     0.1055     2.5024   -22.5659     7.9842     8.1130
  294.5000     8.3633    89.4367     0.0275     0.1103     2.5077   -22.5745     8.0369     8.1098
  295.0000     8.3637    89.2995     0.0254     0.1073     2.4957   -22.5830     8.0336     8.1066
  295.5000     8.3491    89.4624     0.0112     0.1162     2.4808   -22.5915     8.0309     8.1034
  296.0000     8.3497    94.1638     0.0143     0.1245     2.4831   -22.6022     7.9730     8.1001
  296.5000     8.3351    94.8495     0.0129     0.1194     2.4847   -22.6108     7.9704     8.0962
  297.0000     8.3356    94.5627     0.0070     0.1215     2.4803   -22.6193     7.7342     8.0930
  297.5000     8.3361    94.8754     0.0010     0.1316     2.4683   -22.6278     7.4327     8.0209
  298.0000     8.3365    96.5264     0.0011     0.1406     2.4578   -22.6367     7.1780     7.9405
  298.5000     8.3370    97.7304     0.0117     0.1379     2.4520   -22.6471     6.9320     7.8624
  299.0000     8.3396    99.9776     0.0133     0.1346     2.4573   -22.6556     6.6483     7.6970
  299.5000     8.3826   102.2247     0.0134     0.1291     2.4364   -22.6641     6.4648     7.4838
  300.0000     8.3981   102.9787     0.0314     0.1235     2.4522   -22.6727     6.5102     7.3052
  300.5000     8.2795   103.1386     0.0405     0.1249     2.4776   -22.6832     6.5493     7.1639
  301.0000     8.2506   103.2966     0.0226     0.1285     2.4762   -22.6937     6.6378     7.0242
  301.5000     8.2368   103.3324     0.0196     0.1317     2.4657   -22.7061     6.5894     7.1693
  302.0000     8.2376   103.4652     0.0211     0.1329     2.4643   -22.7161     6.1471     7.3167
  302.5000     8.2385   100.7914     0.0257     0.1299     2.4673   -22.5735     5.9299     7.2638
  303.0000     8.2243    97.9686     0.0272     0.1278     2.4718   -22.5860     5.9336     7.2614
  303.5000     8.2254    98.2755     0.0198     0.1364     2.4577   -22.5961     5.9307     7.2590
  304.0000     8.2262   100.9669     0.0153     0.1514     2.4323   -22.6086     6.0108     7.1069
  304.5000     8.2271   102.0189     0.0109     0.1585     2.4226   -22.6186     6.0507     6.7683
  305.0000     8.2280   102.0277     0.0078     0.1540     2.4326   -22.6286     6.0902     6.6730
  305.5000     8.2438   102.1855     0.0082     0.1428     2.4399   -22.6387     6.1295     6.7639
  306.0000     8.2449    99.6608     0.0125     0.1287     2.4683   -22.6487     6.1269     7.0975
  306.5000     8.2458    95.7948     0.0156     0.1277     2.4736   -22.6612     6.2091     7.4030
  307.0000     8.2466    93.8662     0.0163     0.1243     2.4774   -22.6712     6.2503     7.5489
  307.5000     8.2475    94.6202     0.0171     0.1195     2.4826   -22.6813     6.4223     7.7577
  308.0000     8.2484    95.8213     0.0202     0.1174     2.4856   -22.6913     6.8789     7.8633
  308.5000     8.2493    95.0760    -0.0007     0.1291     2.4700   -22.5511     7.3174     7.9154
  309.0000     8.2502    93.2578     0.0053     0.1299     2.4678   -22.4110     7.5195     7.8580
  309.5000     8.2659    91.9729     0.0143     0.1195     2.4805   -22.4236     7.5678     7.8549
  310.0000     8.2668    92.1307     0.0159     0.1111     2.4940   -22.5838     7.5127     7.7981
  310.5000     8.2677    90.2021     0.0129     0.1087     2.5023   -22.7439     7.3050     7.6352
  311.0000     8.2686    90.9583     0.0100     0.1122     2.5031   -22.7540     7.0056     7.5277
  311.5000     8.2694    94.9909     0.0055     0.1325     2.4758   -22.7643     6.5806     7.3177
  312.0000     8.2703   100.0668     0.0073     0.1581     2.4232   -22.7765     6.1287     7.1167
  312.5000     8.2712    99.4795     0.0166     0.1624     2.4150   -22.7865     5.6476     6.9681
  313.0000     8.2872    97.8490     0.0401     0.1450     2.4397   -22.6447     5.5678     6.5449
  313.5000     8.5414    96.8145     0.0327     0.1384     2.4547   -22.8049     5.6042     6.4082
  314.0000     8.3635    98.0156     0.0043     0.1411     2.4487   -22.2169     5.6805     6.4061
  314.5000     8.3492    98.6183    -0.0017     0.1378     2.4503   -21.7764     5.6386     6.4485
  315.0000     8.4099    96.8410     0.0028     0.1255     2.4645   -21.6363     5.5975     6.6729
  315.5000     8.5002    95.8063     0.0044     0.1231     2.4780   -21.6488     5.7914     7.0507
  316.0000     8.4415    96.8586     0.0059     0.1294     2.4735   -21.6589     6.1605     7.3474
  316.5000     8.4126    97.6126     0.0075     0.1243     2.4781   -21.6689     6.4632     7.7098
  317.0000     8.4284    95.4755     0.0120     0.1203     2.4841   -21.6789     6.8278     7.9306
  317.5000     8.4292    92.9955     0.0180     0.1206     2.4841   -21.6891     7.2130     8.1429
  318.0000     8.4301    91.5827     0.0271     0.1155     2.4924   -21.7015     7.5801     8.2544
  318.5000     8.4310    89.0062     0.0346     0.1026     2.5126   -21.7115     7.7764     8.4242
  319.0000     8.4319    90.0582     0.0300     0.0954     2.5171   -21.7215     7.8815     8.5983
