~VERSION INFORMATION
 VERS.                2.0:   CWLS LOG ASCII STANDARD - VERSION 2.0
 WRAP.                 NO:   ONE LINE PER DEPTH STEP
~WELL INFORMATION
#MNEM.UNIT      DATA TYPE    INFORMATION
#----------   ------------   ------------------------------
 STRT.F           34.0000:   START DEPTH
 STOP.F         1014.5000:   STOP DEPTH
 STEP.F            0.5000:   STEP LENGTH
 NULL.          -999.2500:   NO VALUE
 COMP. FENIX & SCISSON INC:   COMPANY
 WELL.       NPR-3 #54-14:   WELL
 FLD .             TEAPOT:   FIELD
 LOC .      S14 T38N R78W:   LOCATION
 CNTY.            NATRONA:   COUNTY
 STAT.            WYOMING:   STATE
 CTRY. UNITED STATES OF AMERICA:   COUNTRY
 SRVC.            Unknown:   SERVICE COMPANY
 DATE.        20-APR-1978:   LOGDATE
 API .       490251062100:   API NUMBER
~CURVE INFORMATION
#MNEM.UNIT       API CODE    CURVE DESCRIPTION
#----------   ------------   ------------------------------
 DEPT.F                  :   
 SPR .MV     05 010 01 00:   SPONTANEOUS POTENTIAL FROM RES.
 SN  .OHMM   05 040 16 00:   SHORT NORMAL 16"
 ILD .OHMM   05 120 46 00:   INDUCTION LOG DEEP
 CALD.IN     45 280 60 00:   CALIPER
 GRD .GAPI   45 310 01 00:   GAMMA RAY FROM DENSITY LOG
 RHOB.G/C3   45 350 01 00:   BULK DENSITY
 DPOR.DEC    45 890 12 00:   DENSITY POROSITY SANDSTONE
 CORR.G/C3   45 356 01 00:   DENSITY CORRECTION
~PARAMETER INFORMATION
#MNEM.UNIT          VALUE    DESCRIPTION
#----------   ------------   ------------------------------
 PD  .                 GL:   PERMANENT DATUM
 EPD .F              5268:   ELEVATION PERMANENT DATUM
 LMF .                 KB:   LOG MEASURED FROM
 DAPD.F                 4:   FEET ABOVE PERMANENT DATUM
 DMF .                 KB:   DRILLING MEASURED FROM
 EKB .F              5272:   KELLING BUSHING
 EGL .F              5268:   GROUND LEVEL
 DATE.          4-20-1978:   RUN DATE
 RUN .                  1:   RUN NUMBER
 DD  .F              1030:   DEPTH DRILLER
 DL  .F              1021:   DEPTH LOGGER
 BLI .F              1014:   BOTTOM LOG INTERVAL
 TLI .F                50:   TOP LOG INTERVAL
 CS  .IN            8.625:   CASING SIZE
 CBD .F                40:   CASING BOTTOM DRILLER
 BS  .IN            7.875:   BIT SIZE
 BSD .F              1030:   BIT SIZE AT DEPTH
 DFT .                KCL:   DRILLING FLUID TYPE
 DFD .                8.6:   DRILLING FLUID DENSITY
 DFV .                 33:   DRILLING FLUID VISCOSITY
 DFPH.                 10:   DRILLING FLUID PH
 DFL .                  8:   DRILLING FLUID LOSS
 MSS .          FLOW LINE:   MUD SAMPLE SOURCE
 RMS .OHMM            .34:   RESISTIVITY MUD SAMPLE
 MST .F                64:   MUD SAMPLE TEMPERATURE
 RMF .OHMM            .36:   RESISTIVITY MUD FILTRATE SAMPLE
 MFST.F                60:   MUD FILTRATE SAMPLE TEMPERATURE
 RMC .OHMM            .48:   RESISTIVITY MUD CAKE
 MCST.F                68:   MUD CAKE SAMPLE TEMPERATURE
 MFSS.               MEAS:   MUD FILTRATE SAMPLE SOURCE
 MCSS.               MEAS:   MUD CAKE SAMPLE SOURCE
 RMB .OHMM            .29:   RESISTIVITY MUD AT BHT
 BHT .F                74:   BOTTOM HOLE TEMPERATURE
 TCS .HRS               6:   TIME CURCULATED STOPPED
 MRT .F                74:   MAXIMUM RECORDED TEMPERATURE
 LUN .               2958:   LOGGING UNIT NUMBER
 LUL .               CASP:   LOGGING UNIT LOCATION
 ENGI.             MILLER:   RECORDING ENGINEER
 WITN.           MCGINELY:   WITNESSED BY
 CLNT.            A2DTECH:   CLIENT CODE
 ORIG.       2", 5" PRINT:   ORIGIN OF DATA
 UWI .       490251062100:   UNIQUE WELL ID
 DICO. A2D Technologies, Inc.:   DIGITIZING COMPANY
~OTHER INFORMATION
~A   DEPT      SPR         SN        ILD       CALD         GRD      RHOB       DPOR       CORR   
# ...
  236.5000   -31.6484     6.5993     6.9367     7.6572   112.8551     2.4200     0.1488    -0.0066
  237.0000   -31.6279     6.6420     7.0736     7.6735   109.4547     2.4155     0.1502    -0.0049
  237.5000   -31.6075     6.6570     7.2316     7.6901   102.2668     2.4109     0.1528    -0.0032
  238.0000   -31.5875     6.6720     7.3931     7.7132    96.7274     2.4016     0.1561    -0.0015
  238.5000   -31.5869     6.6871     7.5582     7.7449    97.0123     2.3960     0.1566     0.0002
  239.0000   -31.6284     6.7022     7.7271     7.7764    99.7874     2.3999     0.1565     0.0015
  239.5000   -31.6690     6.7174     7.9075     7.8080   101.6629     2.4043     0.1564     0.0015
  240.0000   -31.7090     6.7326     7.8885     7.8396   103.1452     2.4028     0.1570     0.0015
  240.5000   -31.7507     6.7474     7.8637     7.8712   103.8910     2.3996     0.1578     0.0015
  241.0000   -31.8463     6.7594     7.8389     7.9028   103.7841     2.3963     0.1585     0.0015
  241.5000   -32.1820     6.6201     7.7003     7.9345   103.6265     2.3951     0.1589     0.0023
  242.0000   -32.5072     6.5085     7.5425     7.9662   106.1494     2.3953     0.1572     0.0039
  242.5000   -32.8340     6.3988     7.3879     7.9960   107.6337     2.3987     0.1554     0.0054
  243.0000   -33.1552     6.2910     7.2364     7.9969   107.3792     2.4030     0.1524     0.0070
  243.5000   -33.1564     6.1850     7.0878     7.9967   108.1495     2.4072     0.1485     0.0085
  244.0000   -33.1404     6.0808     6.9429     7.9967   109.3818     2.4172     0.1446     0.0100
  244.5000   -33.1260     5.9784     6.8825     7.9967   110.4903     2.4271     0.1407     0.0120
  245.0000   -33.1121     5.9373     6.8754     7.9967   110.0559     2.4306     0.1378     0.0135
  245.5000   -33.0982     5.9305     6.8683     7.9967   108.0433     2.4339     0.1348     0.0115
  246.0000   -33.0842     5.9236     6.8613     7.9967   106.7342     2.4372     0.1311     0.0088
  246.5000   -33.0703     5.9168     6.8542     7.9925   105.8645     2.4462     0.1256     0.0060
  247.0000   -33.0564     5.9100     6.8472     7.9656   101.5534     2.4569     0.1288     0.0032
  247.5000   -33.0424     5.9032     6.8402     7.9389   103.2866     2.4469     0.1344     0.0016
  248.0000   -33.0285     5.8964     6.8337     7.9126   106.2992     2.4339     0.1400     0.0024
  248.5000   -33.0146     5.8895     6.8261     7.9076   113.4163     2.4244     0.1448     0.0031
  249.0000   -33.0007     5.8437     6.7728     7.9317   115.8785     2.4170     0.1452     0.0038
  249.5000   -32.9867     5.7486     6.5725     7.9557   112.5649     2.4179     0.1448     0.0046
  250.0000   -32.9728     5.6550     6.3783     7.9764   111.8849     2.4207     0.1444     0.0053
  250.5000   -32.9589     5.5630     6.1879     7.9121   112.1293     2.4232     0.1440     0.0060
  251.0000   -32.9450     5.4668     5.9974     7.8399   111.2128     2.4235     0.1436     0.0068
  251.5000   -32.9310     5.4705     5.9403     7.7671   108.0404     2.4238     0.1443     0.0075
  252.0000   -32.9171     5.4755     5.8857     7.7386   106.1976     2.4230     0.1456     0.0082
  252.5000   -32.9032     5.4804     5.8938     7.7453   106.7801     2.4203     0.1469     0.0090
  253.0000   -32.8892     5.4854     5.9022     7.7538   106.5954     2.4176     0.1479     0.0108
  253.5000   -32.8753     5.4903     5.9106     7.7624   108.9894     2.4149     0.1484     0.0143
  254.0000   -32.8614     5.4953     5.9191     7.7709   111.3704     2.4158     0.1444     0.0268
  254.5000   -32.8474     5.5002     5.9275     7.7781   108.8950     2.4218     0.1371     0.0362
  255.0000   -32.8335     5.5052     5.9358     7.8072   106.9904     2.4338     0.1320     0.0382
  255.5000   -32.8196     5.5103     5.9400     7.8580   106.7960     2.4459     0.1322     0.0402
  256.0000   -32.8055     5.5175     5.9404     7.9090   106.3615     2.4445     0.1337     0.0409
  256.5000   -32.7912     5.4679     5.8799     7.9602   104.5845     2.4401     0.1347     0.0394
  257.0000   -32.7791     5.3745     5.8149     8.0112   103.3041     2.4432     0.1344     0.0379
  257.5000   -32.8667     5.2828     5.7506     8.0614   105.4901     2.4378     0.1360     0.0365
  258.0000   -33.1460     5.1926     5.6869     8.1015   110.2896     2.4282     0.1396     0.0350
  258.5000   -33.4223     5.1039     5.6240     8.1150   112.1804     2.4271     0.1386     0.0336
  259.0000   -33.6990     5.0168     5.5617     8.1019   114.1604     2.4318     0.1367     0.0321
  259.5000   -33.9757     4.9850     5.5003     8.0871   116.1779     2.4389     0.1365     0.0306
  260.0000   -34.2528     4.9850     5.4668     8.0725   116.7638     2.4364     0.1379     0.0292
  260.5000   -34.5263     4.9850     5.4668     8.0579   114.8595     2.4317     0.1381     0.0278
  261.0000   -34.6515     4.9850     5.4668     8.0433   112.9694     2.4348     0.1353     0.0241
  261.5000   -34.7527     4.9850     5.4668     8.0287   111.8226     2.4405     0.1325     0.0201
  262.0000   -34.8538     4.9850     5.4668     8.0141   113.0092     2.4464     0.1308     0.0160
  262.5000   -34.9552     4.9850     5.4669     7.9995   113.4462     2.4501     0.1319     0.0120
  263.0000   -35.0566     4.9849     5.4670     7.9850   111.8979     2.4465     0.1354     0.0073
  263.5000   -35.1580     4.9862     5.4685     7.9773   109.9832     2.4395     0.1388     0.0075
  264.0000   -35.2594     4.9869     5.4034     7.9786   109.1233     2.4329     0.1408     0.0074
  264.5000   -35.3609     4.8868     5.3244     7.9798   109.7169     2.4278     0.1439     0.0071
  265.0000   -35.4627     4.8053     5.2463     7.9810   109.7083     2.4227     0.1479     0.0069
  265.5000   -35.5564     4.7237     5.1694     7.9822   108.9985     2.4177     0.1491     0.0066
  266.0000   -35.5583     4.6436     5.0937     7.9834   108.2716     2.4155     0.1491     0.0064
  266.5000   -35.5579     4.5876     5.0190     7.9847   107.6380     2.4132     0.1489     0.0061
  267.0000   -35.5578     4.5951     4.9392     7.9859   110.2622     2.4156     0.1488     0.0058
  267.5000   -35.5578     4.6057     4.9392     7.9871   113.0712     2.4157     0.1481     0.0056
  268.0000   -35.5578     4.6164     4.9392     7.9883   113.2243     2.4151     0.1470     0.0049
  268.5000   -35.5578     4.6271     4.9234     7.9895   108.2546     2.4200     0.1460     0.0038
  269.0000   -35.5578     4.6378     4.9069     7.9907   108.7827     2.4240     0.1464     0.0028
  269.5000   -35.5578     4.6485     4.8943     7.9920   109.6436     2.4202     0.1470     0.0017
  270.0000   -35.5577     4.6592     4.9074     7.9932   106.8133     2.4165     0.1476     0.0036
  270.5000   -35.5578     4.6700     4.9187     7.9944   105.5213     2.4128     0.1473     0.0064
  271.0000   -35.5571     4.6808     4.9301     7.9957   105.4361     2.4184     0.1436     0.0093
  271.5000   -35.5988     4.6916     4.9415     7.9951   109.0241     2.4292     0.1398     0.0115
  272.0000   -35.6592     4.7080     4.9529     7.9803   112.4748     2.4400     0.1360     0.0108
  272.5000   -35.7203     4.7116     4.9644     7.9653   109.8066     2.4441     0.1322     0.0101
  273.0000   -35.7814     4.7621     4.9759     7.9504   106.1950     2.4448     0.1288     0.0095
  273.5000   -35.8425     4.7607     4.9874     7.9355   103.3421     2.4523     0.1325     0.0118
  274.0000   -35.9036     4.6526     4.9989     7.9205   106.8718     2.4382     0.1379     0.0144
  274.5000   -35.9647     4.6146     5.0105     7.9056   113.0861     2.4298     0.1390     0.0170
  275.0000   -36.0258     4.5774     5.0219     7.8907   113.8689     2.4335     0.1383     0.0193
  275.5000   -36.0869     4.5406     5.0309     7.8758   107.7460     2.4389     0.1376     0.0150
  276.0000   -36.1479     4.5038     4.9482     7.8608   102.0872     2.4373     0.1410     0.0105
  276.5000   -36.2090     4.4676     4.8809     7.8459   101.6790     2.4284     0.1451     0.0060
