~VERSION INFORMATION
 VERS.                2.0:   CWLS LOG ASCII STANDARD - VERSION 2.0
 WRAP.                 NO:   ONE LINE PER DEPTH STEP
~WELL INFORMATION
#MNEM.UNIT      DATA TYPE    INFORMATION
#----------   ------------   ------------------------------
 STRT.F           86.0000:   START DEPTH
 STOP.F         1134.0000:   STOP DEPTH
 STEP.F            0.5000:   STEP LENGTH
 NULL.          -999.2500:   NO VALUE
 COMP.          U.S. NAVY:   COMPANY
 WELL. RES 3 TEAPOT DOM #64-S-2:   WELL
 FLD .             TEAPOT:   FIELD
 LOC .       S2 T38N R78W:   LOCATION
 CNTY.            NATRONA:   COUNTY
 STAT.            WYOMING:   STATE
 CTRY. UNITED STATES OF AMERICA:   COUNTRY
 SRVC. Schlumberger Well Surveying Corp:   SERVICE COMPANY
 DATE.        28-JUL-1964:   LOGDATE
 API .       490250644400:   API NUMBER
~CURVE INFORMATION
#MNEM.UNIT       API CODE    CURVE DESCRIPTION
#----------   ------------   ------------------------------
 DEPT.F                  :   
 ASN .OHMM   05 041 16 00:   AMPLIFIED SHORT NORMAL 16"
 CILD.MMHO   05 110 46 00:   CONDUCTIVITY INDUCTION LOG DEEP
 ILD .OHMM   05 120 46 00:   INDUCTION LOG DEEP
 SPR .MV     05 010 01 00:   SPONTANEOUS POTENTIAL FROM RES.
 DT  .US/F   60 520 33 00:   INTERVAL TRANSIT TIME
 GR  .GAPI   30 310 01 00:   GAMMA RAY
~PARAMETER INFORMATION
#MNEM.UNIT          VALUE    DESCRIPTION
#----------   ------------   ------------------------------
 PD  .                 GL:   PERMANENT DATUM
 EPD .F              5204:   ELEVATION PERMANENT DATUM
 LMF .                 KB:   LOG MEASURED FROM
 DAPD.F                 5:   FEET ABOVE PERMANENT DATUM
 DMF .                 KB:   DRILLING MEASURED FROM
 EKB .F              5209:   KELLING BUSHING
 EGL .F              5204:   GROUND LEVEL
 DATE.        28-JUL-1964:   RUN DATE
 RUN .                  1:   RUN NUMBER
 DD  .F              1135:   DEPTH DRILLER
 DL  .F              1135:   DEPTH LOGGER
 BLI .F              1134:   BOTTOM LOG INTERVAL
 TLI .F                86:   TOP LOG INTERVAL
 CS  .IN            10.75:   CASING SIZE
 CBD .F                11:   CASING BOTTOM DRILLER
 BS  .IN            7.875:   BIT SIZE
 BSD .F              1135:   BIT SIZE AT DEPTH
 DFT .            GEL-OIL:   DRILLING FLUID TYPE
 DFD .                9.5:   DRILLING FLUID DENSITY
 DFV .                 49:   DRILLING FLUID VISCOSITY
 DFL .                 10:   DRILLING FLUID LOSS
 MSS .           FLOWLINE:   MUD SAMPLE SOURCE
 RMS .OHMM           2.35:   RESISTIVITY MUD SAMPLE
 MST .F                89:   MUD SAMPLE TEMPERATURE
 RMF .OHMM           1.71:   RESISTIVITY MUD FILTRATE SAMPLE
 MFST.F                89:   MUD FILTRATE SAMPLE TEMPERATURE
 RMC .OHMM           3.01:   RESISTIVITY MUD CAKE
 MCST.F                89:   MUD CAKE SAMPLE TEMPERATURE
 MFSS.                 FP:   MUD FILTRATE SAMPLE SOURCE
 MCSS.                 FP:   MUD CAKE SAMPLE SOURCE
 TCS .HRS               1:   TIME CURCULATED STOPPED
 LUN .               3527:   LOGGING UNIT NUMBER
 LUL .               CSPR:   LOGGING UNIT LOCATION
 ENGI.             KNOBEL:   RECORDING ENGINEER
 WITN.          JORGENSEN:   WITNESSED BY
 CLNT.            A2DTECH:   CLIENT CODE
 ORIG.        2" 5" PRINT:   ORIGIN OF DATA
 UWI .       490250644400:   UNIQUE WELL ID
 DICO. A2D Technologies, Inc.:   DIGITIZING COMPANY
~OTHER INFORMATION
~A   DEPT        ASN      CILD        ILD       SPR         DT         GR   
# ...
  918.0000     6.9447   165.1908     6.2067   -21.8621   101.8565    69.1279
  918.5000     7.0419   162.6506     6.3202   -21.8613   101.1505    69.8808
  919.0000     7.1365   160.7003     6.3957   -21.8606   100.3564    70.3361
  919.5000     7.2301   159.2946     6.5029   -21.8598   100.1292    77.9867
  920.0000     7.3293   157.3795     6.5515   -22.0089   100.1277    78.2909
  920.5000     7.4156   156.2462     6.6221   -22.0082   100.1263    78.2953
  921.0000     7.4856   155.0125     6.7240   -22.1575   100.4258    74.9505
  921.5000     7.5290   154.3675     6.7729   -22.1566   101.1015    73.9563
  922.0000     7.5795   153.2981     6.8213   -22.2189   101.5515    78.0098
  922.5000     7.6658   152.8615     6.8700   -22.3051   101.3243    79.2136
  923.0000     7.7272   152.1084     6.9242   -22.3042   100.5507    79.5178
  923.5000     7.8011   151.8561     6.9673   -22.2534    99.7409    79.8221
  924.0000     7.8899   151.3554     7.0000   -22.0030    99.8899    79.9764
  924.5000     7.9445   150.8949     7.0004   -21.5190   100.0389    78.1817
  925.0000     7.9962   150.4140     7.0008   -21.1019    99.8870    72.9387
  925.5000     8.0262   149.8494     7.0011   -21.5509    99.6597    69.1950
  926.0000     8.0233   149.4529     7.0016   -22.0869    99.6583    63.9318
  926.5000     7.9659   148.9721     7.0019   -22.2992    99.8073    62.4572
  927.0000     7.8925   148.3434     6.9272   -22.2983   100.0316    61.5620
  927.5000     7.7772   148.0108     6.9276   -22.2976   100.3323    64.8659
  928.0000     7.6650   147.5301     6.8529   -22.1469   100.5643    66.3695
  928.5000     7.5723   146.8374     6.7782   -22.1460   101.0050    66.3739
  929.0000     7.4826   146.8374     6.7300   -22.0920   101.4550    66.6782
  929.5000     7.3593   146.8374     6.6070   -21.9948   101.9050    65.6331
  930.0000     7.2361   148.5443     6.4790   -21.8990   101.7530    66.2372
  930.5000     7.0631   153.1310     6.3177   -21.6934   102.3535    70.0425
  931.0000     6.6993   164.9096     6.0713   -21.6926   103.1045    68.1949
  931.5000     6.4624   192.0669     5.8045   -21.4598   103.7802    70.4483
  932.0000     6.1907   222.7798     5.3133   -21.2134   104.6817    67.2904
  932.5000     5.9439   250.0000     3.9058   -20.9407   106.2715    67.0088
  933.0000     5.5950   278.7794     3.5534   -20.7206   106.7334    70.7613
  933.5000     4.8822   325.7199     2.3060   -20.4895   107.8372    68.5179
  934.0000     4.4713   376.5060     1.7342   -20.3387   109.4159    68.0715
  934.5000     4.0012   498.4940     1.3022   -20.1314   111.3708    74.0740
  935.0000     3.3180   498.4940     1.0498   -20.0375   114.0029    73.3287
  935.5000     3.0751   545.5342     0.9276   -19.9385   119.2685    71.8339
  936.0000     2.7164   556.4759     0.9279   -19.8861   125.7381    77.9852
  936.5000     2.5149   556.7784     0.8532   -19.8853   129.3483    83.5368
  937.0000     2.5465   544.4918     0.8536   -19.8846   133.0338    80.5427
  937.5000     2.6259   519.5783     0.8540   -19.8838   130.4427    76.0494
  938.0000     2.6864   457.9518     0.9634   -19.8830   127.3120    75.2344
  938.5000     2.7702   409.6385     1.3803   -20.0322   124.0750    70.0623
  939.0000     2.8813   363.4406     1.9892   -20.0315   117.0005    74.5644
  939.5000     3.0617   310.8584     2.9648   -20.1805   114.4408    77.4174
  940.0000     3.5659   250.0000     3.7838   -20.1799   109.3979    74.1235
  940.5000     5.3172   208.1726     4.1843   -20.3291   108.6440    72.0289
  941.0000     5.4788   190.4819     4.4797   -20.3282   108.0406    73.6825
  941.5000     5.6178   186.5235     4.8360   -20.4777   106.9382    75.9357
  942.0000     5.6965   184.2721     5.0145   -20.6267   107.7366    75.6403
  942.5000     5.7118   182.9819     5.0632   -20.7146   107.3413    78.6432
  943.0000     5.7229   182.9819     5.1374   -20.7752   106.7552    81.4963
  943.5000     5.7228   183.1337     5.1378   -20.9242   106.3775    81.4763
  944.0000     5.7253   184.4879     5.0631   -20.9235   106.1503    81.9558
  944.5000     5.7527   187.4349     4.9441   -21.0728   105.9231    81.0607
  945.0000     5.8165   193.3857     4.8036   -21.0719   105.6959    78.6663
  945.5000     5.9861   204.0663     4.5387   -21.1344   105.3182    81.3693
  946.0000     6.0573   213.0527     4.1577   -21.0705   104.8652    82.2733
  946.5000     5.8259   223.9301     3.6768   -21.0696   105.2400    81.8279
  947.0000     5.5264   241.2575     3.2636   -20.9190   108.6876    83.7802
  947.5000     5.3539   259.8514     3.0800   -20.7684   110.7411    81.3869
  948.0000     5.0340   271.0844     2.8889   -20.3758   111.5558    80.6298
  948.5000     4.6092   277.4925     2.8142   -20.1294   112.8335    88.5278
  949.0000     4.4571   281.9627     2.8146   -19.8665   114.4121    87.3284
  949.5000     4.4077   283.8855     2.8167   -19.7159   115.6150    86.2032
  950.0000     4.3684   279.7440     2.9905   -19.7401   112.3024    83.3591
  950.5000     4.3675   273.9126     3.2376   -19.8643   110.6455    79.1656
  951.0000     4.4534   262.0482     3.4918   -20.0800   110.4841    78.1205
  951.5000     4.7140   253.5241     3.7319   -20.3248   111.0188    77.2253
  952.0000     4.8808   245.1213     3.9970   -20.4618   110.9061    74.3811
  952.5000     5.0635   228.9157     4.3187   -20.6109   107.1780    72.7364
  953.0000     5.2998   215.6626     4.6234   -20.7601   106.9512    72.2148
  953.5000     5.5564   195.7831     4.8832   -20.7594   106.7989    77.7973
  954.0000     6.0220   183.0916     5.2208   -20.7586   104.6399    79.0581
  954.5000     6.2917   174.3449     5.5149   -20.6079   103.3622    70.0700
  955.0000     6.6762   167.1687     5.7620   -20.6072   102.8369    75.6231
  955.5000     6.8939   164.1238     6.0477   -20.4565   102.6875    78.4761
  956.0000     7.0360   162.6506     6.2272   -20.4557   102.8399    72.4865
  956.5000     7.1213   163.4036     6.2759   -20.4550   103.2176    76.6903
  957.0000     7.1343   163.7325     6.3492   -20.4388   103.5953    78.3439
  957.5000     7.1069   165.0226     6.3257   -20.3035   103.9729    73.5536
  958.0000     7.0254   167.1687     6.2748   -20.3028   104.3537    67.8624
  958.5000     6.8934   169.9573     6.1548   -20.3021   104.7394    65.4695
  959.0000     6.8041   172.4398     5.9382   -20.3013   105.2569    72.9716
  959.5000     6.6828   177.0643     5.6753   -20.4507   105.7098    76.8756
  960.0000     6.6015   182.8815     5.2503   -20.2998   106.1627    82.0589
  960.5000     6.4771   192.0181     4.7221   -20.2991   106.6157    83.3341
  961.0000     6.2465   200.1529     4.2500   -20.2984   107.0686    82.7403
  961.5000     6.0942   210.7727     3.9959   -20.4475   107.5215    84.3969
  962.0000     5.7803   235.6928     3.7172   -20.2969   107.9745    83.0534
  962.5000     5.4944   250.1568     3.5755   -20.2961   108.7284    78.1118
  963.0000     5.2233   259.2544     3.5463   -20.2952   110.1405    77.8164
  963.5000     4.9084   261.2952     3.5011   -20.2946   114.6007    78.5734
  964.0000     4.7334   260.2610     3.5016   -20.2879   115.5051    82.1775
  964.5000     4.8583   258.2657     3.6012   -20.1430   115.3561    82.7816
  965.0000     4.9526   255.3086     3.8026   -20.2925   114.5299    81.4381
  965.5000     4.9956   250.2033     4.1197   -20.2916   113.1770    80.8458
  966.0000     5.0890   240.2108     4.4610   -20.2909   110.5449    78.7528
  966.5000     5.3735   225.3155     4.8548   -20.2901   106.6336    73.8111
  967.0000     5.7270   202.4709     5.1614   -20.2893   105.9579    76.8296
  967.5000     6.1150   195.0301     5.4085   -20.4385   106.1901    76.6193
  968.0000     6.3657   190.2410     5.6066   -20.4378   106.5889    79.5274
  968.5000     6.4462   181.1194     5.7173   -20.4369   107.0161    82.6818
  969.0000     6.5364   176.9578     5.7575   -20.4363   107.0924    84.6367
  969.5000     6.6512   175.1544     5.7579   -20.4355   106.8685    86.2903
