~VERSION INFORMATION
 VERS.                2.0:   CWLS LOG ASCII STANDARD - VERSION 2.0
 WRAP.                 NO:   ONE LINE PER DEPTH STEP
~WELL INFORMATION
#MNEM.UNIT      DATA TYPE    INFORMATION
#----------   ------------   ------------------------------
 STRT.F           16.0000:   START DEPTH
 STOP.F          661.0000:   STOP DEPTH
 STEP.F            0.5000:   STEP LENGTH
 NULL.          -999.2500:   NO VALUE
 COMP. FENIX & SCISSON INC:   COMPANY
 WELL.  26-66 SX 11 #I-11:   WELL
 FLD .             TEAPOT:   FIELD
 LOC .      S11 T38N R78W:   LOCATION
 CNTY.            NATRONA:   COUNTY
 STAT.            WYOMING:   STATE
 CTRY. UNITED STATES OF AMERICA:   COUNTRY
 SRVC.      Dresser Atlas:   SERVICE COMPANY
 DATE.        22-JUL-1980:   LOGDATE
 API .       490251083200:   API NUMBER
~CURVE INFORMATION
#MNEM.UNIT       API CODE    CURVE DESCRIPTION
#----------   ------------   ------------------------------
 DEPT.F                  :   
 SFL .OHMM   07 220 01 00:   SHALLOW FOCUSED LOG RESISTIVITY
 ILD .OHMM   07 120 46 00:   INDUCTION LOG DEEP
 ILM .OHMM   07 120 44 00:   INDUCTION LOG MEDIUM
 SPR .MV     07 010 01 00:   SPONTANEOUS POTENTIAL
 CALD.IN     45 280 60 00:   CALIPER
 GRD .GAPI   45 310 01 00:   GAMMA RAY FROM DENSITY LOG
 RHOB.G/C3   45 350 01 00:   BULK DENSITY
 CORR.G/C3   45 356 01 00:   DENSITY CORRECTION
 DPHI.DEC    45 890 12 00:   DENSITY POROSITY SANDSTONE
 NPHI.DEC    42 890 03 00:   NEUTRON POROSITY SANDSTONE
~PARAMETER INFORMATION
#MNEM.UNIT          VALUE    DESCRIPTION
#----------   ------------   ------------------------------
 PD  .                 GL:   PERMANENT DATUM
 EPD .F              5193:   ELEVATION PERMANENT DATUM
 LMF .                 KB:   LOG MEASURED FROM
 DAPD.F                 5:   FEET ABOVE PERMANENT DATUM
 DMF .                 KB:   DRILLING MEASURED FROM
 EKB .F              5198:   KELLING BUSHING
 EDF .F              5196:   DRILLING FLOOR
 EGL .F              5193:   GROUND LEVEL
 DATE.            7-22-80:   RUN DATE
 RUN .                  1:   RUN NUMBER
 DD  .F               655:   DEPTH DRILLER
 DL  .F               655:   DEPTH LOGGER
 BLI .F               653:   BOTTOM LOG INTERVAL
 TLI .F                20:   TOP LOG INTERVAL
 BS  .IN            7.875:   BIT SIZE
 BSD .F               655:   BIT SIZE AT DEPTH
 DFT .                KCL:   DRILLING FLUID TYPE
 DFD .                9.1:   DRILLING FLUID DENSITY
 DFV .                 46:   DRILLING FLUID VISCOSITY
 DFPH.                 11:   DRILLING FLUID PH
 DFL .                  6:   DRILLING FLUID LOSS
 MSS .           FLOWLINE:   MUD SAMPLE SOURCE
 RMS .OHMM            .17:   RESISTIVITY MUD SAMPLE
 MST .F                75:   MUD SAMPLE TEMPERATURE
 RMF .OHMM            .13:   RESISTIVITY MUD FILTRATE SAMPLE
 MFST.F                75:   MUD FILTRATE SAMPLE TEMPERATURE
 RMC .OHMM            .26:   RESISTIVITY MUD CAKE
 MCST.F                75:   MUD CAKE SAMPLE TEMPERATURE
 MFSS.                  C:   MUD FILTRATE SAMPLE SOURCE
 MCSS.                  C:   MUD CAKE SAMPLE SOURCE
 TCS .HRS               1:   TIME CURCULATED STOPPED
 LUN .               6240:   LOGGING UNIT NUMBER
 LUL .               RVTN:   LOGGING UNIT LOCATION
 ENGI.   K. RALL/J. GETTY:   RECORDING ENGINEER
 WITN.            RHOADES:   WITNESSED BY
 CLNT.            A2DTECH:   CLIENT CODE
 ORIG.        2" 5" PRINT:   ORIGIN OF DATA
 UWI .       490251083200:   UNIQUE WELL ID
 DICO. A2D Technologies, Inc.:   DIGITIZING COMPANY
~OTHER INFORMATION
~A   DEPT      SFL        ILD        ILM        SPR       CALD        GRD       RHOB       CORR         DPHI     NPHI   
# ...
  250.5000     8.3759     8.0729     7.8274   -62.7961     7.9866   105.1725     2.5192     0.0522     0.0962     0.2875
  251.0000     8.5316     8.1476     7.7689   -62.4779     7.9902   108.4674     2.5193     0.0438     0.0953     0.2775
  251.5000     8.6216     8.1476     7.7108   -62.1575     7.9939   109.0025     2.5088     0.0344     0.1004     0.2802
  252.0000     8.6902     8.1476     7.6530   -61.8183     7.9975   107.5793     2.4892     0.0251     0.1113     0.2906
  252.5000     8.5316     8.1028     7.5960   -61.4807     8.0011   107.0738     2.4817     0.0267     0.1204     0.2968
  253.0000     8.3599     8.0406     7.5689   -61.1982     8.0048   110.9333     2.5039     0.0300     0.1101     0.2965
  253.5000     8.2304     7.9787     7.5770   -61.3363     8.0084   115.2176     2.5189     0.0341     0.0991     0.2967
  254.0000     8.1446     7.9175     7.5883   -61.4688     8.0120   116.2451     2.5012     0.0364     0.0969     0.3057
  254.5000     8.2227     7.8529     7.5997   -61.5998     8.0156   113.4176     2.4745     0.0204     0.1203     0.3221
  255.0000     8.3231     7.9104     7.6110   -61.7310     8.0193   112.1503     2.4641     0.0068     0.1281     0.3256
  255.5000     8.3488     7.9892     7.6224   -61.8636     8.0220   112.5105     2.4723     0.0050     0.1287     0.3196
  256.0000     8.3759     8.0729     7.6336   -61.9868     8.0162   112.9046     2.4781     0.0049     0.1191     0.3039
  256.5000     8.3458     8.0609     7.6385   -61.8008     8.0101   112.2312     2.4702     0.0050     0.1227     0.3050
  257.0000     8.2907     8.0389     7.6235   -61.5957     8.0041   111.8845     2.4629     0.0063     0.1272     0.3158
  257.5000     8.2224     8.0171     7.6076   -61.3936     7.9982   114.0025     2.4582     0.0075     0.1311     0.3205
  258.0000     8.2232     7.9989     7.5917   -61.2657     7.9922   116.1104     2.4541     0.0089     0.1328     0.3132
  258.5000     8.2412     8.0194     7.5756   -61.2174     7.9862   117.1211     2.4529     0.0123     0.1335     0.2985
  259.0000     8.2603     8.0373     7.5705   -61.3815     7.9823   114.4435     2.4618     0.0160     0.1298     0.2900
  259.5000     8.2796     8.0548     7.5655   -61.5418     7.9843   110.7948     2.4851     0.0256     0.1167     0.2969
  260.0000     8.2980     8.0712     7.6361   -61.7023     7.9863   108.5794     2.5119     0.0478     0.0982     0.3262
  260.5000     8.4264     8.1903     7.8028   -61.8558     7.9882   108.4885     2.5390     0.0662     0.0809     0.3291
  261.0000     8.5919     8.3432     7.9243   -62.0008     7.9901   108.4885     2.5434     0.0515     0.0821     0.3177
  261.5000     8.7608     8.4990     8.0472   -62.1460     7.9920   107.7519     2.4988     0.0186     0.1040     0.3176
  262.0000     8.9337     8.6576     8.1476   -62.2901     7.9939   105.3581     2.4594    -0.0168     0.1289     0.3331
  262.5000     8.8790     8.6902     8.1459   -62.3825     7.9958   103.2480     2.4512     0.0090     0.1355     0.3652
  263.0000     8.7882     8.5509     8.1373   -62.2879     7.9978   105.5054     2.5177     0.0419     0.1040     0.3738
  263.5000     8.6984     8.4526     8.1288   -62.1764     7.9997   111.6439     2.5376     0.0668     0.0837     0.3639
  264.0000     8.6105     8.3547     8.1203   -61.6629     8.0016   117.2782     2.5351     0.0607     0.0901     0.3353
  264.5000     8.6744     8.2994     8.1117   -61.1516     8.0035   116.9777     2.5098     0.0524     0.1010     0.3328
  265.0000     8.7379     8.3509     8.1032   -60.6435     8.0054   111.9563     2.5104     0.0505     0.1004     0.3328
  265.5000     8.8020     8.3878     8.0949   -60.1839     8.0073   110.3307     2.5181     0.0526     0.0940     0.3288
  266.0000     8.8525     8.4248     8.0859   -60.2800     8.0093   113.0553     2.5230     0.0450     0.0929     0.3203
  266.5000     8.7538     8.4534     8.0736   -60.3858     8.0112   117.1363     2.5052     0.0349     0.1037     0.3251
  267.0000     8.6587     8.3186     8.0775   -60.3713     8.0131   118.9476     2.4962     0.0264     0.1110     0.3226
  267.5000     8.5649     8.2289     7.8842   -60.6872     8.0150   117.8996     2.4936     0.0309     0.1094     0.3048
  268.0000     8.4723     8.1403     7.7909   -60.9690     8.0169   114.2404     2.5002     0.0363     0.1076     0.3075
  268.5000     8.3806     8.0525     7.6997   -60.7328     8.0189   109.9154     2.4937     0.0387     0.1144     0.3131
  269.0000     8.2899     7.9657     7.6094   -60.4487     8.0208   106.5829     2.4804     0.0283     0.1211     0.3182
  269.5000     8.1957     7.8798     7.5203   -60.1679     8.0220   103.7086     2.4768     0.0209     0.1223     0.3190
  270.0000     8.0895     7.7949     7.4322   -59.9128     8.0212   103.4337     2.4928     0.0295     0.1144     0.3174
  270.5000     7.9847     7.7109     7.3451   -59.8182     8.0205   108.1438     2.5154     0.0371     0.1001     0.3237
  271.0000     7.8812     7.6278     7.2591   -59.9453     8.0198   114.5139     2.5221     0.0429     0.0953     0.3143
  271.5000     7.7791     7.5456     7.1739   -60.3075     8.0190   115.3225     2.4863     0.0305     0.1166     0.3043
  272.0000     7.6783     7.4643     7.0943   -60.7416     8.0183   113.7364     2.4624     0.0193     0.1307     0.3088
  272.5000     7.5789     7.3836     7.0312   -61.1759     8.0176   113.9519     2.4697     0.0260     0.1264     0.3207
  273.0000     7.4807     7.2939     7.0465   -61.6132     8.0169   116.6890     2.4780     0.0305     0.1214     0.3366
  273.5000     7.4307     7.2909     7.0607   -61.8411     8.0162   118.0072     2.4863     0.0306     0.1164     0.3569
  274.0000     7.7328     7.2894     7.0749   -61.9281     8.0154   117.0701     2.4945     0.0284     0.1105     0.3373
  274.5000     8.0648     7.5869     7.0891   -61.9903     8.0147   114.3858     2.5029     0.0261     0.1048     0.2749
  275.0000     8.3733     7.8463     7.1619   -61.9437     8.0140   110.5348     2.4995     0.0247     0.1048     0.2856
  275.5000     8.4580     7.9278     7.2286   -61.8995     8.0133   106.6963     2.4845     0.0256     0.1152     0.3000
  276.0000     8.3090     7.9494     7.3247   -61.8547     8.0126   103.5680     2.4833     0.0269     0.1184     0.3245
  276.5000     8.2017     7.9710     7.4221   -61.8147     8.0118   105.2396     2.4876     0.0086     0.1431     0.3289
  277.0000     8.1476     7.9927     7.5208   -61.4931     8.0111   106.7935     2.3998    -0.0193     0.1767     0.3313
  277.5000     8.2230     7.9984     7.7096   -61.0163     8.0104   110.2475     2.3359    -0.0351     0.2058     0.3249
  278.0000     8.3314     8.0368     7.7418   -60.5343     8.0097   113.0307     2.3685    -0.0230     0.1555     0.3059
  278.5000     8.4507     8.1559     7.7866   -60.0501     8.0090   114.8018     2.4761     0.0145     0.1120     0.2948
  279.0000     8.5718     8.2770     7.8318   -59.9792     8.0082   114.3888     2.4947     0.0300     0.1188     0.3013
  279.5000     8.6946     8.4005     7.8772   -60.0159     8.0075   113.7763     2.4711     0.0178     0.1310     0.3045
  280.0000     8.8192     8.5329     7.9260   -60.1917     8.0068   110.5201     2.4536     0.0035     0.1358     0.3021
  280.5000     8.9337     8.5316     7.8970   -60.3620     8.0061   107.3184     2.4726     0.0069     0.1222     0.2981
  281.0000     8.7823     8.3796     7.8581   -60.3378     8.0054   104.6077     2.4895     0.0215     0.1128     0.3043
  281.5000     8.6249     8.2216     7.8194   -60.2698     8.0046   102.2704     2.4780     0.0263     0.1200     0.3082
  282.0000     8.4703     8.0665     7.7811   -60.2073     8.0039   103.0195     2.4703     0.0253     0.1231     0.3051
  282.5000     8.3184     7.9989     7.7429   -59.8260     8.0032   107.2507     2.4951     0.0409     0.1153     0.2835
  283.0000     8.2230     8.0111     7.7049   -59.3781     8.0025   109.3235     2.5085     0.0498     0.1029     0.2645
  283.5000     8.2796     8.0448     7.6671   -59.3658     8.0008   107.8943     2.4992     0.0350     0.1104     0.2773
