~VERSION INFORMATION
 VERS.                2.0:   CWLS LOG ASCII STANDARD - VERSION 2.0
 WRAP.                 NO:   ONE LINE PER DEPTH STEP
~WELL INFORMATION
#MNEM.UNIT      DATA TYPE    INFORMATION
#----------   ------------   ------------------------------
 STRT.F           32.0000:   START DEPTH
 STOP.F          551.0000:   STOP DEPTH
 STEP.F            0.5000:   STEP LENGTH
 NULL.          -999.2500:   NO VALUE
 COMP.    FENIX & SCISSON:   COMPANY
 WELL.   NPR ##3 84-SX-10:   WELL
 FLD .              NPR 3:   FIELD
 LOC .      S10 T38N R78W:   LOCATION
 CNTY.            NATRONA:   COUNTY
 STAT.            WYOMING:   STATE
 CTRY. UNITED STATES OF AMERICA:   COUNTRY
 SRVC.              Welex:   SERVICE COMPANY
 DATE.        25-JAN-1978:   LOGDATE
 API .       490251033700:   API NUMBER
~CURVE INFORMATION
#MNEM.UNIT       API CODE    CURVE DESCRIPTION
#----------   ------------   ------------------------------
 DEPT.F                  :   
 SPR .MV     07 010 01 00:   SPONTANEOUS POTENTIAL FROM RES.
 ILD .OHMM   07 120 46 00:   INDUCTION LOG DEEP
 ILM .OHMM   07 120 44 00:   INDUCTION LOG MEDIUM
 SGRD.OHMM   07 220 05 00:   SHALLOW GUARD RESISTIVITY
 CALD.IN     45 280 60 00:   CALIPER FROM DENSITY LOG
 GRD .GAPI   45 310 01 00:   GAMMA RAY FROM DENSITY LOG
 CORR.G/C3   45 356 01 00:   DENSITY CORRECTION
 RHOB.G/C3   45 350 01 00:   BULK DENSITY
 DPHI.DEC    45 890 12 00:   DENSITY POROSITY SANDSTONE
~PARAMETER INFORMATION
#MNEM.UNIT          VALUE    DESCRIPTION
#----------   ------------   ------------------------------
 CLNT.            A2DTECH:   CLIENT CODE
 ORIG.           5" PRINT:   ORIGIN OF DATA
 UWI .       490251033700:   UNIQUE WELL ID
 DICO. A2D Technologies, Inc.:   DIGITIZING COMPANY
~OTHER INFORMATION
~A   DEPT      SPR        ILD        ILM       SGRD         CALD      GRD       CORR       RHOB       DPHI   
# ...
  470.0000   -33.5142    11.3632    11.9774    18.2278     8.0690   107.3572     0.0525     2.4693     0.1121
  470.5000   -33.3673    11.2836    12.6570    17.9756     8.0686   108.1011     0.0554     2.4730     0.1100
  471.0000   -33.3727    11.2045    13.0108    17.8502     8.0682   106.5910     0.0539     2.4759     0.1088
  471.5000   -33.3770    11.0492    12.7405    17.7257     8.0677   105.2322     0.0463     2.4782     0.1091
  472.0000   -33.3814    10.7460    11.3236    17.8480     8.0673   106.5755     0.0402     2.4721     0.1121
  472.5000   -33.3867    10.5970    10.6376    18.4763     8.0668   105.3674     0.0447     2.4668     0.1127
  473.0000   -33.3910    10.5228    10.7171    18.4752     8.0663   108.2571     0.0506     2.4813     0.1052
  473.5000   -33.3953    10.4491    11.5549    17.8444     8.0659   109.5578     0.0566     2.4990     0.0992
  474.0000   -33.3996    10.3043    11.8779    17.7199     8.0655   109.7011     0.0565     2.5020     0.0998
  474.5000   -33.4039    10.1614    11.0808    17.7188     8.0650   109.8426     0.0580     2.4899     0.1016
  475.0000   -33.4093    10.1601    10.7762    17.3526     8.0646   109.8340     0.0579     2.4868     0.1038
  475.5000   -33.4136    10.1590    11.5496    17.5939     8.0641   109.8271     0.0593     2.4966     0.1044
  476.0000   -33.4179    10.2996    12.0348    17.3504     8.0637   109.8185     0.0623     2.5055     0.0980
  476.5000   -33.4222    10.3701    12.1163    16.9921     8.0632   109.6614     0.0637     2.5100     0.0897
  477.0000   -33.4265    10.4449    12.0301    17.4690     8.0777   109.6545     0.0486     2.4957     0.0993
  477.5000   -33.4309    10.5856    11.8626    17.8352     8.0773   109.1955     0.0395     2.4859     0.1053
  478.0000   -33.4362    10.5842    11.6167    18.0829     8.0919   107.3868     0.0380     2.4806     0.1077
  478.5000   -33.4405    10.5831    11.4457    18.2079     8.0914   105.1276     0.0379     2.4783     0.1077
  479.0000   -33.4448    10.5819    11.3735    18.0806     8.0910   103.7677     0.0394     2.4842     0.1053
  479.5000   -33.4491    10.5808    12.1028    17.8304     8.1056   104.0611     0.0393     2.4894     0.1027
  480.0000   -33.3033    10.5797    11.7701    17.4622     8.1051   102.9929     0.0332     2.4863     0.1051
  480.5000   -33.3087    10.5783    11.7681    17.3401     8.1197   103.8954     0.0287     2.4811     0.1075
  481.0000   -33.1618    10.5772    12.0131    17.3391     8.1192   106.4411     0.0271     2.4833     0.1045
  481.5000   -33.1671    10.5761    12.0105    17.4589     8.1188   107.1849     0.0285     2.4930     0.1039
  482.0000   -33.1715    10.5020    11.8433    17.5791     8.1334   104.9258     0.0315     2.4960     0.1030
  482.5000   -33.0256    10.5009    11.1258    17.8235     8.1479   106.8691     0.0329     2.4899     0.1021
  483.0000   -33.0300    10.4270    10.9713    17.8223     8.1475   108.9626     0.0374     2.4929     0.1006
  483.5000   -33.0353    10.4259    11.3594    17.6978     8.1469   111.2080     0.0418     2.5064     0.0934
  484.0000   -33.0396    10.4248    11.0432    17.4529     8.1615   111.8138     0.0433     2.5131     0.0883
  484.5000   -33.0439    10.3518    11.1954    17.2114     8.1611   109.0903     0.0394     2.5108     0.0896
  485.0000   -33.0482    10.2793    10.8872    16.9733     8.1606   110.5850     0.0386     2.5062     0.0935
  485.5000   -32.9024    10.1992    11.2688    16.8549     8.1602   113.1306     0.0476     2.5017     0.0923
  486.0000   -32.9078    10.1355    10.8593    16.7371     8.1598   115.0740     0.0521     2.5152     0.0890
  486.5000   -32.7619    10.0645    10.2042    15.7961     8.1443   115.6694     0.0550     2.5196     0.0827
  487.0000   -32.6150     9.8565     9.9267    15.3691     8.1288   115.3514     0.0550     2.5194     0.0812
  487.5000   -32.6204     9.8109     9.7915    15.3733     8.1134   115.2034     0.0549     2.5143     0.0863
  488.0000   -32.4745     9.6113     9.5253    14.9496     8.0829   115.9456     0.0548     2.5127     0.0863
  488.5000   -32.4790     9.3509     9.1387    14.5535     8.0524   118.6396     0.0548     2.5089     0.0921
  489.0000   -32.3330     8.9068     8.8276    14.1611     8.0369   119.9858     0.0502     2.5006     0.0981
  489.5000   -32.3384     8.5996     8.5887    13.7783     8.0365   118.9262     0.0426     2.4923     0.1032
  490.0000   -32.1915     8.3759     8.3555    13.3134     8.0361   118.7674     0.0373     2.4832     0.1080
  490.5000   -32.0467     8.1495     8.2417    12.7755     8.0355   119.6614     0.0425     2.4772     0.1064
  491.0000   -32.0511     7.8196     8.1295    12.5156     8.0201   121.9068     0.0515     2.4982     0.0996
  491.5000   -31.9052     7.6606     7.9634    12.6069     8.0197   124.0002     0.0439     2.4891     0.1011
  492.0000   -31.9106     7.2998     7.6934    12.1815     8.0192   126.2456     0.0378     2.4733     0.1084
  492.5000   -31.9149     6.7192     7.2795    11.6894     8.0188   128.4910     0.0377     2.4620     0.1147
  493.0000   -31.9192     6.0159     7.0813    11.4523     8.0184   130.4343     0.0422     2.4612     0.1162
  493.5000   -31.9235     5.6146     6.5175    10.8386     8.0329   132.5295     0.0451     2.4619     0.1150
  494.0000   -31.9279     5.2335     5.3316     9.6176     8.0325   134.0320     0.0481     2.4664     0.1129
  494.5000   -31.9332     4.9592     5.0799     7.0424     8.0319   131.7632     0.0480     2.4678     0.1117
  495.0000   -31.9375     4.8918     5.0878     5.3558     8.0465   129.8044     0.0405     2.4708     0.1093
  495.5000   -31.7906     4.9615     5.7171     6.7784     8.0461   127.8082     0.0404     2.4920     0.1012
  496.0000   -31.7959     5.3554     6.4329    12.6392     8.0456   126.1853     0.0433     2.5180     0.0925
  496.5000   -31.4999     5.8613     6.8955    13.7374     8.0452   122.7249     0.0478     2.5262     0.0784
  497.0000   -31.5053     6.0273     7.1398    13.7412     8.0448   117.6112     0.0507     2.5329     0.0793
  497.5000   -31.5096     6.0706     7.4958    13.5561     8.0443   116.3787     0.0537     2.5389     0.0700
  498.0000   -31.5139     6.3296     8.1470    13.5598     8.0439   115.7757     0.0551     2.5398     0.0707
  498.5000   -31.5183     6.5573     8.8549    13.8481     8.0434   114.8549     0.0445     2.5336     0.0731
  499.0000   -31.3724     6.9352     9.0423    13.8519     8.0429   114.2689     0.0430     2.5305     0.0758
  499.5000   -31.0541     7.3258     9.1066    13.8558     8.0425   113.9662     0.0429     2.5297     0.0773
  500.0000   -30.7701     7.5857     9.1079    13.8596     8.0420   117.4172     0.0459     2.5357     0.0758
  500.5000   -30.6338     7.9643     8.8548    13.8635     8.0262   114.1115     0.0533     2.5402     0.0722
  501.0000   -30.4865     8.4199     8.7396    13.9637     8.0255   115.7809     0.0593     2.5425     0.0698
  501.5000   -30.1892     8.7185     9.1124    14.3605     8.0398   117.5596     0.0652     2.5454     0.0659
  502.0000   -30.0419     9.1537     9.6334    14.7676     8.0391   117.7079     0.0712     2.5491     0.0614
  502.5000   -29.7446     9.4130    10.1137    15.1863     8.0383   116.3536     0.0772     2.5529     0.0593
  503.0000   -29.5973     9.4806    10.7663    15.4022     8.0375   115.3002     0.0816     2.5566     0.0603
  503.5000   -29.4501     9.6188    11.0706    15.9488     8.0217   114.5470     0.0816     2.5573     0.0609
  504.0000   -29.3036     9.6949    11.0722    16.3998     8.0210   113.9439     0.0815     2.5588     0.0600
  504.5000   -29.1563     9.9589    11.0739    16.0673     8.0053   114.2413     0.0814     2.5588     0.0594
  505.0000   -29.1593    10.1703    11.3083    16.2969     8.0196   114.9897     0.0814     2.5498     0.0624
  505.5000   -29.0120    10.3145    11.4678    16.9925     8.0263   115.4377     0.0798     2.5377     0.0690
  506.0000   -29.0150    10.4608    11.7106    17.8408     8.0330   115.7357     0.0813     2.5347     0.0729
