~VERSION INFORMATION
 VERS.                2.0:   CWLS LOG ASCII STANDARD - VERSION 2.0
 WRAP.                 NO:   ONE LINE PER DEPTH STEP
~WELL INFORMATION
#MNEM.UNIT      DATA TYPE    INFORMATION
#----------   ------------   ------------------------------
 STRT.F            0.0000:   START DEPTH
 STOP.F         4112.0000:   STOP DEPTH
 STEP.F            0.5000:   STEP LENGTH
 NULL.          -999.2500:   NO VALUE
 COMP. LAWRENCE-ALLISON &AS:   COMPANY
 WELL. N P R 3-76-1-SX #3-3:   WELL
 FLD .          N.P.R. #3:   FIELD
 LOC .       S3 T38N R78W:   LOCATION
 CNTY.            NATRONA:   COUNTY
 STAT.            WYOMING:   STATE
 CTRY. UNITED STATES OF AMERICA:   COUNTRY
 SRVC.      Dresser Atlas:   SERVICE COMPANY
 DATE.        04-SEP-1983:   LOGDATE
 API .       490251093100:   API NUMBER
~CURVE INFORMATION
#MNEM.UNIT       API CODE    CURVE DESCRIPTION
#----------   ------------   ------------------------------
 DEPT.F                  :   
 DEN .G/C3   45 350 01 00:   COMPENSATED BULK DENSTIY
 CORR.G/C3   45 356 01 00:   DENSITY CORRECTION
 PORD.DEC    45 890 12 00:   POROSITY DENSITY SANDSTONE
 CNC .DEC    42 890 03 00:   NEUTRON POROSITY SANDSTONE
 SPR .MV     07 010 01 00:   SPONTANEOUS POTENTIAL
 GRR .GAPI   07 310 01 00:   GAMMA RAY FROM RES. LOG.
 RFOC.OHMM   07 220 04 00:   RESISTIVITY FOCUSED LOG
 CALD.IN     45 280 60 00:   CALIPER
 AC  .US/F   60 520 00 00:   ACOUSTIC SONIC
 RILD.OHMM   07 120 46 00:   INDUCTION LOG DEEP RESISTIVITY
 RILM.OHMM   07 120 44 00:   INDUCTION LOG MEDIUM RESISTIVITY
~PARAMETER INFORMATION
#MNEM.UNIT          VALUE    DESCRIPTION
#----------   ------------   ------------------------------
 PD  .                 GL:   PERMANENT DATUM
 EPD .F              5147:   ELEVATION PERMANENT DATUM
 LMF .                 KB:   LOG MEASURED FROM
 DAPD.F                10:   FEET ABOVE PERMANENT DATUM
 DMF .                 KB:   DRILLING MEASURED FROM
 EKB .F              5157:   KELLING BUSHING
 EGL .F              5147:   GROUND LEVEL
 DATE.             9-4-83:   RUN DATE
 RUN .                  1:   RUN NUMBER
 DD  .F              4119:   DEPTH DRILLER
 DL  .F              4115:   DEPTH LOGGER
 BLI .F              4112:   BOTTOM LOG INTERVAL
 CS  .IN            9.625:   CASING SIZE
 CBD .F               491:   CASING BOTTOM DRILLER
 CBL .F               494:   CASING BOTTOM LOGGER
 BS  .IN             8.75:   BIT SIZE
 BSD .F              4119:   BIT SIZE AT DEPTH
 DFT .            KCL GEL:   DRILLING FLUID TYPE
 DFD .                8.9:   DRILLING FLUID DENSITY
 DFV .                 46:   DRILLING FLUID VISCOSITY
 DFPH.                  9:   DRILLING FLUID PH
 DFL .               13.6:   DRILLING FLUID LOSS
 MSS .            MUDTANK:   MUD SAMPLE SOURCE
 RMS .OHMM           .315:   RESISTIVITY MUD SAMPLE
 MST .F                92:   MUD SAMPLE TEMPERATURE
 RMF .OHMM            .25:   RESISTIVITY MUD FILTRATE SAMPLE
 MFST.F                84:   MUD FILTRATE SAMPLE TEMPERATURE
 RMC .OHMM             .4:   RESISTIVITY MUD CAKE
 MCST.F                92:   MUD CAKE SAMPLE TEMPERATURE
 MFSS.                  M:   MUD FILTRATE SAMPLE SOURCE
 MCSS.                  C:   MUD CAKE SAMPLE SOURCE
 RMB .OHMM            .22:   RESISTIVITY MUD AT BHT
 BHT .F               132:   BOTTOM HOLE TEMPERATURE
 TCS .HRS               4:   TIME CURCULATED STOPPED
 MRT .F               132:   MAXIMUM RECORDED TEMPERATURE
 LUN .               6274:   LOGGING UNIT NUMBER
 LUL .               GLTE:   LOGGING UNIT LOCATION
 ENGI.             RAUTIO:   RECORDING ENGINEER
 WITN.             STRONG:   WITNESSED BY
 CLNT.            A2DTECH:   CLIENT CODE
 ORIG. 1", 2", 2.5", 5" PRINT:   ORIGIN OF DATA
 UWI .       490251093100:   UNIQUE WELL ID
 DICO. A2D Technologies, Inc.:   DIGITIZING COMPANY
~OTHER INFORMATION
~A    DEPT     DEN       CORR       PORD        CNC        SPR          GRR     RFOC       CALD         AC       RILD       RILM   
# ...
 2653.5000     2.4674     0.0008     0.1085     0.1832   -44.2466    99.7720    14.1168     9.6116    76.1947    12.8014    13.7551
 2654.0000     2.4663     0.0112     0.1099     0.1872   -44.2453    99.1582    13.7785     9.6090    76.2449    12.3941    13.4564
 2654.5000     2.4653     0.0214     0.1112     0.1850   -44.2489    96.6992    13.6154     9.6063    76.2951    11.9998    12.8710
 2655.0000     2.4644     0.0321     0.1112     0.1831   -44.2463    96.4762    13.3684     9.6037    76.3453    11.6181    12.3110
 2655.5000     2.4626     0.0265     0.1121     0.1815   -44.2465    99.0453    12.9429     9.6011    76.5077    11.2477    11.7754
 2656.0000     2.4599     0.0198     0.1145     0.1870   -44.2498   101.4413    12.5309     9.5985    76.8770    10.8897    11.1316
 2656.5000     2.4555     0.0117     0.1173     0.1944   -44.2060   102.1435    11.9775     9.5957    77.5721    10.5366    11.2063
 2657.0000     2.4562     0.0146     0.1145     0.2017   -44.0975   100.2246    12.2511     9.5940    77.9874    10.6530    11.4174
 2657.5000     2.4620     0.0280     0.1108     0.2056   -43.9924    97.0087    12.4844     9.5934    78.2315    10.8486    11.6325
 2658.0000     2.4637     0.0373     0.1116     0.2045   -43.8873    93.9952    12.7223     9.5927    78.1411    11.0478    11.8516
 2658.5000     2.4623     0.0449     0.1125     0.2024   -43.7815    93.5801    12.9646     9.5919    77.9741    11.2507    12.0749
 2659.0000     2.4632     0.0472     0.1109     0.2002   -43.6764    94.9489    13.2116     9.5912    77.5429    11.4573    12.3024
 2659.5000     2.4679     0.0386     0.1097     0.1981   -43.5701    96.2981    13.4633     9.5905    77.1950    11.6644    12.5341
 2660.0000     2.4689     0.0370     0.1084     0.1988   -43.4527    96.7394    13.8671     9.5898    76.8997    11.8963    12.7702
 2660.5000     2.4655     0.0372     0.1099     0.2024   -43.2194    94.9787    13.7839     9.5891    76.6044    12.1470    13.0108
 2661.0000     2.4608     0.0369     0.1121     0.2059   -42.9553    93.3927    13.5941     9.5884    76.3926    12.4229    13.2559
 2661.5000     2.4544     0.0367     0.1149     0.2080   -42.6899    94.5342    13.4069     9.5877    76.4787    12.4243    13.4277
 2662.0000     2.4492     0.0280     0.1177     0.2018   -42.4241    93.2526    13.2223     9.5870    76.8377    12.4258    13.5367
 2662.5000     2.4445     0.0184     0.1205     0.1976   -42.1651    89.9735    13.0403     9.5863    77.1852    12.7437    13.6154
 2663.0000     2.4412     0.0145     0.1237     0.1993   -41.8977    86.3394    12.8877     9.5856    77.3339    13.0569    13.9914
 2663.5000     2.4461     0.0214     0.1237     0.2008   -41.6144    88.0617    13.0372     9.5849    77.2426    13.3684    14.7257
 2664.0000     2.4541     0.0273     0.1200     0.1978   -41.5087    90.0625    13.4224     9.5842    77.0419    13.9594    15.5058
 2664.5000     2.4659     0.0336     0.1111     0.1944   -41.6760    90.6591    14.3600     9.5835    76.5399    14.5649    16.3268
 2665.0000     2.4869     0.0400     0.1001     0.1779   -41.8263    86.8962    15.9420     9.5828    75.8782    15.1966    17.1906
 2665.5000     2.5060     0.0446     0.0892     0.1638   -41.9849    83.1695    17.6984     9.5821    73.7743    15.4444    18.5965
 2666.0000     2.5257     0.0229     0.0783     0.1517   -42.1183    83.9073    19.6482     9.5814    71.8254    15.6962    18.5810
 2666.5000     2.5160     0.0032     0.0731     0.1526   -42.2215    84.6779    22.7351     9.5806    69.8765    15.9522    17.1347
 2667.0000     2.4972    -0.0167     0.0825     0.1599   -41.5982    85.6445    20.6702     9.5799    69.3556    16.3514    15.9321
 2667.5000     2.4774    -0.0044     0.0959     0.1780   -41.0369    86.5404    17.6545     9.5792    70.2428    15.9927    14.9208
 2668.0000     2.4654     0.0196     0.1070     0.2038   -40.4355    87.4389    15.0788     9.5785    72.6251    15.5802    14.5299
 2668.5000     2.4533     0.0458     0.1128     0.2017   -39.8590    86.0732    13.8259     9.5778    75.0409    15.1784    14.1816
 2669.0000     2.4405     0.0657     0.1213     0.1971   -39.2665    82.8798    13.3684     9.5771    76.4563    14.7869    13.8417
 2669.5000     2.4309     0.0797     0.1317     0.1945   -38.6312    79.9620    13.3684     9.5764    77.2411    14.3843    13.5748
 2670.0000     2.4323     0.0688     0.1323     0.1978   -38.4081    81.4399    13.3684     9.5757    77.3236    14.2750    13.4487
 2670.5000     2.4368     0.0580     0.1294     0.2000   -38.9036    82.8138    13.3684     9.5750    77.1708    14.0839    13.3238
 2671.0000     2.4444     0.0448     0.1252     0.2000   -39.3522    84.4229    13.2587     9.5743    77.0181    13.8953    13.2000
 2671.5000     2.4537     0.0484     0.1210     0.2006   -39.8059    85.4100    13.0988     9.5736    76.8653    13.7093    13.0774
 2672.0000     2.4559     0.0640     0.1165     0.2020   -40.2486    85.3279    12.9409     9.5729    76.7125    13.5257    12.9559
 2672.5000     2.4508     0.0777     0.1165     0.2032   -40.6365    85.2390    12.7849     9.5722    76.9328    13.3446    12.8356
 2673.0000     2.4383     0.0886     0.1234     0.1988   -40.2802    85.2122    12.6307     9.5715    77.4493    13.1660    12.7164
 2673.5000     2.4193     0.0732     0.1350     0.1944   -39.9592    82.1671    12.4784     9.5708    78.1036    13.1172    12.5983
 2674.0000     2.4031     0.0589     0.1465     0.1952   -39.5855    78.6766    12.3279     9.5701    78.6724    13.0952    12.4243
 2674.5000     2.3955     0.0444     0.1545     0.2028   -39.8597    76.1480    12.1793     9.5693    78.4522    13.0733    12.4339
 2675.0000     2.4163     0.0424     0.1445     0.2097   -40.4490    79.6909    12.0324     9.5686    78.1958    13.0515    12.4527
 2675.5000     2.4344     0.0449     0.1283     0.2138   -41.0247    86.0754    11.9348     9.5679    77.8054    13.0297    12.4711
 2676.0000     2.4534     0.0439     0.1122     0.2143   -41.5917    92.4585    11.7623     9.5672    77.6776    13.0080    12.4906
 2676.5000     2.4738     0.0428     0.1044     0.2147   -42.1651    93.4282    11.5923     9.5665    78.2370    12.9862    12.5098
 2677.0000     2.4692     0.0413     0.1078     0.2151   -42.7366    89.9249    11.4248     9.5658    78.9477    12.9644    12.5287
 2677.5000     2.4606     0.0511     0.1126     0.2155   -43.3130    86.4936    11.3373     9.5651    79.6003    12.9426    12.5477
 2678.0000     2.4554     0.0627     0.1174     0.2159   -43.8818    86.5249    11.4725     9.5644    79.9701    12.9208    12.5667
 2678.5000     2.4520     0.0720     0.1177     0.2145   -44.4342    89.1688    11.5983     9.5637    79.6469    12.8991    12.5857
 2679.0000     2.4519     0.0479     0.1160     0.2052   -44.9274    91.7057    11.7226     9.5630    79.2570    12.8867    12.6047
 2679.5000     2.4527     0.0265     0.1169     0.1954   -45.3994    94.3255    11.6524     9.5623    78.8795    12.8877    12.6238
 2680.0000     2.4557     0.0132     0.1175     0.1920   -45.8547    95.2584    11.4932     9.5616    79.2878    12.8878    12.6430
 2680.5000     2.4586     0.0227     0.1154     0.1920   -46.3017    93.8337    11.3443     9.5609    79.7705    12.8876    12.7039
 2681.0000     2.4616     0.0287     0.1133     0.1903   -46.7580    92.5771    11.9407     9.5602    79.1488    12.8881    12.8200
 2681.5000     2.4645     0.0352     0.1109     0.1831   -47.2123    91.3030    12.5331     9.5595    78.3138    12.8878    12.9372
 2682.0000     2.4675     0.0273     0.1085     0.1853   -47.6552    91.0690    13.1545     9.5588    77.3484    12.8887    13.0554
 2682.5000     2.4701     0.0203     0.1071     0.1901   -48.1091    91.5798    13.8068     9.5580    76.3862    12.8892    13.1748
 2683.0000     2.4673     0.0138     0.1092     0.1950   -48.0473    91.2833    14.3843     9.5573    76.0548    12.8850    13.3684
 2683.5000     2.4601     0.0117     0.1122     0.1998   -47.8167    90.1739    14.1856     9.5566    76.3734    12.8914    13.2558
