~VERSION INFORMATION
 VERS.                2.0:   CWLS LOG ASCII STANDARD - VERSION 2.0
 WRAP.                 NO:   ONE LINE PER DEPTH STEP
~WELL INFORMATION
#MNEM.UNIT      DATA TYPE    INFORMATION
#----------   ------------   ------------------------------
 STRT.F           30.0000:   START DEPTH
 STOP.F         3375.5000:   STOP DEPTH
 STEP.F            0.5000:   STEP LENGTH
 NULL.          -999.2500:   NO VALUE
 COMP.       INTEX OIL CO:   COMPANY
 WELL.   NPR ##3 57-SX-34:   WELL
 FLD .             TEAPOT:   FIELD
 LOC .      S34 T39N R78W:   LOCATION
 CNTY.            NATRONA:   COUNTY
 STAT.            WYOMING:   STATE
 CTRY. UNITED STATES OF AMERICA:   COUNTRY
 SRVC.       Schlumberger:   SERVICE COMPANY
 DATE.        12-AUG-1967:   LOGDATE
 API .       490251023200:   API NUMBER
~CURVE INFORMATION
#MNEM.UNIT       API CODE    CURVE DESCRIPTION
#----------   ------------   ------------------------------
 DEPT.F                  :   
 SPR .MV     07 010 01 00:   SPONTANEOUS POTENTIAL
 ILD .OHMM   07 120 46 00:   INDUCTION LOG DEEP
 ASN .OHMM   05 041 16 00:   AMPLIFIED SHORT NORMAL 16"
 CILD.MMHO   07 110 46 00:   CONDUCTIVITY INDUCTION LOG DEEP
 LL8 .OHMM   07 220 08 00:   LATEROLOG-8 RES.
 ILM .OHMM   07 120 44 00:   INDUCTION LOG MEDIUM
 CALD.IN     45 280 60 00:   CALIPER
 GRD .GAPI   45 310 01 00:   GAMMA RAY FROM DENSITY LOG
 RHOB.G/C3   45 350 01 00:   BULK DENSITY
 DPHI.DEC    45 890 12 00:   DENSITY POROSITY SANDSTONE
 CORR.G/C3   45 356 01 00:   DENSITY CORRECTION
~PARAMETER INFORMATION
#MNEM.UNIT          VALUE    DESCRIPTION
#----------   ------------   ------------------------------
 PD  .                 GL:   PERMANENT DATUM
 EPD .F              5084:   ELEVATION PERMANENT DATUM
 LMF .                 KB:   LOG MEASURED FROM
 DAPD.F                12:   FEET ABOVE PERMANENT DATUM
 DMF .                 KB:   DRILLING MEASURED FROM
 EKB .F              5096:   KELLING BUSHING
 EGL .F              5084:   GROUND LEVEL
 DATE.            8-12-67:   RUN DATE
 RUN .                  2:   RUN NUMBER
 DD  .F              3380:   DEPTH DRILLER
 DL  .F              3371:   DEPTH LOGGER
 BLI .F              3368:   BOTTOM LOG INTERVAL
 TLI .F               630:   TOP LOG INTERVAL
 CS  .IN            10.75:   CASING SIZE
 CBD .F               643:   CASING BOTTOM DRILLER
 BS  .IN            9.875:   BIT SIZE
 BSD .F              3380:   BIT SIZE AT DEPTH
 DFT .               CHEM:   DRILLING FLUID TYPE
 DFD .                9.4:   DRILLING FLUID DENSITY
 DFV .                 48:   DRILLING FLUID VISCOSITY
 DFPH.                8.5:   DRILLING FLUID PH
 DFL .                3.6:   DRILLING FLUID LOSS
 MSS .          FLOW LINE:   MUD SAMPLE SOURCE
 RMS .OHMM           2.81:   RESISTIVITY MUD SAMPLE
 MST .F                88:   MUD SAMPLE TEMPERATURE
 RMF .OHMM            1.7:   RESISTIVITY MUD FILTRATE SAMPLE
 MFST.F                86:   MUD FILTRATE SAMPLE TEMPERATURE
 MFSS.                  M:   MUD FILTRATE SAMPLE SOURCE
 RMB .OHMM           2.03:   RESISTIVITY MUD AT BHT
 BHT .F               122:   BOTTOM HOLE TEMPERATURE
 TCS .HRS             2.5:   TIME CURCULATED STOPPED
 MRT .F               122:   MAXIMUM RECORDED TEMPERATURE
 LUN .               7030:   LOGGING UNIT NUMBER
 LUL .               CSPR:   LOGGING UNIT LOCATION
 ENGI.             SCHODE:   RECORDING ENGINEER
 WITN.                MAY:   WITNESSED BY
 CLNT.            A2DTECH:   CLIENT CODE
 ORIG.   1" 2.5" 5" PRINT:   ORIGIN OF DATA
 UWI .       490251023200:   UNIQUE WELL ID
 DICO. A2D Technologies, Inc.:   DIGITIZING COMPANY
~OTHER INFORMATION
~A   DEPT      SPR        ILD        ASN       CILD        LL8        ILM       CALD         GRD      RHOB       DPHI       CORR   
# ...
 3141.0000   -27.0286     3.4396  -999.2500  -999.2500     4.6932     3.8824    12.3378    89.1152     2.4622     0.1137     0.0073
 3141.5000   -27.0769     3.4067  -999.2500  -999.2500     4.5306     3.8315    12.3474    90.3456     2.4717     0.1020     0.0093
 3142.0000   -27.1220     3.3742  -999.2500  -999.2500     4.2874     3.7777    12.3508    92.9980     2.4793     0.1038     0.0173
 3142.5000   -27.1621     3.3419  -999.2500  -999.2500     4.3280     3.7620    12.3551    95.3203     2.4677     0.1093     0.0290
 3143.0000   -27.2034     3.3099  -999.2500  -999.2500     4.4454     3.7452    12.3605    97.7620     2.4643     0.1154     0.0245
 3143.5000   -27.2442     3.2783  -999.2500  -999.2500     4.3452     3.7284    12.3660    95.5834     2.4749     0.1067     0.0035
 3144.0000   -27.2848     3.2490  -999.2500  -999.2500     4.1352     3.7100    12.3714    92.7571     2.4796     0.1099     0.0076
 3144.5000   -27.3263     3.1835  -999.2500  -999.2500     4.1979     3.6435    12.3769    89.7724     2.4744     0.1081     0.0213
 3145.0000   -27.3666     3.1193  -999.2500  -999.2500     4.2691     3.5598    12.3823    88.2701     2.4801     0.1004     0.0170
 3145.5000   -27.4068     3.0563  -999.2500  -999.2500     4.3657     3.4845    12.3879    90.3954     2.4839     0.1067     0.0151
 3146.0000   -27.4523     2.9945  -999.2500  -999.2500     4.1735     3.4099    12.3899    92.5587     2.4845     0.1028     0.0288
 3146.5000   -27.4515     2.9338  -999.2500  -999.2500     3.7729     3.3384    12.3898    94.6228     2.4801     0.0979     0.0282
 3147.0000   -27.3980     2.8744  -999.2500  -999.2500     3.7777     3.2681    12.3898    96.8883     2.4726     0.1017     0.0225
 3147.5000   -27.3498     2.8161  -999.2500  -999.2500     3.7777     3.1990    12.3898    94.7339     2.4650     0.1072     0.0169
 3148.0000   -27.3009     2.7592  -999.2500  -999.2500     3.6336     3.1314    12.3898    91.2633     2.4611     0.1107     0.0123
 3148.5000   -27.2516     2.7274  -999.2500  -999.2500     3.4511     3.0652    12.3898    92.6636     2.4655     0.1079     0.0228
 3149.0000   -27.2021     2.6965  -999.2500  -999.2500     3.5651     3.0331    12.3898    95.1408     2.4750     0.1051     0.0322
 3149.5000   -27.1537     2.6668  -999.2500  -999.2500     3.7566     2.9993    12.3898    97.3396     2.4752     0.1034     0.0328
 3150.0000   -27.1038     2.6312  -999.2500  -999.2500     3.9117     2.9683    12.3898   100.1873     2.4752     0.1053     0.0328
 3150.5000   -27.0640     2.6212  -999.2500  -999.2500     3.7442     2.9389    12.3898    97.5467     2.4736     0.1083     0.0285
 3151.0000   -27.1628     2.5962  -999.2500  -999.2500     3.6105     2.9098    12.3898    99.2770     2.4730     0.1028     0.0246
 3151.5000   -27.3402     2.5714  -999.2500  -999.2500     3.4813     2.8809    12.3898   101.1343     2.4674     0.1114     0.0200
 3152.0000   -27.4743     2.5468  -999.2500  -999.2500     3.3375     2.8523    12.3897   101.4799     2.4587     0.1097     0.0160
 3152.5000   -27.5599     2.5224  -999.2500  -999.2500     3.3505     2.8240    12.3900   100.2064     2.4724     0.1067     0.0121
 3153.0000   -27.6355     2.4983  -999.2500  -999.2500     3.3801     2.7961    12.3896    98.0628     2.4607     0.1117     0.0201
 3153.5000   -27.7126     2.4744  -999.2500  -999.2500     3.4467     2.7604    12.3891    96.0436     2.4470     0.1169     0.0297
 3154.0000   -27.7862     2.4507  -999.2500  -999.2500     3.5141     2.7112    12.3739    95.5770     2.4565     0.1134     0.0220
 3154.5000   -27.8613     2.4273  -999.2500  -999.2500     3.3774     2.6629    12.3574    94.9342     2.4807     0.1073     0.0132
 3155.0000   -27.8650     2.4041  -999.2500  -999.2500     3.2617     2.6154    12.3405    95.4382     2.4738     0.1012     0.0112
 3155.5000   -27.8667     2.3811  -999.2500  -999.2500     3.1498     2.5688    12.3238    96.9020     2.4785     0.0997     0.0435
 3156.0000   -27.8653     2.3607  -999.2500  -999.2500     3.0963     2.5231    12.3070    98.7022     2.4871     0.1021     0.0479
 3156.5000   -27.8658     2.3449  -999.2500  -999.2500     3.1702     2.4915    12.2903   100.4981     2.4747     0.1085     0.0491
 3157.0000   -27.8657     2.2929  -999.2500  -999.2500     3.2689     2.5139    12.2735   102.3551     2.4536     0.1177     0.0414
 3157.5000   -27.8656     2.2421  -999.2500  -999.2500     3.1900     2.5398    12.2568   103.0142     2.4337     0.1269     0.0330
 3158.0000   -27.8657     2.1960  -999.2500  -999.2500     3.1528     2.5652    12.2401   100.8533     2.4192     0.1361     0.0243
 3158.5000   -27.8656     2.1899  -999.2500  -999.2500     3.3081     2.5841    12.2233    98.6085     2.4235     0.1421     0.0156
 3159.0000   -27.8653     2.1674  -999.2500  -999.2500     3.5141     2.5248    12.2068    96.3924     2.4289     0.1265     0.0145
 3159.5000   -27.8655     2.1451  -999.2500  -999.2500     3.3532     2.4577    12.1895    95.6077     2.4349     0.1284     0.0182
 3160.0000   -27.8648     2.1230  -999.2500  -999.2500     3.1210     2.3925    12.1735    96.7569     2.4442     0.1319     0.0225
 3160.5000   -27.8647     2.1011  -999.2500  -999.2500     2.9049     2.3184    12.1558    98.0721     2.4501     0.1209     0.0266
 3161.0000   -27.8666     2.0800  -999.2500  -999.2500     2.6312     2.3184    12.1446    99.7251     2.4516     0.1201     0.0309
 3161.5000   -27.8606     2.0800  -999.2500  -999.2500     2.7819     2.3184    12.1206   102.0212     2.4470     0.1239     0.0350
 3162.0000   -27.8699     2.0800  -999.2500  -999.2500     3.0430     2.3396    12.0984   104.2399     2.4310     0.1282     0.0391
 3162.5000   -27.8823     2.0800  -999.2500  -999.2500     3.2689     2.3660    12.0755   104.6510     2.4243     0.1335     0.0424
 3163.0000   -28.3090     2.1558  -999.2500  -999.2500     3.2103     2.3927    12.0526    98.5820     2.4205     0.1387     0.0381
 3163.5000   -28.7943     2.2547  -999.2500  -999.2500     3.1114     2.4197    12.0299    92.0610     2.4171     0.1445     0.0293
 3164.0000   -29.2993     2.3581  -999.2500  -999.2500     3.0963     2.4476    12.0071    87.6598     2.4154     0.1344     0.0201
 3164.5000   -29.7830     2.4663  -999.2500  -999.2500     3.1996     2.5918    11.9844    89.6862     2.4474     0.1287     0.0215
 3165.0000   -30.2181     2.5794  -999.2500  -999.2500     3.5030     2.7483    11.9613    93.7228     2.4405     0.1306     0.0310
 3165.5000   -30.2365     2.6976  -999.2500  -999.2500     4.2385     2.9143    11.9388    92.1401     2.4343     0.1313     0.0396
 3166.0000   -30.2035     2.8214  -999.2500  -999.2500     4.5265     3.0903    11.9160    86.5112     2.4368     0.1264     0.0484
 3166.5000   -30.1034     2.9508  -999.2500  -999.2500     4.0610     3.2770    11.8914    85.2519     2.4427     0.1269     0.0533
 3167.0000   -30.0169     3.0862  -999.2500  -999.2500     4.3520     3.4187    11.8768    89.4630     2.4631     0.1215     0.0489
 3167.5000   -29.9276     3.2278  -999.2500  -999.2500     5.2310     3.5456    11.8780    93.4059     2.4844     0.1092     0.0370
 3168.0000   -29.8368     3.3758  -999.2500  -999.2500     4.0610     3.6772    11.8784    96.1596     2.5046     0.0970     0.0448
 3168.5000   -29.7478     3.5306  -999.2500  -999.2500     4.3484     3.8136    11.8798    97.3090     2.5077     0.0860     0.0720
 3169.0000   -29.6579     3.6926  -999.2500  -999.2500     4.9745     3.9551    11.9214    98.4150     2.5114     0.0787     0.0857
 3169.5000   -29.5685     3.8619  -999.2500  -999.2500     5.6234     4.1019    11.9517    99.2413     2.5293     0.0673     0.0867
 3170.0000   -29.4794     4.0391  -999.2500  -999.2500     4.9548     4.2981    11.9899    93.4866     2.5010     0.0832     0.0751
 3170.5000   -29.3889     4.2243  -999.2500  -999.2500     5.3878     4.6230    11.8827    88.5462     2.4596     0.1106     0.0431
 3171.0000   -29.3013     4.4181  -999.2500  -999.2500     5.9264     4.9725    11.7468    82.5823     2.4734     0.1022     0.0259
