~VERSION INFORMATION
 VERS.                2.0:   CWLS LOG ASCII STANDARD - VERSION 2.0
 WRAP.                 NO:   ONE LINE PER DEPTH STEP
~WELL INFORMATION
#MNEM.UNIT      DATA TYPE    INFORMATION
#----------   ------------   ------------------------------
 STRT.F            0.0000:   START DEPTH
 STOP.F          860.0000:   STOP DEPTH
 STEP.F            0.5000:   STEP LENGTH
 NULL.          -999.2500:   NO VALUE
 COMP.          U.S. NAVY:   COMPANY
 WELL. NPR #3 TEAPOT DOME #28S-35:   WELL
 FLD .             TEAPOT:   FIELD
 LOC .      S35 T39N R78W:   LOCATION
 CNTY.            NATRONA:   COUNTY
 STAT.            WYOMING:   STATE
 CTRY. UNITED STATES OF AMERICA:   COUNTRY
 SRVC.       Schlumberger:   SERVICE COMPANY
 DATE.        10-NOV-1958:   LOGDATE
 API .       490250649800:   API NUMBER
~CURVE INFORMATION
#MNEM.UNIT       API CODE    CURVE DESCRIPTION
#----------   ------------   ------------------------------
 DEPT.F                  :   
 SPR .MV     01 010 01 00:   SPONTANEOUS POTENTIAL FROM RES.
 ASN .OHMM   01 041 16 00:   AMPLIFIED SHORT NORMAL 16"
 LT18.OHMM   01 070 18 00:   LATERAL 18'
 LN  .OHMM   01 060 64 00:   LONG NORMAL 64"
 GRN .CPS    35 310 30 00:   GAMMA RAY
 NEUT.CPS    35 330 30 00:   NEUTRON
 MCAL.IN     15 280 01 00:   CALIPER FROM MICRO LOG
~PARAMETER INFORMATION
#MNEM.UNIT          VALUE    DESCRIPTION
#----------   ------------   ------------------------------
 LMF .                 KB:   LOG MEASURED FROM
 DMF .                 KB:   DRILLING MEASURED FROM
 EKB .F              5113:   KELLING BUSHING
 EGL .F              5103:   GROUND LEVEL
 DATE.         11-10-1958:   RUN DATE
 RUN .                  1:   RUN NUMBER
 DD  .F               860:   DEPTH DRILLER
 DL  .F               861:   DEPTH LOGGER
 BLI .F               860:   BOTTOM LOG INTERVAL
 TLI .F                90:   TOP LOG INTERVAL
 CBD .F                34:   CASING BOTTOM DRILLER
 BS  .IN             6.75:   BIT SIZE
 BSD .F               860:   BIT SIZE AT DEPTH
 DFT .          OIL ADDED:   DRILLING FLUID TYPE
 DFD .                 10:   DRILLING FLUID DENSITY
 DFV .                 20:   DRILLING FLUID VISCOSITY
 DFPH.                7.5:   DRILLING FLUID PH
 DFL .                4.2:   DRILLING FLUID LOSS
 RMS .OHMM              2:   RESISTIVITY MUD SAMPLE
 MST .F                62:   MUD SAMPLE TEMPERATURE
 RMF .OHMM            1.4:   RESISTIVITY MUD FILTRATE SAMPLE
 MFST.F                72:   MUD FILTRATE SAMPLE TEMPERATURE
 RMC .OHMM            1.9:   RESISTIVITY MUD CAKE
 MCST.F                72:   MUD CAKE SAMPLE TEMPERATURE
 MFSS.                  M:   MUD FILTRATE SAMPLE SOURCE
 MCSS.                  M:   MUD CAKE SAMPLE SOURCE
 RMB .OHMM            1.7:   RESISTIVITY MUD AT BHT
 BHT .F                72:   BOTTOM HOLE TEMPERATURE
 TCS .HRS               1:   TIME CURCULATED STOPPED
 MRT .F                72:   MAXIMUM RECORDED TEMPERATURE
 LUN .               2754:   LOGGING UNIT NUMBER
 LUL .                 NC:   LOGGING UNIT LOCATION
 ENGI.             QUINBY:   RECORDING ENGINEER
 WITN.             MARTIN:   WITNESSED BY
 CLNT.            A2DTECH:   CLIENT CODE
 ORIG.     1", 2.5" PRINT:   ORIGIN OF DATA
 UWI .       490250649800:   UNIQUE WELL ID
 DICO. A2D Technologies, Inc.:   DIGITIZING COMPANY
~OTHER INFORMATION
~A    DEPT     SPR        ASN       LT18         LN          GRN     NEUT       MCAL   
# ...
  637.0000   -29.7203     7.0403     6.0662     5.2839     8.2229   380.4385     6.9470
  637.5000   -30.2651     7.0608     6.0639     5.4178     8.2458   388.1115     6.9467
  638.0000   -30.5382     7.0335     6.0620     5.5517     8.3475   396.2124     6.9464
  638.5000   -31.0830     6.9073     6.0600     5.6965     8.5334   395.5768     6.9462
  639.0000   -31.3560     6.5670     6.0580     5.8194     8.4506   390.4248     6.9459
  639.5000   -31.6291     6.1449     5.9209     5.9533     8.3893   389.5464     6.9456
  640.0000   -31.6304     5.6540     5.7837     6.1232     8.3318   407.2381     6.9453
  640.5000   -31.6318     5.5456     5.6290     6.3570     8.0206   414.8803     6.9451
  641.0000   -31.3613     5.5994     5.3220     6.4909     7.9754   424.0496     6.9448
  641.5000   -30.8191     5.7343     4.8975     6.4884     7.8981   427.1110     6.9445
  642.0000   -30.5487     6.2205     4.4243     6.6223     7.8955   427.8820     6.9442
  642.5000   -30.2786     6.6257     4.6092     6.5421     7.8471   422.5453     6.9440
  643.0000   -30.5516     7.0578     4.8861     6.4820     7.5216   417.9720     6.9437
  643.5000   -30.9792     7.4969     5.1628     6.3441     7.3029   410.3448     6.9434
  644.0000   -31.3698     7.8756     5.3621     6.3422     7.5711   414.9332     6.9158
  644.5000   -32.1863     7.9760     5.4953     6.3402     7.1732   407.3061     6.9156
  645.0000   -32.4594     7.9815     5.4929     6.3382     6.9956   405.4806     6.9153
  645.5000   -33.0042     8.0866     5.4910     6.4722     7.5567   408.8481     6.9150
  646.0000   -34.0924     8.2184     5.4890     6.7419     7.7447   408.6107     6.9147
  646.5000   -33.8220     8.2452     5.4871     6.7491     7.5997   409.0769     6.8872
  647.0000   -32.9892     8.2989     5.4851     6.8738     7.4712   421.0864     6.8869
  647.5000   -32.4275     8.3541     5.4831     7.0077     7.6107   427.2017     6.8593
  648.0000   -31.9238     8.4224     5.6270     7.1416     7.7628   422.6284     6.8590
  648.5000   -31.9253     8.4602     5.7687     7.2754     7.6887   417.2917     6.8314
  649.0000   -31.9266     8.5140     6.0455     7.2731     7.8458   428.7513     6.8311
  649.5000   -31.9280     8.5408     6.1871     7.2711     7.7416   436.3936     6.8036
  650.0000   -32.0652     8.5946     6.2841     7.4049     7.9686   437.1646     6.7760
  650.5000   -32.6295     8.5403     6.2817     7.4028     8.2780   427.2471     6.7755
  651.0000   -32.7475     8.4859     6.2797     7.5367     8.0395   440.5084     6.7477
  651.5000   -32.7488     8.3495     6.1426     7.5343     7.7795   453.5850     6.6932
  652.0000   -32.7501     8.1816     6.0613     7.6685     7.4586   457.0452     6.6649
  652.5000   -32.4797     8.0797     5.8679     7.6472     7.2917   439.4929     6.5824
  653.0000   -32.4810     8.2366     5.7308     7.5285     7.3486   437.6072     6.5262
  653.5000   -32.2106     8.4592     5.7288     7.5265     7.1692   427.5350     6.3902
  654.0000   -32.2119     8.6906     5.7269     7.4801     7.4992   411.4505     6.4215
  654.5000   -32.2527     8.8459     5.8601     7.2507     7.7056   391.9263     6.5582
  655.0000   -32.9348     8.9041     5.8581     7.2487     7.6650   381.5067     6.6675
  655.5000   -33.5747     8.7657     5.9912     7.3161     7.3360   397.5309     6.7790
  656.0000   -33.2065     7.9533     5.9766     7.8079     7.2903   431.1782     6.8273
  656.5000   -32.5275     7.0235     5.8520     8.0574     7.0899   446.0587     6.7427
  657.0000   -30.9945     6.0773     5.8203     8.0554     6.8845   454.1593     6.7175
  657.5000   -29.8504     6.0174     5.5394     8.3252     6.8438   456.3649     6.7445
  658.0000   -28.9622     6.1578     5.2585     8.7308     7.2562   430.9650     6.7716
  658.5000   -29.2352     6.1576     4.7871     8.8647     7.3391   427.1096     6.7440
  659.0000   -29.2365     6.3735     4.0851     8.8627     7.2526   429.5149     6.7131
  659.5000   -28.9661     7.4581     4.1556     8.9966     7.3401   440.0302     6.6615
  660.0000   -27.8805     9.4036     4.4861     8.8587     7.2994   450.2949     6.7741
  660.5000   -25.9700     9.9602     4.6193     8.7033     7.2381   431.3398     6.8249
  661.0000   -22.9502     9.9130     4.8876     8.4470     7.2176   434.4309     6.8519
  661.5000   -22.1377     9.8316     5.0209     8.4791     7.5892   436.9891     6.8790
  662.0000   -21.9075     9.8313     5.1539     9.0716     7.9604   430.5381     6.8787
  662.5000   -21.9090     9.8311     5.1519     9.8165     7.6657   435.4468     6.8784
  663.0000   -21.9103     9.9660     5.2851    10.4597     7.4620   450.5264     6.8460
  663.5000   -22.1834     9.9657     5.1480    10.8819     7.2272   481.6234     6.7959
  664.0000   -22.1848    10.1006     5.1460    11.4402     6.9020   497.8762     6.7957
  664.5000   -22.4579    10.2743     5.1439    11.8291     6.2887   487.6527     6.7954
  665.0000   -22.4595    10.4649     5.1419    12.2347     5.6202   493.8922     6.8005
  665.5000   -22.4608    11.1570     5.1800    12.6404     5.2764   496.6188     6.8222
  666.0000   -23.0056    11.7778     5.3216    13.0460     5.1561   490.5772     6.8219
  666.5000   -23.5504    12.8209     5.5412    13.4516     5.0644   507.6562     6.7943
  667.0000   -24.0951    14.1529     5.8752    13.7214     4.9240   520.7039     6.7878
  667.5000   -24.9140    15.9094     6.4358    13.5836     4.7995   529.8121     6.7600
  668.0000   -25.5000    17.6659     7.1564    13.3025     4.5138   516.4747     6.6983
  668.5000   -26.3556    18.7467     8.2355    13.3079     4.5966   492.2832     6.6158
  669.0000   -27.4221    20.3681     9.0443    13.4656     5.0011   476.1073     6.5470
  669.5000   -28.4185    21.9894    10.5289    13.8796     5.1059   473.3452     6.5538
  670.0000   -29.5378    23.8811    11.8782    14.4701     5.0220   508.3721     6.6011
  670.5000   -28.9959    25.2399    13.0925    15.0775     4.9215   522.2227     6.6282
  671.0000   -29.6848    25.6373    14.1716    15.7800     4.9548   515.9907     6.6279
  671.5000   -30.6291    25.8337    14.3200    16.6882     4.7958   512.4855     6.6276
  672.0000   -30.6307    26.5342    14.7082    17.8152     4.6612   516.1375     6.6273
  672.5000   -30.0885    27.3324    14.0913    20.2204     4.3187   507.0878     6.6271
  673.0000   -29.8180    28.0700    13.4879    21.9847     4.3470   495.1431     6.6268
  673.5000   -30.0911    28.8517    13.6213    23.2056     4.6379   492.4925     6.6265
  674.0000   -30.6359    29.4087    13.8549    23.6112     4.8160   494.7905     6.6262
  674.5000   -31.4556    29.8951    14.2165    24.0168     5.0684   473.9925     6.6260
  675.0000   -31.7255    29.8806    14.4932    24.2866     5.2145   471.3936     6.6257
  675.5000   -31.4551    29.4186    14.6939    24.9640     5.2563   466.2495     6.6528
  676.0000   -31.5181    29.2832    14.7423    25.5163     5.3391   462.7549     6.6525
  676.5000   -32.8166    29.2829    14.2842    25.9111     5.4220   486.4935     6.6249
  677.0000   -32.8179    28.8773    14.1471    25.9089     5.5049   501.7588     6.6246
  677.5000   -32.8193    28.7419    13.8748    25.9987     5.6907   505.5337     6.6243
  678.0000   -32.6812    29.5524    13.6026    26.4487     5.8766   504.8492     6.6241
  678.5000   -32.9809    30.2299    14.0060    25.6662     6.2271   495.2669     6.6238
  679.0000   -33.3671    30.3731    14.6815    24.5108     6.0835   477.7157     6.6340
  679.5000   -33.6401    30.4976    15.2372    24.0043     5.8987   473.0861     6.6506
  680.0000   -33.6414    30.1730    15.7748    24.0670     5.6315   469.6376     6.6120
  680.5000   -32.8275    29.5095    16.0516    24.6715     5.6173   479.6902     6.5569
  681.0000   -32.5571    28.1161    16.3284    25.0771     5.5502   491.4172     6.4745
  681.5000   -32.5584    26.9830    16.2475    25.6186     5.7566   498.2449     6.4582
  682.0000   -32.5363    27.8997    15.7793    25.8884     5.6747   503.3134     6.4306
