~VERSION INFORMATION
 VERS.                2.0:   CWLS LOG ASCII STANDARD - VERSION 2.0
 WRAP.                 NO:   ONE LINE PER DEPTH STEP
~WELL INFORMATION
#MNEM.UNIT      DATA TYPE    INFORMATION
#----------   ------------   ------------------------------
 STRT.F            0.0000:   START DEPTH
 STOP.F          825.0000:   STOP DEPTH
 STEP.F            0.5000:   STEP LENGTH
 NULL.          -999.2500:   NO VALUE
 COMP. BROWN JOHN E&C INC:   COMPANY
 WELL. NAVAL PETROLEUM RESERVE 3 SHX- #21-1-2:   WELL
 FLD .             TEAPOT:   FIELD
 LOC .       S2 T38N R78W:   LOCATION
 CNTY.            NATRONA:   COUNTY
 STAT.            WYOMING:   STATE
 CTRY. UNITED STATES OF AMERICA:   COUNTRY
 SRVC.     Atlas Wireline:   SERVICE COMPANY
 DATE.        11-NOV-1991:   LOGDATE
 API .       490252247600:   API NUMBER
~CURVE INFORMATION
#MNEM.UNIT       API CODE    CURVE DESCRIPTION
#----------   ------------   ------------------------------
 DEPT.F                  :   
 GRR .GAPI   07 310 01 00:   GAMMA RAY
 RFOC.OHMM   07 220 04 00:   RESISTIVITY FOCUSED LOG
 RILD.OHMM   07 120 46 00:   INDUCTION LOG DEEP RESISTIVITY
 RILM.OHMM   07 120 44 00:   INDUCTION LOG MEDIUM RESISTIVITY
 SPR .MV     07 010 01 00:   SPONTANEOUS POTENTIAL
~PARAMETER INFORMATION
#MNEM.UNIT          VALUE    DESCRIPTION
#----------   ------------   ------------------------------
 PD  .                 GL:   PERMANENT DATUM
 EPD .F              5110:   ELEVATION PERMANENT DATUM
 LMF .                 KB:   LOG MEASURED FROM
 DAPD.F                10:   FEET ABOVE PERMANENT DATUM
 DMF .                 KB:   DRILLING MEASURED FROM
 EKB .F              5120:   KELLING BUSHING
 EGL .F              5110:   GROUND LEVEL
 DATE.        11-NOV-1991:   RUN DATE
 RUN .                  1:   RUN NUMBER
 DD  .F               830:   DEPTH DRILLER
 DL  .F               527:   DEPTH LOGGER
 BLI .F               525:   BOTTOM LOG INTERVAL
 CS  .IN            9.625:   CASING SIZE
 CBD .F                58:   CASING BOTTOM DRILLER
 CBL .F                58:   CASING BOTTOM LOGGER
 BS  .IN             8.75:   BIT SIZE
 BSD .F               830:   BIT SIZE AT DEPTH
 DFT .          KCL WATER:   DRILLING FLUID TYPE
 RMS .OHMM          0.248:   RESISTIVITY MUD SAMPLE
 MST .F                93:   MUD SAMPLE TEMPERATURE
 BHT .F               104:   BOTTOM HOLE TEMPERATURE
 TCS .HRS               2:   TIME CURCULATED STOPPED
 MRT .F               104:   MAXIMUM RECORDED TEMPERATURE
 LUN .            HL 6274:   LOGGING UNIT NUMBER
 LUL .             CASPER:   LOGGING UNIT LOCATION
 ENGI.       P. RASMUSSEN:   RECORDING ENGINEER
 WITN.        GARY STRONG:   WITNESSED BY
 CLNT.            A2DTECH:   CLIENT CODE
 ORIG.           5" PRINT:   ORIGIN OF DATA
 UWI .       490252247600:   UNIQUE WELL ID
 DICO. A2D Technologies, Inc.:   DIGITIZING COMPANY
~OTHER INFORMATION
~A    DEPT       GRR     RFOC       RILD       RILM        SPR   
# ...
  610.0000   101.0168     8.0949     6.0604     6.3872   -67.7360
  610.5000   104.9003     8.4356     5.3477     5.3690   -67.2921
  611.0000   107.2868     7.9772     5.0222     3.5635   -67.2994
  611.5000   112.0685     6.1728     4.9166     3.5886   -67.3052
  612.0000   118.6466     3.7641     5.0174     4.0357   -67.3110
  612.5000   125.5488     3.1795     5.1204     5.0357   -67.1655
  613.0000   124.0162     3.4061     5.0044     5.8627   -66.7230
  613.5000   113.2291     5.1932     4.8064     6.4128   -66.7288
  614.0000   104.8371     9.0932     5.1838     6.8702   -66.7346
  614.5000   103.6308     9.1540     6.0341     7.2589   -66.7626
  615.0000   101.5263     8.8390     6.9272     7.5118   -67.3474
  615.5000    98.8230     8.5948     7.7352     7.7239   -67.8030
  616.0000    98.1996     9.5360     8.4016     8.0436   -68.2586
  616.5000   102.5037     9.5946     8.7539     8.3817   -68.2644
  617.0000   110.1741     8.8877     8.6893     8.5552   -67.9689
  617.5000   107.7680     8.5234     8.5648     8.7305   -67.5264
  618.0000   106.8611     8.2879     8.6213     8.7885   -67.2324
  618.5000   109.8464     8.1712     8.6761     8.7234   -66.7885
  619.0000   113.1311     8.1121     8.8541     8.7199   -66.6443
  619.5000   114.9187     8.1094     9.2254     8.7164   -66.2004
  620.0000   113.7124     8.2197     9.7463     8.9041   -66.0563
  620.5000   106.1164     8.6529    10.5858     9.3688   -65.4639
  621.0000    95.1300     9.8325    11.5873    10.6426   -64.4202
  621.5000    85.5404    10.8290    12.8073    11.9685   -63.5265
  622.0000    79.5437    11.7627    14.3348    12.5583   -63.2324
  622.5000    71.1517    13.1355    15.1442    12.6418   -63.2383
  623.0000    62.1610    14.4668    15.4549    11.7894   -62.4959
  623.5000    55.5654    15.1810    15.5568    10.0483   -61.7521
  624.0000    54.6585    11.1143    15.5476     9.4369   -60.7085
  624.5000    55.8732    10.0116    14.9078     9.0488   -59.8148
  625.0000    58.6826     9.9427    14.2944     8.8589   -58.7711
  625.5000    63.6122    10.5042    13.9821     8.8546   -57.8774
  626.0000    67.4957    10.7219    13.8891     8.9126   -57.2835
  626.5000    72.2774    10.7927    14.0762     9.1594   -56.5357
  627.0000    75.5621    11.3236    14.4648     9.6776   -55.9241
  627.5000    73.4576    12.1308    15.0714    10.1546   -55.2035
  628.0000    72.5507    12.8172    16.0330    10.4358   -54.7581
  628.5000    72.5419    12.2916    16.7054    10.5772   -54.1656
  629.0000    72.5789    11.9519    16.9304    10.6498   -53.2719
  629.5000    72.5224    12.2823    17.2777    10.7906   -52.2283
  630.0000    77.6035    12.6228    17.3896    10.7107   -51.6344
  630.5000    81.4870    12.7955    17.2594    10.4136   -51.3403
  631.0000    82.9775    12.6143    17.2513    10.2661   -51.0305
  631.5000    79.3737    12.6987    17.2431    10.1207   -50.7523
  632.0000    72.4788    12.9596    16.9980    10.1166   -50.6082
  632.5000    69.1667    13.0453    16.8727    10.0427   -50.0158
  633.0000    66.9881    12.9509    16.6328    10.0386   -48.8222
  633.5000    66.1652    12.7685    16.5102     9.9652   -47.6286
  634.0000    66.7553    13.1215    16.5022     9.9611   -46.2851
  634.5000    69.4391    13.1171    16.7248    10.0951   -44.4918
  635.0000    71.5283    12.7547    17.1864    10.6663   -41.1596
  635.5000    70.3198    12.4884    17.6588    11.5066   -40.0072
  636.0000    69.4129    12.6582    17.7731    11.9903   -39.7117
  636.5000    69.7063    13.4671    17.8882    12.4080   -40.3187
  637.0000    76.2848    14.3277    17.8798    11.8979   -40.7743
  637.5000    80.7618    14.8356    17.8714    11.5679   -41.3798
  638.0000    80.4537    15.2381    17.8627    11.4040   -41.8354
  638.5000    80.4450    14.8159    17.8525    11.3205   -42.4409
  639.0000    80.1369    14.0133    17.8441    11.3150   -43.0545
  639.5000    74.4396    12.7151    17.8357    11.4682   -43.6961
  640.0000    67.2452    12.1098    17.8273    11.7044   -44.4089
  640.5000    66.9343    12.2744    17.9448    12.1964   -45.1643
  641.0000    67.2615    13.2408    17.9343    12.8865   -45.7698
  641.5000    67.8179    15.8603    17.9258    13.9984   -46.3754
  642.0000    68.7052    16.7417    18.4410    15.6336   -47.2807
  642.5000    70.1935    16.5047    23.4592    17.9697   -48.7858
  643.0000    73.7776    16.3853    28.8625    22.2496   -49.9910
  643.5000    75.2681    19.6086    31.3487    28.1396   -51.2284
  644.0000    73.4608    28.2865    31.9955    28.5208   -51.9532
  644.5000    68.3622    49.8728    28.4253    27.9227   -52.4087
  645.0000    65.6287    50.9616    27.2556    26.9608   -52.7144
  645.5000    65.0514    46.5071    25.9537    25.3203   -53.0201
  646.0000    69.8309    32.8761    23.8465    22.0342   -53.1758
  646.5000    77.0078    21.2616    21.4130    18.9106   -53.3316
  647.0000    79.3943    16.6827    18.9756    17.1520   -53.1874
  647.5000    80.2860    14.8262    16.8603    15.6205   -52.4338
  648.0000    81.4727    13.3600    15.7248    14.0189   -51.7013
  648.5000    81.4640    12.4626    14.8703    13.2575   -52.4568
  649.0000    80.8304    12.3725    14.1600    12.7124   -53.0623
  649.5000    80.2468    12.5407    13.6716    12.6195   -53.3680
  650.0000    79.6393    12.6235    13.7602    12.6144   -53.2239
  650.5000    79.6306    12.7171    13.9455    12.5222   -52.9284
  651.0000    79.6218    12.7908    13.9373    12.4306   -52.6357
  651.5000    79.6131    12.7855    14.0728    12.4256   -52.4917
  652.0000    85.8918    12.7812    14.2165    12.4205   -52.3476
  652.5000    86.1976    12.6888    14.3102    12.4143   -52.3549
  653.0000    84.3552    12.5970    14.0191    12.4093   -52.0609
  653.5000    84.0671    12.5928    14.2098    12.3184   -51.9153
  654.0000    86.4536    12.5017    14.3050    12.4003   -51.7712
  654.5000    87.3453    12.4113    14.3995    12.5670   -51.6271
  655.0000    84.1317    12.4070    14.5942    12.7373   -51.3345
  655.5000    82.9341    12.3164    14.5893    12.9112   -50.4408
  656.0000    82.6347    12.2274    14.5844    13.1758   -48.6475
  656.5000    81.7365    12.2233    14.5793    13.2621   -48.3535
  657.0000    81.4190    12.3051    14.4728    13.2565   -48.6606
  657.5000    82.0359    12.4724    14.4679    13.1585   -49.1162
  658.0000    82.6347    12.6410    14.4630    13.0624   -49.6972
  658.5000    80.8383    12.4623    14.4582    12.9670   -50.4658
  659.0000    73.6527    12.5457    14.3535    12.8722   -51.3562
  659.5000    70.9581    12.6285    14.2497    12.7430   -52.5599
  660.0000    74.5509    12.6232    13.9520    12.6849   -53.4639
  660.5000    82.0359    12.5320    13.8969    12.5921   -54.0679
  661.0000    84.4452    12.4414    13.7355    12.4989   -54.3721
  661.5000    85.7306    12.3434    13.4624    12.4076   -54.6763
  662.0000    87.4251    12.2611    13.2728    12.3169   -55.1305
  662.5000    88.0239    12.1725    13.0858    12.2269   -55.5846
  663.0000    87.1257    12.0845    12.9911    12.1376   -54.3907
  663.5000    85.3293    11.9971    12.8971    12.1327   -53.1956
  664.0000    83.8323    11.9931    12.8928    11.9609   -52.5992
  664.5000    81.7365    11.9064    12.7995    11.9561   -52.4536
  665.0000    80.5290    11.9851    12.7952    12.2011   -52.6090
  665.5000    79.9401    11.9374    12.8798    12.4524   -52.7633
  666.0000    79.9401    11.8942    12.8744    12.3614   -53.2174
  666.5000    80.2395    11.8901    12.8700    12.2711   -53.5217
  667.0000    82.3353    11.8034    12.8657    12.1815   -53.9769
  667.5000    85.9281    11.7995    12.9518    12.2614   -54.1312
  668.0000    84.7305    11.7142    13.0374    12.2563   -54.4354
  668.5000    79.6407    11.7102    13.1227    12.1666   -54.7396
  669.0000    81.1558    11.5454    13.1181    12.2464   -55.0438
  669.5000    84.2606    11.4619    12.8363    12.2403   -55.3480
  670.0000    83.5329    11.4579    12.4017    12.2353   -55.6522
  670.5000    82.6347    11.5338    12.0588    12.1459   -55.5067
