~VERSION INFORMATION
 VERS.                2.0:   CWLS LOG ASCII STANDARD - VERSION 2.0
 WRAP.                 NO:   ONE LINE PER DEPTH STEP
~WELL INFORMATION
#MNEM.UNIT      DATA TYPE    INFORMATION
#----------   ------------   ------------------------------
 STRT.F           28.0000:   START DEPTH
 STOP.F          884.0000:   STOP DEPTH
 STEP.F            0.5000:   STEP LENGTH
 NULL.          -999.2500:   NO VALUE
 COMP. U S NAVY-INTEX OIL:   COMPANY
 WELL. NPR 3 TEAPOT DOM #43-SX-2:   WELL
 FLD .             TEAPOT:   FIELD
 LOC .       S2 T38N R78W:   LOCATION
 CNTY.            NATRONA:   COUNTY
 STAT.            WYOMING:   STATE
 CTRY. UNITED STATES OF AMERICA:   COUNTRY
 SRVC.       Schlumberger:   SERVICE COMPANY
 DATE.        19-JUL-1963:   LOGDATE
 API .       490250967900:   API NUMBER
~CURVE INFORMATION
#MNEM.UNIT       API CODE    CURVE DESCRIPTION
#----------   ------------   ------------------------------
 DEPT.F                  :   
 ASN .OHMM   05 041 16 00:   AMPLIFIED SHORT NORMAL 16"
 CILD.MMHO   05 110 46 00:   CONDUCTIVITY INDUCTION LOG DEEP
 ILD .OHMM   05 120 46 00:   INDUCTION LOG DEEP
 SPR .MV     05 010 01 00:   SPONTANEOUS POTENTIAL FROM RES.
 GR  .GAPI   30 310 01 00:   GAMMA RAY
~PARAMETER INFORMATION
#MNEM.UNIT          VALUE    DESCRIPTION
#----------   ------------   ------------------------------
 LMF .                 KB:   LOG MEASURED FROM
 DMF .                 KB:   DRILLING MEASURED FROM
 EKB .F              5151:   KELLING BUSHING
 EGL .F              5146:   GROUND LEVEL
 DATE.        19-JUL-1963:   RUN DATE
 RUN .                  1:   RUN NUMBER
 DD  .F               881:   DEPTH DRILLER
 DL  .F               885:   DEPTH LOGGER
 BLI .F               884:   BOTTOM LOG INTERVAL
 TLI .F                30:   TOP LOG INTERVAL
 CS  .IN            8.625:   CASING SIZE
 CBD .F                12:   CASING BOTTOM DRILLER
 BS  .IN             6.75:   BIT SIZE
 BSD .F               881:   BIT SIZE AT DEPTH
 DFT .           GEL- OIL:   DRILLING FLUID TYPE
 DFD .                9.6:   DRILLING FLUID DENSITY
 DFV .                 39:   DRILLING FLUID VISCOSITY
 DFPH.                8.5:   DRILLING FLUID PH
 DFL .                4.4:   DRILLING FLUID LOSS
 RMS .OHMM           2.58:   RESISTIVITY MUD SAMPLE
 MST .F                72:   MUD SAMPLE TEMPERATURE
 RMF .OHMM           2.26:   RESISTIVITY MUD FILTRATE SAMPLE
 MFST.F                72:   MUD FILTRATE SAMPLE TEMPERATURE
 TCS .HRS               3:   TIME CURCULATED STOPPED
 LUN .               4507:   LOGGING UNIT NUMBER
 LUL .             CASPER:   LOGGING UNIT LOCATION
 ENGI.            WINKLER:   RECORDING ENGINEER
 WITN.          JORGENSEN:   WITNESSED BY
 CLNT.            A2DTECH:   CLIENT CODE
 ORIG.      2.5" 5" PRINT:   ORIGIN OF DATA
 UWI .       490250967900:   UNIQUE WELL ID
 DICO. A2D Technologies, Inc.:   DIGITIZING COMPANY
~OTHER INFORMATION
~A   DEPT      ASN         CILD       ILD       SPR         GR   
# ...
   89.0000  -999.2500   147.2340     6.5824   -39.9281  -999.2500
   89.5000  -999.2500   144.1337     6.6429   -39.9340  -999.2500
   90.0000  -999.2500   141.0334     6.7980   -39.9400  -999.2500
   90.5000  -999.2500   136.4134     7.1045   -39.9459  -999.2500
   91.0000  -999.2500   133.3131     7.1758   -39.9518  -999.2500
   91.5000  -999.2500   128.6930     7.3242   -39.9578  -999.2500
   92.0000     3.3867   125.5927     7.6237   -39.9639  -999.2500
   92.5000     3.6568   123.1003     7.7727   -40.2711  -999.2500
   93.0000     3.9440   124.4377     7.7693   -40.2771  -999.2500
   93.5000     5.7759   126.8693     7.9182   -40.2831  -999.2500
   94.0000     6.5541   128.4498     7.9149   -40.2892  -999.2500
   94.5000     7.3700   129.1793     7.9119   -40.2952  -999.2500
   95.0000     8.7296   132.2188     7.9089   -40.3012  -999.2500
   95.5000     8.6089   132.2188     7.9060   -40.3072  -999.2500
   96.0000     8.5184   133.7386     7.9030   -40.3133  -999.2500
   96.5000     8.4582   135.2584     7.9000   -40.3193  -999.2500
   97.0000     8.4277   135.2584     7.8859   -40.3253  -999.2500
   97.5000     8.3960   135.2584     7.7424   -40.3313  -999.2500
   98.0000     8.3644   135.2584     7.7394   -40.3374  -999.2500
   98.5000     8.3077   135.2584     7.7364   -40.3434  -999.2500
   99.0000     8.3079   135.2584     7.7333   -40.3506  -999.2500
   99.5000     8.3080   136.7781     7.7303   -40.3565  -999.2500
  100.0000     8.3082   136.7781     7.7275   -40.3614  -999.2500
  100.5000     8.3083   138.2757     7.6674   -40.3805  -999.2500
  101.0000     8.3085   138.2523     7.4227   -40.6657  -999.2500
  101.5000     8.3086   139.7512     7.3457   -40.6672  -999.2500
  102.0000     8.3088   139.7264     7.2697   -40.2972  -999.2500
  102.5000     8.3392   139.7036     7.2688   -40.0676  -999.2500
  103.0000     8.3497   139.6808     7.4197   -40.0693  -999.2500
  103.5000     8.3092   139.6581     7.4188   -40.0708  -999.2500
  104.0000     8.2187   139.6353     7.4181   -40.0723  -999.2500
  104.5000     8.1283   139.6125     7.4174   -40.0738  -999.2500
  105.0000     8.0680   141.1094     7.4166   -40.0753  -999.2500
  105.5000     7.9171   145.6421     7.4159   -40.0771  -999.2500
  106.0000     7.8266   147.1429     7.4131   -40.0785  -999.2500
  106.5000     7.8267   148.6374     7.2629   -40.0800  -999.2500
  107.0000     7.8571   150.1368     7.1106   -40.0815  -999.2500
  107.5000     7.8955   148.5931     7.1098   -39.4805  -999.2500
  108.0000     7.9839   145.5315     7.2607   -39.7832  -999.2500
  108.5000     8.0763   140.9194     7.3048   -40.3871  -999.2500
  109.0000     8.1775   136.1246     7.6157   -40.3735  -999.2500
  109.5000     8.4041   133.3070     7.7750   -40.0888  -999.2500
  110.0000     8.9033   136.3244     8.0152   -40.0904  -999.2500
  110.5000     9.0505   134.7796     8.0144   -40.0919  -999.2500
  111.0000     8.5052   134.2705     8.0136   -40.0934  -999.2500
  111.5000     8.5509   133.2143     8.0127   -40.0949  -999.2500
  112.0000     8.9160   133.8602     7.8605   -40.0964  -999.2500
  112.5000     8.5536   136.9681     7.8598   -40.0979  -999.2500
  113.0000     8.2517   140.0760     7.7075   -40.0994  -999.2500
  113.5000     8.0706   140.7219     7.7068   -40.4021  -999.2500
  114.0000     8.1009   142.2188     7.7060   -40.4039  -999.2500
  114.5000     8.2521   142.1932     7.7053   -40.4053  -999.2500
  115.0000     8.4335   142.1710     7.5530   -40.4068  -999.2500
  115.5000     8.4337   140.6292     7.7038   -40.4083  -999.2500
  116.0000     8.3106   140.6070     7.7030   -40.4097  -999.2500
  116.5000     8.1867   140.5849     7.7023   -40.1099  -999.2500
  117.0000     8.0627   139.0426     7.7015   -40.1115  -999.2500
  117.5000     8.0415   137.5000     7.7008   -39.8117  -999.2500
  118.0000     8.2612   137.2340     7.8517   -39.8133  -999.2500
  118.5000     8.5228   135.9346     7.9159   -39.5134  -999.2500
  119.0000     8.6873   134.3921     8.0753   -39.8163  -999.2500
  119.5000     8.6943   133.8526     8.3038   -39.9006  -999.2500
  120.0000     8.6767   132.2189     8.4544   -40.1205  -999.2500
  120.5000     8.6926   131.2842     8.6052   -40.1220  -999.2500
  121.0000     8.7721   128.9514     8.6044   -40.1235  -999.2500
  121.5000     8.9491   128.1991     8.6037   -40.1250  -999.2500
  122.0000     9.1607   126.6525     8.6030   -40.1265  -999.2500
  122.5000     9.1991   126.6304     8.6022   -40.4295  -999.2500
  123.0000     9.0402   126.6083     8.6015   -40.4310  -999.2500
  123.5000     9.1008   126.5862     8.6008   -40.4324  -999.2500
  124.0000     9.1613   126.5640     8.6081   -40.4339  -999.2500
  124.5000     9.0708   125.0221     8.7508   -40.4353  -999.2500
  125.0000     8.9804   125.0000     8.7500   -40.1355  -999.2500
  125.5000     8.9185   126.5882     8.7154   -40.1371  -999.2500
  126.0000     8.8566   127.9953     8.5970   -40.1386  -999.2500
  126.5000     8.8249   129.7645     8.5962   -40.1401  -999.2500
  127.0000     8.7630   130.9905     8.4439   -40.1416  -999.2500
  127.5000     8.7012   132.4881     8.4432   -40.1431  -999.2500
  128.0000     8.6393   133.0091     8.2909   -40.1446  -999.2500
  128.5000     8.5886   133.9590     8.2048   -40.1461  -999.2500
  129.0000     8.5457   133.9362     7.9862   -40.1476  -999.2500
  129.5000     8.4536   133.9134     7.6825   -40.0161  -999.2500
  130.0000     8.3454   133.8862     7.6817   -39.8494  -999.2500
  130.5000     8.2996   138.4233     7.3780   -39.6827  -999.2500
  131.0000     8.2571   139.9240     7.2257   -39.5512  -999.2500
  131.5000     8.1666   142.9383     7.2250   -39.2515  -999.2500
  132.0000     7.9553   145.9557     7.0727   -39.5544  -999.2500
  132.5000     7.7440   147.4533     7.0720   -39.5559  -999.2500
  133.0000     7.6535   147.4312     7.0712   -39.5573  -999.2500
  133.5000     7.5932   147.4088     7.0705   -39.5588  -999.2500
  134.0000     7.5329   147.5076     7.0697   -39.5603  -999.2500
  134.5000     7.4719   149.0957     7.0689   -39.5617  -999.2500
  135.0000     7.3802   150.3821     7.0682   -39.5633  -999.2500
  135.5000     7.4536   151.8798     6.9593   -39.5648  -999.2500
  136.0000     7.6294   152.3404     6.6121   -39.5663  -999.2500
  136.5000     7.5804   155.4484     6.5402   -39.5678  -999.2500
  137.0000     7.3792   157.8875     6.4591   -39.4739  -999.2500
  137.5000     7.2017   162.4240     6.3068   -39.2693  -999.2500
  138.0000     7.0157   167.1429     6.1544   -39.2711  -999.2500
  138.5000     6.7995   171.4928     6.1537   -39.1245  -999.2500
  139.0000     6.6587   176.0299     6.0014   -38.9729  -999.2500
  139.5000     6.5348   180.5670     5.8492   -38.9747  -999.2500
  140.0000     6.3565   182.0669     5.3939   -38.9762  -999.2500
  140.5000     6.1452   182.0425     5.2416   -38.9776  -999.2500
  141.0000     6.0245   182.0204     5.3924   -38.9791  -999.2500
  141.5000     6.3872   180.4785     5.5487   -39.2817  -999.2500
  142.0000     6.6592   178.9362     5.8455   -39.2832  -999.2500
  142.5000     6.7198   177.3936     5.8674   -39.2847  -999.2500
  143.0000     6.6897   175.8511     5.9955   -39.2861  -999.2500
  143.5000     6.6597   175.4939     5.9947   -39.5889  -999.2500
  144.0000     6.6598   173.8602     5.9939   -39.5904  -999.2500
  144.5000     6.6437   172.2264     5.9932   -39.5919  -999.2500
  145.0000     6.6299   169.6809     5.9924   -39.5934  -999.2500
  145.5000     6.6301   168.1383     5.9917   -39.5949  -999.2500
  146.0000     6.6375   165.8055     5.9909   -39.5964  -999.2500
  146.5000     6.6606   167.4544     5.9900   -39.5979  -999.2500
  147.0000     6.6712   169.5897     5.9893   -39.5994  -999.2500
  147.5000     6.7153   174.1228     6.1400   -39.6009  -999.2500
  148.0000     6.7380   175.6231     6.1393   -39.3015  -999.2500
  148.5000     6.6459   178.6378     6.1386   -39.3030  -999.2500
  149.0000     6.5199   180.1368     6.1378   -39.0030  -999.2500
  149.5000     6.3292   181.6337     6.1371   -39.0047  -999.2500
