~VERSION INFORMATION
 VERS.                2.0:   CWLS LOG ASCII STANDARD - VERSION 2.0
 WRAP.                 NO:   ONE LINE PER DEPTH STEP
~WELL INFORMATION
#MNEM.UNIT      DATA TYPE    INFORMATION
#----------   ------------   ------------------------------
 STRT.F           86.0000:   START DEPTH
 STOP.F          708.0000:   STOP DEPTH
 STEP.F            0.5000:   STEP LENGTH
 NULL.          -999.2500:   NO VALUE
 COMP. U S NAVY/INTEX OIL CO:   COMPANY
 WELL.      33 S-11 #3-11:   WELL
 FLD .             TEAPOT:   FIELD
 LOC .      S11 T38N R78W:   LOCATION
 CNTY.            NATRONA:   COUNTY
 STAT.            WYOMING:   STATE
 CTRY. UNITED STATES OF AMERICA:   COUNTRY
 SRVC.       Schlumberger:   SERVICE COMPANY
 DATE.        11-JUL-1962:   LOGDATE
 API .       490250636000:   API NUMBER
~CURVE INFORMATION
#MNEM.UNIT       API CODE    CURVE DESCRIPTION
#----------   ------------   ------------------------------
 DEPT.F                  :   
 SPR .MV     05 010 01 00:   SPONTANEOUS POTENTIAL FROM RES.
 CILD.MMHO   05 110 46 00:   CONDUCTIVITY INDUCTION LOG DEEP
 ILD .OHMM   05 120 46 00:   INDUCTION LOG DEEP
 ASN .OHMM   05 041 16 00:   AMPLIFIED SHORT NORMAL 16"
 GR  .GAPI   30 310 01 00:   GAMMA RAY
~PARAMETER INFORMATION
#MNEM.UNIT          VALUE    DESCRIPTION
#----------   ------------   ------------------------------
 PD  .                 GL:   PERMANENT DATUM
 EPD .F              5171:   ELEVATION PERMANENT DATUM
 LMF .                 KB:   LOG MEASURED FROM
 DAPD.F                 5:   FEET ABOVE PERMANENT DATUM
 DMF .                 KB:   DRILLING MEASURED FROM
 EKB .F              5176:   KELLING BUSHING
 EGL .F              5171:   GROUND LEVEL
 DATE.            7-11-62:   RUN DATE
 RUN .                  1:   RUN NUMBER
 DD  .F               710:   DEPTH DRILLER
 DL  .F               709:   DEPTH LOGGER
 BLI .F               708:   BOTTOM LOG INTERVAL
 TLI .F                86:   TOP LOG INTERVAL
 BS  .IN             6.75:   BIT SIZE
 BSD .F               710:   BIT SIZE AT DEPTH
 DFT .            GEL/OIL:   DRILLING FLUID TYPE
 DFD .               10.3:   DRILLING FLUID DENSITY
 DFV .                 50:   DRILLING FLUID VISCOSITY
 DFL .                3.7:   DRILLING FLUID LOSS
 RMS .OHMM           5.66:   RESISTIVITY MUD SAMPLE
 MST .F                77:   MUD SAMPLE TEMPERATURE
 RMF .OHMM           4.44:   RESISTIVITY MUD FILTRATE SAMPLE
 MFST.F                77:   MUD FILTRATE SAMPLE TEMPERATURE
 RMC .OHMM            5.9:   RESISTIVITY MUD CAKE
 MCST.F                77:   MUD CAKE SAMPLE TEMPERATURE
 TCS .HRS               1:   TIME CURCULATED STOPPED
 LUN .               2503:   LOGGING UNIT NUMBER
 LUL .               CSPR:   LOGGING UNIT LOCATION
 ENGI.             DANNER:   RECORDING ENGINEER
 WITN.          JORGENSEN:   WITNESSED BY
 CLNT.            A2DTECH:   CLIENT CODE
 ORIG.       2", 5" PRINT:   ORIGIN OF DATA
 UWI .       490250636000:   UNIQUE WELL ID
 DICO. A2D Technologies, Inc.:   DIGITIZING COMPANY
~OTHER INFORMATION
~A   DEPT      SPR        CILD         ILD        ASN       GR   
# ...
  635.0000   -56.8809    88.3165    10.8405    11.3588    75.9355
  635.5000   -56.2962    88.8857    10.7491    11.2540    77.3417
  636.0000   -55.6763    89.4551    10.6558    11.1507    67.5920
  636.5000   -55.0351    90.0236    10.5627    11.0480    61.5326
  637.0000   -54.9889    90.3416    10.4694    10.9455    62.9861
  637.5000   -55.2995    89.8760    10.3724    10.8561    64.6029
  638.0000   -55.4884    89.4105    10.4004    10.8579    62.0202
  638.5000   -54.8882    88.9449    10.4620    10.8991    67.1707
  639.0000   -54.2541    88.4793    10.5244    10.9694    72.3431
  639.5000   -53.8715    88.0138    10.5866    11.0401    69.4311
  640.0000   -54.0765    87.5482    10.6488    11.1109    74.4243
  640.5000   -54.2833    87.0826    10.7107    11.1817    77.5091
  641.0000   -54.4905    86.6171    10.7587    11.2518    61.2786
  641.5000   -54.6965    86.1515    10.7578    11.2154    63.5906
  642.0000   -54.9002    85.6860    10.7577    11.1101    59.6101
  642.5000   -55.1386    85.5976    10.7562    11.0055    67.4255
  643.0000   -55.1879    86.4512    10.6801    10.9006    76.1120
  643.5000   -54.9872    87.3737    10.5239    10.7959    73.4817
  644.0000   -54.7804    89.1095    10.3685    10.6911    75.0510
  644.5000   -54.5733    90.9945    10.2125    10.5864    66.5666
  645.0000   -54.3432    92.8775    10.0567    10.4814    68.2057
  645.5000   -54.0921    94.6757     9.9008    10.3741    62.2398
  646.0000   -53.8418    96.0234     9.7448    10.3534    68.4436
  646.5000   -53.5914    97.3711     9.5889    10.3528    66.3956
  647.0000   -53.3413    98.7188     9.4339    10.3700    72.7705
  647.5000   -53.0932   100.5808     9.3426    10.3904    69.0979
  648.0000   -52.8095   102.5253     9.3435    10.4107    63.2777
  648.5000   -52.8838   101.9224     9.3433    10.4314    60.9416
  649.0000   -53.3974   100.5877     9.3432    10.4558    66.6540
  649.5000   -53.9110    99.2530     9.3429    10.6281    64.7516
  650.0000   -54.2842    97.9183     9.3351    10.9060    68.0979
  650.5000   -54.2819    96.4647     9.7630    11.1751    73.0235
  651.0000   -54.5863    92.5926    10.3547    11.5701    68.6626
  651.5000   -55.3280    88.3418    10.9500    12.3637    65.9578
  652.0000   -56.0747    81.0796    11.6545    13.1695    61.4952
  652.5000   -56.1167    71.1963    12.9582    13.9695    44.4920
  653.0000   -56.3713    61.3131    14.2745    14.8007    38.9643
  653.5000   -57.6890    52.7146    15.6022    16.1324    45.8796
  654.0000   -60.8705    46.3384    17.7448    17.9231    49.2533
  654.5000   -64.0298    39.9621    21.2686    21.9437    42.6941
  655.0000   -67.0690    33.5859    24.8379    25.9395    39.5103
  655.5000   -67.8198    28.7879    26.8731    28.4393    42.8744
  656.0000   -67.7871    29.3223    27.1972    27.8375    46.3550
  656.5000   -64.4193    29.9804    26.4298    27.0880    45.4082
  657.0000   -61.0078    30.6386    26.0365    26.7164    54.2805
  657.5000   -60.3691    31.2968    26.7309    27.0665    51.5148
  658.0000   -62.3290    31.9550    26.3322    27.2344    53.6206
  658.5000   -64.5729    32.6132    25.6282    26.0875    45.3736
  659.0000   -66.4319    34.6272    24.5632    25.1735    53.8337
  659.5000   -68.3058    37.2992    23.4785    24.7973    53.3136
  660.0000   -70.1284    39.9711    22.3529    24.4732    63.0395
  660.5000   -71.0234    42.6431    21.6412    23.4748    65.6691
  661.0000   -68.3621    44.0345    21.0259    22.2996    55.3870
  661.5000   -65.7477    44.3345    20.4007    20.9564    57.3784
  662.0000   -64.5568    44.6346    19.9087    21.0489    54.2668
  662.5000   -63.4667    44.9495    19.4385    21.1834    49.9890
  663.0000   -63.8304    46.2065    18.9699    21.1380    53.2381
  663.5000   -64.4976    48.4736    18.5016    20.3053    58.8321
  664.0000   -65.5748    49.9351    18.0262    19.4905    52.9745
  664.5000   -67.9898    49.5707    17.7929    19.1318    56.7608
  665.0000   -68.8072    49.2063    17.6870    19.5248    63.9508
  665.5000   -69.0356    49.1111    17.5851    19.8038    61.2298
  666.0000   -66.2951    49.6934    17.4670    18.9187    64.6322
  666.5000   -65.4988    50.2764    17.1618    18.0120    64.2995
  667.0000   -64.8949    50.8600    16.8621    18.0316    68.7036
  667.5000   -64.0445    51.4430    16.5629    17.7957    69.8169
  668.0000   -64.6569    52.0260    16.2639    17.4452    64.0947
  668.5000   -65.9765    52.6090    15.9650    17.2248    68.9143
  669.0000   -65.7294    53.4397    15.7702    17.3886    59.6699
  669.5000   -65.2721    54.9163    15.6885    17.5442    57.8614
  670.0000   -64.1388    56.3929    15.3396    16.8493    64.0104
  670.5000   -62.7961    57.8695    14.9966    16.0796    68.8777
  671.0000   -62.7004    59.3461    14.6538    15.6555    66.4039
  671.5000   -62.4512    60.8227    14.3087    15.4540    69.3580
  672.0000   -61.5327    62.2993    14.2802    15.2616    71.5781
  672.5000   -61.5956    63.7759    14.2072    15.1293    64.7076
  673.0000   -63.0270    64.1414    14.1326    15.3012    68.4287
  673.5000   -62.1398    64.1414    14.0575    15.5172    67.4661
  674.0000   -61.2711    64.1414    13.9824    15.6123    68.9725
  674.5000   -60.4157    64.1414    13.9074    15.2799    67.5051
  675.0000   -60.2182    64.1414    13.8329    14.8628    69.2658
  675.5000   -61.1980    64.1414    13.7874    14.6987    66.4644
  676.0000   -62.0384    64.1414    13.7879    15.1487    68.9566
  676.5000   -61.8300    64.1414    13.7878    15.2198    66.0091
  677.0000   -61.2159    64.1414    13.7879    14.3132    62.8139
  677.5000   -60.5852    64.1414    13.7879    14.2091    59.7189
  678.0000   -59.9374    64.1414    13.7876    14.6482    56.9534
  678.5000   -59.2878    64.1414    13.7861    15.0896    60.3511
  679.0000   -58.6396    64.1414    13.8470    15.4302    57.7182
  679.5000   -57.9874    64.1414    13.9153    14.7296    61.7077
  680.0000   -57.8632    64.1414    13.9832    13.9801    55.6163
  680.5000   -58.1556    64.1414    13.9722    13.6868    56.2747
  681.0000   -58.4507    64.1414    13.9467    14.3885    55.8639
  681.5000   -58.7410    64.1414    13.9213    15.1666    52.2289
  682.0000   -58.9527    64.1414    13.8981    15.1948    53.7503
  682.5000   -59.1172    65.3752    13.7304    14.7064    51.9074
  683.0000   -59.0624    66.6869    13.5178    14.2706    62.0028
  683.5000   -59.0035    67.9986    13.3043    13.9862  -999.2500
  684.0000   -58.9424    69.3102    13.0911    13.9550  -999.2500
  684.5000   -58.8814    70.6192    12.8779    13.8966  -999.2500
  685.0000   -58.8208    71.9222    12.6647    13.7200  -999.2500
  685.5000   -58.7582    73.2441    12.4515    13.5340  -999.2500
  686.0000   -59.0098    77.5253    12.2383    13.3513  -999.2500
  686.5000   -59.4585    79.2224    12.0252    13.1692  -999.2500
  687.0000   -59.9131    80.3657    11.8120    12.9861  -999.2500
  687.5000   -60.3383    81.5091    11.5987    12.8051  -999.2500
  688.0000   -60.3906    82.6524    11.3860    12.6680  -999.2500
  688.5000   -60.5067    83.7957    11.1725    12.5048  -999.2500
  689.0000   -61.1264    84.9390    11.0299    12.3400  -999.2500
  689.5000   -61.7355    86.0824    10.8979    12.1749  -999.2500
  690.0000   -62.3432    87.2257    10.7701    12.0097  -999.2500
  690.5000   -62.4429    88.3690    10.6427    11.8435  -999.2500
  691.0000   -62.5217    89.5124    10.5150    11.6748  -999.2500
  691.5000   -62.5970    90.6557    10.3865    11.6552  -999.2500
  692.0000   -62.6730    91.1500    10.2571    11.5757  -999.2500
  692.5000   -62.7489    90.3652    10.2891    11.4949  -999.2500
  693.0000   -62.8304    89.5804    10.3385    11.4154  -999.2500
  693.5000   -63.0565    88.7667    10.5286    11.3810  -999.2500
  694.0000   -63.2993    87.9440    10.7577    11.4938  -999.2500
  694.5000   -63.5408    87.1212    10.9882    11.4746  -999.2500
  695.0000   -63.9196    86.2985    11.2214    11.2286  -999.2500
  695.5000   -64.3961    85.4671    11.3115    10.9858  -999.2500
