~VERSION INFORMATION
 VERS.                2.0:   CWLS LOG ASCII STANDARD - VERSION 2.0
 WRAP.                 NO:   ONE LINE PER DEPTH STEP
~WELL INFORMATION
#MNEM.UNIT      DATA TYPE    INFORMATION
#----------   ------------   ------------------------------
 STRT.F            6.0000:   START DEPTH
 STOP.F          475.0000:   STOP DEPTH
 STEP.F            0.5000:   STEP LENGTH
 NULL.          -999.2500:   NO VALUE
 COMP. BROWN JOHN E&C INC:   COMPANY
 WELL.       SX 74 #32-10:   WELL
 FLD .             TEAPOT:   FIELD
 LOC .      S10 T38N R78W:   LOCATION
 CNTY.            NATRONA:   COUNTY
 STAT.            WYOMING:   STATE
 CTRY. UNITED STATES OF AMERICA:   COUNTRY
 SRVC.       Schlumberger:   SERVICE COMPANY
 DATE.        06-SEP-1990:   LOGDATE
 API .       490251132500:   API NUMBER
~CURVE INFORMATION
#MNEM.UNIT       API CODE    CURVE DESCRIPTION
#----------   ------------   ------------------------------
 DEPT.F                  :   
 GRR .GAPI   07 310 01 00:   GAMMA RAY FROM RES. LOG.
 ILD .OHMM   07 120 46 00:   INDUCTION LOG DEEP
 ILM .OHMM   07 120 44 00:   INDUCTION LOG MEDIUM
~PARAMETER INFORMATION
#MNEM.UNIT          VALUE    DESCRIPTION
#----------   ------------   ------------------------------
 PD  .                 GL:   PERMANENT DATUM
 EPD .F              5180:   ELEVATION PERMANENT DATUM
 LMF .                 KB:   LOG MEASURED FROM
 DAPD.F                10:   FEET ABOVE PERMANENT DATUM
 DMF .                 KB:   DRILLING MEASURED FROM
 EKB .F              5190:   KELLING BUSHING
 EGL .F              5180:   GROUND LEVEL
 DATE.         6-SEP-1990:   RUN DATE
 RUN .                  1:   RUN NUMBER
 DD  .F               480:   DEPTH DRILLER
 DL  .F               481:   DEPTH LOGGER
 BLI .F               475:   BOTTOM LOG INTERVAL
 TLI .F                10:   TOP LOG INTERVAL
 CS  .IN            8.625:   CASING SIZE
 CBD .F                42:   CASING BOTTOM DRILLER
 CBL .F                42:   CASING BOTTOM LOGGER
 BS  .IN            7.875:   BIT SIZE
 BSD .F               480:   BIT SIZE AT DEPTH
 DFT .                AIR:   DRILLING FLUID TYPE
 MFSS.               MEAS:   MUD FILTRATE SAMPLE SOURCE
 MCSS.               CALC:   MUD CAKE SAMPLE SOURCE
 BHT .F                69:   BOTTOM HOLE TEMPERATURE
 TLAB.HRS            0919:   TIME LOGGER AT BOTTOM
 MRT .F                69:   MAXIMUM RECORDED TEMPERATURE
 LUN .               8199:   LOGGING UNIT NUMBER
 LUL .             CASPER:   LOGGING UNIT LOCATION
 ENGI.                LEE:   RECORDING ENGINEER
 WITN.          G. STRONG:   WITNESSED BY
 CLNT.            A2DTECH:   CLIENT CODE
 ORIG.        2" 5" PRINT:   ORIGIN OF DATA
 UWI .       490251132500:   UNIQUE WELL ID
 DICO. A2D Technologies, Inc.:   DIGITIZING COMPANY
~OTHER INFORMATION
~A    DEPT      GRR       ILD        ILM   
# ...
   97.0000   123.9547    11.2600    11.5463
   97.5000   120.9084    11.4627    11.9717
   98.0000   117.9367    11.6690    12.4117
   98.5000   115.6339    11.8791    12.8676
   99.0000   114.8054    12.0929    13.3358
   99.5000   114.8515    12.3106    12.7582
  100.0000   115.5586    12.3829    12.0955
  100.5000   116.7299    11.7796    11.4712
  101.0000   118.4501    11.3465    11.0280
  101.5000   122.3342    11.0126    10.7458
  102.0000   125.9631    10.6885    10.3724
  102.5000   124.9022    10.3740     9.9873
  103.0000   123.4409    10.1320     9.8275
  103.5000   124.1156     9.9735     9.7120
  104.0000   126.0140     9.8229     9.5978
  104.5000   127.3776     9.7368     9.4850
  105.0000   128.0760     9.6490     9.3735
  105.5000   128.7979     9.5625     9.2633
  106.0000   129.0421     9.4768     9.1544
  106.5000   126.8651     9.3918     9.0468
  107.0000   124.4516     9.3075     8.9405
  107.5000   124.4989     9.2241     8.8039
  108.0000   125.1449     9.1346     8.8169
  108.5000   124.9677     9.1157     8.8438
  109.0000   120.6212     9.0952     8.8706
  109.5000   118.1006     9.0748     8.8975
  110.0000   120.2996     9.0508     8.9244
  110.5000   124.4964     9.0730     8.9514
  111.0000   126.3932     9.1090     8.9784
  111.5000   125.6839     9.1452     9.0057
  112.0000   125.5666     9.1812     9.0335
  112.5000   126.2480     9.2192     9.0508
  113.0000   127.2287     9.1015     9.0508
  113.5000   128.9982     8.8811     8.6528
  114.0000   130.8880     8.5993     8.3927
  114.5000   131.4550     8.3264     8.1405
  115.0000   129.6776     8.0617     7.8959
  115.5000   127.8775     7.8688     7.6595
  116.0000   126.3134     7.8281     7.4552
  116.5000   123.1582     7.8095     7.4556
  117.0000   119.5536     7.8261     7.4627
  117.5000   116.2839     7.8384     7.4934
  118.0000   118.9070     7.8508     7.5238
  118.5000   122.5229     7.8632     7.5544
  119.0000   125.8145     7.8756     7.5851
  119.5000   128.0662     7.8880     7.6159
  120.0000   128.8665     7.9005     7.6468
  120.5000   128.5350     7.9129     7.6779
  121.0000   127.1121     7.9254     7.7091
  121.5000   126.1556     7.9380     7.7404
  122.0000   127.0672     7.9516     7.7718
  122.5000   127.3465     8.0184     7.8034
  123.0000   126.8485     8.1187     7.8351
  123.5000   126.4037     8.2196     7.8669
  124.0000   126.6744     8.3215     7.9524
  124.5000   131.6266     8.4129     8.0863
  125.0000   134.6042     8.4461     8.2224
  125.5000   135.0147     8.4795     8.3446
  126.0000   133.4568     8.5129     8.4106
  126.5000   129.3668     8.5466     8.4851
  127.0000   127.2425     8.5804     8.4546
  127.5000   125.1821     8.6141     8.4103
  128.0000   124.4678     8.6429     8.3662
  128.5000   125.7841     8.5720     8.3269
  129.0000   127.3066     8.5107     8.3090
  129.5000   127.4945     8.4500     8.2913
  130.0000   125.0995     8.3897     8.2734
  130.5000   122.1137     8.3297     8.2540
  131.0000   121.3427     8.2536     8.2620
  131.5000   122.6436     8.2874     8.2717
  132.0000   122.1949     8.3346     8.2812
  132.5000   121.1509     8.3820     8.2907
  133.0000   121.7197     8.4297     8.3003
  133.5000   127.4789     8.4851     8.3100
  134.0000   133.6977     8.4639     8.3199
  134.5000   139.7717     8.4389     8.3294
  135.0000   138.8199     8.4140     8.2424
  135.5000   131.6414     8.3698     8.1454
  136.0000   127.9574     8.3182     8.0495
  136.5000   126.6044     8.2670     7.9550
  137.0000   130.7407     8.2161     7.8767
  137.5000   134.8376     8.1656     7.8559
  138.0000   138.3668     8.1154     7.8347
  138.5000   140.4538     8.0655     7.8135
  139.0000   138.7794     8.0159     7.7924
  139.5000   131.7887     7.9666     7.7713
  140.0000   128.1979     7.8772     7.7498
  140.5000   129.2608     7.7762     7.6915
  141.0000   132.5133     7.6766     7.4546
  141.5000   134.1109     7.5782     7.2270
  142.0000   135.2206     7.3756     7.0060
  142.5000   136.0834     7.0652     6.7919
  143.0000   138.7460     6.7678     6.5843
  143.5000   141.5949     6.4830     6.2084
  144.0000   143.3148     6.2582     6.2812
  144.5000   141.5253     6.2040     6.3766
  145.0000   132.5990     6.2588     6.4785
  145.5000   123.8367     6.3268     6.6216
  146.0000   119.9678     6.4301     6.7755
  146.5000   120.3849     6.6352     6.9329
  147.0000   124.7412     6.8434     7.0940
  147.5000   129.3694     7.0589     7.2589
  148.0000   132.1095     7.2811     7.4276
  148.5000   128.8155     7.5102     7.5964
  149.0000   127.3903     7.5964     7.6346
  149.5000   130.4526     7.5900     7.6721
  150.0000   133.7404     7.5801     7.7098
  150.5000   136.6933     7.5703     7.7477
  151.0000   136.7776     7.5605     7.7857
  151.5000   135.1602     7.5507     7.8240
  152.0000   131.0136     7.5414     7.8624
  152.5000   127.2905     7.5313     7.8818
  153.0000   125.6397     7.4087     7.6989
  153.5000   126.1656     7.1934     7.4558
  154.0000   128.5476     6.9849     7.2204
  154.5000   132.0567     6.8008     6.9774
  155.0000   130.5153     6.4527     6.6945
  155.5000   125.4041     6.1495     6.4266
  156.0000   120.0207     5.8605     6.1708
  156.5000   114.8216     5.5512     5.9766
  157.0000   109.6166     5.5513     5.8114
  157.5000   107.5828     5.6416     5.8118
  158.0000   108.0840     5.7237     5.8736
  158.5000   113.6446     5.8074     6.0306
  159.0000   117.4038     5.9400     6.2157
  159.5000   121.1658     6.2044     6.4752
  160.0000   126.5848     6.4805     6.7456
  160.5000   132.2614     6.7689     7.0272
  161.0000   136.8714     7.0388     7.2024
  161.5000   136.0712     7.2260     7.2767
  162.0000   132.5328     7.4025     7.4893
  162.5000   128.9427     7.4921     7.6843
  163.0000   125.3493     7.5828     7.7703
  163.5000   124.4897     7.6746     7.8585
  164.0000   126.2057     7.7675     7.9474
  164.5000   129.4212     7.8615     8.0374
  165.0000   131.7168     7.9566     8.1285
  165.5000   132.7760     8.0529     8.2206
  166.0000   133.6263     8.1504     8.3138
  166.5000   133.0000     8.2491     8.4077
  167.0000   129.2708     8.3489     8.4906
  167.5000   125.4547     8.4243     8.5198
  168.0000   124.0126     8.4649     8.5492
  168.5000   126.3429     8.5058     8.5786
  169.0000   128.4037     8.5468     8.6081
  169.5000   131.2024     8.5640     8.6378
  170.0000   134.0612     8.5382     8.6675
  170.5000   135.7343     8.5198     8.6974
  171.0000   133.7310     8.5017     8.7231
  171.5000   131.6362     8.4835     8.5420
  172.0000   132.5543     8.4654     8.5192
  172.5000   134.9823     8.4473     8.4964
  173.0000   135.4206     8.4292     8.4624
  173.5000   133.3437     8.4112     8.4172
  174.0000   131.2410     8.3413     8.3723
  174.5000   129.1450     8.2572     8.3277
  175.0000   127.0336     8.1739     8.2833
  175.5000   124.9293     8.0915     8.2391
  176.0000   125.0202     8.0100     8.1952
  176.5000   126.8453     7.9294     8.0989
  177.0000   128.6227     7.8493     7.9700
  177.5000   128.9641     7.7059     7.8431
  178.0000   129.3690     7.3776     7.6795
  178.5000   131.2299     7.0641     7.3187
  179.0000   132.0211     6.7595     6.9465
  179.5000   130.2743     6.3882     6.5095
  180.0000   127.3383     5.8094     6.1001
  180.5000   126.1966     5.2903     5.7163
  181.0000   127.0679     4.8188     5.2023
  181.5000   129.2430     4.4281     4.4948
  182.0000   129.4234     3.9809     3.7770
  182.5000   127.3570     3.5231     3.1738
  183.0000   125.8334     3.1295     2.8558
  183.5000   125.1840     2.8229     2.6228
  184.0000   122.7040     2.7019     2.4441
  184.5000   118.7541     2.5831     2.4441
  185.0000   115.4686     2.6531     2.5041
  185.5000   118.7292     2.7839     2.5922
  186.0000   124.2583     3.0214     2.8713
  186.5000   129.7390     3.4119     3.1261
  187.0000   135.3055     3.8569     3.5364
  187.5000   138.3860     4.3588     4.0716
