~VERSION INFORMATION
 VERS.                2.0:   CWLS LOG ASCII STANDARD - VERSION 2.0
 WRAP.                 NO:   ONE LINE PER DEPTH STEP
~WELL INFORMATION
#MNEM.UNIT      DATA TYPE    INFORMATION
#----------   ------------   ------------------------------
 STRT.F           14.0000:   START DEPTH
 STOP.F          583.0000:   STOP DEPTH
 STEP.F            0.5000:   STEP LENGTH
 NULL.          -999.2500:   NO VALUE
 COMP. LAWRENCE/ALLISON INC:   COMPANY
 WELL.     NPR3 #34-66 SX:   WELL
 FLD .          MPR NO. 3:   FIELD
 LOC .      S10 T38N R78W:   LOCATION
 CNTY.            NATRONA:   COUNTY
 STAT.            WYOMING:   STATE
 CTRY. UNITED STATES OF AMERICA:   COUNTRY
 SRVC.           Gearhart:   SERVICE COMPANY
 DATE.        19-JUN-1986:   LOGDATE
 API .       490251109400:   API NUMBER
~CURVE INFORMATION
#MNEM.UNIT       API CODE    CURVE DESCRIPTION
#----------   ------------   ------------------------------
 DEPT.F                  :   
 GRR .GAPI   07 310 01 00:   GAMMA RAY
 RILD.OHMM   07 120 46 00:   INDUCTION LOG DEEP RESISTIVITY
 RILM.OHMM   07 120 44 00:   INDUCTION LOG MEDIUM RESISTIVITY
~PARAMETER INFORMATION
#MNEM.UNIT          VALUE    DESCRIPTION
#----------   ------------   ------------------------------
 PD  .                 GL:   PERMANENT DATUM
 EPD .F              5262:   ELEVATION PERMANENT DATUM
 LMF .                 KB:   LOG MEASURED FROM
 DAPD.F                 5:   FEET ABOVE PERMANENT DATUM
 DMF .                 KB:   DRILLING MEASURED FROM
 EKB .F              5267:   KELLING BUSHING
 EGL .F              5262:   GROUND LEVEL
 DATE.        19-JUN-1986:   RUN DATE
 RUN .                  1:   RUN NUMBER
 DD  .F               609:   DEPTH DRILLER
 DL  .F               602:   DEPTH LOGGER
 BLI .F               592:   BOTTOM LOG INTERVAL
 TLI .F                47:   TOP LOG INTERVAL
 CS  .IN            8.625:   CASING SIZE
 CBD .F                47:   CASING BOTTOM DRILLER
 CBL .F                46:   CASING BOTTOM LOGGER
 BS  .IN            7.875:   BIT SIZE
 BSD .F               609:   BIT SIZE AT DEPTH
 DFT .               FOAM:   DRILLING FLUID TYPE
 TCS .HRS            0130:   TIME CURCULATED STOPPED
 TLAB.HRS            0330:   TIME LOGGER AT BOTTOM
 MRT .F                65:   MAXIMUM RECORDED TEMPERATURE
 LUN .               7609:   LOGGING UNIT NUMBER
 LUL .           GILLETTE:   LOGGING UNIT LOCATION
 ENGI.         WEATHERMON:   RECORDING ENGINEER
 WITN.           JENNINGS:   WITNESSED BY
 CLNT.            A2DTECH:   CLIENT CODE
 ORIG.           5" PRINT:   ORIGIN OF DATA
 UWI .       490251109400:   UNIQUE WELL ID
 DICO. A2D Technologies, Inc.:   DIGITIZING COMPANY
~OTHER INFORMATION
~A   DEPT      GRR       RILD       RILM   
# ...
  469.0000    75.1943    15.3325    15.4189
  469.5000    76.7123    15.3356    15.5277
  470.0000    76.7123    15.3387    15.5423
  470.5000    77.6256    15.3418    15.6372
  471.0000    79.4521    15.3456    15.7476
  471.5000    78.8432    15.4568    15.7476
  472.0000    75.1903    15.5688    15.7476
  472.5000    71.2227    15.5720    15.7476
  473.0000    70.9285    15.5752    15.8587
  473.5000    72.7549    15.6888    15.8587
  474.0000    76.7123    15.6919    15.8587
  474.5000    82.4962    15.6951    15.8587
  475.0000    84.3227    15.6982    15.8587
  475.5000    84.6271    15.8120    15.8587
  476.0000    82.8006    15.8160    15.8587
  476.5000    79.4521    15.7085    15.7476
  477.0000    77.6256    15.7116    15.7476
  477.5000    76.1035    15.6041    15.6372
  478.0000    75.4947    15.3904    15.6241
  478.5000    77.0167    15.2858    15.4189
  479.0000    79.1476    15.1819    15.2036
  479.5000    81.5830    15.0788    15.2036
  480.0000    84.0183    14.9763    15.2036
  480.5000    85.5403    14.9801    15.2036
  481.0000    82.8006    14.9951    15.3109
  481.5000    81.2785    15.0924    15.4189
  482.0000    81.2785    15.4167    15.6372
  482.5000    81.2785    15.5285    15.7476
  483.0000    79.9758    15.8621    16.0832
  483.5000    77.0167    16.0969    16.3110
  484.0000    74.8858    16.3213    16.5420
  484.5000    73.0594    16.6720    16.8946
  485.0000    75.7991    16.9111    17.1338
  485.5000    77.9482    17.1537    17.2547
  486.0000    79.7565    17.2780    17.2547
  486.5000    77.0167    17.1606    17.0138
  487.0000    75.1903    16.8063    16.7762
  487.5000    74.5814    16.4602    16.4261
  488.0000    76.7285    16.2332    16.0832
  488.5000    80.0609    15.8989    15.6372
  489.0000    79.1476    15.5707    15.3109
  489.5000    76.7123    15.1433    14.9913
  490.0000    76.1035    14.9352    14.6784
  490.5000    81.2785    14.7292    14.4734
  491.0000    86.1492    14.5275    14.3720
  491.5000    84.6271    14.3278    14.3720
  492.0000    82.1918    14.2305    14.3720
  492.5000    79.1476    14.2340    14.2714
  493.0000    78.5388    14.2369    14.2714
  493.5000    77.6256    14.2398    14.0721
  494.0000    77.0167    14.1430    14.0721
  494.5000    80.0609    14.1465    13.9735
  495.0000    82.4962    13.9514    13.9735
  495.5000    82.8230    13.8566    13.9735
  496.0000    82.4597    13.8601    13.9735
  496.5000    80.6697    13.8629    13.9735
  497.0000    85.2359    13.8664    13.9735
  497.5000    87.9756    13.8691    13.9735
  498.0000    88.5845    13.8719    13.9735
  498.5000    81.4773    13.8747    13.9735
  499.0000    77.3212    13.8775    13.9735
  499.5000    75.7991    13.8804    13.9735
  500.0000    74.8858    13.8834    13.9736
  500.5000    80.6801    13.8877    13.9745
  501.0000    83.7332    13.8915    13.9755
  501.5000    84.3509    13.8953    13.9764
  502.0000    82.2289    13.8991    13.9774
  502.5000    80.7157    13.9029    13.9786
  503.0000    82.2467    13.9100    14.0782
  503.5000    84.3967    14.0234    14.0791
  504.0000    84.3954    14.2114    14.0801
  504.5000    84.1022    14.2153    14.1804
  505.0000    84.1111    14.2192    14.1814
  505.5000    85.3376    14.2230    14.1824
  506.0000    86.5642    14.2269    14.1833
  506.5000    87.7908    14.2308    14.0849
  507.0000    88.4085    13.9380    13.9872
  507.5000    88.4174    13.8363    13.7931
  508.0000    88.1218    13.6550    13.6972
  508.5000    87.2075    13.5632    13.6021
  509.0000    86.3132    13.3787    13.5077
  509.5000    89.0641    13.2878    13.3200
  510.0000    90.2907    13.1984    13.1352
  510.5000    89.9952    13.1097    13.0440
  511.0000    89.3930    13.0223    12.9535
  511.5000    90.3174    12.9334    12.8637
  512.0000    92.1528    12.8479    12.7744
  512.5000    93.0750    12.7615    12.6858
  513.0000    91.2574    12.5870    12.5978
  513.5000    89.4297    12.5023    12.5104
  514.0000    87.9266    12.4183    12.4236
  514.5000    89.4599    12.2485    12.2509
  515.0000    92.2085    12.1669    12.1661
  515.5000    94.6527    12.1703    12.0817
  516.0000    96.4881    12.0828    11.9139
  516.5000    95.5838    11.8405    11.8312
  517.0000    94.0706    11.7601    11.6670
  517.5000    93.7751    11.6001    11.5858
  518.0000    93.1752    11.5213    11.5055
  518.5000    92.8797    11.3646    11.4256
  519.0000    93.1933    11.2874    11.2669
  519.5000    94.1174    11.2121    11.1105
  520.0000    95.3439    11.0589    10.9561
  520.5000    96.2661    10.9077    10.8770
  521.0000    96.8838    10.7593    10.6537
  521.5000    97.8060    10.6122    10.5798
  522.0000    98.7281    10.3939    10.4330
  522.5000    98.6859    10.1800    10.3604
  523.0000    99.9636     9.8316    10.2166
  523.5000   101.8195     9.2322     9.7267
  524.0000   104.2432     8.0816     9.0034
  524.5000   103.0367     7.5305     7.9896
  525.0000   103.3500     7.2102     7.4477
  525.5000   110.3605     6.8345     6.8785
  526.0000   122.5459     6.7406     6.3814
  526.5000   125.9034     6.6953     6.2048
  527.0000   126.5189     6.7923     6.2490
  527.5000   114.0491     6.9876     6.3827
  528.0000   101.5770     7.5507     6.6581
  528.5000    96.7153     8.0453     7.6102
  529.0000    99.2409     8.8353     8.3392
  529.5000   100.3861     9.4609     8.9472
  530.0000    95.5266     9.8015     9.4081
  530.5000    96.4488    10.2260     9.9559
  531.0000    98.8930    10.5201    10.3730
  531.5000   100.4240    10.6717    10.6696
  532.0000    97.6931    10.6746    10.8215
  532.5000    96.4840    10.8285    10.9754
  533.0000    97.7110    10.9846    11.1316
  533.5000   100.4801    11.0768    11.2109
  534.0000   101.6862    11.3044    11.3705
  534.5000    97.1311    11.3871    11.5323
  535.0000    94.7047    11.6327    11.7074
  535.5000    93.1893    11.8004    11.8630
  536.0000    94.1137    11.9705    12.0319
  536.5000    95.3402    12.1430    12.2031
  537.0000    95.9580    12.4049    12.4641
  537.5000    97.1845    12.5912    12.6414
  538.0000    97.8023    12.8559    12.9118
  538.5000    98.1257    13.0412    13.1879
  539.0000    98.4697    13.2292    13.2819
  539.5000    98.7422    13.4199    13.4798
  540.0000    96.9269    13.5182    13.6628
  540.5000    96.9358    13.8097    13.8572
  541.0000    96.9447    14.0087    14.0544
  541.5000    96.9536    14.2107    14.1546
  542.0000    96.9625    14.3148    14.2554
  542.5000    92.7097    14.3196    14.1562
  543.0000    90.5877    14.2233    14.1575
  543.5000    91.2157    14.2272    14.0592
  544.0000    93.1224    14.0326    13.9617
  544.5000    95.1806    13.8398    13.9627
  545.0000    91.8432    13.7475    13.8658
  545.5000    88.8080    13.8483    13.8670
  546.0000    88.2058    13.8522    13.8679
  546.5000    88.5214    13.7590    13.8689
  547.0000    87.9214    13.8606    13.9677
  547.5000    87.0171    13.8644    14.0672
  548.0000    86.1126    13.8682    14.0681
  548.5000    89.4904    13.9697    14.0691
  549.0000    91.3465    13.8748    14.0701
  549.5000    92.5344    13.6860    13.7774
  550.0000    93.1499    13.4989    13.5422
  550.5000    95.6712    13.0400    13.0239
  551.0000    98.6301    12.7617    12.9316
  551.5000    99.2390    12.5838    12.5721
  552.0000    99.2390    12.4083    12.3957
  552.5000   100.7610    12.2282    12.2218
  553.0000   103.1964    11.9803    12.0503
  553.5000   104.4140    11.8133    11.8812
  554.0000   105.6317    11.8133    11.7970
  554.5000   106.5449    11.7307    11.7136
  555.0000   106.8493    11.5671    11.5492
  555.5000   103.8052    11.4058    11.4676
  556.0000   101.9787    11.3261    11.3864
  556.5000   102.2831    11.1681    11.3059
  557.0000   103.8052    11.0900    11.2257
  557.5000   103.4703    11.0900    11.1463
  558.0000   101.0655    11.0124    11.0675
  558.5000    99.5434    10.8589    10.9892
  559.0000   101.0655    10.8589    10.9115
  559.5000   102.2831    10.7829    10.9107
