~VERSION INFORMATION
 VERS.                2.0:   CWLS LOG ASCII STANDARD - VERSION 2.0
 WRAP.                 NO:   ONE LINE PER DEPTH STEP
~WELL INFORMATION
#MNEM.UNIT      DATA TYPE    INFORMATION
#----------   ------------   ------------------------------
 STRT.F           27.0000:   START DEPTH
 STOP.F          670.0000:   STOP DEPTH
 STEP.F            0.5000:   STEP LENGTH
 NULL.          -999.2500:   NO VALUE
 COMP. LAWRENCE/ALLISON INC:   COMPANY
 WELL. SX 11 WP 26 #26-11:   WELL
 FLD .           N.P.R #3:   FIELD
 LOC .      S11 T38N R78W:   LOCATION
 CNTY.            NATRONA:   COUNTY
 STAT.            WYOMING:   STATE
 CTRY. UNITED STATES OF AMERICA:   COUNTRY
 SRVC.            Unknown:   SERVICE COMPANY
 DATE.        11-SEP-1984:   LOGDATE
 API .       490251097700:   API NUMBER
~CURVE INFORMATION
#MNEM.UNIT       API CODE    CURVE DESCRIPTION
#----------   ------------   ------------------------------
 DEPT.F                  :   
 CNC .DEC    42 890 03 00:   NEUTRON POROSITY SANDSTONE
 AC  .US/F   60 520 00 00:   ACCOUSTIC SONIC
 SPR .MV     07 010 01 00:   SPONTANEOUS POTENTIAL
 RILD.OHMM   07 120 46 00:   INDUCTION LOG DEEP RESISTIVITY
 RILM.OHMM   07 120 44 00:   INDUCTION LOG MEDIUM RESISTIVITY
 RFOC.OHMM   07 220 04 00:   RESISTIVITY FOCUSED LOG
 GRD .GAPI   45 310 01 00:   GAMMA RAY FROM DENSITY LOG
 CALD.IN     45 280 60 00:   CALIPER FROM DENSITY LOG
 DEN .G/C3   45 350 01 00:   COMPENSATED BULK DENSTIY
 CORR.G/C3   45 356 01 00:   DENSITY CORRECTION
 PORD.DEC    45 890 12 00:   POROSITY DENSITY SANDSTONE
~PARAMETER INFORMATION
#MNEM.UNIT          VALUE    DESCRIPTION
#----------   ------------   ------------------------------
 PD  .                 GL:   PERMANENT DATUM
 EPD .F              5186:   ELEVATION PERMANENT DATUM
 LMF .                 GL:   LOG MEASURED FROM
 DMF .                 GL:   DRILLING MEASURED FROM
 EGL .F              5186:   GROUND LEVEL
 DATE.            9-11-84:   RUN DATE
 RUN .                  1:   RUN NUMBER
 DD  .F               672:   DEPTH DRILLER
 DL  .F               668:   DEPTH LOGGER
 BLI .F               668:   BOTTOM LOG INTERVAL
 TLI .F                45:   TOP LOG INTERVAL
 CS  .IN            8.625:   CASING SIZE
 CBD .F                42:   CASING BOTTOM DRILLER
 CBL .F                45:   CASING BOTTOM LOGGER
 BS  .IN            7.875:   BIT SIZE
 BSD .F               672:   BIT SIZE AT DEPTH
 DFT .          KCL WATER:   DRILLING FLUID TYPE
 MSS .               TANK:   MUD SAMPLE SOURCE
 RMS .OHMM            .36:   RESISTIVITY MUD SAMPLE
 MST .F                82:   MUD SAMPLE TEMPERATURE
 MFSS.                  C:   MUD FILTRATE SAMPLE SOURCE
 MCSS.                  C:   MUD CAKE SAMPLE SOURCE
 TCS .HRS               3:   TIME CURCULATED STOPPED
 MRT .F               100:   MAXIMUM RECORDED TEMPERATURE
 LUN .            HL 6307:   LOGGING UNIT NUMBER
 LUL .           GILLETTE:   LOGGING UNIT LOCATION
 ENGI.      FAHLSING/MACK:   RECORDING ENGINEER
 WITN.            JOHNSON:   WITNESSED BY
 CLNT.            A2DTECH:   CLIENT CODE
 ORIG.       2", 5" PRINT:   ORIGIN OF DATA
 UWI .       490251097700:   UNIQUE WELL ID
 DICO. A2D Technologies, Inc.:   DIGITIZING COMPANY
~OTHER INFORMATION
~A   DEPT      CNC          AC       SPR       RILD       RILM       RFOC        GRD       CALD        DEN       CORR       PORD   
# ...
  179.5000     0.2741   101.3370   -22.1670     8.4540     8.9850    10.7730   108.2260     8.0460     2.5030     0.0430     0.1050
  180.0000     0.2804   101.5700   -22.3880     8.3830     8.9140    10.6420   107.5730     8.0460     2.5030     0.0410     0.1080
  180.5000     0.2920   101.6870   -22.0250     8.3110     8.8430    10.5180   108.3340     8.0460     2.5040     0.0480     0.1060
  181.0000     0.3053   101.6480   -21.6460     8.2400     8.7710    10.4480   109.0280     8.0470     2.5070     0.0410     0.1040
  181.5000     0.3028   101.6090   -21.2670     8.1680     8.7000    10.6480   107.8970     8.0470     2.5100     0.0290     0.1010
  182.0000     0.3000   101.9060   -20.8890     8.0970     8.6290    10.8400   106.7680     8.0470     2.5130     0.0400     0.1020
  182.5000     0.2972   102.2590   -20.5100     7.9990     8.5320    10.6980   105.6550     8.0480     2.5110     0.0460     0.1030
  183.0000     0.2878   102.6120   -20.1310     8.0170     8.5570    10.5260   107.3590     8.0480     2.5080     0.0480     0.1050
  183.5000     0.2820   102.9980   -19.7530     8.0590     8.6170    10.2570   109.3070     8.0480     2.5050     0.0610     0.1040
  184.0000     0.2866   102.9580   -19.3740     8.1000     8.6760    10.3080   110.5390     8.0490     2.5020     0.0670     0.1050
  184.5000     0.2912   102.9150   -18.9970     8.1420     8.7350    10.4250   109.4510     8.0490     2.5010     0.0580     0.1070
  185.0000     0.2884   102.8710   -18.6200     8.1840     8.7950    10.5420   107.5940     8.0490     2.5020     0.0490     0.1080
  185.5000     0.2844   102.8270   -18.2430     8.2260     8.8520    10.6580   105.7770     8.0500     2.5040     0.0550     0.1080
  186.0000     0.2822   102.9720   -18.0540     8.2680     8.8520    10.7750   103.9710     8.0500     2.5020     0.0550     0.1090
  186.5000     0.2976   103.4540   -18.1110     8.2990     8.7710    10.8400   102.1780     8.0500     2.4980     0.0430     0.1110
  187.0000     0.3261   103.9360   -18.1640     8.2990     8.7710    10.6410   100.7420     8.0510     2.4970     0.0320     0.1100
  187.5000     0.3152   104.4180   -18.2190     8.2990     8.6110    10.3320   102.1260     8.0510     2.5030     0.0310     0.1050
  188.0000     0.3080   104.9000   -18.2740     8.2230     8.5050    10.0700   109.9290     8.0510     2.5100     0.0460     0.1000
  188.5000     0.3007   104.8730   -18.3300     8.1480     8.3440    10.2230   113.9740     8.0520     2.5090     0.0600     0.1010
  189.0000     0.2925   104.7290   -18.3870     8.0260     8.1830    10.4020   113.1980     8.0520     2.5060     0.0740     0.1040
  189.5000     0.3309   104.5850   -18.4720     7.7590     8.0210    10.5810   112.4750     8.0520     2.5020     0.0640     0.1060
  190.0000     0.3500   104.4410   -18.6640     7.4920     7.8600    10.6420   111.4640     8.0530     2.4990     0.0540     0.1090
  190.5000     0.3408   105.0780   -18.8530     7.2620     7.6980    10.4250   109.3020     8.0530     2.4960     0.0450     0.1110
  191.0000     0.3212   106.1100   -19.0410     7.1360     7.5370    10.1720   107.2180     8.0530     2.4970     0.0460     0.1120
  191.5000     0.3070   107.1420   -19.2300     7.0110     7.3760     9.9200   109.1990     8.0540     2.4980     0.0590     0.1100
  192.0000     0.3051   108.1740   -19.4190     6.8850     7.2140     9.7960   113.3290     8.0540     2.4980     0.0720     0.1080
  192.5000     0.3057   108.9630   -19.6070     6.7590     7.0530     9.5540   117.4510     8.0540     2.4960     0.0630     0.1090
  193.0000     0.3100   109.5230   -19.7930     6.5320     6.9030     9.2760   118.2000     8.0550     2.4920     0.0530     0.1120
  193.5000     0.3131   109.6710   -19.7750     6.5930     7.0370     8.9980   116.9060     8.0550     2.4880     0.0420     0.1150
  194.0000     0.3060   109.2730   -19.5930     6.7220     7.1620     8.8520   115.6290     8.0550     2.4830     0.0320     0.1170
  194.5000     0.3020   107.8080   -19.4140     6.8510     7.2870     9.1130   114.4180     8.0560     2.4830     0.0250     0.1170
  195.0000     0.2994   106.2770   -19.2350     6.9800     7.4120     9.4980   112.2690     8.0560     2.4850     0.0350     0.1160
  195.5000     0.2963   104.7450   -19.0570     7.1090     7.5370     9.8840   109.6650     8.0560     2.4870     0.0460     0.1150
  196.0000     0.2892   103.2140   -18.8780     7.2380     7.6620    10.2690   107.0420     8.0570     2.4860     0.0400     0.1160
  196.5000     0.2941   101.6830   -18.6990     7.3670     7.7870    10.5450   104.3970     8.0570     2.4840     0.0200     0.1170
  197.0000     0.3000   101.4040   -18.5210     7.4960     7.9120    10.2730   103.2490     8.0570     2.4830     0.0150     0.1180
  197.5000     0.3000   101.4040   -18.3420     7.6300     7.9260    10.0230   105.4560     8.0580     2.4870     0.0300     0.1170
  198.0000     0.2999   101.4040   -18.1630     7.5800     7.8750     9.7960   107.8500     8.0580     2.4920     0.0450     0.1130
  198.5000     0.2993   101.5700   -17.9850     7.5130     7.8010    10.0480   110.2360     8.0580     2.4980     0.0610     0.1080
  199.0000     0.2931   101.8220   -17.8060     7.4470     7.7280    10.2570   111.8470     8.0580     2.5040     0.0670     0.1040
  199.5000     0.2890   102.0740   -17.6250     7.3800     7.6540    10.0880   111.0510     8.0580     2.5110     0.0710     0.1000
  200.0000     0.2912   101.6940   -17.4440     7.3140     7.5800     9.9340   106.2150     8.0580     2.5210     0.0800     0.0940
  200.5000     0.2984   100.6690   -17.6640     7.2470     7.5070     9.8180    99.8940     8.0580     2.5310     0.0910     0.0890
  201.0000     0.2902    99.6430   -17.9230     7.1620     7.4330    10.1420    93.4200     8.0580     2.5410     0.0800     0.0840
  201.5000     0.2797    99.0140   -18.1830     7.2100     7.3600    10.4480    90.4290     8.0580     2.5480     0.0630     0.0820
  202.0000     0.2682   100.1490   -18.4410     7.2280     7.3040    10.2470    90.5270     8.0580     2.5420     0.0460     0.0850
  202.5000     0.2651   101.3160   -18.7010     7.2280     7.4750    10.1000    96.8840     8.0580     2.5340     0.0400     0.0900
  203.0000     0.2924   102.4840   -18.9600     7.2280     7.6350     9.9540   103.0530     8.0580     2.5260     0.0460     0.0940
  203.5000     0.3000   103.0190   -19.2190     7.2520     7.7940     9.8860   109.2240     8.0580     2.5180     0.0510     0.0980
  204.0000     0.2932   102.5660   -19.4780     7.4170     7.9540    10.0590   113.0860     8.0580     2.5140     0.0570     0.0980
  204.5000     0.2819   102.0700   -19.7370     7.5820     8.1140    10.2100   111.1320     8.0580     2.5180     0.0630     0.0960
  205.0000     0.2758   101.5740   -19.9920     7.7480     8.2740    10.3600   108.3250     8.0580     2.5230     0.0670     0.0940
  205.5000     0.2916   101.2790   -20.1980     7.8530     8.3760    10.5450   107.1910     8.0580     2.5270     0.0520     0.0940
  206.0000     0.2956   101.5650   -20.0020     7.9990     8.3140    10.3890   108.3530     8.0580     2.5230     0.0360     0.0960
  206.5000     0.2989   101.8510   -19.8100     7.9570     8.2500    10.1630   109.6070     8.0580     2.5180     0.0400     0.0980
  207.0000     0.3068   102.1370   -19.6190     7.8850     8.1860    10.3340   109.1700     8.0580     2.5170     0.0490     0.0990
  207.5000     0.3089   102.4230   -19.4290     7.8130     8.1210    10.5450   107.6930     8.0580     2.5170     0.0590     0.1010
  208.0000     0.3068   102.6990   -19.4710     7.7410     8.0570    10.4040   106.2140     8.0580     2.5160     0.0680     0.1050
  208.5000     0.3071   102.6090   -19.5340     7.6680     7.9930    10.1680   104.7220     8.0580     2.5040     0.0740     0.1090
  209.0000     0.3141   102.5210   -19.5990     7.5960     7.9290     9.8860   103.1710     8.0580     2.5000     0.0700     0.1080
  209.5000     0.3095   102.4330   -19.7910     7.5240     7.8530     9.9180   103.6920     8.0580     2.5010     0.0660     0.1080
