~VERSION INFORMATION
 VERS.                2.0:   CWLS LOG ASCII STANDARD - VERSION 2.0
 WRAP.                 NO:   ONE LINE PER DEPTH STEP
~WELL INFORMATION
#MNEM.UNIT      DATA TYPE    INFORMATION
#----------   ------------   ------------------------------
 STRT.F           47.0000:   START DEPTH
 STOP.F          790.0000:   STOP DEPTH
 STEP.F            0.5000:   STEP LENGTH
 NULL.          -999.2500:   NO VALUE
 COMP. LAWRENCE/ALLISON INC:   COMPANY
 WELL. NPR #3 #21-16 SX 2:   WELL
 FLD .             NPR #3:   FIELD
 LOC .       S2 T38N R78W:   LOCATION
 CNTY.            NATRONA:   COUNTY
 STAT.            WYOMING:   STATE
 CTRY. UNITED STATES OF AMERICA:   COUNTRY
 SRVC.           Gearhart:   SERVICE COMPANY
 DATE.        16-MAY-1986:   LOGDATE
 API .       490251106700:   API NUMBER
~CURVE INFORMATION
#MNEM.UNIT       API CODE    CURVE DESCRIPTION
#----------   ------------   ------------------------------
 DEPT.F                  :   
 CNS .DEC    42 890 00 00:   NEUTRON POROSITY
 GRD .GAPI   45 310 01 00:   GAMMA RAY FROM DENSITY LOG
~PARAMETER INFORMATION
#MNEM.UNIT          VALUE    DESCRIPTION
#----------   ------------   ------------------------------
 PD  .                 GL:   PERMANENT DATUM
 LMF .                 GL:   LOG MEASURED FROM
 DATE.        16-MAY-1986:   RUN DATE
 RUN .                  1:   RUN NUMBER
 DD  .F               835:   DEPTH DRILLER
 DL  .F               835:   DEPTH LOGGER
 BLI .F               835:   BOTTOM LOG INTERVAL
 TLI .F                70:   TOP LOG INTERVAL
 CS  .IN              4.5:   CASING SIZE
 DFT .              WATER:   DRILLING FLUID TYPE
 LUN .               6084:   LOGGING UNIT NUMBER
 LUL .           GILLETTE:   LOGGING UNIT LOCATION
 ENGI.                COX:   RECORDING ENGINEER
 WITN.             STRONG:   WITNESSED BY
 CLNT.            A2DTECH:   CLIENT CODE
 ORIG.           5" PRINT:   ORIGIN OF DATA
 UWI .       490251106700:   UNIQUE WELL ID
 DICO. A2D Technologies, Inc.:   DIGITIZING COMPANY
 R1  .                 NE:   REMARKS 1
~OTHER INFORMATION
~A   DEPT        CNS       GRD  
# ...
  290.0000     0.2622    80.7339
  290.5000     0.2628    82.5688
  291.0000     0.2573    83.4862
  291.5000     0.2450    83.1804
  292.0000     0.2299    80.4281
  292.5000     0.2190    75.5352
  293.0000     0.2184    73.3945
  293.5000     0.2196    74.6177
  294.0000     0.2106    79.2049
  294.5000     0.2063    81.6514
  295.0000     0.2060    82.8746
  295.5000     0.2096    82.8746
  296.0000     0.2186    82.9154
  296.5000     0.2296    83.1804
  297.0000     0.2429    84.4037
  297.5000     0.2519    85.6269
  298.0000     0.2532    85.6269
  298.5000     0.2350    85.0153
  299.0000     0.2181    83.1804
  299.5000     0.2136    85.1518
  300.0000     0.2194    87.7676
  300.5000     0.2531    89.6024
  301.0000     0.2804    89.2966
  301.5000     0.2873    86.8502
  302.0000     0.2828    84.7095
  302.5000     0.2632    85.3211
  303.0000     0.2571    85.9327
  303.5000     0.2607    86.8502
  304.0000     0.2686    88.0734
  304.5000     0.2511    80.6607
  305.0000     0.2384    82.5688
  305.5000     0.2324    81.9572
  306.0000     0.2339    84.4037
  306.5000     0.2426    90.5199
  307.0000     0.2457    95.1070
  307.5000     0.2439    99.0826
  308.0000     0.2423   100.9174
  308.5000     0.2481   102.4465
  309.0000     0.2575   103.3639
  309.5000     0.2868   103.3639
  310.0000     0.2995   103.0581
  310.5000     0.2822   102.7523
  311.0000     0.2644   102.7523
  311.5000     0.2572   102.7523
  312.0000     0.2554   102.7523
  312.5000     0.2581   102.4465
  313.0000     0.2826   102.4465
  313.5000     0.3013   102.1407
  314.0000     0.2974   101.8349
  314.5000     0.2814   101.5291
  315.0000     0.2726   100.9174
  315.5000     0.2687   100.3058
  316.0000     0.2666    98.7768
  316.5000     0.2657    94.4954
  317.0000     0.2690    88.0734
  317.5000     0.2787    81.9572
  318.0000     0.2826    80.1223
  318.5000     0.2844    81.6514
  319.0000     0.2732    85.0153
  319.5000     0.2684    88.9908
  320.0000     0.2687    94.1896
  320.5000     0.2723    96.3303
  321.0000     0.2778    96.3303
  321.5000     0.2805    93.8838
  322.0000     0.2687    90.8257
  322.5000     0.2669    90.5199
  323.0000     0.2708    90.5199
  323.5000     0.2772    91.1315
  324.0000     0.2835    94.8012
  324.5000     0.2847    98.4709
  325.0000     0.2817    99.6942
  325.5000     0.2787    99.0826
  326.0000     0.2808    97.2477
  326.5000     0.2971    94.4954
  327.0000     0.2971    92.9664
  327.5000     0.2971    92.3547
  328.0000     0.2836    92.6606
  328.5000     0.2775    93.5780
  329.0000     0.2754    95.4128
  329.5000     0.2706    97.5535
  330.0000     0.2657    99.5107
  330.5000     0.2633   100.3058
  331.0000     0.2621    99.9471
  331.5000     0.2609    98.3728
  332.0000     0.2546    96.5463
  332.5000     0.2476    94.7198
  333.0000     0.2428    92.8932
  333.5000     0.2404    91.4373
  334.0000     0.2395    91.4658
  334.5000     0.2422    91.7675
  335.0000     0.2501    92.9664
  335.5000     0.2564    93.9002
  336.0000     0.2583    95.4250
  336.5000     0.2546    96.0245
  337.0000     0.2522    95.4128
  337.5000     0.2495    95.7187
  338.0000     0.2522    95.7187
  338.5000     0.2576    95.4128
  339.0000     0.2561    94.4954
  339.5000     0.2540    90.5199
  340.0000     0.2546    91.1315
  340.5000     0.2694    96.0245
  341.0000     0.2673   100.0000
  341.5000     0.2664   100.3058
  342.0000     0.2746    98.4709
  342.5000     0.2767    92.3547
  343.0000     0.2734    91.0866
  343.5000     0.2643    92.9664
  344.0000     0.2513    94.1896
  344.5000     0.2525    94.3038
  345.0000     0.2698    92.3547
  345.5000     0.2803    91.7431
  346.0000     0.2695    91.7431
  346.5000     0.2586    92.6606
  347.0000     0.2538    93.5780
  347.5000     0.2532    96.0245
  348.0000     0.2520    99.0826
  348.5000     0.2517   101.8349
  349.0000     0.2683   101.2232
  349.5000     0.2755    93.8838
  350.0000     0.2647    90.8257
  350.5000     0.2477    90.8495
  351.0000     0.2471    93.0134
  351.5000     0.2530    95.7890
  352.0000     0.2799    98.2588
  352.5000     0.3001    99.4036
  353.0000     0.3036    98.7957
  353.5000     0.3029    97.8806
  354.0000     0.2971    96.6611
  354.5000     0.2885    95.7467
  355.0000     0.2817    96.6672
  355.5000     0.2798    98.1993
  356.0000     0.2793    99.4255
  356.5000     0.2729    99.7344
  357.0000     0.2673    99.7374
  357.5000     0.2668    98.5172
  358.0000     0.2720    93.9331
  358.5000     0.2747    91.7947
  359.0000     0.2747    91.7985
  359.5000     0.2828    92.4131
  360.0000     0.2871    93.0278
  360.5000     0.2810    94.5599
  361.0000     0.2705    96.7036
  361.5000     0.2626    99.1531
  362.0000     0.2551    99.7677
  362.5000     0.2505    98.8533
  363.0000     0.2472    96.7157
  363.5000     0.2460    94.5781
  364.0000     0.2551    93.0520
  364.5000     0.2644    91.2202
  365.0000     0.2542    89.3884
  365.5000     0.2397    86.0068
  366.0000     0.2330    82.6462
  366.5000     0.2376    81.7522
  367.0000     0.2560    84.2832
  367.5000     0.2651    86.4476
  368.0000     0.2605    89.4073
  368.5000     0.2533    92.1627
  369.0000     0.2530    95.2238
  369.5000     0.2747    97.9791
  370.0000     0.2820    99.5112
  370.5000     0.2723   100.4317
  371.0000     0.2618   100.4347
  371.5000     0.2569   100.4377
  372.0000     0.2560   100.1342
  372.5000     0.2769    98.9147
  373.0000     0.2868    96.7771
  373.5000     0.2832    91.8872
  374.0000     0.2624    88.5263
  374.5000     0.2427    88.2228
  375.0000     0.2343    90.6730
  375.5000     0.2310    93.7342
  376.0000     0.2304    95.2663
  376.5000     0.2373    95.5751
  377.0000     0.2385    94.3549
  377.5000     0.2403    90.6882
  378.0000     0.2842    87.3273
  378.5000     0.3114    88.2478
  379.0000     0.3098    91.0031
  379.5000     0.2848    93.7584
  380.0000     0.2636    96.8196
  380.5000     0.2509    99.2792
  381.0000     0.2494    99.8838
  381.5000     0.2585    99.2446
  382.0000     0.2670    95.6699
  382.5000     0.2564    87.6091
  383.0000     0.2413    83.3829
  383.5000     0.2355    83.3859
  384.0000     0.2365    87.6703
  384.5000     0.2437    96.5418
  385.0000     0.2434   100.8262
  385.5000     0.2434   101.1343
  386.0000     0.2467    94.1044
  386.5000     0.2785    90.1312
  387.0000     0.3045    91.0524
  387.5000     0.3087    92.2787
  388.0000     0.3029    93.1991
  388.5000     0.2771    93.2022
  389.0000     0.2643    90.7587
  389.5000     0.2702    86.4804
  390.0000     0.2828    87.0951
  390.5000     0.2819    91.0736
  391.0000     0.2684    95.3580
  391.5000     0.2567    99.3366
  392.0000     0.2439   100.5628
  392.5000     0.2373   101.1775
  393.0000     0.2356   100.2631
  393.5000     0.2370    99.3486
  394.0000     0.2421    98.4342
  394.5000     0.2389    97.5199
  395.0000     0.2341    96.2997
  395.5000     0.2326    94.7636
  396.0000     0.2338    93.5331
  396.5000     0.2568    95.1467
  397.0000     0.2604    96.9643
  397.5000     0.2589    98.2519
  398.0000     0.2574   100.9058
  398.5000     0.2755    90.5105
  399.0000     0.2773    93.5724
  399.5000     0.2770    96.3278
  400.0000     0.2658    98.5538
  400.5000     0.2535    99.5604
  401.0000     0.2638   100.5671
  401.5000     0.2638   101.2329
  402.0000     0.2538   101.8476
  402.5000     0.2484   102.7681
  403.0000     0.2484   103.3827
  403.5000     0.2566   103.6908
  404.0000     0.2699   102.4714
  404.5000     0.2706   101.2512
  405.0000     0.2530   100.0310
  405.5000     0.2407    98.8101
  406.0000     0.2382    98.5073
  406.5000     0.2485   100.0402
  407.0000     0.2490   101.2665
  407.5000     0.2458   102.1869
  408.0000     0.2434   103.1074
  408.5000     0.2568   102.8047
  409.0000     0.2595   102.1961
  409.5000     0.2571   101.2817
  410.0000     0.2477   100.9790
  410.5000     0.2456   100.9820
  411.0000     0.2518   101.5967
