~VERSION INFORMATION
 VERS.                2.0:   CWLS LOG ASCII STANDARD - VERSION 2.0
 WRAP.                 NO:   ONE LINE PER DEPTH STEP
~WELL INFORMATION
#MNEM.UNIT      DATA TYPE    INFORMATION
#----------   ------------   ------------------------------
 STRT.F           32.0000:   START DEPTH
 STOP.F          697.0000:   STOP DEPTH
 STEP.F            0.5000:   STEP LENGTH
 NULL.          -999.2500:   NO VALUE
 COMP.    FENIX & SCISSON:   COMPANY
 WELL.      NPR-3 #81S3-3:   WELL
 FLD .        TEAPOT DOME:   FIELD
 LOC .       S3 T38N R78W:   LOCATION
 CNTY.            NATRONA:   COUNTY
 STAT.            WYOMING:   STATE
 CTRY. UNITED STATES OF AMERICA:   COUNTRY
 SRVC.           BIRDWELL:   SERVICE COMPANY
 DATE.        11-JAN-1978:   LOGDATE
 API .       490251055400:   API NUMBER
~CURVE INFORMATION
#MNEM.UNIT       API CODE    CURVE DESCRIPTION
#----------   ------------   ------------------------------
 DEPT.F                  :   
 ILD .OHMM   05 120 46 00:   INDUCTION LOG DEEP
 SN  .OHMM   05 040 16 00:   SHORT NORMAL 16"
 SPR .MV     05 010 01 00:   SPONTANEOUS POTENTIAL FROM RES.
 CALD.IN     45 280 60 00:   CALIPER FROM DENSITY LOG
 DPHI.DEC    45 890 12 00:   DENSITY POROSITY SANDSTONE
 DRHO.G/C3   45 356 01 00:   DENSITY CORRECTION
 GRD .GAPI   45 310 01 00:   GAMMA RAY FROM DENSITY LOG
 RHOB.G/C3   45 350 01 00:   BULK DENSITY
~PARAMETER INFORMATION
#MNEM.UNIT          VALUE    DESCRIPTION
#----------   ------------   ------------------------------
 PD  .                 GL:   PERMANENT DATUM
 EPD .F              5119:   ELEVATION PERMANENT DATUM
 LMF .                 KB:   LOG MEASURED FROM
 DAPD.F                 4:   FEET ABOVE PERMANENT DATUM
 DMF .                 KB:   DRILLING MEASURED FROM
 EKB .F              5123:   KELLING BUSHING
 EGL .F              5119:   GROUND LEVEL
 DATE.        11-JAN-1978:   RUN DATE
 RUN .                  1:   RUN NUMBER
 DD  .F               695:   DEPTH DRILLER
 DL  .F               704:   DEPTH LOGGER
 BLI .F               697:   BOTTOM LOG INTERVAL
 TLI .F                40:   TOP LOG INTERVAL
 CS  .IN            8.625:   CASING SIZE
 CBD .F                40:   CASING BOTTOM DRILLER
 CBL .F                40:   CASING BOTTOM LOGGER
 BS  .IN            7.875:   BIT SIZE
 BSD .F               695:   BIT SIZE AT DEPTH
 DFT .                KCL:   DRILLING FLUID TYPE
 DFD .                8.6:   DRILLING FLUID DENSITY
 DFV .                 31:   DRILLING FLUID VISCOSITY
 DFPH.                9.5:   DRILLING FLUID PH
 DFL .                7.6:   DRILLING FLUID LOSS
 MSS .           FLOWLINE:   MUD SAMPLE SOURCE
 RMS .OHMM           0.32:   RESISTIVITY MUD SAMPLE
 MST .F                62:   MUD SAMPLE TEMPERATURE
 RMF .OHMM           0.32:   RESISTIVITY MUD FILTRATE SAMPLE
 MFST.F                62:   MUD FILTRATE SAMPLE TEMPERATURE
 RMC .OHMM            0.8:   RESISTIVITY MUD CAKE
 MCST.F                63:   MUD CAKE SAMPLE TEMPERATURE
 MFSS.               MEAS:   MUD FILTRATE SAMPLE SOURCE
 MCSS.               MEAS:   MUD CAKE SAMPLE SOURCE
 TCS .HRS               2:   TIME CURCULATED STOPPED
 LUN .               2958:   LOGGING UNIT NUMBER
 LUL .             CASPER:   LOGGING UNIT LOCATION
 ENGI.           REYNOLDS:   RECORDING ENGINEER
 WITN.         HARRINGTON:   WITNESSED BY
 CLNT.            A2DTECH:   CLIENT CODE
 ORIG.           5" PRINT:   ORIGIN OF DATA
 UWI .       490251055400:   UNIQUE WELL ID
 DICO. A2D Technologies, Inc.:   DIGITIZING COMPANY
~OTHER INFORMATION
~A   DEPT      ILD         SN        SPR       CALD       DPHI       DRHO         GRD      RHOB   
# ...
  599.0000    21.2798    17.0501   -34.7821     8.6452     0.1319     0.0729    68.4769     2.4147
  599.5000    20.8448    16.8179   -34.6298     8.6306     0.1355     0.0774    71.7571     2.4072
  600.0000    20.4198    16.5894   -34.0299     8.6905     0.1346     0.0820    74.2921     2.4132
  600.5000    20.0045    16.4767   -35.0717     8.6908     0.1328     0.0835    75.1878     2.4147
  601.0000    19.7330    16.2523   -35.0687     8.6911     0.1289     0.0821    71.7079     2.4230
  601.5000    19.3306    16.0315   -35.0776     8.6914     0.1208     0.0821    70.1237     2.4493
  602.0000    18.9365    15.8131   -35.3930     8.6917     0.1099     0.0806    70.5902     2.4591
  602.5000    18.4222    15.7061   -35.9553     8.6920     0.1081     0.0807    70.8718     2.4584
  603.0000    17.9219    15.5999   -36.2509     8.6923     0.1075     0.0822    69.8718     2.4591
  603.5000    17.5564    15.4943   -36.7513     8.6926     0.1039     0.0853    67.1493     2.4667
  604.0000    17.3181    15.2834   -37.5882     8.6779     0.0966     0.0898    67.2998     2.4772
  604.5000    17.2020    14.7926   -37.4078     8.6783     0.1009     0.0929    70.4310     2.4795
  605.0000    17.2056    14.7977   -37.4018     8.6786     0.0999     0.0944    73.1150     2.4765
  605.5000    17.2091    14.7950   -37.3959     8.6789     0.0957     0.0975    74.0107     2.4863
  606.0000    17.2127    14.7925   -37.6885     8.6792     0.0927     0.0974    74.4593     2.4900
  606.5000    17.2163    14.7899   -37.9825     8.6795     0.0897     0.0974    74.6412     2.4916
  607.0000    17.2199    14.7874   -38.2751     8.6807     0.0882     0.0944    74.7343     2.4953
  607.5000    17.2235    14.7849   -38.5662     8.6826     0.0918     0.0914    74.8275     2.5038
  608.0000    17.2285    14.7824   -38.5603     8.6844     0.0945     0.0915    74.9207     2.4971
  608.5000    17.2446    14.7799   -38.5543     8.6863     0.0951     0.0930    74.9896     2.4889
  609.0000    17.2607    14.7774   -38.5484     8.6881     0.0951     0.0945    74.5482     2.4829
  609.5000    17.2768    14.7749   -38.0947     8.6900     0.0942     0.0976    74.1085     2.4874
  610.0000    17.2928    14.7723   -37.4917     8.6918     0.0933     0.0976    73.8148     2.4905
  610.5000    17.3089    14.7698   -37.3366     8.6937     0.0914     0.0976    74.8654     2.4912
  611.0000    17.3250    14.7673   -37.4799     8.6955     0.0881     0.0977    75.4674     2.4943
  611.5000    17.3411    14.7648   -37.6247     8.6973     0.0824     0.0962    75.6223     2.5056
  612.0000    17.3572    14.7677   -37.9172     8.6828     0.0761     0.0932    76.6714     2.5124
  612.5000    17.3732    14.7728   -38.0606     8.6826     0.0752     0.0887    78.4657     2.5124
  613.0000    17.2629    14.7775   -37.9039     8.6753     0.0764     0.0826    79.8129     2.5117
  613.5000    17.2665    14.7864   -37.7487     8.6681     0.0786     0.0798    79.2227     2.5115
  614.0000    17.2586    14.8126   -37.5935     8.6609     0.0873     0.0918    75.0557     2.5019
  614.5000    17.2508    14.8388   -37.7368     8.6544     0.1034     0.1024    74.1674     2.4772
  615.0000    17.2429    14.8650   -38.3294     8.6398     0.1064     0.1129    73.2791     2.4675
  615.5000    17.2351    14.8912   -38.4727     8.6402     0.1010     0.1220    72.6874     2.4728
  616.0000    17.2273    14.9112   -38.7653     8.6405     0.0953     0.1310    72.2474     2.4773
  616.5000    17.2194    14.8131   -38.7579     8.6408     0.0893     0.1386    71.9553     2.4901
  617.0000    17.2116    14.8185   -38.7519     8.6440     0.0865     0.1476    72.1104     2.4939
  617.5000    17.2038    14.8237   -38.7460     8.6514     0.0929     0.1537    72.5634     2.4902
  618.0000    17.1960    14.8288   -38.8893     8.6588     0.0901     0.1582    73.1674     2.4872
  618.5000    17.1881    14.8339   -39.1819     8.6662     0.0892     0.1643    73.6275     2.4910
  619.0000    17.0675    14.8391   -39.3254     8.6736     0.0868     0.1748    74.0715     2.4948
  619.5000    16.9531    14.8442   -39.6178     8.6810     0.0901     0.1944    74.2265     2.4963
  620.0000    16.8394    14.8493   -39.4626     8.6884     0.0964     0.2065    74.6808     2.4835
  620.5000    16.8438    14.8545   -39.1581     8.6958     0.0916     0.2125    75.4318     2.4956
  621.0000    16.8473    14.8596   -38.7044     8.7030     0.0856     0.2155    76.0338     2.5024
  621.5000    16.8508    14.8654   -38.5493     8.7033     0.0808     0.2081    76.7849     2.5069
  622.0000    16.8324    14.8596   -38.5433     8.7036     0.0587     0.1645    78.1320     2.5243
  622.5000    16.7681    14.8529   -38.5373     8.7039     0.0439     0.1645    79.3302     2.5469
  623.0000    16.7038    14.8462   -38.5313     8.7042     0.0660     0.1600    79.9307     2.5821
  623.5000    16.6396    14.8396   -39.1368     8.7045     0.0714     0.1525    74.5730     2.5131
  624.0000    16.5753    14.8329   -38.8000     8.7048     0.0566     0.1405    73.3851     2.5409
  624.5000    16.5110    14.8262   -38.1935     8.7051     0.0479     0.1195    74.5848     2.5589
  625.0000    16.4467    14.8195   -38.0599     8.7054     0.0524     0.0880    75.1868     2.5507
  625.5000    16.4164    14.8128   -38.2313     8.7057     0.0599     0.0805    75.7888     2.5508
  626.0000    16.3033    14.8073   -38.6436     8.7060     0.0696     0.0820    76.3908     2.5545
  626.5000    16.1925    14.8137   -38.6377     8.7063     0.0771     0.0805    77.1419     2.5165
  627.0000    16.0854    14.7165   -38.9302     8.7065     0.0738     0.0746    78.7871     2.5140
  627.5000    15.9804    14.6187   -39.2243     8.7068     0.0695     0.0656    81.7736     2.5223
  628.0000    15.8703    14.4239   -39.6661     8.7071     0.0662     0.0580    83.7169     2.5299
  628.5000    15.7207    14.4288   -39.8094     8.7074     0.0759     0.0551    81.6364     2.5321
  629.0000    15.5712    14.3340   -39.8020     8.7077     0.0762     0.0551    79.3711     2.5111
  629.5000    15.4216    14.2400   -39.9468     8.7080     0.0771     0.0552    76.8664     2.5134
  630.0000    15.2720    14.1467   -40.2379     8.7083     0.0807     0.0537    77.4119     2.5082
  630.5000    15.1215    14.0539   -40.5305     8.7087     0.0798     0.0507    79.4785     2.5030
  631.0000    14.8118    14.0588   -40.9723     8.7089     0.0785     0.0477    80.1770     2.5052
  631.5000    14.4254    13.9666   -41.2649     8.7092     0.0776     0.0387    80.4810     2.5128
  632.0000    14.2297    13.8750   -41.4097     8.7095     0.0767     0.0237    80.9339     2.5158
  632.5000    14.0366    13.7839   -41.1038     8.7099     0.0774     0.0192    81.3869     2.5083
  633.0000    13.8360    13.6935   -40.6501     8.7101     0.0796     0.0208    80.3496     2.5016
  633.5000    13.6582    13.6037   -40.4949     8.7104     0.0830     0.0223    78.2691     2.4986
  634.0000    13.4735    13.5948   -40.4889     8.7107     0.0878     0.0254    77.2302     2.4911
  634.5000    13.2907    13.5031   -40.7815     8.7110     0.0902     0.0284    79.4731     2.4904
  635.0000    13.2009    13.3378   -41.6726     8.7113     0.0902     0.0284    80.8203     2.4897
  635.5000    13.1123    13.1599   -41.6652     8.7116     0.0893     0.0285    83.8068     2.4859
  636.0000    13.1157    12.8927   -41.5100     8.7119     0.0890     0.0283    85.8991     2.4893
  636.5000    13.1185    12.6320   -41.4663     8.7122     0.0890     0.0255    87.6934     2.4951
  637.0000    13.1212    12.3776   -41.3703     8.7125     0.0917     0.0270    85.7619     2.4778
  637.5000    12.5890    12.1272   -40.4354     8.7128     0.0977     0.0346    83.0852     2.4748
  638.0000    11.3475    11.8820   -42.6965     8.7131     0.1023     0.0436    82.7928     2.4741
  638.5000    10.2996    11.4815   -42.3568     8.7134     0.1191     0.0482    86.2266     2.4561
  639.0000     9.0927    10.7915   -41.7734     8.7098     0.1230     0.0437    93.0880     2.4411
