~VERSION INFORMATION
 VERS.                2.0:   CWLS LOG ASCII STANDARD - VERSION 2.0
 WRAP.                 NO:   ONE LINE PER DEPTH STEP
~WELL INFORMATION
#MNEM.UNIT      DATA TYPE    INFORMATION
#----------   ------------   ------------------------------
 STRT.F           32.0000:   START DEPTH
 STOP.F          571.0000:   STOP DEPTH
 STEP.F            0.5000:   STEP LENGTH
 NULL.          -999.2500:   NO VALUE
 COMP. FENIX & SCISSON INCORP.:   COMPANY
 WELL.      NPR-3 #21-S-3:   WELL
 FLD .             TEAPOT:   FIELD
 LOC .       S3 T38N R78W:   LOCATION
 CNTY.            NATRONA:   COUNTY
 STAT.            WYOMING:   STATE
 CTRY. UNITED STATES OF AMERICA:   COUNTRY
 SRVC.           BIRDWELL:   SERVICE COMPANY
 DATE.        25-JUL-1978:   LOGDATE
 API .       490251067100:   API NUMBER
~CURVE INFORMATION
#MNEM.UNIT       API CODE    CURVE DESCRIPTION
#----------   ------------   ------------------------------
 DEPT.F                  :   
 CALD.IN     45 280 60 00:   CALIPER FROM DENSITY LOG
 CORR.G/C3   45 356 01 00:   DENSITY CORRECTION
 DPHI.DEC    45 890 10 00:   DENSITY POROSITY LIMESTONE
 GRD .GAPI   45 310 01 00:   GAMMA RAY FROM DENSITY LOG
 RHOB.G/C3   45 350 01 00:   BULK DENSITY
 ILD .OHMM   05 120 46 00:   INDUCTION LOG DEEP
 SN  .OHMM   05 040 16 00:   SHORT NORMAL 16"
 SPR .MV     05 010 01 00:   SPONTANEOUS POTENTIAL FROM RES.
 NPHI.DEC    42 890 01 00:   NEUTRON POROSITY LIMESTONE
~PARAMETER INFORMATION
#MNEM.UNIT          VALUE    DESCRIPTION
#----------   ------------   ------------------------------
 PD  .                 GL:   PERMANENT DATUM
 EPD .F              5203:   ELEVATION PERMANENT DATUM
 LMF .                 KB:   LOG MEASURED FROM
 DAPD.F                 4:   FEET ABOVE PERMANENT DATUM
 DMF .                 KB:   DRILLING MEASURED FROM
 EKB .F              5207:   KELLING BUSHING
 EGL .F              5203:   GROUND LEVEL
 DATE.        25-JUL-1978:   RUN DATE
 RUN .                  1:   RUN NUMBER
 DD  .F               565:   DEPTH DRILLER
 DL  .F               573:   DEPTH LOGGER
 BLI .F               566:   BOTTOM LOG INTERVAL
 TLI .F                46:   TOP LOG INTERVAL
 CS  .IN            8.625:   CASING SIZE
 CBD .F                40:   CASING BOTTOM DRILLER
 CBL .F                48:   CASING BOTTOM LOGGER
 BS  .IN            7.875:   BIT SIZE
 BSD .F               565:   BIT SIZE AT DEPTH
 DFT .                KCL:   DRILLING FLUID TYPE
 DFD .                8.6:   DRILLING FLUID DENSITY
 DFV .                 30:   DRILLING FLUID VISCOSITY
 DFPH.                  9:   DRILLING FLUID PH
 MSS .           FLOWLINE:   MUD SAMPLE SOURCE
 LUN .               2958:   LOGGING UNIT NUMBER
 LUL .               CASP:   LOGGING UNIT LOCATION
 WITN.           MCGINLEY:   WITNESSED BY
 CLNT.            A2DTECH:   CLIENT CODE
 ORIG.           5" PRINT:   ORIGIN OF DATA
 UWI .       490251067100:   UNIQUE WELL ID
 DICO. A2D Technologies, Inc.:   DIGITIZING COMPANY
~OTHER INFORMATION
~A   DEPT     CALD       CORR       DPHI         GRD      RHOB        ILD         SN        SPR       NPHI   
# ...
  360.5000     7.9529     0.0123     0.1288   111.2024     2.4754     7.6035     7.5198   -47.9136     0.3674
  361.0000     7.9675     0.0155     0.1381   110.7538     2.4664     6.8145     7.4218   -47.8963     0.3572
  361.5000     7.9821     0.0349     0.1360   110.0045     2.4604     6.3652     7.2748   -47.4332     0.3554
  362.0000     7.9966     0.0529     0.1300   109.5475     2.4627     6.2391     7.0816   -47.2673     0.3554
  362.5000     8.0112     0.0604     0.1249   106.7543     2.4725     6.2434     6.7954   -47.2500     0.3686
  363.0000     8.0108     0.0680     0.1243   105.2045     2.4755     6.2485     6.6199   -47.0841     0.3850
  363.5000     8.0255     0.0770     0.1279   104.7555     2.4755     6.3394     6.7163   -46.7697     0.3935
  364.0000     8.0250     0.0800     0.1321   104.9071     2.4739     6.5209     6.8141   -46.6033     0.3970
  364.5000     8.0245     0.0905     0.1336   105.8094     2.4673     6.8006     7.0578   -46.1364     0.3539
  365.0000     8.0241     0.0920     0.1285   108.5136     2.4636     7.5460     7.4117   -45.8219     0.3317
  365.5000     8.0387     0.0889     0.1192   108.8383     2.4666     8.2018     7.8914   -45.3589     0.3260
  366.0000     8.4592     0.0831     0.1153   107.7658     2.4824     8.7322     8.4022   -45.1930     0.3117
  366.5000     9.0904     0.0816     0.1150   103.6031     2.4921     9.0531     8.8846   -44.8785     0.3105
  367.0000     8.0222     0.0816     0.1156   100.4113     2.4951     9.4338     9.4646   -44.7126     0.3129
  367.5000     7.8263     0.0831     0.1168   101.1639     2.4892     9.5711     9.8045   -44.3981     0.3132
  368.0000     7.7657     0.0831     0.1189   101.6158     2.4862     9.7774     9.9423   -44.0674     0.3123
  368.5000     7.7803     0.0831     0.1231   102.8185     2.4832     9.9197    10.0162   -43.9135     0.3108
  369.0000     7.7287     0.0922     0.1279   104.4716     2.4800    10.0641     9.9540   -43.7476     0.3108
  369.5000     7.5989     0.0997     0.1310   105.6743     2.4713    10.4237    10.0313   -43.4331     0.3096
  370.0000     7.5834     0.1027     0.1372   106.4265     2.4668    10.7962    10.0380   -42.6729     0.3084
  370.5000     7.5829     0.1027     0.1468   106.7282     2.4594    11.1097    10.0448   -41.6154     0.3057
  371.0000     7.5825     0.0997     0.1576   106.8799     2.4481    11.4251    10.0515   -41.0038     0.2913
  371.5000     7.5670     0.0952     0.1612   106.7315     2.4369    11.5913    10.0584   -40.2436     0.2826
  372.0000     7.5516     0.0817     0.1690   105.6819     2.4250    11.7600    10.0650   -39.3204     0.2796
  372.5000     7.5511     0.0682     0.1888   102.5302     2.4033    11.6851    10.0026   -38.2730     0.2806
  373.0000     7.5356     0.0592     0.2088    99.3785     2.3793    11.6146     9.9405   -37.8099     0.3150
  373.5000     7.5352     0.0578     0.2248    96.2269     2.3483    11.5425     9.9488   -36.9011     0.3237
  374.0000     7.5347     0.0578     0.2464    91.1232     2.3157    11.5503     9.9555   -36.1409     0.3240
  374.5000     7.5342     0.0528     0.2574    83.9175     2.2798    11.6380     9.9622   -35.3806     0.3216
  375.0000     7.5338     0.0273     0.2607    70.8559     2.2670    11.5657     9.9689   -34.4718     0.3024
  375.5000     7.5485     0.0218     0.2688    69.7893     2.2611    11.7360     9.9756   -33.7116     0.2955
  376.0000     7.5479     0.0218     0.2712    69.5078     2.2551    11.9890    10.1247   -33.0877     0.2871
  376.5000     7.5475     0.0218     0.2673    69.5092     2.2484    12.1635    10.4229   -32.4839     0.2856
  377.0000     7.5471     0.0203     0.2535    69.5107     2.2596    12.5117    10.7850   -32.6152     0.2850
  377.5000     7.5316     0.0158     0.2451    69.6623     2.2754    13.0484    11.0940   -32.7508     0.2835
  378.0000     7.5160     0.0114     0.2367    69.9641     2.2896    13.7021    11.1782   -32.8821     0.2763
  378.5000     7.5306     0.0084     0.2314    70.2658     2.3017    14.3947    11.2631   -33.0134     0.2662
  379.0000     7.5753     0.0099     0.2151    70.8679     2.3109    15.3359    11.3467   -33.4376     0.2620
  379.5000     7.6500     0.0084     0.2118    71.3228     2.3204    15.8693    11.3562   -33.7174     0.2614
  380.0000     7.7097     0.0054     0.2070    71.6216     2.3317    16.0976    11.3639   -34.2945     0.2617
  380.5000     7.7244     0.0129     0.2016    72.5243     2.3429    15.4587    11.3716   -34.2729     0.2620
  381.0000     7.7540     0.0235     0.1918    74.3276     2.3550    14.9453    11.4581   -34.1070     0.2629
  381.5000     7.7535     0.0295     0.1840    75.8305     2.3640    14.4489    11.3085   -34.0897     0.2654
  382.0000     7.7681     0.0325     0.1879    77.0332     2.3673    14.2605    11.1612   -33.7752     0.2737
  382.5000     7.7676     0.0340     0.2160    77.3349     2.3520    14.0734    11.0157   -33.4607     0.2751
  383.0000     7.7521     0.0340     0.2209    77.3364     2.3281    13.9877    10.8740   -32.9977     0.2754
  383.5000     7.7216     0.0355     0.2330    77.6382     2.3236    13.9994    10.9566   -32.3860     0.2787
  384.0000     7.7212     0.0356     0.2544    78.7027     2.3143    14.1056    10.9639   -31.9148     0.2928
  384.5000     7.7057     0.0521     0.2466    79.4429     2.2742    13.6371    10.9713   -31.3070     0.3012
  385.0000     7.6902     0.0836     0.2352    79.1441     2.2672    13.1842    10.9787   -30.9925     0.3024
  385.5000     7.6747     0.0566     0.2271    75.8426     2.2975    13.1930    10.9863   -30.8266     0.3012
  386.0000     7.6592     0.0326     0.2181    72.6909     2.3155    13.2019    10.9952   -30.6607     0.2697
  386.5000     7.6587     0.0311     0.2145    69.6893     2.3275    13.4868    11.0026   -30.6434     0.2584
  387.0000     7.6583     0.0296     0.2127    70.1412     2.3328    13.9810    11.0100   -30.3290     0.2569
  387.5000     7.6578     0.0327     0.2136    73.1457     2.3350    14.3707    11.0174   -29.2716     0.2572
  388.0000     7.6574     0.0372     0.2176    76.4505     2.3358    14.3804    11.0248   -28.5052     0.2665
  388.5000     7.6419     0.0479     0.2409    78.4039     2.3168    14.3900    11.1085   -27.8990     0.2778
  389.0000     7.6264     0.0552     0.2502    77.6546     2.2965    14.3007    11.1159   -27.7295     0.2796
  389.5000     7.5809     0.0567     0.2523    77.0558     2.2699    14.2097    11.1235   -27.4150     0.2778
  390.0000     7.5353     0.0477     0.2643    76.4567     2.2475    14.1236    11.1311   -27.8478     0.2739
  390.5000     7.5198     0.0418     0.2424    75.1068     2.2775    14.1334    11.2949   -28.7177     0.2725
  391.0000     7.5193     0.0448     0.2088    72.8560     2.2842    14.2520    11.3025   -29.5919     0.2746
  391.5000     7.5339     0.0508     0.2142    72.2569     2.3150    14.4502    11.3100   -29.5746     0.2871
  392.0000     7.5335     0.0538     0.2181    73.1592     2.3382    14.7618    11.3176   -29.5572     0.2931
  392.5000     7.5482     0.0614     0.2249    75.4129     2.3195    14.5671    11.3252   -29.5394     0.2958
  393.0000     7.5628     0.0844     0.2308    79.0541     2.3090    14.3798    11.2531   -29.6713     0.2976
  393.5000     7.5622     0.0959     0.2424    82.9237     2.3023    14.1901    11.2625   -30.0955     0.2976
  394.0000     7.5768     0.1094     0.2478    83.0750     2.2944    14.0077    11.1927   -30.6746     0.2976
  394.5000     7.5764     0.1109     0.2448    81.1248     2.2807    13.9208    11.4345   -31.8454     0.2979
  395.0000     7.5609     0.1110     0.2172    79.3245     2.3031    14.1432    11.6830   -32.5855     0.2982
  395.5000     7.5453     0.1020     0.2028    78.4251     2.3211    14.9360    11.7717   -32.8509     0.3030
  396.0000     7.5299     0.0885     0.1819    77.6758     2.3481    15.3636    11.9431   -32.8293     0.3090
  396.5000     7.5294     0.0780     0.1705    78.5781     2.3871    15.3739    12.0338   -33.2577     0.3144
