~VERSION INFORMATION
 VERS.                2.0:   CWLS LOG ASCII STANDARD - VERSION 2.0
 WRAP.                 NO:   ONE LINE PER DEPTH STEP
~WELL INFORMATION
#MNEM.UNIT      DATA TYPE    INFORMATION
#----------   ------------   ------------------------------
 STRT.F            0.5000:   START DEPTH
 STOP.F          696.0000:   STOP DEPTH
 STEP.F            0.5000:   STEP LENGTH
 NULL.          -999.2500:   NO VALUE
 COMP. LAWRENCE/ALLISON INC:   COMPANY
 WELL. SX 11 WP #26-44-11:   WELL
 FLD .             TEAPOT:   FIELD
 LOC .      S11 T38N R78W:   LOCATION
 CNTY.            NATRONA:   COUNTY
 STAT.            WYOMING:   STATE
 CTRY. UNITED STATES OF AMERICA:   COUNTRY
 SRVC.      Dresser Atlas:   SERVICE COMPANY
 DATE.        08-SEP-1984:   LOGDATE
 API .       490251097600:   API NUMBER
~CURVE INFORMATION
#MNEM.UNIT       API CODE    CURVE DESCRIPTION
#----------   ------------   ------------------------------
 DEPT.F                  :   
 AC  .US/F   60 520 00 00:   ACCOUSTIC
 SPR .MV     07 010 01 00:   SPONTANEOUS POTENTIAL FROM RES.
 RILD.OHMM   07 120 46 00:   RESISTIVITY INDUCTION LOG DEEP
 RILM.OHMM   07 120 44 00:   RESISTIVITY INDUCTION LOG MEDIUM
 RFOC.OHMM   07 220 04 00:   RESISTIVITY FOCUSED LOG
 GRR .GAPI   07 310 01 00:   GAMMA RAY FROM RESISTIVITY
 CALD.IN     45 280 60 00:   CALIPER FROM DENSITY LOG
 DEN .G/C3   45 350 01 00:   COMPENSATED BULK DENSTIY
 CORR.G/C3   45 356 01 00:   DENSITY CORRECTION
 PORD.DEC    45 890 12 00:   POROSITY DENSITY SANDSTONE
 CNC .DEC    42 890 03 00:   NEUTRON POROSITY SANDSTONE
~PARAMETER INFORMATION
#MNEM.UNIT          VALUE    DESCRIPTION
#----------   ------------   ------------------------------
 PD  .                 GL:   PERMANENT DATUM
 EPD .F              5186:   ELEVATION PERMANENT DATUM
 LMF .                 GL:   LOG MEASURED FROM
 DMF .                 GL:   DRILLING MEASURED FROM
 EGL .F              5186:   GROUND LEVEL
 DATE.         8-SEP-1984:   RUN DATE
 RUN .                  1:   RUN NUMBER
 DD  .F               712:   DEPTH DRILLER
 DL  .F               695:   DEPTH LOGGER
 BLI .F               693:   BOTTOM LOG INTERVAL
 CS  .IN            8.625:   CASING SIZE
 CBD .F                40:   CASING BOTTOM DRILLER
 CBL .F                45:   CASING BOTTOM LOGGER
 BS  .IN            7.875:   BIT SIZE
 BSD .F               712:   BIT SIZE AT DEPTH
 DFT .          KCL WATER:   DRILLING FLUID TYPE
 MSS .           FLOWLINE:   MUD SAMPLE SOURCE
 RMS .OHMM            .22:   RESISTIVITY MUD SAMPLE
 MST .F                72:   MUD SAMPLE TEMPERATURE
 RMF .OHMM            .17:   RESISTIVITY MUD FILTRATE SAMPLE
 MFST.F                72:   MUD FILTRATE SAMPLE TEMPERATURE
 RMC .OHMM            .28:   RESISTIVITY MUD CAKE
 MCST.F                72:   MUD CAKE SAMPLE TEMPERATURE
 MFSS.               CALC:   MUD FILTRATE SAMPLE SOURCE
 MCSS.               CALC:   MUD CAKE SAMPLE SOURCE
 RMB .OHMM            .18:   RESISTIVITY MUD AT BHT
 BHT .F                90:   BOTTOM HOLE TEMPERATURE
 TCS .HRS               3:   TIME CURCULATED STOPPED
 MRT .F                90:   MAXIMUM RECORDED TEMPERATURE
 LUN .               6274:   LOGGING UNIT NUMBER
 LUL .               GLTE:   LOGGING UNIT LOCATION
 ENGI.             RAUTIO:   RECORDING ENGINEER
 WITN.           JENNINGS:   WITNESSED BY
 CLNT.            A2DTECH:   CLIENT CODE
 ORIG. 1", 2', 2.5", 5" PRNT:   ORIGIN OF DATA
 UWI .       490251097600:   UNIQUE WELL ID
 DICO. A2D Technologies, Inc.:   DIGITIZING COMPANY
~OTHER INFORMATION
~A    DEPT      AC        SPR       RILD       RILM       RFOC         GRR      CALD        DEN       CORR       PORD        CNC   
# ...
   61.5000    82.3310     1.8760    11.3640    12.4220    10.9540    75.5445     7.9670     2.3220     0.0330     0.2130     0.3001
   62.0000    95.4780     1.7280    11.2920    12.1880    10.8540    75.5502     7.9480     2.3210     0.0100     0.2120     0.2997
   62.5000   183.4390     1.4330    11.2120    11.8750    10.7060    76.7411     7.9290     2.3230     0.0060     0.2120     0.2995
   63.0000   228.1470     0.8600    11.1320    11.5620    10.5470    79.4144     7.9190     2.3270    -0.0030     0.2090     0.2966
   63.5000   225.1750     0.1860    11.0530    11.4060    10.3870    81.7905     7.9090     2.3320    -0.0160     0.2050     0.2894
   64.0000   218.7850    -2.1390    10.9730    11.3180    10.2270    80.6110     7.9000     2.3380    -0.0140     0.1990     0.2749
   64.5000   239.9000    -4.4430    10.8930    11.2290    10.0840    80.3195     7.8910     2.3490    -0.0020     0.1920     0.2709
   65.0000   239.8690    -5.0460    10.7880    11.1400    10.1060    78.2521     7.8910     2.3590     0.0080     0.1920     0.2757
   65.5000   239.8420    -5.1630    10.6570    11.0510    10.1260    75.5911     7.8910     2.3560     0.0040     0.1940     0.2769
   66.0000   239.8140    -5.0920    10.4610    10.9540    10.1450    74.7084     7.8910     2.3530    -0.0010     0.1950     0.2735
   66.5000   239.7860    -4.5050    10.5060    10.9180    10.1650    74.1206     7.8910     2.3560     0.0020     0.1930     0.2731
   67.0000   239.7580    -3.9320    10.5950    10.8790    10.1850    75.6097     7.8910     2.3600     0.0090     0.1910     0.2820
   67.5000   239.7310    -3.3630    10.6840    10.8400    10.2050    77.9858     7.8890     2.3590     0.0160     0.1920     0.2790
   68.0000   239.7010    -2.7940    10.7730    10.8010    10.2250    78.2868     7.8840     2.3530     0.0160     0.1960     0.2718
   68.5000   205.8440    -2.2770    10.8630    10.7610    10.2450    77.1074     7.8800     2.3490     0.0080     0.1990     0.2705
   69.0000   169.9870    -2.1210    10.9520    10.7220    10.2640    78.0039     7.8760     2.3480     0.0130     0.1990     0.2787
   69.5000   139.7010    -1.9750    11.0410    10.6830    10.2840    75.6392     7.8720     2.3490     0.0210     0.1990     0.2818
   70.0000   125.9810    -1.7340    11.1300    10.6560    10.3040    73.2746     7.8740     2.3480     0.0100     0.1990     0.2802
   70.5000   115.3000    -1.1810    11.3620    11.0270    10.3240    72.9830     7.8760     2.3470    -0.0020     0.1990     0.2743
   71.0000   110.0860    -0.6900    11.5670    11.3130    10.3440    74.4721     7.8780     2.3490    -0.0030     0.1970     0.2678
   71.5000   105.9200    -0.5120    11.7710    11.5990    10.3660    75.6630     7.8810     2.3560     0.0010     0.1920     0.2631
   72.0000   101.6530    -0.3450    11.9760    11.8850    10.5800    78.0391     7.8830     2.3660     0.0040     0.1850     0.2686
   72.5000    97.0720    -0.1440    12.2360    12.1710    10.8870    78.6364     7.8860     2.3820     0.0000     0.1770     0.2721
   73.0000    98.9020     0.0770    12.6250    12.4570    11.1930    75.9774     7.8880     2.3970    -0.0050     0.1690     0.2676
   73.5000   103.6880     0.3080    13.0150    12.7430    11.4690    72.4275     7.8910     2.4070    -0.0010     0.1630     0.2592
   74.0000   108.4740     0.7340    13.4040    13.0280    12.4390    67.6925     7.8910     2.4180     0.0070     0.1570     0.2401
   74.5000   110.6180     1.4270    13.7930    13.2860    13.4080    64.1417     7.8910     2.4280     0.0150     0.1520     0.2385
   75.0000   107.5900     1.3200    14.1830    13.8840    13.6640    65.0373     7.8910     2.4390     0.0230     0.1450     0.2422
   75.5000   103.7900     0.7680    14.8290    14.4270    13.9480    68.3032     7.8910     2.4490     0.0300     0.1380     0.2430
   76.0000    99.9900     0.3190    15.5850    15.2440    14.2330    71.8645     7.8910     2.4630     0.0330     0.1300     0.2347
   76.5000    95.4780     0.1590    16.4490    16.3340    14.6150    74.2405     7.8910     2.4840     0.0330     0.1200     0.2192
   77.0000    93.5480     0.0370    17.5640    17.4230    15.2270    74.5416     7.8910     2.5140     0.0230     0.1040     0.2130
   77.5000    91.6930    -0.0860    18.6790    18.5130    16.2630    71.2900     7.8910     2.5440     0.0080     0.0840     0.2118
   78.0000    88.9120    -0.2680    19.0140    18.8400    21.0540    68.6290     7.8910     2.5640    -0.0050     0.0710     0.2126
   78.5000    85.5230    -0.4510    18.6100    18.8400    25.4100    66.5597     7.8910     2.5440     0.0030     0.0800     0.2301
   79.0000    82.1340    -0.6450    18.1600    18.8400    26.7160    67.4552     7.8910     2.5080     0.0080     0.0970     0.2439
   79.5000    79.7770    -0.7080    17.6660    17.8150    22.8230    68.9434     7.8910     2.4720     0.0070     0.1160     0.2663
   80.0000    82.9460    -0.3480    16.8340    16.6770    19.2840    70.1343     7.8910     2.4420     0.0100     0.1360     0.2774
   80.5000    88.8960    -0.0710    15.9100    15.5380    15.3910    72.5104     7.8910     2.4110     0.0180     0.1630     0.2745
   81.0000    94.8460     0.2220    14.9850    14.3990    14.2970    73.4050     7.8910     2.3840     0.0260     0.1780     0.2732
   81.5000   100.7960     0.3130    14.0610    13.2610    13.0820    73.4107     7.8910     2.3560     0.0130     0.1930     0.3114
   82.0000   105.4060     0.8190    13.3960    12.0080    11.8670    73.7136     7.8910     2.3380    -0.0130     0.2030     0.3193
   82.5000   108.4060     1.8260    12.8430    11.8880    11.0550    74.6082     7.8910     2.3310    -0.0250     0.2080     0.3073
   83.0000   111.4060     1.8780    12.2900    11.7540    11.0040    76.6880     7.8910     2.3290    -0.0270     0.2090     0.3001
   83.5000   113.0080     1.1690    11.6810    11.6210    10.9540    78.4715     7.8910     2.3310    -0.0160     0.2080     0.3072
   84.0000   113.1170     0.6910    11.7100    11.4870    11.0670    80.8485     7.8910     2.3360    -0.0030     0.2060     0.3200
   84.5000   113.2070     0.6910    11.7420    11.3530    11.1700    82.0395     7.8910     2.3380    -0.0070     0.2040     0.3221
   85.0000   113.0080     0.6900    11.7890    11.2370    11.2730    82.0452     7.8910     2.3370    -0.0280     0.2040     0.3233
   85.5000   112.2660     0.2310    11.7260    11.1600    11.3760    81.7536     7.8900     2.3370    -0.0310     0.2040     0.3242
   86.0000   111.5780    -0.6830    11.6000    11.0840    11.4690    80.8704     7.8870     2.3420    -0.0190     0.2030     0.3115
   86.5000   110.8170    -1.5940    11.4730    11.0070    11.0550    82.0632     7.8840     2.3490    -0.0060     0.1970     0.3035
   87.0000   110.5190    -2.5070    11.3470    10.7680    10.4040    81.7708     7.8810     2.3540     0.0020     0.1940     0.2965
   87.5000   110.4180    -3.4280    11.2200    10.1480     9.6810    80.8885     7.8790     2.3600     0.0060     0.1910     0.2834
   88.0000   111.3190    -4.4130    10.9050     9.5280     8.9580    82.9693     7.8760     2.3690     0.0010     0.1870     0.2793
   88.5000   112.3190    -5.6920     9.9570     8.9080     8.2340    87.7167     7.8730     2.3890    -0.0140     0.1760     0.2870
   89.0000   114.4840    -6.9500     8.8190     8.2890     7.5490    90.0928     7.8710     2.4000    -0.0280     0.1700     0.3104
   89.5000   117.7700    -8.2050     7.6800     7.6690     7.5140    88.9133     7.8710     2.4020    -0.0430     0.1660     0.3127
   90.0000   121.0560    -9.4580     6.8540     7.1110     7.8280    84.4745     7.8710     2.4030    -0.0570     0.1660     0.3053
   90.5000   121.9720   -10.5980     6.7780     6.9900     8.1140    81.8136     7.8710     2.4010    -0.0560     0.1660     0.3056
   91.0000   121.1830   -11.0160     6.7080     6.8810     8.3140    80.9295     7.8710     2.3990    -0.0380     0.1660     0.3055
   91.5000   119.6830   -11.4010     6.6380     6.7710     8.0070    86.5667     7.8710     2.4010    -0.0160     0.1650     0.3125
