~VERSION INFORMATION
 VERS.                2.0:   CWLS LOG ASCII STANDARD - VERSION 2.0
 WRAP.                 NO:   ONE LINE PER DEPTH STEP
~WELL INFORMATION
#MNEM.UNIT      DATA TYPE    INFORMATION
#----------   ------------   ------------------------------
 STRT.F           20.0000:   START DEPTH
 STOP.F          678.0000:   STOP DEPTH
 STEP.F            0.5000:   STEP LENGTH
 NULL.          -999.2500:   NO VALUE
 COMP. FENIX & SCISSON INC:   COMPANY
 WELL. 27-42 SX 11 WO #27-11:   WELL
 FLD .        TEAPOT DOME:   FIELD
 LOC .      S11 T38N R78W:   LOCATION
 CNTY.            NATRONA:   COUNTY
 STAT.            WYOMING:   STATE
 CTRY. UNITED STATES OF AMERICA:   COUNTRY
 SRVC.      Dresser Atlas:   SERVICE COMPANY
 DATE.        13-AUG-1985:   LOGDATE
 API .       490251083800:   API NUMBER
~CURVE INFORMATION
#MNEM.UNIT       API CODE    CURVE DESCRIPTION
#----------   ------------   ------------------------------
 DEPT.F                  :   
 RHOB.G/C3   45 350 01 00:   BULK DENSITY
 CORR.G/C3   45 356 01 00:   DENSITY CORRECTION
 CALD.IN     45 280 60 00:   CALIPER
 GRD .GAPI   45 310 01 00:   GAMMA RAY FROM DENSITY LOG
 DPOR.DEC    45 890 12 00:   DENSITY POROSITY SANDSTONE
 NPOR.DEC    42 890 03 00:   NEUTRON POROSITY SANDSTONE
 SPR .MV     07 010 01 00:   SPONTANEOUS POTENTIAL
 SFL .OHMM   07 220 01 00:   SHALLOW FOCUSED LOG RESISTIVITY
 ILD .OHMM   07 120 46 00:   INDUCTION LOG DEEP
 ILM .OHMM   07 120 44 00:   INDUCTION LOG MEDIUM
~PARAMETER INFORMATION
#MNEM.UNIT          VALUE    DESCRIPTION
#----------   ------------   ------------------------------
 PD  .                 GL:   PERMANENT DATUM
 EPD .F              5188:   ELEVATION PERMANENT DATUM
 LMF .                 KB:   LOG MEASURED FROM
 DAPD.F                 5:   FEET ABOVE PERMANENT DATUM
 DMF .                 KB:   DRILLING MEASURED FROM
 EKB .F              5193:   KELLING BUSHING
 EGL .F              5188:   GROUND LEVEL
 DATE.          8-13-1985:   RUN DATE
 RUN .                  8:   RUN NUMBER
 DD  .F               632:   DEPTH DRILLER
 BLI .F               598:   BOTTOM LOG INTERVAL
 TLI .F               303:   TOP LOG INTERVAL
 CBL .F               303:   CASING BOTTOM LOGGER
 BS  .IN              .75:   BIT SIZE
 BSD .F               632:   BIT SIZE AT DEPTH
 DFT .          KCL WATER:   DRILLING FLUID TYPE
 LUN .            HL-6274:   LOGGING UNIT NUMBER
 LUL .           GILLETTE:   LOGGING UNIT LOCATION
 ENGI.             RAUTIO:   RECORDING ENGINEER
 WITN.            SCHULTE:   WITNESSED BY
 CLNT.            A2DTECH:   CLIENT CODE
 ORIG.           2" PRINT:   ORIGIN OF DATA
 UWI .       490251083800:   UNIQUE WELL ID
 DICO. A2D Technologies, Inc.:   DIGITIZING COMPANY
~OTHER INFORMATION
~A   DEPT     RHOB       CORR       CALD        GRD       DPOR       NPOR        SPR        SFL        ILD          ILM 
# ...
  422.0000     2.4571     0.0376     9.0758   135.8489     0.1439     0.3635    -6.1732     4.9967     4.8766     4.4884
  422.5000     2.4949     0.0477     9.0714   139.0340     0.1181     0.3752    -6.1719     5.8341     5.0194     4.6450
  423.0000     2.5071     0.0430     9.0670   138.2043     0.1024     0.3866    -6.2124     6.8242     5.1659     4.8070
  423.5000     2.5021     0.0344     9.0626   136.1824     0.1055     0.3755    -6.3502     7.3699     5.3166     4.9747
  424.0000     2.4986     0.0315     9.0583   134.1061     0.1085     0.3626    -6.4854     7.2902     5.4716     5.1483
  424.5000     2.4971     0.0330     9.0539   130.5985     0.1111     0.3496    -6.6224     7.2189     5.6312     5.3279
  425.0000     2.4994     0.0353     9.0495   129.0810     0.1102     0.3448    -6.7594     7.1491     5.7991     5.5879
  425.5000     2.5034     0.0375     9.0451   127.5791     0.1077     0.3424    -6.8959     7.0930     5.7467     5.5297
  426.0000     2.5026     0.0399     9.0408   128.6908     0.1063     0.3411    -7.0328     7.1258     5.5310     5.2750
  426.5000     2.4956     0.0418     9.0364   130.4554     0.1103     0.3441    -7.1695     7.1938     5.3237     5.0321
  427.0000     2.5042     0.0433     9.0320   132.0824     0.1063     0.3485    -7.3068     7.2631     5.1236     4.8003
  427.5000     2.4988     0.0353     9.0276   132.3870     0.1127     0.3529    -7.4429     7.3489     4.9310     4.5792
  428.0000     2.4804     0.0278     9.0232   132.1722     0.1223     0.3532    -7.5793     7.2437     4.7457     4.3683
  428.5000     2.4617     0.0235     9.0189   131.4955     0.1319     0.3491    -7.7190     6.7197     4.5666     4.1671
  429.0000     2.4440     0.0252     9.0146   132.5092     0.1414     0.3509    -7.7731     5.8076     4.5666     4.0906
  429.5000     2.4368     0.0299     9.0099   132.2317     0.1463     0.3526    -7.7745     5.0187     4.5666     4.0906
  430.0000     2.4703     0.0342     9.0076   132.7095     0.1214     0.3544    -7.7210     4.2615     4.5666     4.3163
  430.5000     2.5027     0.0391     9.0054   133.8871     0.1036     0.3561    -7.6339     5.2990     4.5666     4.6815
  431.0000     2.4935     0.0351     9.0032   134.7931     0.1135     0.3529    -7.5508     7.6331     4.7970     5.0775
  431.5000     2.4783     0.0208     9.0008   132.5775     0.1271     0.3428    -7.4701     5.9040     5.0154     5.5071
  432.0000     2.4700     0.0205     8.9986   130.3957     0.0952     0.3328    -7.3870     6.1045     5.2438     5.9729
  432.5000     2.5199     0.0256     8.9963   127.8637     0.0984     0.3228    -7.3051     6.6632     5.4826     6.4782
  433.0000     2.5110     0.0274     8.9940   125.8285     0.1104     0.3127    -7.2233     7.2730     5.7323     7.0262
  433.5000     2.4974     0.0148     8.9917   124.0688     0.1066     0.3028    -7.1398     7.4944     5.9934     7.2243
  434.0000     2.5057     0.0176     8.9894   122.3058     0.0970     0.3081    -7.0606     7.6082     6.2381     7.2243
  434.5000     2.5222     0.0289     8.9871   122.2247     0.0874     0.3134    -6.9766     7.7398     6.3757     7.1845
  435.0000     2.5380     0.0391     8.9849   122.5894     0.0808     0.3187    -6.9728     7.8737     6.5027     7.0623
  435.5000     2.5458     0.0475     8.9826   123.7791     0.0848     0.3239    -6.9704     8.0098     6.6322     6.9423
  436.0000     2.5296     0.0426     8.9803   123.3085     0.0923     0.3252    -6.9720     8.0651     6.7642     6.8242
  436.5000     2.5192     0.0355     8.9780   122.6247     0.0952     0.3202    -6.9712     8.0651     6.8403     6.7082
  437.0000     2.5226     0.0314     8.9757   123.8055     0.0895     0.3156    -6.9713     8.0651     6.8053     6.5942
  437.5000     2.5323     0.0332     8.9734   123.6306     0.0866     0.3157    -6.9718     8.0651     6.7517     6.4821
  438.0000     2.5328     0.0354     8.9712   123.4188     0.0871     0.3163    -6.9698     8.0651     6.6984     6.3719
  438.5000     2.5326     0.0374     8.9688   124.7016     0.0864     0.3169    -6.9739     8.0982     6.6439     6.2636
  439.0000     2.5369     0.0397     8.9681   123.2568     0.0832     0.3172    -6.9795     8.1333     6.5911     6.2381
  439.5000     2.5409     0.0455     8.9681   120.7078     0.0837     0.3127    -7.1442     8.1685     6.7773     6.3441
  440.0000     2.5397     0.0467     8.9681   120.4163     0.0823     0.3072    -7.3070     8.2038     6.9641     6.5911
  440.5000     2.5398     0.0412     8.9681   122.8210     0.0757     0.3036    -7.4821     8.2135     6.8373     6.5608
  441.0000     2.5584     0.0430     8.9681   123.3853     0.0689     0.3099    -7.6679     8.1032     6.7175     6.4458
  441.5000     2.5650     0.0478     8.9681   121.9287     0.0718     0.3124    -7.7224     7.8756     6.5911     6.3328
  442.0000     2.5587     0.0525     8.9681   122.2939     0.0770     0.3083    -7.5235     7.6573     6.5911     6.2381
  442.5000     2.5509     0.0558     8.9681   123.9679     0.0808     0.3059    -7.3314     7.3581     6.7018     6.3536
  443.0000     2.5433     0.0532     8.9681   122.9537     0.0848     0.3140    -7.1611     7.5195     6.7997     6.3993
  443.5000     2.5353     0.0514     8.9681   124.6302     0.0904     0.3095    -7.0005     7.8004     6.8991     6.6296
  444.0000     2.5284     0.0420     8.9681   124.6289     0.0904     0.2954    -7.3294     8.0917     6.9999     6.8683
  444.5000     2.5176     0.0322     8.9681   123.6357     0.0983     0.2860    -7.6642     8.3665     7.0930     7.0930
  445.0000     2.5080     0.0207     8.9681   123.7318     0.1088     0.2836    -7.6121     8.3665     6.5389     6.5226
  445.5000     2.4983     0.0205     8.9681   124.7139     0.1048     0.2864    -7.3561     8.5214     6.0685     5.7868
  446.0000     2.5034     0.0250     8.9682   125.6457     0.1074     0.2900    -7.1081     9.0666     5.6319     5.1340
  446.5000     2.4936     0.0310     8.9683   121.9543     0.1188     0.2886    -6.8695     9.0340     5.2268     4.5549
  447.0000     2.4683     0.0256     8.9703   121.2137     0.1303     0.2860    -6.6207     8.3776     5.0054     4.0410
  447.5000     2.4391     0.0168     8.9720   123.6332     0.1541     0.2828    -6.3796     7.1126     5.0054     3.8715
  448.0000     2.3995     0.0094     8.9738   126.3603     0.1862     0.2869    -6.1368     3.4680     5.0054     4.1240
  448.5000     2.3716     0.0325     8.9756   129.1088     0.1687     0.2977    -5.8740     3.6750     5.1925     4.5325
  449.0000     2.4428     0.0688     8.9774   129.9091     0.1227     0.3198    -5.8420     4.3221     5.5629     4.9813
  449.5000     2.5256     0.1021     8.9792   132.6946     0.0697     0.3386    -6.0185     7.3000     5.9965     5.4747
  450.0000     2.5605     0.1043     8.9811   125.2732     0.0744     0.3285    -6.1761     9.1710     6.4660     6.0169
  450.5000     2.5464     0.0569     8.9829   119.0272     0.0824     0.3140    -6.3313     9.5131     6.9730     6.6128
  451.0000     2.5389     0.0435     8.9847   115.4123     0.0804     0.2789    -6.4925     9.5131     7.5191     7.2678
  451.5000     2.5501     0.0440     8.9865   112.4710     0.0771     0.2719    -6.6502     9.5131     8.1069     7.6399
  452.0000     2.5360     0.0401     8.9883   111.4414     0.0866     0.2738    -6.8099     9.4972     8.5326     7.6295
  452.5000     2.5284     0.0269     8.9901   112.9366     0.0919     0.2756    -6.9679     9.4474     8.4867     7.6312
  453.0000     2.5231     0.0238     8.9919   114.5596     0.0943     0.2749    -7.1246     9.3978     8.3627     7.6324
  453.5000     2.5177     0.0247     8.9937   116.1126     0.0965     0.2765    -7.2931     9.3345     8.3681     7.7759
  454.0000     2.5130     0.0256     8.9955   117.6896     0.0986     0.2780    -7.3847     9.3449     8.3665     7.7717
  454.5000     2.5075     0.0264     8.9973   118.7698     0.1009     0.2760    -7.2970     9.3494     8.3665     7.9969
  455.0000     2.5073     0.0276     8.9993   117.0770     0.1008     0.2733    -7.0268     9.3547     8.3665     8.2167
