~VERSION INFORMATION
 VERS.                2.0:   CWLS LOG ASCII STANDARD - VERSION 2.0
 WRAP.                 NO:   ONE LINE PER DEPTH STEP
~WELL INFORMATION
#MNEM.UNIT      DATA TYPE    INFORMATION
#----------   ------------   ------------------------------
 STRT.F           34.0000:   START DEPTH
 STOP.F         1014.5000:   STOP DEPTH
 STEP.F            0.5000:   STEP LENGTH
 NULL.          -999.2500:   NO VALUE
 COMP. FENIX & SCISSON INC:   COMPANY
 WELL.       NPR-3 #54-14:   WELL
 FLD .             TEAPOT:   FIELD
 LOC .      S14 T38N R78W:   LOCATION
 CNTY.            NATRONA:   COUNTY
 STAT.            WYOMING:   STATE
 CTRY. UNITED STATES OF AMERICA:   COUNTRY
 SRVC.            Unknown:   SERVICE COMPANY
 DATE.        20-APR-1978:   LOGDATE
 API .       490251062100:   API NUMBER
~CURVE INFORMATION
#MNEM.UNIT       API CODE    CURVE DESCRIPTION
#----------   ------------   ------------------------------
 DEPT.F                  :   
 SPR .MV     05 010 01 00:   SPONTANEOUS POTENTIAL FROM RES.
 SN  .OHMM   05 040 16 00:   SHORT NORMAL 16"
 ILD .OHMM   05 120 46 00:   INDUCTION LOG DEEP
 CALD.IN     45 280 60 00:   CALIPER
 GRD .GAPI   45 310 01 00:   GAMMA RAY FROM DENSITY LOG
 RHOB.G/C3   45 350 01 00:   BULK DENSITY
 DPOR.DEC    45 890 12 00:   DENSITY POROSITY SANDSTONE
 CORR.G/C3   45 356 01 00:   DENSITY CORRECTION
~PARAMETER INFORMATION
#MNEM.UNIT          VALUE    DESCRIPTION
#----------   ------------   ------------------------------
 PD  .                 GL:   PERMANENT DATUM
 EPD .F              5268:   ELEVATION PERMANENT DATUM
 LMF .                 KB:   LOG MEASURED FROM
 DAPD.F                 4:   FEET ABOVE PERMANENT DATUM
 DMF .                 KB:   DRILLING MEASURED FROM
 EKB .F              5272:   KELLING BUSHING
 EGL .F              5268:   GROUND LEVEL
 DATE.          4-20-1978:   RUN DATE
 RUN .                  1:   RUN NUMBER
 DD  .F              1030:   DEPTH DRILLER
 DL  .F              1021:   DEPTH LOGGER
 BLI .F              1014:   BOTTOM LOG INTERVAL
 TLI .F                50:   TOP LOG INTERVAL
 CS  .IN            8.625:   CASING SIZE
 CBD .F                40:   CASING BOTTOM DRILLER
 BS  .IN            7.875:   BIT SIZE
 BSD .F              1030:   BIT SIZE AT DEPTH
 DFT .                KCL:   DRILLING FLUID TYPE
 DFD .                8.6:   DRILLING FLUID DENSITY
 DFV .                 33:   DRILLING FLUID VISCOSITY
 DFPH.                 10:   DRILLING FLUID PH
 DFL .                  8:   DRILLING FLUID LOSS
 MSS .          FLOW LINE:   MUD SAMPLE SOURCE
 RMS .OHMM            .34:   RESISTIVITY MUD SAMPLE
 MST .F                64:   MUD SAMPLE TEMPERATURE
 RMF .OHMM            .36:   RESISTIVITY MUD FILTRATE SAMPLE
 MFST.F                60:   MUD FILTRATE SAMPLE TEMPERATURE
 RMC .OHMM            .48:   RESISTIVITY MUD CAKE
 MCST.F                68:   MUD CAKE SAMPLE TEMPERATURE
 MFSS.               MEAS:   MUD FILTRATE SAMPLE SOURCE
 MCSS.               MEAS:   MUD CAKE SAMPLE SOURCE
 RMB .OHMM            .29:   RESISTIVITY MUD AT BHT
 BHT .F                74:   BOTTOM HOLE TEMPERATURE
 TCS .HRS               6:   TIME CURCULATED STOPPED
 MRT .F                74:   MAXIMUM RECORDED TEMPERATURE
 LUN .               2958:   LOGGING UNIT NUMBER
 LUL .               CASP:   LOGGING UNIT LOCATION
 ENGI.             MILLER:   RECORDING ENGINEER
 WITN.           MCGINELY:   WITNESSED BY
 CLNT.            A2DTECH:   CLIENT CODE
 ORIG.       2", 5" PRINT:   ORIGIN OF DATA
 UWI .       490251062100:   UNIQUE WELL ID
 DICO. A2D Technologies, Inc.:   DIGITIZING COMPANY
~OTHER INFORMATION
~A   DEPT      SPR         SN        ILD       CALD         GRD      RHOB       DPOR       CORR   
# ...
  398.5000   -31.3963     2.0747     2.2963     7.5385   127.2478     2.1396     0.2987     0.0578
  399.0000   -30.8586     2.0556     2.3174     7.5361   118.2443     2.1371     0.2991     0.0712
  399.5000   -30.6063     2.0367     2.3503     7.6010   110.8391     2.1707     0.2994     0.0994
  400.0000   -30.3532     2.2131     2.4270     8.2952   103.3530     2.2422     0.2460     0.1120
  400.5000   -30.0990     2.4270     2.6496     7.6711    96.4286     2.3591     0.1968     0.0204
  401.0000   -29.9821     2.8505     3.2259     7.6373    96.2242     2.3547     0.1835     0.0052
  401.5000   -29.9798     3.3940     3.9275     7.6701    95.4231     2.3515     0.1846     0.0243
  402.0000   -29.9797     4.0412     4.7818     7.7017    90.5716     2.3503     0.1779     0.0516
  402.5000   -29.9790     4.8117     5.8219     7.7322    88.6745     2.3785     0.1645     0.0512
  403.0000   -29.9709     5.5908     6.4855     7.7671    84.9038     2.4114     0.1511     0.0398
  403.5000   -30.3138     5.9436     7.0699     7.8244    82.0261     2.4181     0.1463     0.0282
  404.0000   -30.7201     6.4564     7.7070     7.8823    83.4708     2.4241     0.1497     0.0168
  404.5000   -31.1310     7.4706     8.2048     7.9401    85.9695     2.4123     0.1587     0.0072
  405.0000   -31.5504     8.2808     8.2048     7.9983    86.1179     2.3916     0.1663     0.0093
  405.5000   -31.6879     7.8819     7.5079     8.0541    85.5930     2.3856     0.1683     0.0192
  406.0000   -31.8407     7.5871     6.7724     8.0429    89.5377     2.3805     0.1736     0.0214
  406.5000   -31.9966     7.2627     6.1111     8.0284    96.3373     2.3620     0.1817     0.0231
  407.0000   -32.1519     6.7608     5.5148     8.0143   103.1756     2.3410     0.1929     0.0276
  407.5000   -32.3309     6.2936     5.0778     8.0002   110.0725     2.3201     0.2041     0.0421
  408.0000   -32.1426     5.8586     4.9826     7.9862   116.5738     2.2994     0.2191     0.0726
  408.5000   -30.7645     5.4537     5.0199     7.9721   116.9047     2.2927     0.2030     0.0965
  409.0000   -29.2723     5.3176     5.0775     7.9581   104.8192     2.3432     0.1909     0.0426
  409.5000   -28.2399     5.2687     5.0236     7.9440    95.7737     2.3410     0.1915     0.0022
  410.0000   -27.3951     6.1007     4.9850     7.9300    91.0689     2.3528     0.1816     0.0013
  410.5000   -27.1266     6.8445     5.3700     7.9159    87.8812     2.3721     0.1725     0.0035
  411.0000   -27.0321     7.6790     5.9671     7.9022    86.6716     2.3771     0.1692     0.0141
  411.5000   -26.7915     8.1410     6.6304     7.8749    87.2722     2.3812     0.1681     0.0260
  412.0000   -26.4281     8.4733     7.3676     7.8412    88.4325     2.3853     0.1671     0.0337
  412.5000   -26.0639     8.8143     8.1867     7.7731    88.6740     2.3850     0.1708     0.0392
  413.0000   -25.6995     9.1693     8.7098     7.5656    87.9353     2.3755     0.1758     0.0505
  413.5000   -25.3353     9.5390     9.1687     7.3189    87.2136     2.3661     0.1799     0.0655
  414.0000   -24.9711     9.8296     9.5102     7.2047    86.8710     2.3639     0.1753     0.0835
  414.5000   -24.6069    10.1111     9.6630     7.4260    88.7076     2.3780     0.1672     0.1009
  415.0000   -24.2426    10.4007     9.8018     7.7093    90.6266     2.3897     0.1623     0.1021
  415.5000   -23.8775    10.6986     9.9426     7.8347    89.5671     2.3894     0.1640     0.1026
  416.0000   -23.5133    11.0216    10.0854     7.7876    87.8143     2.3820     0.1684     0.1031
  416.5000   -23.1887    11.0957    10.2303     7.7336    87.4851     2.3745     0.1745     0.1127
  417.0000   -23.1297    11.1702    10.3772     7.6807    89.3542     2.3701     0.1759     0.1273
  417.5000   -23.0642    11.2464    10.5262     7.6784    92.3786     2.3688     0.1763     0.1421
  418.0000   -22.9980    11.3232    10.6369     7.6787    95.5642     2.3627     0.1783     0.1569
  418.5000   -22.9317    11.4006    10.7487     7.6788    98.2297     2.3640     0.1756     0.1718
  419.0000   -22.8655    11.4785    10.8617     7.6788    98.1014     2.3888     0.1561     0.1799
  419.5000   -22.7993    11.5570    10.9759     7.6793    94.4077     2.4130     0.1431     0.1419
  420.0000   -22.7333    11.6360    11.0913     7.6821    92.8874     2.4288     0.1467     0.1014
  420.5000   -22.6672    11.7155    11.2173     7.6848    96.5536     2.4218     0.1497     0.0615
  421.0000   -22.5767    11.7956    11.3487     7.6875    98.0982     2.4168     0.1515     0.0373
  421.5000   -22.3406    11.8762    11.4816     7.6902    90.4097     2.4132     0.1564     0.0144
  422.0000   -22.1031    11.9574    11.6161     7.6929    89.5764     2.4036     0.1626     0.0111
  422.5000   -21.8658    12.0391    11.7521     7.6957    93.3099     2.3922     0.1687     0.0097
  423.0000   -21.6283    12.1214    11.8898     7.6988    96.7355     2.3807     0.1744     0.0099
  423.5000   -21.3919    12.2042    12.0290     7.6834    96.5022     2.3709     0.1747     0.0102
  424.0000   -21.2111    12.2876    12.1699     7.6657    93.9010     2.3711     0.1744     0.0104
  424.5000   -21.2148    12.3716    12.3124     7.6482    93.3678     2.3711     0.1742     0.0107
  425.0000   -21.2150    12.4562    12.4566     7.6515    94.4815     2.3711     0.1740     0.0109
  425.5000   -21.2151    12.5413    12.6025     7.6766    94.9611     2.3713     0.1727     0.0112
  426.0000   -21.2151    12.6270    12.7501     7.7015    95.4876     2.3780     0.1711     0.0114
  426.5000   -21.2151    12.7133    12.8995     7.7266    95.6332     2.3749     0.1749     0.0117
  427.0000   -21.2151    12.8002    13.0505     7.7516    91.3980     2.3700     0.1755     0.0120
  427.5000   -21.2151    12.8877    13.2034     7.7768    85.8892     2.3744     0.1717     0.0122
  428.0000   -21.2151    12.9758    13.3580     7.8020    80.3825     2.3768     0.1738     0.0125
  428.5000   -21.2151    13.0645    13.5145     7.8139    74.8936     2.3688     0.1778     0.0127
  429.0000   -21.2151    13.1538    13.6728     7.7938    70.7101     2.3608     0.1818     0.0130
  429.5000   -21.2151    13.2437    13.8329     7.7638    69.9131     2.3544     0.1835     0.0133
  430.0000   -21.2151    13.3342    14.1096     7.6683    69.5072     2.3589     0.1794     0.0134
  430.5000   -21.2151    13.4253    14.4455     7.5740    69.3090     2.3684     0.1748     0.0128
  431.0000   -21.2151    13.5045    14.7894     7.4819    69.2170     2.3754     0.1702     0.0122
  431.5000   -21.2151    13.3804    15.1416     7.4466    69.9515     2.3855     0.1643     0.0116
  432.0000   -21.2151    13.3118    15.5021     7.4143    72.4847     2.3930     0.1677     0.0110
  432.5000   -21.2150    13.2226    15.8712     7.3765    74.9796     2.3749     0.1739     0.0105
  433.0000   -21.2153    13.1340    16.0924     7.2283    76.7873     2.3604     0.1802     0.0099
  433.5000   -21.2137    13.0460    16.0924     7.0752    74.8235     2.3532     0.1865     0.0093
  434.0000   -21.3138    12.9586    15.7464     7.0287    71.5714     2.3457     0.1911     0.0087
  434.5000   -21.4627    12.8718    15.5102     7.1527    69.8052     2.3412     0.1933     0.0081
  435.0000   -21.6136    12.7855    15.6527     7.2794    72.5055     2.3378     0.1955     0.0076
  435.5000   -21.7644    12.6998    15.4181     7.4058    73.7380     2.3334     0.1985     0.0104
  436.0000   -21.9133    12.6147    15.1605     7.3670    73.2725     2.3242     0.2018     0.0137
  436.5000   -22.0130    12.5302    14.9278     7.3459    72.5792     2.3168     0.2043     0.0193
  437.0000   -22.0094    12.4463    14.8043     7.4550    71.0110     2.3265     0.1962     0.0241
  437.5000   -22.0219    12.3629    14.6819     7.5596    69.5254     2.3370     0.1915     0.0266
  438.0000   -22.3629    12.2800    14.5604     7.6641    69.5105     2.3382     0.1907     0.0308
  438.5000   -22.7176    12.2010    14.3120     7.7725    72.6793     2.3384     0.1903     0.0359
