~VERSION INFORMATION
 VERS.                2.0:   CWLS LOG ASCII STANDARD - VERSION 2.0
 WRAP.                 NO:   ONE LINE PER DEPTH STEP
~WELL INFORMATION
#MNEM.UNIT      DATA TYPE    INFORMATION
#----------   ------------   ------------------------------
 STRT.F            8.0000:   START DEPTH
 STOP.F          419.0000:   STOP DEPTH
 STEP.F            0.5000:   STEP LENGTH
 NULL.          -999.2500:   NO VALUE
 COMP. LAWRENCE/ALLISON INC:   COMPANY
 WELL.   62-46 -SX #10-10:   WELL
 FLD .             TEAPOT:   FIELD
 LOC .      S10 T38N R78W:   LOCATION
 CNTY.            NATRONA:   COUNTY
 STAT.            WYOMING:   STATE
 CTRY. UNITED STATES OF AMERICA:   COUNTRY
 SRVC.           Gearhart:   SERVICE COMPANY
 DATE.        27-MAY-1988:   LOGDATE
 API .       490251120800:   API NUMBER
~CURVE INFORMATION
#MNEM.UNIT       API CODE    CURVE DESCRIPTION
#----------   ------------   ------------------------------
 DEPT.F                  :   
 GRR .GAPI   07 310 01 00:   GAMMA RAY
 ILD .OHMM   07 120 46 00:   INDUCTION LOG DEEP
 ILM .OHMM   07 120 44 00:   INDUCTION LOG MEDIUM
~PARAMETER INFORMATION
#MNEM.UNIT          VALUE    DESCRIPTION
#----------   ------------   ------------------------------
 PD  .                 GL:   PERMANENT DATUM
 EPD .F              5157:   ELEVATION PERMANENT DATUM
 LMF .                 KB:   LOG MEASURED FROM
 DAPD.F                 5:   FEET ABOVE PERMANENT DATUM
 DMF .                 KB:   DRILLING MEASURED FROM
 EKB .F              5162:   KELLING BUSHING
 EGL .F              5157:   GROUND LEVEL
 DATE.        27-MAY-1988:   RUN DATE
 RUN .                  1:   RUN NUMBER
 DD  .F               449:   DEPTH DRILLER
 DL  .F               437:   DEPTH LOGGER
 BLI .F               419:   BOTTOM LOG INTERVAL
 CS  .IN            8.625:   CASING SIZE
 CBD .F                45:   CASING BOTTOM DRILLER
 CBL .F                45:   CASING BOTTOM LOGGER
 BS  .IN            7.875:   BIT SIZE
 BSD .F               449:   BIT SIZE AT DEPTH
 DFT .                AIR:   DRILLING FLUID TYPE
 TLAB.HRS            0910:   TIME LOGGER AT BOTTOM
 MRT .F                70:   MAXIMUM RECORDED TEMPERATURE
 LUN .               7597:   LOGGING UNIT NUMBER
 LUL .           GILLETTE:   LOGGING UNIT LOCATION
 ENGI.          HUCKFELDT:   RECORDING ENGINEER
 WITN.             STRONG:   WITNESSED BY
 CLNT.            A2DTECH:   CLIENT CODE
 ORIG.           5" PRINT:   ORIGIN OF DATA
 UWI .       490251120800:   UNIQUE WELL ID
 DICO. A2D Technologies, Inc.:   DIGITIZING COMPANY
~OTHER INFORMATION
~A    DEPT      GRR       ILD        ILM   
# ...
   99.0000   116.0327     9.1788     9.4814
   99.5000   115.7000     9.1770     9.4814
  100.0000   115.3729     9.1752     9.4814
  100.5000   114.7472     9.1752     9.4148
  101.0000   113.8194     9.1752     9.4148
  101.5000   113.1961     9.1752     9.4148
  102.0000   114.7844     9.1110     9.4148
  102.5000   116.5120     9.1110     9.4148
  103.0000   117.4144     9.1110     9.3488
  103.5000   117.0919     9.0473     9.3488
  104.0000   114.9465     8.9840     9.2832
  104.5000   114.3232     8.8587     9.2180
  105.0000   117.3492     8.7352     9.2180
  105.5000   118.5523     8.6741     9.1523
  106.0000   119.1503     8.5532     8.9620
  106.5000   116.3924     8.4933     8.8991
  107.0000   113.8204     8.4339     8.7747
  107.5000   111.4892     8.3701     8.7131
  108.0000   115.1277     8.2004     8.4711
  108.5000   116.9397     7.9733     8.2873
  109.0000   117.2298     7.8072     8.0071
  109.5000   116.2202     7.5379     7.7847
  110.0000   115.0697     7.3292     7.4103
  110.5000   116.8781     6.9777     7.1540
  111.0000   118.9945     6.6899     6.9536
  111.5000   119.8935     6.5505     6.9065
  112.0000   118.9655     6.6899     6.9553
  112.5000   119.8606     6.9289     7.1540
  113.0000   120.4549     7.3343     7.3583
  113.5000   120.4404     7.6983     7.6220
  114.0000   119.8171     7.9176     7.9026
  114.5000   117.2451     8.0295     8.1207
  115.0000   113.6962     8.1430     8.2359
  115.5000   113.0765     8.2004     8.4117
  116.0000   116.1025     8.2004     8.4711
  116.5000   116.0880     8.2004     8.4711
  117.0000   114.8554     8.2582     8.5310
  117.5000   115.1422     8.2004     8.5310
  118.0000   117.2586     8.2004     8.5913
  118.5000   119.6794     8.1937     8.5310
  119.0000   120.2740     8.0861     8.4711
  119.5000   118.9599     7.9733     8.4028
  120.0000   119.6323     7.9176     8.2359
  120.5000   120.2302     7.8072     8.0071
  121.0000   120.2121     7.6427     7.7847
  121.5000   118.6756     7.4328     7.5685
  122.0000   117.1390     7.1262     7.3033
  122.5000   120.1650     6.7845     6.9065
  123.0000   118.9329     6.5505     6.4369
  123.5000   117.3963     6.1494     6.0416
  124.0000   116.4686     5.8545     5.6308
  124.5000   114.8909     5.8545     5.2111
  125.0000   114.0006     5.8136     5.1383
  125.5000   113.3773     5.8545     5.2850
  126.0000   112.4496     5.9373     5.7107
  126.5000   112.4150     6.1971     6.1706
  127.0000   113.4145     6.5966     6.5743
  127.5000   115.1422     6.9289     6.9594
  128.0000   115.7401     7.1764     7.3583
  128.5000   116.0301     7.4852     7.5685
  129.0000   116.0119     7.6983     7.7847
  129.5000   115.9970     7.8705     7.9509
  130.0000   115.9793     7.9733     8.0637
  130.5000   116.5737     8.0295     8.2359
  131.0000   116.8672     8.1430     8.2941
  131.5000   118.0670     8.2004     8.4117
  132.0000   119.2699     8.2582     8.4711
  132.5000   119.2518     8.3749     8.5913
  133.0000   118.0196     8.4339     8.7131
  133.5000   117.0919     8.5532     8.8367
  134.0000   117.0774     8.6134     8.9138
  134.5000   118.0568     8.6741     8.9723
  135.0000   119.7845     8.7352     9.0254
  135.5000   119.7700     8.8587     9.0891
  136.0000   119.7555     8.9211     9.1534
  136.5000   119.7410     8.9840     9.1658
  137.0000   118.1634     9.0473     9.2180
  137.5000   116.6643     9.1110     9.2180
  138.0000   116.6498     9.1110     9.2180
  138.5000   118.4617     9.1110     9.2180
  139.0000   119.0563     9.1110     9.2180
  139.5000   117.1334     9.1110     9.2180
  140.0000   115.3705     9.0473     9.2180
  140.5000   114.7472     8.9211     9.2180
  141.0000   114.7327     8.9211     9.2180
  141.5000   115.3272     8.9211     9.2180
  142.0000   116.5703     8.7968     9.2180
  142.5000   118.0341     8.7352     9.1534
  143.0000   118.9329     8.6741     9.1534
  143.5000   119.5272     8.6134     9.0891
  144.0000   119.8376     8.5532     9.0254
  144.5000   118.5439     8.4339     8.8367
  145.0000   117.3492     8.2004     8.6520
  145.5000   115.8126     7.7498     8.4701
  146.0000   117.9290     7.3292     8.1781
  146.5000   120.0457     6.9289     7.9509
  147.0000   121.3293     6.5505     7.5685
  147.5000   122.4517     6.1928     7.2045
  148.0000   122.1292     5.6924     6.7147
  148.5000   122.4228     5.1470     6.0977
  149.0000   123.6223     4.6439     5.2480
  149.5000   124.2567     4.1798     4.6888
  150.0000   125.1117     3.6068     3.7959
  150.5000   122.3544     3.2464     3.3435
  151.0000   117.4666     3.1125     3.0292
  151.5000   113.1020     3.0476     2.7351
  152.0000   108.9043     2.9841     2.5395
  152.5000   107.6695     2.9841     2.5935
  153.0000   106.4347     3.0691     2.7050
  153.5000   106.4175     3.4099     3.0058
  154.0000   111.2667     3.8152     3.5338
  154.5000   116.1201     4.1798     4.2134
  155.0000   119.7559     4.7762     4.7821
  155.5000   123.8051     5.1959     5.5044
  156.0000   128.8497     5.5738     5.9052
  156.5000   133.0943     5.9794     6.2466
  157.0000   135.5124     6.3691     6.5162
  157.5000   136.7129     6.5505     6.7479
  158.0000   132.4296     6.6899     6.8427
  158.5000   129.3683     6.7370     6.7936
  159.0000   127.2202     6.7370     6.7450
  159.5000   125.6804     6.6899     6.5566
  160.0000   128.7037     6.5505     6.3736
  160.5000   131.4262     6.3666     6.1958
  161.0000   133.5399     6.1494     6.0229
  161.5000   135.3492     5.9373     5.8547
  162.0000   136.2453     5.6526     5.6514
  162.5000   136.5325     5.3753     5.4552
  163.0000   134.0758     5.1235     5.2286
  163.5000   130.4013     5.0877     5.1187
  164.0000   127.9488     5.1596     5.0821
  164.5000   126.7140     5.3899     5.1535
  165.0000   126.6968     5.6924     5.5285
  165.5000   127.8973     5.9481     5.9311
  166.0000   129.0935     6.3246     6.3183
  166.5000   129.3850     6.6094     6.6395
  167.0000   129.6682     7.0269     7.0697
  167.5000   128.7332     7.3292     7.3738
  168.0000   126.5852     7.5379     7.6910
  168.5000   125.9635     7.7615     7.9139
  169.0000   126.8552     7.9733     8.0774
  169.5000   128.6602     8.0295     8.1334
  170.0000   129.5563     8.1430     8.1896
  170.5000   129.2347     8.2004     8.1884
  171.0000   127.6955     8.2004     8.1871
  171.5000   126.4563     8.2004     8.1860
  172.0000   124.9171     8.0861     8.1850
  172.5000   126.1176     7.9176     8.1836
  173.0000   128.8401     7.7526     8.1251
  173.5000   130.3407     7.6445     8.0104
  174.0000   131.2411     7.5379     7.8974
  174.5000   132.1371     7.3292     7.5694
  175.0000   132.4201     7.1764     7.3066
  175.5000   133.3119     6.9777     6.9542
  176.0000   133.9035     6.7364     6.7115
  176.5000   134.8039     6.4592     6.2553
  177.0000   136.0001     6.1928     5.9119
  177.5000   136.5874     5.9792     5.6268
  178.0000   136.8789     5.8545     5.3525
  178.5000   137.1662     5.9792     5.1694
  179.0000   137.4491     6.1064     5.2790
  179.5000   132.2526     6.2803     5.6634
  180.0000   128.8869     6.5077     6.0872
  180.5000   127.3476     6.7370     6.5640
  181.0000   126.4170     6.9777     6.9925
  181.5000   127.9178     7.2270     7.2933
  182.0000   129.7271     7.4901     7.6068
  182.5000   131.2320     7.7526     7.7682
  183.0000   132.7529     7.9176     7.9890
  183.5000   134.2375     8.0861     8.1585
  184.0000   134.8292     8.2004     8.2729
  184.5000   132.3767     8.3163     8.3891
  185.0000   129.2948     8.4339     8.3880
  185.5000   128.9938     8.4933     8.5058
  186.0000   129.8855     8.6134     8.5645
  186.5000   129.5639     8.6741     8.5634
  187.0000   128.3044     8.6741     8.6230
  187.5000   127.7031     8.6741     8.6266
  188.0000   130.7258     8.6134     8.6814
  188.5000   133.1439     8.4339     8.6190
  189.0000   134.6768     8.3749     8.4974
  189.5000   134.6273     8.3749     8.4285
