~VERSION INFORMATION
 VERS.                2.0:   CWLS LOG ASCII STANDARD - VERSION 2.0
 WRAP.                 NO:   ONE LINE PER DEPTH STEP
~WELL INFORMATION
#MNEM.UNIT      DATA TYPE    INFORMATION
#----------   ------------   ------------------------------
 STRT.F           34.5000:   START DEPTH
 STOP.F          880.5000:   STOP DEPTH
 STEP.F            0.5000:   STEP LENGTH
 NULL.          -999.2500:   NO VALUE
 COMP. FENIX & SCISSON INC:   COMPANY
 WELL. NAVAL PETROLEUM RESERVE 3 S-14 #35-14:   WELL
 FLD .             TEAPOT:   FIELD
 LOC .      S14 T38N R78W:   LOCATION
 CNTY.            NATRONA:   COUNTY
 STAT.            WYOMING:   STATE
 CTRY. UNITED STATES OF AMERICA:   COUNTRY
 SRVC.            Unknown:   SERVICE COMPANY
 DATE.        24-APR-1978:   LOGDATE
 API .       490251062000:   API NUMBER
~CURVE INFORMATION
#MNEM.UNIT       API CODE    CURVE DESCRIPTION
#----------   ------------   ------------------------------
 DEPT.F                  :   
 RHOB.G/C3   45 350 01 00:   BULK DENSITY
 DPHI.DEC    45 890 12 00:   DENSITY POROSITY SANDSTONE
 CORR.G/C3   45 356 01 00:   DENSITY CORRECTION
 GRD .GAPI   45 310 01 00:   GAMMA RAY FROM DENSITY LOG
 CALD.IN     45 280 60 00:   CALIPER FROM DENSITY LOG
 SPR .MV     05 010 01 00:   SPONTANEOUS POTENTIAL FROM RES.
 SN  .OHMM   05 040 16 00:   SHORT NORMAL 16"
 ILD .OHMM   05 120 46 00:   INDUCTION LOG DEEP
~PARAMETER INFORMATION
#MNEM.UNIT          VALUE    DESCRIPTION
#----------   ------------   ------------------------------
 PD  .                 GL:   PERMANENT DATUM
 EPD .F              5246:   ELEVATION PERMANENT DATUM
 LMF .                 KB:   LOG MEASURED FROM
 DMF .                 KB:   DRILLING MEASURED FROM
 EKB .F              5250:   KELLING BUSHING
 EGL .F              5246:   GROUND LEVEL
 DATE.          4-24-1978:   RUN DATE
 RUN .                  1:   RUN NUMBER
 DD  .F               880:   DEPTH DRILLER
 DL  .F               880:   DEPTH LOGGER
 BLI .F               884:   BOTTOM LOG INTERVAL
 TLI .F                50:   TOP LOG INTERVAL
 CS  .IN            8.625:   CASING SIZE
 CBD .F                40:   CASING BOTTOM DRILLER
 CBL .F                50:   CASING BOTTOM LOGGER
 BS  .IN            7.875:   BIT SIZE
 BSD .F               880:   BIT SIZE AT DEPTH
 DFT .                KCL:   DRILLING FLUID TYPE
 DFD .                8.6:   DRILLING FLUID DENSITY
 DFV .                 32:   DRILLING FLUID VISCOSITY
 DFPH.                 10:   DRILLING FLUID PH
 DFL .               12.8:   DRILLING FLUID LOSS
 MSS .            MUD PIT:   MUD SAMPLE SOURCE
 RMS .OHMM            .34:   RESISTIVITY MUD SAMPLE
 MST .F                62:   MUD SAMPLE TEMPERATURE
 RMF .OHMM             .3:   RESISTIVITY MUD FILTRATE SAMPLE
 MFST.F                70:   MUD FILTRATE SAMPLE TEMPERATURE
 RMC .OHMM            .58:   RESISTIVITY MUD CAKE
 MCST.F                70:   MUD CAKE SAMPLE TEMPERATURE
 MFSS.           MEASURED:   MUD FILTRATE SAMPLE SOURCE
 RMB .OHMM            .28:   RESISTIVITY MUD AT BHT
 BHT .F                74:   BOTTOM HOLE TEMPERATURE
 TCS .HRS               4:   TIME CURCULATED STOPPED
 MRT .F                74:   MAXIMUM RECORDED TEMPERATURE
 LUN .               2958:   LOGGING UNIT NUMBER
 LUL .              CASP.:   LOGGING UNIT LOCATION
 ENGI.             MILLER:   RECORDING ENGINEER
 WITN.           MCGINLEY:   WITNESSED BY
 CLNT.            A2DTECH:   CLIENT CODE
 ORIG.       2", 5" PRINT:   ORIGIN OF DATA
 UWI .       490251062000:   UNIQUE WELL ID
 DICO. A2D Technologies, Inc.:   DIGITIZING COMPANY
~OTHER INFORMATION
~A   DEPT     RHOB       DPHI       CORR         GRD      CALD        SPR         SN        ILD   
# ...
  196.5000     2.4097     0.1424     0.0573    88.4150     8.4923   -37.5898     3.2782     3.0588
  197.0000     2.3978     0.1514     0.0569    88.3278     8.4887   -37.7793     3.1606     3.0232
  197.5000     2.3856     0.1545     0.0590    88.9082     8.4851   -38.3945     3.0980     2.9880
  198.0000     2.3794     0.1578     0.0627    89.5481     8.4815   -39.0733     3.0705     2.9533
  198.5000     2.3750     0.1652     0.0663    90.1924     8.4779   -39.1444     3.0433     2.9190
  199.0000     2.3518     0.1783     0.0612    90.8356     8.4743   -38.8473     3.0163     2.8845
  199.5000     2.3183     0.1915     0.0476    91.4164     8.4707   -38.5388     2.9740     2.8414
  200.0000     2.3097     0.1982     0.0337    89.2957     8.4671   -38.2092     2.8747     2.7453
  200.5000     2.3219     0.1738     0.0371    84.7488     8.4635   -38.4876     2.7788     2.6539
  201.0000     2.3372     0.1780     0.0550    80.2010     8.4597   -38.7823     2.6860     2.5653
  201.5000     2.3442     0.1860     0.0633    75.7130     8.4568   -39.0886     2.5963     2.4796
  202.0000     2.3210     0.1939     0.0671    75.5538     8.4779   -38.8872     2.5097     2.3969
  202.5000     2.3104     0.2008     0.0668    80.6144     8.5007   -38.5508     2.4748     2.3636
  203.0000     2.3038     0.2033     0.0614    86.7616     8.5232   -38.2114     2.5607     2.4456
  203.5000     2.2974     0.2057     0.0558    87.2497     8.5316   -37.8732     2.6494     2.5305
  204.0000     2.2891     0.2113     0.0536    85.0274     8.5104   -37.5350     2.7410     2.6179
  204.5000     2.2797     0.2177     0.0480    84.5794     8.4883   -37.1971     2.8381     2.7104
  205.0000     2.2658     0.2241     0.0378    87.0622     8.4575   -36.8544     3.0180     2.8630
  205.5000     2.2502     0.2305     0.0275    87.8843     8.4559   -36.7810     3.2574     3.0590
  206.0000     2.2499     0.2346     0.0175    87.7777     8.4562   -36.8180     3.5118     3.2666
  206.5000     2.3043     0.1966     0.0185    84.1292     8.4561   -36.8573     3.7487     3.5427
  207.0000     2.3725     0.1686     0.0393    81.5073     8.4566   -36.8969     3.7609     3.4957
  207.5000     2.3988     0.1414     0.0500    82.3079     8.4001   -36.9339     3.7798     3.4367
  208.0000     2.4010     0.1440     0.0529    84.6658     8.3190   -37.1704     3.6721     3.3773
  208.5000     2.3988     0.1455     0.0524    86.5705     8.3581   -37.5442     3.5038     3.3218
  209.0000     2.3961     0.1458     0.0520    87.9841     8.4531   -37.9201     3.3432     3.1930
  209.5000     2.3932     0.1462     0.0516    89.4535     8.4860   -38.2967     3.1900     3.0271
  210.0000     2.3881     0.1579     0.0513    91.3903     8.4946   -38.6723     3.0438     2.8214
  210.5000     2.3727     0.1625     0.0525    93.4384     8.4885   -38.9493     2.9044     2.6297
  211.0000     2.3620     0.1646     0.0569    94.2367     8.4828   -38.8339     2.7713     2.4510
  211.5000     2.3622     0.1666     0.0613    93.0430     8.4772   -38.3623     2.6443     2.2845
  212.0000     2.3547     0.1798     0.0630    91.7623     8.4715   -38.1511     2.5231     2.2162
  212.5000     2.3430     0.1816     0.0644    90.4682     8.4659   -38.1470     2.4075     2.2324
  213.0000     2.3318     0.1904     0.0710    91.6203     8.4602   -38.1473     2.3636     2.3166
  213.5000     2.3141     0.2028     0.0730    93.8324     8.4545   -38.1497     2.4441     2.4040
  214.0000     2.2939     0.2152     0.0730    94.2090     8.4489   -38.1677     2.5856     2.4947
  214.5000     2.2735     0.2276     0.0731    94.5084     8.4432   -37.3843     2.8142     2.6329
  215.0000     2.2529     0.2400     0.0684    95.0648     8.4376   -36.4361     3.1552     2.8322
  215.5000     2.2317     0.2470     0.0600    93.3232     8.4319   -35.4850     3.5419     3.2187
  216.0000     2.2275     0.2260     0.0432    88.0364     8.4263   -35.3557     3.9748     3.7425
  216.5000     2.3082     0.1761     0.0360    82.4571     8.4206   -35.3564     4.4606     4.3773
  217.0000     2.3848     0.1258     0.0766    81.8325     8.4162   -35.3584     4.6496     4.4915
  217.5000     2.4418     0.1186     0.1048    81.1116     8.4163   -35.3586     4.7376     4.6135
  218.0000     2.4365     0.1231     0.0961    79.2273     8.4163   -35.3586     4.8274     4.7389
  218.5000     2.4224     0.1273     0.0830    79.3395     8.4163   -35.3586     4.9697     4.8676
  219.0000     2.4184     0.1312     0.0694    83.8390     8.4163   -35.3586     5.1275     4.9999
  219.5000     2.4142     0.1327     0.0593    88.3140     8.4203   -35.3586     5.2905     5.1357
  220.0000     2.4101     0.1342     0.0546    90.0304     8.4477   -35.3586     5.4586     5.2752
  220.5000     2.4061     0.1357     0.0501    90.2390     8.4748   -35.3586     5.6319     5.4185
  221.0000     2.4071     0.1349     0.0456    90.0400     8.4962   -35.3586     5.8109     5.5657
  221.5000     2.4175     0.1287     0.0425    89.5831     8.4936   -35.3586     5.9318     5.6770
  222.0000     2.4277     0.1226     0.0413    88.0844     8.4915   -35.3586     5.9455     5.7683
  222.5000     2.4380     0.1164     0.0448    88.4351     8.4895   -35.3586     5.9592     5.7731
  223.0000     2.4482     0.1104     0.0503    89.1611     8.4874   -35.3586     5.9730     5.7780
  223.5000     2.4572     0.1089     0.0547    89.8453     8.4854   -35.3586     5.9868     5.7829
  224.0000     2.4532     0.1121     0.0567    88.4292     8.4834   -35.3590     6.0006     5.7879
  224.5000     2.4488     0.1139     0.0554    87.0796     8.4814   -35.3570     6.0145     5.7928
  225.0000     2.4514     0.1098     0.0588    87.1086     8.4793   -35.2926     6.0284     5.7978
  225.5000     2.4557     0.1074     0.0648    87.1144     8.4768   -35.2247     6.0423     5.8027
  226.0000     2.4581     0.1095     0.0641    86.9295     8.4542   -35.1570     6.0561     5.8077
  226.5000     2.4532     0.1127     0.0631    86.1670     8.4168   -35.0891     6.0704     5.8130
  227.0000     2.4485     0.1139     0.0650    84.2925     8.4238   -35.0208     6.0892     5.8205
  227.5000     2.4480     0.1140     0.0672    85.5639     8.4298   -34.9646     6.0361     5.7648
  228.0000     2.4480     0.1142     0.0695    87.4622     8.4359   -35.0479     6.0402     5.7686
  228.5000     2.4481     0.1101     0.0728    87.7982     8.4419   -35.1304     6.0302     5.7590
  229.0000     2.4550     0.1046     0.0778    88.0753     8.4478   -35.2121     6.0253     5.7545
  229.5000     2.4736     0.0990     0.0811    88.3479     8.4541   -35.2937     6.0206     5.7499
  230.0000     2.4680     0.1049     0.0766    88.7137     8.4352   -35.3753     6.0158     5.7454
  230.5000     2.4596     0.1106     0.0694    89.2227     8.4011   -35.4569     6.0110     5.7408
  231.0000     2.4553     0.1102     0.0677    89.7327     8.4074   -35.5384     6.0062     5.7362
  231.5000     2.4631     0.1045     0.0686    90.3121     8.4204   -35.6200     6.0014     5.7317
  232.0000     2.4667     0.1026     0.0730    91.1988     8.4335   -35.7016     5.9966     5.7271
  232.5000     2.4660     0.1062     0.0764    92.0382     8.4466   -35.7832     5.9918     5.7225
  233.0000     2.4607     0.1099     0.0743    90.9961     8.4597   -35.8648     5.9871     5.7180
  233.5000     2.4550     0.1136     0.0722    89.8055     8.4727   -35.9464     5.9844     5.7154
  234.0000     2.4493     0.1172     0.0675    90.1124     8.4858   -36.0279     6.0342     5.7658
  234.5000     2.4436     0.1183     0.0583    92.2288     8.4958   -36.1095     6.0747     5.8070
  235.0000     2.4377     0.1157     0.0526    94.3575     8.4932   -36.1912     6.1156     5.8484
  235.5000     2.4430     0.1143     0.0517    95.2471     8.4909   -36.2734     6.1567     5.8901
  236.0000     2.4456     0.1164     0.0511    95.1329     8.4886   -36.3517     6.1981     5.9321
  236.5000     2.4466     0.1164     0.0528    91.8540     8.4863   -36.3351     6.2398     5.9848
