~VERSION INFORMATION
 VERS.                2.0:   CWLS LOG ASCII STANDARD - VERSION 2.0
 WRAP.                 NO:   ONE LINE PER DEPTH STEP
~WELL INFORMATION
#MNEM.UNIT      DATA TYPE    INFORMATION
#----------   ------------   ------------------------------
 STRT.F           35.0000:   START DEPTH
 STOP.F          736.0000:   STOP DEPTH
 STEP.F            0.5000:   STEP LENGTH
 NULL.          -999.2500:   NO VALUE
 COMP. US DEPTMNT OF ENRGY:   COMPANY
 WELL.       NPR 3 #73-15:   WELL
 FLD .   TEAPOT NAVAL RES:   FIELD
 LOC .      S15 T38N R78W:   LOCATION
 CNTY.            NATRONA:   COUNTY
 STAT.            WYOMING:   STATE
 CTRY. UNITED STATES OF AMERICA:   COUNTRY
 SRVC.           Gearhart:   SERVICE COMPANY
 DATE.        02-SEP-1987:   LOGDATE
 API .       490251122300:   API NUMBER
~CURVE INFORMATION
#MNEM.UNIT       API CODE    CURVE DESCRIPTION
#----------   ------------   ------------------------------
 DEPT.F                  :   
 GRR .GAPI   07 310 01 00:   GAMMA RAY
 RILD.OHMM   07 120 46 00:   INDUCTION LOG DEEP RESISTIVITY
 RILM.OHMM   07 120 44 00:   INDUCTION LOG MEDIUM RESISTIVITY
~PARAMETER INFORMATION
#MNEM.UNIT          VALUE    DESCRIPTION
#----------   ------------   ------------------------------
 PD  .                 GL:   PERMANENT DATUM
 LMF .                 KB:   LOG MEASURED FROM
 DAPD.F              10.5:   FEET ABOVE PERMANENT DATUM
 DMF .                 KB:   DRILLING MEASURED FROM
 DATE.        02-SEP-1987:   RUN DATE
 RUN .                  1:   RUN NUMBER
 DD  .F               740:   DEPTH DRILLER
 DL  .F               743:   DEPTH LOGGER
 BLI .F               735:   BOTTOM LOG INTERVAL
 TLI .F                30:   TOP LOG INTERVAL
 CS  .IN            9.625:   CASING SIZE
 CBD .F               740:   CASING BOTTOM DRILLER
 CBL .F                40:   CASING BOTTOM LOGGER
 BS  .IN             8.75:   BIT SIZE
 BSD .F               740:   BIT SIZE AT DEPTH
 DFT .                AIR:   DRILLING FLUID TYPE
 TCS .HRS            0230:   TIME CURCULATED STOPPED
 TLAB.HRS            0447:   TIME LOGGER AT BOTTOM
 MRT .F                80:   MAXIMUM RECORDED TEMPERATURE
 LUN .               7697:   LOGGING UNIT NUMBER
 LUL .           GILLETTE:   LOGGING UNIT LOCATION
 ENGI.         WEATHERMON:   RECORDING ENGINEER
 WITN.             STRONG:   WITNESSED BY
 CLNT.            A2DTECH:   CLIENT CODE
 ORIG.           5" PRINT:   ORIGIN OF DATA
 UWI .       490251122300:   UNIQUE WELL ID
 DICO. A2D Technologies, Inc.:   DIGITIZING COMPANY
~OTHER INFORMATION
~A   DEPT       GRR      RILD       RILM   
# ...
  490.0000   140.8882     6.0856     5.7835
  490.5000   140.3118     6.2970     6.0318
  491.0000   137.3000     6.4763     6.3789
  491.5000   132.4618     6.7072     6.7460
  492.0000   128.8413     6.8981     6.9869
  492.5000   126.4384     7.0454     7.0871
  493.0000   125.8619     7.1459     6.9916
  493.5000   125.2855     7.0482     6.9405
  494.0000   124.7091     6.7027     6.6646
  494.5000   126.5761     5.9283     6.2192
  495.0000   129.9570     5.6091     5.6837
  495.5000   133.0336     5.4190     5.3039
  496.0000   135.1969     5.3453     4.9151
  496.5000   137.3810     5.3097     4.6832
  497.0000   135.5742     5.3115     4.7175
  497.5000   131.3448     5.2395     4.8544
  498.0000   127.7243     5.3263     5.2036
  498.5000   129.2787     5.6593     5.4271
  499.0000   131.7464     5.9431     5.6209
  499.5000   133.6053     6.1979     5.9032
  500.0000   129.6804     6.5087     6.3742
  500.5000   124.9851     6.7877     6.7927
  501.0000   121.5341     7.0297     7.0311
  501.5000   123.0886     7.2803     7.2822
  502.0000   125.5563     7.4925     7.4901
  502.5000   126.6877     7.7550     7.7039
  503.0000   124.2966     7.9206     7.8689
  503.5000   122.8067     8.0336     7.9265
  504.0000   120.9910     8.0358     7.9845
  504.5000   121.0363     8.0380     7.9872
  505.0000   121.9675     8.0402     7.9899
  505.5000   121.0819     8.0423     8.0484
  506.0000   117.4771     8.1006     8.0512
  506.5000   115.9821     8.1059     8.1107
  507.0000   116.9143     8.2186     8.1134
  507.5000   116.6276     8.2213     8.1728
  508.0000   116.0492     8.2235     8.2326
  508.5000   115.7674     8.2831     8.2928
  509.0000   116.3968     8.3431     8.2957
  509.5000   117.6546     8.3454     8.2985
  510.0000   118.5540     8.3476     8.3013
  510.5000   118.5746     8.4082     8.4221
  511.0000   119.5017     8.4699     8.4896
  511.5000   121.3350     8.5377     8.6044
  512.0000   119.2409     8.7132     8.7278
  512.5000   116.5425     8.8376     8.9147
  513.0000   114.7505     8.5976     9.0426
  513.5000   112.9585     7.8024     8.9830
  514.0000   111.7704     7.2300     8.6190
  514.5000   112.7100     6.7934     8.0429
  515.0000   114.6526     6.4277     6.6689
  515.5000   120.2970     6.3406     5.5296
  516.0000   126.3600     6.2984     5.1177
  516.5000   132.7251     6.3005     5.0202
  517.0000   135.1575     6.4351     5.2000
  517.5000   130.9537     6.5724     5.7734
  518.0000   121.9109     6.9020     6.4998
  518.5000   118.6084     7.7161     7.6292
  519.0000   117.4206     8.5070     8.5891
  519.5000   115.3264     9.1855     9.4046
  520.0000   111.3798     9.7134    10.0152
  520.5000   110.2318     9.9900    10.3729
  521.0000   109.9504    10.0625    10.2289
  521.5000   109.3720     9.9954    10.0844
  522.0000   109.3926    10.2095     9.9593
  522.5000   110.6217    10.5002    10.0327
  523.0000   112.4551    11.1811    10.0361
  523.5000   113.9863    11.7418    10.1096
  524.0000   115.5124    12.1603    10.3981
  524.5000   111.3086    12.7701    11.0183
  525.0000   105.8912    13.5044    12.1673
  525.5000    94.8105    14.1815    14.1340
  526.0000    84.4876    15.5270    15.9123
  526.5000    77.5596    17.6013    17.4231
  527.0000    74.2570    19.0425    18.9452
  527.5000    70.6523    19.7668    20.3159
  528.0000    67.9539    19.6879    21.6348
  528.5000    64.3492    19.9702    22.2523
  529.0000    62.5572    19.9756    22.4151
  529.5000    62.8800    19.7052    22.1132
  530.0000    65.0154    19.4371    21.4944
  530.5000    67.4692    19.0422    20.3590
  531.0000    69.3232    18.9155    19.5340
  531.5000    69.6143    18.7897    18.8731
  532.0000    70.2392    18.6646    18.4899
  532.5000    72.0726    18.5403    18.4962
  533.0000    75.1144    18.4181    18.3743
  533.5000    77.2499    18.4231    18.3805
  534.0000    75.7600    18.4281    18.3868
  534.5000    72.7595    18.4331    18.5213
  535.0000    69.1548    18.4378    18.5277
  535.5000    66.4564    18.4431    18.5354
  536.0000    65.5707    18.4481    18.5417
  536.5000    67.7954    18.4532    18.4180
  537.0000    71.9616    18.4593    18.2966
  537.5000    73.7898    18.4643    18.3044
  538.0000    70.1903    18.4693    18.4388
  538.5000    68.0961    18.4743    18.4451
  539.0000    67.5074    18.0979    18.0706
  539.5000    68.4396    17.9762    17.8256
  540.0000    69.9708    17.6112    17.5870
  540.5000    72.7105    17.4939    17.4708
  541.0000    76.0545    17.3775    17.4770
  541.5000    80.3776    17.3833    17.3618
  542.0000    81.8360    17.5093    17.4890
  542.5000    78.8406    17.5141    17.7412
  543.0000    76.4444    17.5188    17.8710
  543.5000    74.6524    17.6458    18.0018
  544.0000    74.0636    17.8977    18.0079
  544.5000    74.3916    17.9025    18.0140
  545.0000    75.9228    17.6601    17.8953
  545.5000    77.7562    17.4210    17.6542
  546.0000    78.9853    17.2365    17.4162
  546.5000    78.4017    17.0708    17.1818
  547.0000    78.1203    16.8396    16.9503
  547.5000    77.8389    16.6116    16.8386
  548.0000    78.4689    16.5010    16.7276
  548.5000    79.3959    16.3912    16.6174
  549.0000    80.3229    16.2831    16.5079
  549.5000    80.0363    16.2875    16.5149
  550.0000    80.6612    16.1791    16.1800
  550.5000    82.8441    15.9547    15.8502
  551.0000    85.6617    15.7462    15.7458
  551.5000    89.3689    15.6425    15.7525
  552.0000    91.6674    15.6492    15.7579
  552.5000    90.7908    15.6546    15.7633
  553.0000    89.6122    15.7692    15.7687
  553.5000    88.4335    15.7746    15.7740
  554.0000    87.2548    15.7800    15.7794
  554.5000    86.0762    15.7854    15.8949
  555.0000    84.8975    15.7908    15.9004
  555.5000    83.1146    15.7962    15.9059
  556.0000    80.4253    15.8016    16.0224
  556.5000    80.7572    15.8070    15.8078
  557.0000    84.4124    15.5941    15.7023
  557.5000    88.3697    15.4913    15.4908
  558.0000    92.9312    15.3893    15.3888
  558.5000    91.1483    15.2880    15.2887
  559.0000    88.7553    15.1873    15.2939
  559.5000    88.8147    15.0872    15.2992
  560.0000    89.7281    15.0937    15.1971
  560.5000    88.2538    14.9930    14.9937
  561.0000    86.1688    14.8942    14.7905
  561.5000    84.6880    14.7961    14.5923
  562.0000    84.4082    14.6987    14.4963
  562.5000    85.9560    14.5019    14.4009
  563.0000    87.7985    14.3066    14.4058
  563.5000    90.2452    14.2124    14.3109
  564.0000    91.1739    14.2172    14.3170
  564.5000    89.0963    14.3213    14.3219
  565.0000    87.9176    14.3262    14.4267
  565.5000    86.7390    14.4311    14.5323
  566.0000    86.6545    14.6381    14.5373
  566.5000    88.6112    14.7453    14.5423
  567.0000    90.1516    14.8574    14.6487
  567.5000    90.1814    14.9621    14.6537
  568.0000    90.2115    14.9673    14.6587
  568.5000    90.5731    14.8685    14.6637
  569.0000    91.1782    14.8749    14.7711
  569.5000    92.1260    14.8800    14.7761
  570.0000    93.0519    14.7819    14.7812
  570.5000    93.0846    14.7870    14.6838
  571.0000    89.7463    14.6883    14.5871
  571.5000    85.1620    14.6946    14.3918
  572.0000    81.9456    14.4967    14.3968
  572.5000    81.4183    14.3015    14.3007
  573.0000    81.7577    14.1696    14.2065
  573.5000    83.6002    14.0157    14.0163
  574.0000    85.7448    13.9235    13.9228
  574.5000    86.6809    13.8318    13.8311
  575.0000    87.9191    13.8366    13.8370
  575.5000    89.1574    13.8414    13.8417
  576.0000    90.6977    13.8462    13.7494
  576.5000    91.3243    13.7380    13.5652
  577.0000    88.9446    13.4756    13.4759
  577.5000    88.3627    13.2941    13.2945
  578.0000    88.7021    13.2066    13.2069
  578.5000    88.7319    13.1207    13.1199
  579.0000    87.8553    13.0343    13.1255
  579.5000    87.2809    12.9473    13.0379
  580.0000    87.3112    12.9529    12.9532
  580.5000    88.2477    12.8664    12.9576
