~VERSION INFORMATION
 VERS.                2.0:   CWLS LOG ASCII STANDARD - VERSION 2.0
 WRAP.                 NO:   ONE LINE PER DEPTH STEP
~WELL INFORMATION
#MNEM.UNIT      DATA TYPE    INFORMATION
#----------   ------------   ------------------------------
 STRT.F            2.0000:   START DEPTH
 STOP.F          467.0000:   STOP DEPTH
 STEP.F            0.5000:   STEP LENGTH
 NULL.          -999.2500:   NO VALUE
 COMP. LAWRENCE/ALLISON INC:   COMPANY
 WELL.      57-36 SX #3-3:   WELL
 FLD .             TEAPOT:   FIELD
 LOC .       S3 T38N R78W:   LOCATION
 CNTY.            NATRONA:   COUNTY
 STAT.            WYOMING:   STATE
 CTRY. UNITED STATES OF AMERICA:   COUNTRY
 SRVC.      NL McCullough:   SERVICE COMPANY
 DATE.        13-SEP-1988:   LOGDATE
 API .       490251120900:   API NUMBER
~CURVE INFORMATION
#MNEM.UNIT       API CODE    CURVE DESCRIPTION
#----------   ------------   ------------------------------
 DEPT.F                  :   
 GRR .GAPI   07 310 01 00:   GAMMA RAY
 ILD .OHMM   07 120 46 00:   INDUCTION LOG DEEP
 ILM .OHMM   07 120 44 00:   INDUCTION LOG MEDIUM
~PARAMETER INFORMATION
#MNEM.UNIT          VALUE    DESCRIPTION
#----------   ------------   ------------------------------
 PD  .                 GL:   PERMANENT DATUM
 EPD .F              5186:   ELEVATION PERMANENT DATUM
 LMF .                 KB:   LOG MEASURED FROM
 DMF .                 KB:   DRILLING MEASURED FROM
 EKB .F              5191:   KELLING BUSHING
 EGL .F              5186:   GROUND LEVEL
 DATE.        13-SEP-1988:   RUN DATE
 RUN .                  1:   RUN NUMBER
 DD  .F               409:   DEPTH DRILLER
 DL  .F               409:   DEPTH LOGGER
 BLI .F               404:   BOTTOM LOG INTERVAL
 BSD .F               409:   BIT SIZE AT DEPTH
 DFT .              WATER:   DRILLING FLUID TYPE
 ENGI.          BANGERTER:   RECORDING ENGINEER
 WITN.            SCHULTE:   WITNESSED BY
 CLNT.            A2DTECH:   CLIENT CODE
 ORIG.           5" PRINT:   ORIGIN OF DATA
 UWI .       490251120900:   UNIQUE WELL ID
 DICO. A2D Technologies, Inc.:   DIGITIZING COMPANY
~OTHER INFORMATION
~A    DEPT      GRR       ILD        ILM   
# ...
   93.0000   104.1727    12.0787    11.7079
   93.5000   104.8011    12.0808    11.7095
   94.0000   103.9027    12.0824    11.7110
   94.5000   102.0723    12.0840    11.7126
   95.0000   101.4953    12.0011    11.8798
   95.5000   101.5174    11.9186    11.9655
   96.0000   102.7564    11.8368    11.9671
   96.5000   104.3008    11.7556    11.9688
   97.0000   105.8452    11.7575    11.9704
   97.5000   107.0843    11.6357    11.9720
   98.0000   108.6534    11.5962    11.8887
   98.5000   109.5668    11.4363    11.6440
   99.0000   108.3631    11.2783    11.5637
   99.5000   106.2433    11.0771    11.4041
  100.0000   105.3406    10.9561    11.2961
  100.5000   105.8037    10.7979    11.1104
  101.0000   105.9939    10.6649    10.9247
  101.5000   105.3964    10.5161    10.7391
  102.0000   104.1927    10.5161    10.5534
  102.5000   102.6880    10.4425    10.4181
  103.0000   101.7893    10.3694    10.3469
  103.5000   101.1965    10.2247    10.2041
  104.0000   101.2186    10.2247    10.1341
  104.5000   102.1522    10.2247    10.0649
  105.0000   103.6966    10.2247    10.0662
  105.5000   105.5463    10.2247    10.0676
  106.0000   108.0066    10.2247     9.9982
  106.5000   109.2458    10.2968     9.9299
  107.0000   108.0463    10.3694     9.8549
  107.5000   105.6212    10.2968     9.7941
  108.0000   101.9747    10.3694     9.7958
  108.5000    99.8549    10.3694     9.7971
  109.0000   101.3993    10.2944     9.8675
  109.5000   104.7757    10.2181     9.9383
  110.0000   105.7099    10.1531     9.9397
  110.5000   103.8993    10.0820     9.8715
  111.0000   102.3902    10.0820     9.8731
  111.5000   101.4918    10.0820     9.8051
  112.0000   100.8944    10.0820     9.6700
  112.5000   100.3053    10.0056     9.6033
  113.0000   100.6290     9.8717     9.4048
  113.5000   102.7881     9.6659     9.0753
  114.0000   108.3019     9.2669     8.5871
  114.5000   111.0677     8.7604     8.4093
  115.0000   111.3862     8.3988     8.2351
  115.5000   108.6602     8.2816     8.0646
  116.0000   105.9135     8.2816     8.0090
  116.5000   101.3716     8.2816     8.0668
  117.0000   102.9159     8.2816     8.1248
  117.5000   106.2924     8.2816     8.1261
  118.0000   108.7527     8.3988     8.1845
  118.5000   109.6864     8.6382     8.2731
  119.0000   109.7181     8.7625     8.3609
  119.5000   108.5003     8.8844     8.3620
  120.0000   106.6903     8.9575     8.3632
  120.5000   105.7919     9.0101     8.5424
  121.0000   106.1148     9.0736     8.6040
  121.5000   107.9645     9.1376     8.6658
  122.0000   110.4249     9.2323     8.7895
  122.5000   112.2746     9.2696     8.8526
  123.0000   110.7699     9.3322     8.9162
  123.5000   111.0929     9.3980     9.0435
  124.0000   111.4159     9.3980     9.1087
  124.5000   110.5175     9.3980     9.1741
  125.0000   109.6191     9.3980     9.1754
  125.5000   109.0260     9.3980     9.2412
  126.0000   110.3104     9.3980     9.2425
  126.5000   112.4244     9.3322     9.1791
  127.0000   113.9688     9.2669     9.0523
  127.5000   114.5971     9.2669     8.9902
  128.0000   114.3050     9.2669     8.9288
  128.5000   113.7160     9.2669     8.9300
  129.0000   113.0972     9.2669     8.9313
  129.5000   112.5302     9.2669     8.9325
  130.0000   111.6362     9.2669     8.9966
  130.5000   110.4325     9.2669     9.0613
  131.0000   109.5297     9.2669     9.1266
  131.5000   108.9410     9.2669     9.1921
  132.0000   108.9588     9.2669     9.1934
  132.5000   108.9807     9.2669     9.1300
  133.0000   109.3037     9.2020     9.0677
  133.5000   109.6266     9.0736     8.9424
  134.0000   110.8657     8.9766     8.8811
  134.5000   113.0207     8.7604     8.7587
  135.0000   115.1757     8.6382     8.6984
  135.5000   115.8040     8.6382     8.5782
  136.0000   113.3833     8.5697     8.4598
  136.5000   111.5689     8.5177     8.4612
  137.0000   109.7545     8.5177     8.4624
  137.5000   107.3293     8.5177     8.4636
  138.0000   104.9042     8.4580     8.4649
  138.5000   104.3112     8.3988     8.4066
  139.0000   104.9439     8.3400     8.2908
  139.5000   106.7936     8.2816     8.1763
  140.0000   109.2540     8.1089     8.0070
  140.5000   111.1037     7.9398     7.8330
  141.0000   111.7320     7.6657     7.5720
  141.5000   111.7496     7.2468     7.3633
  142.0000   110.8030     6.8507     7.0606
  142.5000   109.6519     6.8547     6.7703
  143.0000   109.0588     6.9966     6.7712
  143.5000   108.7667     7.1457     6.9187
  144.0000   110.9261     7.2979     7.1144
  144.5000   112.7758     7.5059     7.2668
  145.0000   113.7099     7.7742     7.3706
  145.5000   112.2048     8.0521     7.6349
  146.0000   110.9967     8.1661     7.9644
  146.5000   111.3240     8.2816     8.1350
  147.0000   111.3417     8.2816     8.2570
  147.5000   110.1379     8.2816     8.3693
  148.0000   108.9342     8.2237     8.3704
  148.5000   108.3411     8.2237     8.3715
  149.0000   108.6685     8.1661     8.2557
  149.5000   109.6022     8.1089     8.1419
  150.0000   111.4023     8.0444     8.0295
  150.5000   113.0245     7.9485     7.9098
  151.0000   114.2302     7.8525     7.8092
  151.5000   114.8556     7.7214     7.7016
  152.0000   113.3435     7.4554     7.5421
  152.5000   112.0865     7.1818     7.3343
  153.0000   111.5444     6.7581     7.0329
  153.5000   112.1698     6.3000     6.6966
  154.0000   112.1844     6.0828     6.4213
  154.5000   110.0617     5.9565     6.2006
  155.0000   108.5496     5.9569     5.7810
  155.5000   107.6482     5.9993     5.4215
  156.0000   107.9719     6.1708     5.3156
  156.5000   107.9866     6.3471     5.3915
  157.0000   108.6119     6.5284     5.5070
  157.5000   108.9319     6.8100     5.7045
  158.0000   109.8626     7.0539     5.9091
  158.5000   110.4916     7.3067     6.5204
  159.0000   110.5063     7.5154     7.2965
  159.5000   110.5209     7.6223     8.2804
  160.0000   111.1463     7.7307     8.6986
  160.5000   111.7716     7.8406     8.7611
  161.0000   113.6183     7.8964     8.7622
  161.5000   115.1634     7.9528     8.7021
  162.0000   113.9566     8.1227     8.5822
  162.5000   111.2232     8.2963     8.5231
  163.0000   109.1005     8.4735     8.5245
  163.5000   106.6724     8.5940     8.5257
  164.0000   105.7710     8.6552     8.5268
  164.5000   106.7053     8.8403     8.6488
  165.0000   108.2467     8.9032     8.7109
  165.5000   108.8721     8.9038     8.7735
  166.0000   108.8867     8.9044     8.8987
  166.5000   108.9014     8.9050     8.8999
  167.0000   109.5267     8.9056     8.9638
  167.5000   111.3771     8.9063     9.0285
  168.0000   112.6131     8.9070     9.0297
  168.5000   111.7118     8.9076     9.0308
  169.0000   110.5050     8.9082     9.0321
  169.5000   109.6031     8.9088     8.9701
  170.0000   108.7023     8.9094     8.9714
  170.5000   109.6366     8.8425     8.9729
  171.0000   111.4834     8.7863     8.9741
  171.5000   113.3301     8.7870     8.9753
  172.0000   114.5661     8.7876     8.9134
  172.5000   114.5808     8.6656     8.9149
  173.0000   113.9847     8.6662     8.7918
  173.5000   112.1710     8.6669     8.7315
  174.0000   110.9643     8.5465     8.5510
  174.5000   110.0629     8.4279     8.4326
  175.0000   109.7686     8.3107     8.2580
  175.5000   109.7869     7.9683     8.0307
  176.0000   110.4122     7.6399     7.7005
  176.5000   112.2626     7.1222     7.3325
  177.0000   114.7200     6.6395     6.8363
  177.5000   116.5667     6.2331     6.4186
  178.0000   115.3600     5.8516     5.9424
  178.5000   112.0159     5.3788     5.4630
  179.0000   110.5038     4.9443     4.9177
  179.5000   111.1328     4.3881     4.2147
  180.0000   112.9795     3.8400     3.6889
  180.5000   112.9942     3.2903     3.2514
  181.0000   112.3982     2.9614     2.9475
  181.5000   111.4968     2.8594     2.6347
  182.0000   110.5954     2.8596     2.4737
  182.5000   108.4732     2.8833     2.4567
  183.0000   105.1322     3.0467     2.5628
  183.5000   104.8379     3.2686     2.7496
