~VERSION INFORMATION
 VERS.                2.0:   CWLS LOG ASCII STANDARD - VERSION 2.0
 WRAP.                 NO:   ONE LINE PER DEPTH STEP
~WELL INFORMATION
#MNEM.UNIT      DATA TYPE    INFORMATION
#----------   ------------   ------------------------------
 STRT.F           36.0000:   START DEPTH
 STOP.F          503.0000:   STOP DEPTH
 STEP.F            0.5000:   STEP LENGTH
 NULL.          -999.2500:   NO VALUE
 COMP.    FENIX & SCISSON:   COMPANY
 WELL.     NPR ##3 77-S-3:   WELL
 FLD .             TEAPOT:   FIELD
 LOC .       S3 T38N R78W:   LOCATION
 CNTY.            NATRONA:   COUNTY
 STAT.            WYOMING:   STATE
 CTRY. UNITED STATES OF AMERICA:   COUNTRY
 SRVC.       Schlumberger:   SERVICE COMPANY
 DATE.        04-MAR-1977:   LOGDATE
 API .       490251029500:   API NUMBER
~CURVE INFORMATION
#MNEM.UNIT       API CODE    CURVE DESCRIPTION
#----------   ------------   ------------------------------
 DEPT.F                  :   
 SPR .MV     07 010 01 00:   SPONTANEOUS POTENTIAL
 ILD .OHMM   07 120 46 00:   INDUCTION LOG DEEP
 ILM .OHMM   07 120 44 00:   INDUCTION LOG MEDIUM
 LL8 .OHMM   07 220 08 00:   LATEROLOG-8 RES.
 GRD .GAPI   45 310 01 00:   GAMMA RAY FROM DENSITY LOG
 CALD.IN     45 280 60 00:   CALIPER FROM DENSITY LOG
 CORR.G/C3   45 356 01 00:   DENSITY CORRECTION
 RHOB.G/C3   45 350 01 00:   BULK DENSITY
 DPHI.DEC    45 890 12 00:   DENSITY POROSITY SANDSTONE
~PARAMETER INFORMATION
#MNEM.UNIT          VALUE    DESCRIPTION
#----------   ------------   ------------------------------
 PD  .                 GL:   PERMANENT DATUM
 EPD .F              5165:   ELEVATION PERMANENT DATUM
 LMF .                 KB:   LOG MEASURED FROM
 DAPD.F                 4:   FEET ABOVE PERMANENT DATUM
 DMF .                 GL:   DRILLING MEASURED FROM
 EKB .F              5169:   KELLING BUSHING
 EGL .F              5165:   GROUND LEVEL
 DATE.        04-MAR-1977:   RUN DATE
 RUN .                  1:   RUN NUMBER
 DD  .F               500:   DEPTH DRILLER
 DL  .F               504:   DEPTH LOGGER
 BLI .F               503:   BOTTOM LOG INTERVAL
 TLI .F                46:   TOP LOG INTERVAL
 CS  .IN            8.625:   CASING SIZE
 CBD .F                42:   CASING BOTTOM DRILLER
 CBL .F                46:   CASING BOTTOM LOGGER
 BS  .IN            7.875:   BIT SIZE
 BSD .F               500:   BIT SIZE AT DEPTH
 DFT .                KCL:   DRILLING FLUID TYPE
 DFD .                8.6:   DRILLING FLUID DENSITY
 DFV .                 32:   DRILLING FLUID VISCOSITY
 DFPH.                8.0:   DRILLING FLUID PH
 DFL .                7.6:   DRILLING FLUID LOSS
 MSS .            MUD PIT:   MUD SAMPLE SOURCE
 RMS .OHMM            .66:   RESISTIVITY MUD SAMPLE
 MST .F                56:   MUD SAMPLE TEMPERATURE
 RMF .OHMM            .49:   RESISTIVITY MUD FILTRATE SAMPLE
 MFST.F                56:   MUD FILTRATE SAMPLE TEMPERATURE
 RMC .OHMM             .4:   RESISTIVITY MUD CAKE
 MCST.F                56:   MUD CAKE SAMPLE TEMPERATURE
 MFSS.               MEAS:   MUD FILTRATE SAMPLE SOURCE
 MCSS.               CALC:   MUD CAKE SAMPLE SOURCE
 TCS .HRS            0100:   TIME CURCULATED STOPPED
 LUN .               7680:   LOGGING UNIT NUMBER
 LUL .               CSPR:   LOGGING UNIT LOCATION
 ENGI.    LOHBECK/ TAYLOR:   RECORDING ENGINEER
 WITN.              BURKE:   WITNESSED BY
 CLNT.            A2DTECH:   CLIENT CODE
 ORIG.           5" PRINT:   ORIGIN OF DATA
 UWI .       490251029500:   UNIQUE WELL ID
 DICO. A2D Technologies, Inc.:   DIGITIZING COMPANY
~OTHER INFORMATION
~A   DEPT      SPR        ILD        ILM        LL8         GRD      CALD       CORR       RHOB       DPHI   
# ...
  109.0000   -54.4649     9.5225     9.5493    10.5640    66.8757     8.0639     0.0166     2.4868     0.1057
  109.5000   -55.4979     9.5271     9.5532    10.7908    64.8056     8.0635     0.0188     2.4785     0.1090
  110.0000   -56.8298     9.5317     9.5572    10.7215    62.9388     8.0481     0.0248     2.4853     0.0997
  110.5000   -57.8627     9.4705     9.4943    10.5793    62.1534     8.0506     0.0136     2.4950     0.0991
  111.0000   -58.4505     9.4098     9.4328    10.2955    63.7227     8.0531     0.0165     2.5003     0.0927
  111.5000   -58.5866     9.2849     9.3716    10.1589    65.7415     8.0556     0.0195     2.4920     0.0962
  112.0000   -58.4204     9.1617     9.3109    10.0241    67.7603     8.0581     0.0218     2.4889     0.0959
  112.5000   -58.2575     9.1029     9.1878     9.8911    67.0845     8.0608     0.0172     2.4912     0.0932
  113.0000   -57.9451     9.0445     9.1273     9.7599    65.9341     8.0604     0.0232     2.4987     0.1049
  113.5000   -57.6328     8.9865     9.0682     9.7646    65.0588     8.0622     0.0097     2.4641     0.1154
  114.0000   -57.4699     8.9908     8.9482     9.7019    65.0566     8.0745     0.0179     2.4596     0.1157
  114.5000   -57.3070     8.9953     8.9520     9.7067    65.0545     8.0891     0.0232     2.4768     0.1097
  115.0000   -57.1441     9.0621     8.8930     9.7114    65.5014     8.1037     0.0284     2.4806     0.1037
  115.5000   -56.9812     9.0665     8.8976     9.7836    65.9700     8.1182     0.0119     2.4730     0.1119
  116.0000   -56.6689     9.0768     8.9631     9.7883    66.8439     8.1478     0.0156     2.4542     0.1185
  116.5000   -56.5048     9.1451     9.0290     9.7930    66.8418     8.1472     0.0126     2.4496     0.1221
  117.0000   -56.3431     9.2139     9.0954     9.8658    66.3905     8.1318     0.0044     2.4399     0.1236
  117.5000   -56.0307     9.3390     9.1623    10.0082    65.0411     8.1314     0.0133     2.4489     0.1203
  118.0000   -55.8678     9.5396     9.3582    10.0825    65.2635     8.1309     0.0163     2.4436     0.1221
  118.5000   -55.8544     9.6879     9.6247    10.2394    65.2608     8.1154     0.0103     2.4556     0.1167
  119.0000   -55.5421     9.9656     9.8305    10.5328    65.2587     8.0999     0.0163     2.4466     0.1221
  119.5000   -55.3792    10.1805     9.9715    10.8206    64.3584     8.0845     0.0193     2.4376     0.1203
  120.0000   -55.2163    10.3150    10.1847    10.9778    63.0089     8.0690     0.0050     2.4473     0.1237
  120.5000   -55.2029    10.3904    10.4025    11.1362    62.7822     8.0536     0.0148     2.4683     0.1116
  121.0000   -55.0400    10.3237    10.4790    11.2189    63.2292     8.0531     0.0102     2.4672     0.1097
  121.5000   -54.8771    10.3299    10.4834    11.3023    64.3493     8.0526     0.0222     2.4765     0.1059
  122.0000   -54.7142    10.3349    10.3436    11.5449    65.0213     8.0522     0.0252     2.4667     0.1128
  122.5000   -54.5502    10.4117    10.2756    11.8747    65.0186     8.0518     0.0169     2.4630     0.1147
  123.0000   -54.3885    10.5619    10.4964    12.0460    64.7919     8.0514     0.0222     2.4757     0.1063
  123.5000   -54.0750    11.0150    10.7952    12.3046    63.8911     8.0508     0.0282     2.4831     0.1081
  124.0000   -54.0627    11.4083    11.3353    13.0113    63.2153     8.0504     0.0146     2.4651     0.1147
  124.5000   -53.8998    11.9803    11.8203    13.3829    61.8658     8.0500     0.0209     2.4809     0.1066
  125.0000   -53.8864    12.4942    12.3261    13.6702    60.0673     8.0345     0.0289     2.4846     0.1012
  125.5000   -53.8729    13.0301    12.8536    13.7718    58.7110     8.0341     0.0139     2.4666     0.1108
  126.0000   -53.8595    13.4954    13.4966    13.6818    58.4911     8.0487     0.0108     2.4650     0.1135
  126.5000   -53.8460    13.8808    14.1718    14.6709    59.3872     8.0481     0.0191     2.4668     0.1110
  127.0000   -53.8246    14.0811    14.2761    16.7404    58.6339     8.0477     0.0236     2.4785     0.1027
  127.5000   -53.6676    14.1857    14.1836    17.2165    56.5900     8.0473     0.0130     2.4860     0.1036
  128.0000   -53.6562    13.9009    13.9946    15.0004    57.1407     8.0469     0.0010     2.4882     0.1012
  128.5000   -53.6427    13.7165    13.8081    14.1994    58.4794     8.0463     0.0100     2.4905     0.0961
  129.0000   -53.6297    13.3485    13.5301    13.7231    58.0281     8.0459     0.0167     2.4942     0.0932
  129.5000   -53.7657    13.0805    13.2579    13.3549    56.9032     8.0455     0.0190     2.4709     0.1145
  130.0000   -53.7519    12.7296    13.0812    13.4542    57.7993     8.0450     0.0070     2.4408     0.1229
  130.5000   -53.7384    12.3881    12.8179    13.0932    58.2463     8.0446     0.0130     2.4311     0.1249
  131.0000   -53.7250    12.1394    12.4734    12.7404    58.4681     8.0441     0.0159     2.4386     0.1270
  131.5000   -53.7115    11.9783    12.2224    13.1968    59.8133     8.0436     0.0092     2.4378     0.1296
  132.0000   -53.8482    11.8180    12.0596    13.0217    59.1375     8.0432     0.0167     2.4340     0.1245
  132.5000   -53.9842    11.7421    11.8169    12.4982    56.8899     8.0578     0.0211     2.4422     0.1272
  133.0000   -54.1203    11.6668    11.7403    12.7665    55.9895     8.0574     0.0121     2.4535     0.1189
  133.5000   -54.2564    11.5919    11.5838    12.6846    57.3341     8.0720     0.0076     2.4279     0.1288
  134.0000   -54.3924    11.7606    11.5886    12.0892    59.3530     8.0864     0.0158     2.4534     0.1182
  134.5000   -54.5285    11.8480    11.6739    12.3502    60.0245     8.0860     0.0143     2.4549     0.1191
  135.0000   -54.6646    12.0189    11.7597    13.0595    59.3487     8.0706     0.0151     2.4339     0.1272
  135.5000   -54.6478    12.1082    11.8498    13.1565    58.6646     8.0701     0.0285     2.4458     0.1239
  136.0000   -54.6344    12.2828    12.1836    12.9804    59.5689     8.0696     0.0339     2.4593     0.1158
  136.5000   -54.4715    12.6337    12.5360    13.6329    57.7699     8.0542     0.0276     2.4818     0.1047
  137.0000   -54.4581    12.9945    12.9003    16.1036    55.5222     8.0537     0.0218     2.4751     0.1110
  137.5000   -54.2952    13.1820    13.2541    16.4474    52.1518     8.0383     0.0277     2.4690     0.1125
  138.0000   -54.2818    12.8283    12.8978    14.6308    50.5778     8.0379     0.0180     2.4848     0.1026
  138.5000   -54.2684    12.3980    12.5511    13.1037    50.6078     8.0373     0.0217     2.4885     0.0981
  139.0000   -54.1055    12.0654    12.2891    12.1492    52.1449     8.0369     0.0183     2.4712     0.1102
  139.5000   -53.9426    11.8232    12.1245    11.5004    53.9391     8.0365     0.0082     2.4547     0.1135
  140.0000   -53.7798    11.5859    11.8904    11.3465    57.5298     8.0510     0.0007     2.4276     0.1279
  140.5000   -53.4674    11.5915    11.7206    11.2737    59.9977     8.0506     0.0037     2.4269     0.1360
  141.0000   -53.4540    11.5157    11.5757    11.4377    60.4731     8.0501     0.0104     2.4358     0.1263
  141.5000   -53.2930    11.6027    11.4878    11.7644    60.6671     8.0497     0.0217     2.4621     0.1147
  142.0000   -53.2777    11.7700    11.2692    12.1844    60.4399     8.0492     0.0388     2.4936     0.1033
  142.5000   -53.2643    11.9398    11.2741    12.1062    59.9886     8.0488     0.0276     2.4756     0.1111
  143.0000   -53.1014    11.7002    11.2939    11.7814    58.8637     8.0634     0.0186     2.4622     0.1135
  143.5000   -53.2408    11.3077    11.4415    11.3863    57.5142     8.0780     0.0118     2.4515     0.1196
  144.0000   -53.2241    11.0041    11.2879    11.0808    57.7362     8.0774     0.0193     2.4380     0.1238
  144.5000   -53.3635    10.7091    10.9856    10.7835    58.4077     8.0770     0.0223     2.4560     0.1163
  145.0000   -53.3467    10.6402    10.8392    10.5670    59.0792     8.0766     0.0200     2.4642     0.1136
