~VERSION INFORMATION
 VERS.                2.0:   CWLS LOG ASCII STANDARD - VERSION 2.0
 WRAP.                 NO:   ONE LINE PER DEPTH STEP
~WELL INFORMATION
#MNEM.UNIT      DATA TYPE    INFORMATION
#----------   ------------   ------------------------------
 STRT.F         1179.0000:   START DEPTH
 STOP.F         2186.0000:   STOP DEPTH
 STEP.F            0.5000:   STEP LENGTH
 NULL.          -999.2500:   NO VALUE
 COMP. FENIX & SCISSON INC:   COMPANY
 WELL.  404 SH 33 #404-33:   WELL
 FLD .             TEAPOT:   FIELD
 LOC .      S33 T39N R78W:   LOCATION
 CNTY.            NATRONA:   COUNTY
 STAT.            WYOMING:   STATE
 CTRY. UNITED STATES OF AMERICA:   COUNTRY
 SRVC.            Unknown:   SERVICE COMPANY
 DATE.        19-NOV-1992:   LOGDATE
 API .       490251071100:   API NUMBER
~CURVE INFORMATION
#MNEM.UNIT       API CODE    CURVE DESCRIPTION
#----------   ------------   ------------------------------
 DEPT.F                  :   
 TGAS.UNITS  91 830 01 00:   TOTAL GAS FROM HOTWIRE
 ROP .MIN/FT 91 810 01 00:   RATE OF DRILLING PENETRATION
~PARAMETER INFORMATION
#MNEM.UNIT          VALUE    DESCRIPTION
#----------   ------------   ------------------------------
 EKB .F              5170:   KELLING BUSHING
 EGL .F              5160:   GROUND LEVEL
 DATE.        19-NOV-1992:   RUN DATE
 RUN .                  1:   RUN NUMBER
 DD  .F              2186:   DEPTH DRILLER
 TLI .F              1186:   TOP LOG INTERVAL
 CS  .IN             8.25:   CASING SIZE
 CBD .F              1080:   CASING BOTTOM DRILLER
 WITN.   C. TOWER/R. HUSK:   WITNESSED BY
 CLNT.            A2DTECH:   CLIENT CODE
 ORIG.           5" PRINT:   ORIGIN OF DATA
 UWI .       490251071100:   UNIQUE WELL ID
 DICO. A2D Technologies, Inc.:   DIGITIZING COMPANY
~OTHER INFORMATION
~A  DEPT       TGAS       ROP   
# ...
 1786.5000    65.2720     0.5584
 1787.0000    65.2995     0.5585
 1787.5000    65.3270     0.5585
 1788.0000    65.3545     0.5586
 1788.5000    65.3820     0.5586
 1789.0000    65.4095     0.5587
 1789.5000    65.4370     0.5587
 1790.0000    65.4645     0.5588
 1790.5000    65.4921     0.5588
 1791.0000    65.5196     0.5589
 1791.5000    65.5471     0.5589
 1792.0000    65.5746     0.5590
 1792.5000    65.6021     0.5590
 1793.0000    65.6296     0.5591
 1793.5000    65.6571     0.5591
 1794.0000    65.6846     0.5592
 1794.5000    65.7121     0.5592
 1795.0000    65.7396     0.5593
 1795.5000    65.7671     0.5593
 1796.0000    65.7946     0.5594
 1796.5000    65.8221     0.5594
 1797.0000    65.8496     0.5595
 1797.5000    65.8771     0.5595
 1798.0000    65.9046     0.5596
 1798.5000    65.9322     0.5597
 1799.0000    65.9597     0.5597
 1799.5000    65.9872     0.5598
 1800.0000    66.0147     0.5598
 1800.5000    66.0422     0.5599
 1801.0000    66.0697     0.5599
 1801.5000    66.0972     0.5600
 1802.0000    66.1247     0.5600
 1802.5000    66.1522     0.5601
 1803.0000    66.1797     0.5602
 1803.5000    66.2072     0.5605
 1804.0000    66.2347     0.5607
 1804.5000    66.2622     0.5609
 1805.0000    66.2897     0.5612
 1805.5000    66.3172     0.5614
 1806.0000    66.3447     0.5617
 1806.5000    66.3722     0.5619
 1807.0000    66.3997     0.5622
 1807.5000    66.4273     0.5624
 1808.0000    66.4548     0.5626
 1808.5000    66.4823     0.5629
 1809.0000    66.5098     0.5631
 1809.5000    66.5373     0.5634
 1810.0000    66.5648     0.5636
 1810.5000    66.5923     0.5639
 1811.0000    66.6198     0.5641
 1811.5000    66.6519     0.5643
 1812.0000    66.6783     0.5646
 1812.5000    66.7070     0.5648
 1813.0000    66.7335     0.5651
 1813.5000    66.7621     0.5325
 1814.0000    67.8888     0.5218
 1814.5000    72.3185     0.5003
 1815.0000    76.7459     0.4896
 1815.5000    85.5765     0.4789
 1816.0000    97.7057     0.4793
 1816.5000   107.6365     0.4795
 1817.0000   118.6654     0.4688
 1817.5000   128.5963     0.4472
 1818.0000   137.4247     0.4475
 1818.5000   146.2553     0.4478
 1819.0000   155.0838     0.4371
 1819.5000   162.8141     0.4374
 1820.0000   168.3418     0.4377
 1820.5000   173.8695     0.4379
 1821.0000   180.4996     0.4492
 1821.5000   182.7266     0.4494
 1822.0000   186.0560     0.4497
 1822.5000   187.1827     0.4500
 1823.0000   190.5121     0.4503
 1823.5000   190.5385     0.4505
 1824.0000   190.5672     0.4508
 1824.5000   191.6939     0.4511
 1825.0000   191.7226     0.4514
 1825.5000   190.6488     0.4516
 1826.0000   190.6726     0.4409
 1826.5000   190.7009     0.4522
 1827.0000   190.7292     0.4525
 1827.5000   190.7575     0.4418
 1828.0000   190.7858     0.4420
 1828.5000   190.8142     0.4423
 1829.0000   190.8425     0.4426
 1829.5000   190.8708     0.4429
 1830.0000   190.8991     0.4431
 1830.5000   190.9274     0.4434
 1831.0000   190.9557     0.4437
 1831.5000   190.9840     0.4440
 1832.0000   191.0123     0.4443
 1832.5000   191.0406     0.4445
 1833.0000   191.0689     0.4448
 1833.5000   191.0972     0.4450
 1834.0000   191.1255     0.4453
 1834.5000   191.1539     0.4346
 1835.0000   191.1822     0.4349
 1835.5000   191.2105     0.4352
 1836.0000   191.2388     0.4355
 1836.5000   191.2671     0.4358
 1837.0000   191.2954     0.4250
 1837.5000   191.3237     0.4144
 1838.0000   191.3520     0.4147
 1838.5000   191.3803     0.4150
 1839.0000   191.4086     0.4152
 1839.5000   191.4370     0.4155
 1840.0000   191.4653     0.4158
 1840.5000   191.4936     0.4161
 1841.0000   191.5219     0.4164
 1841.5000   191.5502     0.4166
 1842.0000   191.5785     0.4169
 1842.5000   191.6068     0.4171
 1843.0000   191.6351     0.4393
 1843.5000   191.6954     0.4505
 1844.0000   190.6376     0.4617
 1844.5000   190.7280     0.4839
 1845.0000   189.6702     0.4951
 1845.5000   187.5388     0.5282
 1846.0000   186.5076     0.4957
 1846.5000   186.5926     0.4631
 1847.0000   185.5402     0.4306
 1847.5000   183.4141     0.4089
 1848.0000   182.3882     0.3763
 1848.5000   182.4520     0.3657
 1849.0000   179.2044     0.3550
 1849.5000   178.1679     0.3444
 1850.0000   178.2476     0.3337
 1850.5000   175.0106     0.3340
 1851.0000   175.0744     0.3562
 1851.5000   174.0326     0.3674
 1852.0000   173.0120     0.3676
 1852.5000   170.8593     0.3679
 1853.0000   169.8228     0.3682
 1853.5000   169.9079     0.3685
 1854.0000   166.6762     0.3687
 1854.5000   166.7399     0.3690
 1855.0000   165.6928     0.3693
 1855.5000   164.6723     0.3696
 1856.0000   162.5249     0.3699
 1856.5000   161.4991     0.3701
 1857.0000   161.5628     0.3704
 1857.5000   160.5157     0.3707
 1858.0000   158.3843     0.3709
 1858.5000   157.3690     0.3822
 1859.0000   157.4275     0.3934
 1859.5000   157.5019     0.4155
 1860.0000   157.5603     0.4158
 1860.5000   157.6294     0.4270
 1861.0000   157.6985     0.4273
 1861.5000   157.7622     0.4494
 1862.0000   157.8313     0.4607
 1862.5000   156.7948     0.4609
 1863.0000   156.8639     0.4612
 1863.5000   156.9223     0.4615
 1864.0000   156.9914     0.4617
 1864.5000   157.0551     0.4620
 1865.0000   157.1189     0.4732
 1865.5000   157.1826     0.4735
 1866.0000   157.2570     0.4738
 1866.5000   157.3261     0.4740
 1867.0000   158.4848     0.4743
 1867.5000   158.5539     0.4746
 1868.0000   158.6229     0.4638
 1868.5000   158.6814     0.4642
 1869.0000   158.7505     0.4645
 1869.5000   158.8142     0.4648
 1870.0000   158.8833     0.4650
 1870.5000   158.9470     0.4653
 1871.0000   159.0161     0.4656
 1871.5000   160.1801     0.4658
 1872.0000   160.2492     0.4661
 1872.5000   159.2021     0.4664
 1873.0000   159.2764     0.4667
 1873.5000   159.3455     0.4450
 1874.0000   157.2141     0.4343
 1874.5000   156.1617     0.4237
 1875.0000   155.1252     0.3911
 1875.5000   154.1046     0.3804
 1876.0000   150.8783     0.3698
 1876.5000   149.8418     0.3482
 1877.0000   147.6944     0.3375
 1877.5000   146.6526     0.3378
 1878.0000   145.6268     0.3381
 1878.5000   143.4900     0.3274
 1879.0000   142.4642     0.3387
 1879.5000   142.5279     0.3389
 1880.0000   142.6023     0.3392
 1880.5000   142.6661     0.3395
 1881.0000   141.6190     0.3398
 1881.5000   139.4769     0.3510
 1882.0000   138.4510     0.3622
 1882.5000   138.5307     0.3843
 1883.0000   138.5945     0.3955
 1883.5000   137.5421     0.4068
 1884.0000   135.4053     0.4289
 1884.5000   135.4957     0.4292
 1885.0000   134.4486     0.4295
 1885.5000   134.5282     0.4297
 1886.0000   134.5920     0.4300
 1886.5000   133.5449     0.4303
 1887.0000   132.5243     0.4196
 1887.5000   131.4666     0.4199
 1888.0000   131.5569     0.4092
 1888.5000   130.5045     0.3985
 1889.0000   130.5895     0.3988
 1889.5000   130.6479     0.3991
 1890.0000   129.6008     0.3993
 1890.5000   128.5697     0.3997
 1891.0000   129.7496     0.3889
 1891.5000   127.5969     0.3893
 1892.0000   127.6766     0.3895
 1892.5000   127.7457     0.3898
 1893.0000   126.6933     0.3901
 1893.5000   126.7783     0.3904
 1894.0000   126.8420     0.3906
 1894.5000   126.9058     0.3909
 1895.0000   125.8640     0.3912
 1895.5000   124.8381     0.3914
 1896.0000   123.7963     0.3917
 1896.5000   123.8760     0.3920
 1897.0000   126.1349     0.3813
 1897.5000   126.2093     0.3816
 1898.0000   127.3733     0.3928
 1898.5000   127.4424     0.3931
 1899.0000   127.4963     0.3933
 1899.5000   127.5752     0.3937
 1900.0000   127.6390     0.4048
 1900.5000   128.7977     0.4051
 1901.0000   128.8667     0.4054
 1901.5000   128.9358     0.4276
 1902.0000   129.0049     0.4388
 1902.5000   130.1636     0.4393
 1903.0000   131.3382     0.4401
 1903.5000   131.3967     0.4409
 1904.0000   132.5660     0.4418
 1904.5000   132.6350     0.4426
 1905.0000   131.5773     0.4434
 1905.5000   131.6676     0.4443
 1906.0000   129.5149     0.4451
 1906.5000   129.5946     0.4459
 1907.0000   129.6637     0.4468
 1907.5000   129.7221     0.4476
