~VERSION INFORMATION
 VERS.                2.0:   CWLS LOG ASCII STANDARD - VERSION 2.0
 WRAP.                 NO:   ONE LINE PER DEPTH STEP
~WELL INFORMATION
#MNEM.UNIT      DATA TYPE    INFORMATION
#----------   ------------   ------------------------------
 STRT.F          149.5000:   START DEPTH
 STOP.F          864.5000:   STOP DEPTH
 STEP.F            0.5000:   STEP LENGTH
 NULL.          -999.2500:   NO VALUE
 COMP. U S NAVY/INTEX OIL CO:   COMPANY
 WELL.    NPR #3 #78-S-27:   WELL
 FLD .             TEAPOT:   FIELD
 LOC .      S27 T39N R78W:   LOCATION
 CNTY.            NATRONA:   COUNTY
 STAT.            WYOMING:   STATE
 CTRY. UNITED STATES OF AMERICA:   COUNTRY
 SRVC. Schlumberger Well Surveying Corp:   SERVICE COMPANY
 DATE.        25-FEB-1961:   LOGDATE
 API .       490250657800:   API NUMBER
~CURVE INFORMATION
#MNEM.UNIT       API CODE    CURVE DESCRIPTION
#----------   ------------   ------------------------------
 DEPT.F                  :   
 SPR .MV     05 010 01 00:   SPONTANEOUS POTENTIAL FROM RES.
 CILD.MMHO   05 110 46 00:   CONDUCTIVITY INDUCTION LOG DEEP
 ASN .OHMM   05 041 16 00:   AMPLIFIED SHORT NORMAL 16"
 ILD .OHMM   05 120 46 00:   INDUCTION LOG DEEP
 GR  .GAPI   81 310 01 00:   GAMMA RAY
~PARAMETER INFORMATION
#MNEM.UNIT          VALUE    DESCRIPTION
#----------   ------------   ------------------------------
 PD  .                 GL:   PERMANENT DATUM
 EPD .F              5038:   ELEVATION PERMANENT DATUM
 LMF .                 KB:   LOG MEASURED FROM
 DAPD.F                 4:   FEET ABOVE PERMANENT DATUM
 DMF .                 KB:   DRILLING MEASURED FROM
 EKB .F              5042:   KELLING BUSHING
 EGL .F              5038:   GROUND LEVEL
 DATE.            2-25-61:   RUN DATE
 RUN .                  1:   RUN NUMBER
 DD  .F               865:   DEPTH DRILLER
 DL  .F               869:   DEPTH LOGGER
 BLI .F               864:   BOTTOM LOG INTERVAL
 TLI .F               150:   TOP LOG INTERVAL
 CBD .F                12:   CASING BOTTOM DRILLER
 BS  .IN            7.875:   BIT SIZE
 BSD .F               865:   BIT SIZE AT DEPTH
 DFT .       OIL EMULSION:   DRILLING FLUID TYPE
 DFD .               10.2:   DRILLING FLUID DENSITY
 DFV .                 48:   DRILLING FLUID VISCOSITY
 DFPH.                8.5:   DRILLING FLUID PH
 DFL .               10.2:   DRILLING FLUID LOSS
 RMS .OHMM            1.7:   RESISTIVITY MUD SAMPLE
 MST .F                57:   MUD SAMPLE TEMPERATURE
 MFSS.                  C:   MUD FILTRATE SAMPLE SOURCE
 MCSS.                  C:   MUD CAKE SAMPLE SOURCE
 RMB .OHMM            1.3:   RESISTIVITY MUD AT BHT
 BHT .F                75:   BOTTOM HOLE TEMPERATURE
 TCS .HRS               1:   TIME CURCULATED STOPPED
 MRT .F                75:   MAXIMUM RECORDED TEMPERATURE
 LUN .               2572:   LOGGING UNIT NUMBER
 LUL .                 NC:   LOGGING UNIT LOCATION
 ENGI.             ROUSER:   RECORDING ENGINEER
 WITN.          JORGENSEN:   WITNESSED BY
 CLNT.            A2DTECH:   CLIENT CODE
 ORIG.       2", 5" PRINT:   ORIGIN OF DATA
 UWI .       490250657800:   UNIQUE WELL ID
 DICO. A2D Technologies, Inc.:   DIGITIZING COMPANY
~OTHER INFORMATION
~A   DEPT      SPR       CILD        ASN        ILD         GR   
# ...
  820.5000   -41.4536    53.6752    20.8755    18.0974    44.1592
  821.0000   -41.3828    54.5535    20.7176    17.9603    41.2387
  821.5000   -41.4677    55.4317    20.5589    17.8417    42.9388
  822.0000   -41.5377    56.3100    20.4002    17.7103    44.8618
  822.5000   -41.5937    56.6132    20.2417    17.5996    46.8508
  823.0000   -41.5191    56.6132    20.0829    17.5774    45.9044
  823.5000   -41.3513    56.6132    19.9260    17.5987    49.6770
  824.0000   -41.1824    56.9596    19.7656    17.4534    50.9478
  824.5000   -41.0068    57.6811    19.6106    17.1796    47.4087
  825.0000   -40.9694    58.4025    19.4468    16.9346    48.8302
  825.5000   -41.0654    59.1240    19.3806    16.6802    51.0006
  826.0000   -41.2816    59.8454    19.3895    16.4098    52.5516
  826.5000   -41.4938    60.6043    19.3852    16.3934    49.4616
  827.0000   -41.7006    60.6009    19.3881    16.5207    49.2012
  827.5000   -41.8104    60.6033    19.4011    16.7443    46.6075
  828.0000   -41.5946    59.5137    19.6676    16.9737    43.5205
  828.5000   -41.2284    58.5592    20.0230    17.1851    41.5041
  829.0000   -40.9018    57.6034    20.3629    17.4150    44.3333
  829.5000   -40.5612    56.6153    20.7143    17.4891    42.3983
  830.0000   -40.2130    56.6098    20.9431    17.5109    46.4122
  830.5000   -40.2201    56.6132    20.5178    17.5686  -999.2500
  831.0000   -40.4071    56.6132    19.8552    17.6754  -999.2500
  831.5000   -40.5786    56.6132    19.2526    17.4529  -999.2500
  832.0000   -40.7607    57.5961    18.5830    16.8594  -999.2500
  832.5000   -40.9370    60.0009    18.0804    16.3364  -999.2500
  833.0000   -41.1172    62.4058    17.9121    15.7560  -999.2500
  833.5000   -41.2943    64.8106    17.6945    15.3154  -999.2500
  834.0000   -41.4750    66.6333    17.6903    15.2626  -999.2500
  834.5000   -41.6491    66.6333    17.6786    15.4080  -999.2500
  835.0000   -41.8349    65.6540    17.7613    15.6511  -999.2500
  835.5000   -41.9734    64.5063    17.9153    15.8466  -999.2500
  836.0000   -41.9930    63.3585    17.9801    16.0883  -999.2500
  836.5000   -41.8839    62.2108    17.7781    16.1933  -999.2500
  837.0000   -41.6727    61.6232    17.6062    16.1788  -999.2500
  837.5000   -41.5817    61.6232    17.4295    16.1823  -999.2500
  838.0000   -41.6539    61.6232    17.2498    16.0068  -999.2500
  838.5000   -41.7216    62.6066    17.0734    15.7554  -999.2500
  839.0000   -41.7984    63.6888    16.8962    15.5151  -999.2500
  839.5000   -41.8637    64.7710    16.7169    15.2694  -999.2500
  840.0000   -41.9491    65.8531    16.5409    15.0257  -999.2500
  840.5000   -41.9496    66.9353    16.3588    14.7965  -999.2500
  841.0000   -41.8341    68.0175    16.1998    14.7829  -999.2500
  841.5000   -41.7348    69.0996    16.1622    14.7161  -999.2500
  842.0000   -41.6229    70.1818    15.9498    14.5379  -999.2500
  842.5000   -41.5793    70.6413    15.7283    14.3716  -999.2500
  843.0000   -41.5870    70.6413    15.4944    14.1981  -999.2500
  843.5000   -41.5702    71.1137    15.2654    14.0282  -999.2500
  844.0000   -41.4380    72.3161    15.0411    13.8570  -999.2500
  844.5000   -41.2908    73.5185    14.8013    13.6848  -999.2500
  845.0000   -41.1477    74.7209    14.6389    13.5161  -999.2500
  845.5000   -40.9982    75.9233    14.6557    13.3399  -999.2500
  846.0000   -40.9784    77.1257    14.6487    13.1781  -999.2500
  846.5000   -40.9827    78.3281    14.5029    12.9830  -999.2500
  847.0000   -40.9808    79.5305    14.3714    12.8642  -999.2500
  847.5000   -40.9819    80.6613    14.2302    12.8796  -999.2500
  848.0000   -40.9814    80.6613    14.0923    12.8719  -999.2500
  848.5000   -40.9820    80.6613    14.0821    12.8768  -999.2500
  849.0000   -40.9821    80.5043    14.1129    12.8734  -999.2500
  849.5000   -40.9827    79.9468    14.1369    12.8844  -999.2500
  850.0000   -40.9823    79.3893    14.1650    12.9135  -999.2500
  850.5000   -40.9832    78.8319    14.1900    12.9432  -999.2500
  851.0000   -40.9820    78.5311    14.2186    12.9724  -999.2500
  851.5000   -40.9856    78.3474    14.2418    13.0027  -999.2500
  852.0000   -40.9649    78.1637    14.2745    13.0304  -999.2500
  852.5000   -40.7431    77.9800    14.2394    13.0639  -999.2500
  853.0000   -40.5154    77.7963    14.1600    13.0704  -999.2500
  853.5000   -40.2702    77.6553    14.0942    12.9888  -999.2500
  854.0000   -40.1751    78.3830    14.0221    12.9059  -999.2500
  854.5000   -40.1068    78.9734    13.9537    12.8227  -999.2500
  855.0000   -39.8910    79.5639    13.8826    12.7397  -999.2500
  855.5000   -39.4062    80.1544    13.8142    12.6566  -999.2500
  856.0000   -38.7917    80.7448    13.7420    12.5733  -999.2500
  856.5000   -38.7521    81.3353    13.6763    12.4906  -999.2500
  857.0000   -39.4259    81.9258    13.5990    12.4068  -999.2500
  857.5000   -40.0930    82.5162    13.6107    12.3251  -999.2500
  858.0000   -40.5664    81.9913    13.6905    12.2392  -999.2500
  858.5000   -40.5912    81.0894    13.7554    12.1766  -999.2500
  859.0000   -40.4485    81.0087    13.8270    12.1739  -999.2500
  859.5000   -40.2127    81.6700    13.8956    12.1738  -999.2500
  860.0000   -40.4614    82.3313    13.9643    12.1741  -999.2500
  860.5000   -40.6038    82.6653    14.0378    12.1741  -999.2500
  861.0000   -40.4370    82.6653    14.0871    12.1742  -999.2500
  861.5000   -40.3275    82.6653    14.0069    12.1742  -999.2500
  862.0000   -40.1123    82.6653    13.9513    12.1743  -999.2500
  862.5000   -39.9877    82.6653    13.8054    12.1743  -999.2500
  863.0000   -39.8569    82.6653    13.6978    12.1743  -999.2500
  863.5000   -39.7295    83.6974    13.6686    12.1743  -999.2500
  864.0000   -39.5939    84.6894    13.6122    12.1743  -999.2500
  864.5000  -999.2500    85.6713  -999.2500  -999.2500  -999.2500
