~VERSION INFORMATION
 VERS.                2.0:   CWLS LOG ASCII STANDARD - VERSION 2.0
 WRAP.                 NO:   ONE LINE PER DEPTH STEP
~WELL INFORMATION
#MNEM.UNIT      DATA TYPE    INFORMATION
#----------   ------------   ------------------------------
 STRT.F           11.0000:   START DEPTH
 STOP.F          807.0000:   STOP DEPTH
 STEP.F            0.5000:   STEP LENGTH
 NULL.          -999.2500:   NO VALUE
 COMP. BROWN JOHN E&C INC:   COMPANY
 WELL. NPR 3 SHX-34 #77-1-34:   WELL
 FLD .             TEAPOT:   FIELD
 LOC .      S34 T39N R79W:   LOCATION
 CNTY.            NATRONA:   COUNTY
 STAT.            WYOMING:   STATE
 CTRY. UNITED STATES OF AMERICA:   COUNTRY
 SRVC.     Atlas Wireline:   SERVICE COMPANY
 DATE.        07-DEC-1991:   LOGDATE
 API .       490252248000:   API NUMBER
~CURVE INFORMATION
#MNEM.UNIT       API CODE    CURVE DESCRIPTION
#----------   ------------   ------------------------------
 DEPT.F                  :   
 CALD.IN     45 280 60 00:   CALIPER FROM DENSITY LOG
 CORR.G/C3   45 356 01 00:   DENSITY CORRECTION
 DEN .G/C3   45 350 01 00:   COMPENSATED BULK DENSTIY
 GRD .GAPI   45 310 01 00:   GAMMA RAY FROM DENSITY LOG
 PORD.DEC    45 890 12 00:   POROSITY DENSITY SANDSTONE
 GRR .GAPI   07 310 01 00:   GAMMA RAY FROM RESISTIVITY
 RILD.OHMM   07 120 46 00:   RESISTIVITY INDUCTION LOG DEEP
 RILM.OHMM   07 120 44 00:   RESITIVITY INDUCTION LOG MEDIUM
~PARAMETER INFORMATION
#MNEM.UNIT          VALUE    DESCRIPTION
#----------   ------------   ------------------------------
 PD  .                 GL:   PERMANENT DATUM
 EPD .F              5098:   ELEVATION PERMANENT DATUM
 LMF .                 KB:   LOG MEASURED FROM
 DAPD.F                10:   FEET ABOVE PERMANENT DATUM
 DMF .                 KB:   DRILLING MEASURED FROM
 EKB .F              5108:   KELLING BUSHING
 EDF .F              5107:   DRILLING FLOOR
 EGL .F              5098:   GROUND LEVEL
 DATE.        07-DEC-1991:   RUN DATE
 RUN .                  1:   RUN NUMBER
 DD  .F               810:   DEPTH DRILLER
 DL  .F               810:   DEPTH LOGGER
 BLI .F               808:   BOTTOM LOG INTERVAL
 CS  .IN            9.625:   CASING SIZE
 CBD .F                85:   CASING BOTTOM DRILLER
 CBL .F                97:   CASING BOTTOM LOGGER
 BS  .IN             8.75:   BIT SIZE
 BSD .F               810:   BIT SIZE AT DEPTH
 DFT .                AIR:   DRILLING FLUID TYPE
 BHT .F                90:   BOTTOM HOLE TEMPERATURE
 MRT .F                90:   MAXIMUM RECORDED TEMPERATURE
 LUN .            HL 6274:   LOGGING UNIT NUMBER
 LUL .             CASPER:   LOGGING UNIT LOCATION
 ENGI.       P. RASMUSSEN:   RECORDING ENGINEER
 WITN.        GARY STRONG:   WITNESSED BY
 CLNT.            A2DTECH:   CLIENT CODE
 ORIG.           5" PRINT:   ORIGIN OF DATA
 UWI .       490252248000:   UNIQUE WELL ID
 DICO. A2D Technologies, Inc.:   DIGITIZING COMPANY
~OTHER INFORMATION
~A   DEPT     CALD       CORR        DEN        GRD       PORD         GRR      RILD       RILM   
# ...
  780.5000     8.9927     0.0131     2.4722    64.4598     0.1071    83.7718     9.3245     7.8515
  781.0000     8.9928     0.0207     2.4822    64.7554     0.1062    87.0655     9.2584     7.8505
  781.5000     8.9930     0.0207     2.4896    64.4493     0.1038    88.8577     8.8813     7.7417
  782.0000     8.9931     0.0162     2.4933    64.1441     0.0981    88.8480     8.4609     7.3147
  782.5000     8.9933     0.0117     2.4956    66.2406     0.0935    89.1391     7.8948     6.7866
  783.0000     8.9934     0.0103     2.4873    68.3380     0.0944    89.4294     7.5211     6.4205
  783.5000     8.9936     0.0163     2.4828    69.5345     0.0971    91.2192     7.2647     6.2446
  784.0000     8.9937     0.0193     2.4798    69.2284     0.1011    92.4108     6.7790     6.1055
  784.5000     8.9939     0.0073     2.4782    64.7192     0.1043    92.4012     6.2303     5.7855
  785.0000     8.9863     0.0104     2.4746    63.5133     0.1067    91.4907     5.7815     5.2148
  785.5000     8.9791     0.0149     2.4708    63.8089     0.1085    89.9796     5.1760     4.1504
  786.0000     8.9793     0.0074     2.4602    65.0043     0.1133    89.3694     4.2069     3.4091
  786.5000     8.9345     0.0014     2.4325    65.9005     0.1245  -999.2500     3.4853     3.1249
  787.0000     8.9046     0.0015     2.3941    66.7968     0.1389  -999.2500     2.8372     2.7588
  787.5000     8.9198     0.0030     2.3587    67.9933     0.1591  -999.2500     2.5754     2.4696
  788.0000     8.9349     0.0076     2.2888    67.9874     0.1783  -999.2500     2.4705     2.2569
  788.5000     8.9651     0.0196     2.2572    66.1810     0.2463  -999.2500     2.4701     2.2880
  789.0000     8.9802     0.0422     2.2271    62.8427     0.2692  -999.2500     2.5387     2.3846
  789.5000     8.9954     0.0422     2.2113    60.4647     0.2650  -999.2500     2.5737     2.5550
  790.0000     8.9955     0.0332     2.2768    61.3610     0.2331  -999.2500     2.6452     2.8535
  790.5000     8.9957     0.0047     2.4528    63.4584     0.1831  -999.2500     2.7377     3.2313
  791.0000     8.9958     0.0047     2.4777    65.2544     0.1036  -999.2500     3.0026     3.6088
  791.5000     9.0109     0.0078     2.4890    64.9494     0.0964  -999.2500     3.3898     4.1149
  792.0000     9.0111     0.0123     2.4882    63.1429     0.0982  -999.2500     3.7852     4.8570
  792.5000     9.0262     0.0262     2.4890    64.0640     0.0958  -999.2500     4.4666     5.5766
  793.0000     9.0264     0.0349     2.4905    64.3348     0.0934  -999.2500     5.4818     6.1003
  793.5000     9.0265     0.0289     2.4935    61.9265     0.0933  -999.2500     6.8034     6.5815
  794.0000     9.0267     0.0169     2.4935    60.1200     0.0949  -999.2500     7.5239     7.1005
  794.5000     9.0268     0.0140     2.4905    60.1142     0.0957  -999.2500  -999.2500     7.1987
  795.0000     9.0270     0.0155     2.4905    61.6110     0.0957  -999.2500  -999.2500     7.1975
  795.5000     9.0271     0.0215     2.4928    64.9097     0.0936  -999.2500  -999.2500     7.1966
  796.0000     9.0273     0.0231     2.4950    67.9481     0.0933  -999.2500  -999.2500     7.2956
  796.5000     9.0275     0.0201     2.4958    70.6049     0.0933  -999.2500  -999.2500     7.2947
  797.0000     9.0276     0.0141     2.4921    69.6993     0.0939  -999.2500  -999.2500     7.2938
  797.5000     9.0277     0.0051     2.4875    67.2922     0.0975  -999.2500  -999.2500  -999.2500
  798.0000     9.0279     0.0036     2.4860    66.3855     0.0978  -999.2500  -999.2500  -999.2500
  798.5000     9.0281     0.0052     2.4876    67.2828     0.0969  -999.2500  -999.2500  -999.2500
  799.0000     9.0282     0.0052     2.4898    68.4782     0.0959  -999.2500  -999.2500  -999.2500
  799.5000     9.0207     0.0113     2.4921    70.9057     0.0950  -999.2500  -999.2500  -999.2500
  800.0000     8.9985     0.0143     2.4906  -999.2500     0.0947  -999.2500  -999.2500  -999.2500
  800.5000     8.9987     0.0173     2.4891  -999.2500     0.0956  -999.2500  -999.2500  -999.2500
  801.0000     8.9988     0.0189     2.4891  -999.2500     0.0968  -999.2500  -999.2500  -999.2500
  801.5000     8.9839     0.0204     2.4936  -999.2500     0.0950  -999.2500  -999.2500  -999.2500
  802.0000     8.9991     0.0204     2.4951  -999.2500     0.0950  -999.2500  -999.2500  -999.2500
  802.5000     8.9843     0.0205     2.4891  -999.2500     0.0998  -999.2500  -999.2500  -999.2500
  803.0000     8.9094     0.0160     2.4799  -999.2500     0.1040  -999.2500  -999.2500  -999.2500
  803.5000     8.8946     0.0115     2.4756  -999.2500     0.1034  -999.2500  -999.2500  -999.2500
  804.0000     8.8797     0.0207     2.4779  -999.2500     0.1022  -999.2500  -999.2500  -999.2500
  804.5000     8.9099     0.0191     2.4816  -999.2500     0.1004  -999.2500  -999.2500  -999.2500
  805.0000     8.9401     0.0146     2.4884  -999.2500     0.0983  -999.2500  -999.2500  -999.2500
  805.5000     8.9702    -0.2002     2.4952  -999.2500     0.0973  -999.2500  -999.2500  -999.2500
  806.0000     9.0003    -0.5072  -999.2500  -999.2500     0.0945  -999.2500  -999.2500  -999.2500
  806.5000     8.7906  -999.2500  -999.2500  -999.2500  -999.2500  -999.2500  -999.2500  -999.2500
  807.0000     8.7607  -999.2500  -999.2500  -999.2500  -999.2500  -999.2500  -999.2500  -999.2500
