~VERSION INFORMATION
 VERS.                2.0:   CWLS LOG ASCII STANDARD - VERSION 2.0
 WRAP.                 NO:   ONE LINE PER DEPTH STEP
~WELL INFORMATION
#MNEM.UNIT      DATA TYPE    INFORMATION
#----------   ------------   ------------------------------
 STRT.F           24.0000:   START DEPTH
 STOP.F          487.5000:   STOP DEPTH
 STEP.F            0.5000:   STEP LENGTH
 NULL.          -999.2500:   NO VALUE
 COMP. FENIX & SCISSON INC:   COMPANY
 WELL.       NPR #35-SX-3:   WELL
 FLD .        TEAPOT DOME:   FIELD
 LOC .       S3 T38N R78W:   LOCATION
 CNTY.            NATRONA:   COUNTY
 STAT.            WYOMING:   STATE
 CTRY. UNITED STATES OF AMERICA:   COUNTRY
 SRVC.       Schlumberger:   SERVICE COMPANY
 DATE.        26-MAR-1977:   LOGDATE
 API .       490251030700:   API NUMBER
~CURVE INFORMATION
#MNEM.UNIT       API CODE    CURVE DESCRIPTION
#----------   ------------   ------------------------------
 DEPT.F                  :   
 SPR .MV     07 010 01 00:   SPONTANEOUS POTENTIAL
 LL8 .OHMM   07 220 08 00:   LATEROLOG-8 RES.
 ILD .OHMM   07 120 46 00:   INDUCTION LOG DEEP
 ILM .OHMM   07 120 44 00:   INDUCTION LOG MEDIUM
 CALD.IN     45 280 60 00:   CALIPER FROM DENSITY LOG
 RHOB.G/C3   45 350 01 00:   BULK DENSITY
 DPOR.DEC    45 890 12 00:   DENSITY POROSITY SANDSTONE
 CORR.G/C3   45 356 01 00:   DENSITY CORRECTION
 GRD .GAPI   45 310 01 00:   GAMMA RAY FROM DENSITY LOG
~PARAMETER INFORMATION
#MNEM.UNIT          VALUE    DESCRIPTION
#----------   ------------   ------------------------------
 PD  .                 GL:   PERMANENT DATUM
 EPD .F          EST 5200:   ELEVATION PERMANENT DATUM
 LMF .                 GL:   LOG MEASURED FROM
 DMF .                 KB:   DRILLING MEASURED FROM
 EKB .F              5205:   KELLING BUSHING
 EGL .F          EST 5200:   GROUND LEVEL
 DATE.            3-26-77:   RUN DATE
 RUN .                  1:   RUN NUMBER
 DD  .F               524:   DEPTH DRILLER
 DL  .F               489:   DEPTH LOGGER
 BLI .F               483:   BOTTOM LOG INTERVAL
 TLI .F                39:   TOP LOG INTERVAL
 CS  .IN            8.625:   CASING SIZE
 CBD .F                40:   CASING BOTTOM DRILLER
 CBL .F                39:   CASING BOTTOM LOGGER
 BS  .IN            7.875:   BIT SIZE
 BSD .F               524:   BIT SIZE AT DEPTH
 DFT .                KCL:   DRILLING FLUID TYPE
 DFD .                8.8:   DRILLING FLUID DENSITY
 DFV .                 31:   DRILLING FLUID VISCOSITY
 DFPH.                  8:   DRILLING FLUID PH
 DFL .                9.1:   DRILLING FLUID LOSS
 MSS .          FLOW LINE:   MUD SAMPLE SOURCE
 RMS .OHMM            .18:   RESISTIVITY MUD SAMPLE
 MST .F                76:   MUD SAMPLE TEMPERATURE
 RMF .OHMM            .15:   RESISTIVITY MUD FILTRATE SAMPLE
 MFST.F                76:   MUD FILTRATE SAMPLE TEMPERATURE
 RMC .OHMM             .1:   RESISTIVITY MUD CAKE
 MCST.F                76:   MUD CAKE SAMPLE TEMPERATURE
 MFSS.                  M:   MUD FILTRATE SAMPLE SOURCE
 MCSS.                  C:   MUD CAKE SAMPLE SOURCE
 RMB .OHMM            .25:   RESISTIVITY MUD AT BHT
 BHT .F                55:   BOTTOM HOLE TEMPERATURE
 TCS .HRS               6:   TIME CURCULATED STOPPED
 MRT .F            EST 55:   MAXIMUM RECORDED TEMPERATURE
 LUN .               5642:   LOGGING UNIT NUMBER
 LUL .               CSPR:   LOGGING UNIT LOCATION
 ENGI.     LOHBECK/MARTIN:   RECORDING ENGINEER
 WITN.         STUEBINGER:   WITNESSED BY
 CLNT.            A2DTECH:   CLIENT CODE
 ORIG.       2", 5" PRINT:   ORIGIN OF DATA
 UWI .       490251030700:   UNIQUE WELL ID
 DICO. A2D Technologies, Inc.:   DIGITIZING COMPANY
~OTHER INFORMATION
~A   DEPT      SPR        LL8        ILD        ILM       CALD       RHOB       DPOR       CORR        GRD   
   24.0000  -999.2500  -999.2500  -999.2500  -999.2500  -999.2500  -999.2500  -999.2500  -999.2500   104.3296
   24.5000  -999.2500  -999.2500  -999.2500  -999.2500  -999.2500  -999.2500  -999.2500  -999.2500   105.8222
   25.0000  -999.2500  -999.2500  -999.2500  -999.2500  -999.2500  -999.2500  -999.2500  -999.2500   104.1348
   25.5000  -999.2500  -999.2500  -999.2500  -999.2500  -999.2500  -999.2500  -999.2500  -999.2500   101.4298
   26.0000  -999.2500  -999.2500  -999.2500  -999.2500  -999.2500  -999.2500  -999.2500  -999.2500    98.9916
   26.5000  -999.2500  -999.2500  -999.2500  -999.2500  -999.2500  -999.2500  -999.2500  -999.2500   100.5091
   27.0000  -999.2500  -999.2500  -999.2500  -999.2500  -999.2500  -999.2500  -999.2500  -999.2500   103.1457
   27.5000  -999.2500  -999.2500  -999.2500  -999.2500  -999.2500  -999.2500  -999.2500  -999.2500   105.0409
   28.0000  -999.2500  -999.2500  -999.2500  -999.2500  -999.2500  -999.2500  -999.2500  -999.2500   106.8013
   28.5000  -999.2500  -999.2500  -999.2500  -999.2500  -999.2500  -999.2500  -999.2500  -999.2500   106.5340
   29.0000  -999.2500  -999.2500  -999.2500  -999.2500  -999.2500  -999.2500  -999.2500  -999.2500   102.6439
   29.5000  -999.2500  -999.2500  -999.2500  -999.2500  -999.2500  -999.2500  -999.2500  -999.2500    99.1192
   30.0000  -999.2500  -999.2500  -999.2500  -999.2500  -999.2500  -999.2500  -999.2500  -999.2500    98.2747
   30.5000  -999.2500  -999.2500  -999.2500  -999.2500  -999.2500  -999.2500  -999.2500  -999.2500   102.6846
   31.0000  -999.2500  -999.2500  -999.2500  -999.2500  -999.2500  -999.2500  -999.2500  -999.2500   104.4934
   31.5000  -999.2500  -999.2500  -999.2500  -999.2500  -999.2500  -999.2500  -999.2500  -999.2500   103.7029
   32.0000  -999.2500  -999.2500  -999.2500  -999.2500  -999.2500  -999.2500  -999.2500  -999.2500   102.9276
   32.5000  -999.2500  -999.2500  -999.2500  -999.2500  -999.2500  -999.2500  -999.2500  -999.2500   103.6493
   33.0000  -999.2500  -999.2500  -999.2500  -999.2500  -999.2500  -999.2500  -999.2500  -999.2500   103.6540
   33.5000  -999.2500  -999.2500  -999.2500  -999.2500  -999.2500  -999.2500  -999.2500  -999.2500   102.7931
   34.0000  -999.2500  -999.2500  -999.2500  -999.2500  -999.2500  -999.2500  -999.2500  -999.2500   104.1538
   34.5000  -999.2500  -999.2500  -999.2500  -999.2500  -999.2500  -999.2500  -999.2500  -999.2500   106.3340
   35.0000  -999.2500  -999.2500  -999.2500  -999.2500  -999.2500  -999.2500  -999.2500  -999.2500   106.4578
   35.5000  -999.2500  -999.2500  -999.2500  -999.2500  -999.2500  -999.2500  -999.2500  -999.2500   105.6342
   36.0000  -999.2500  -999.2500  -999.2500  -999.2500  -999.2500  -999.2500  -999.2500  -999.2500   106.0141
   36.5000  -999.2500  -999.2500  -999.2500  -999.2500  -999.2500  -999.2500  -999.2500  -999.2500   108.4284
   37.0000  -999.2500  -999.2500  -999.2500  -999.2500  -999.2500  -999.2500  -999.2500    -0.1785   112.8727
   37.5000  -999.2500  -999.2500  -999.2500  -999.2500  -999.2500  -999.2500  -999.2500    -0.0703   117.7781
   38.0000  -999.2500  -999.2500  -999.2500  -999.2500     8.4986  -999.2500  -999.2500    -0.1155   126.1685
   38.5000  -999.2500  -999.2500  -999.2500  -999.2500     8.7480  -999.2500     0.2186     0.0467   133.3784
   39.0000  -999.2500  -999.2500  -999.2500  -999.2500     9.2405     2.3266     0.1737     0.0556   138.1808
   39.5000  -999.2500  -999.2500  -999.2500  -999.2500     9.6569     2.4202     0.1418     0.0591   138.8710
   40.0000  -999.2500  -999.2500  -999.2500  -999.2500    10.1915     2.4254     0.1403     0.0752   140.1746
   40.5000  -999.2500  1690.8971  -999.2500  -999.2500    10.2308     2.4207     0.1428     0.0914   141.3288
   41.0000  -999.2500  2000.0000     3.4196  -999.2500    10.1536     2.4280     0.1355     0.1042   140.8675
   41.5000  -999.2500  1508.5042     1.5515  -999.2500    10.0731     2.4015     0.1507     0.0785   138.6632
   42.0000  -999.2500  1495.7683     2.7037  -999.2500     9.9917     2.3617     0.1846     0.0518   134.7067
   42.5000  -999.2500  1453.7279     4.8728  -999.2500    10.0246     2.3115     0.2039     0.0382   133.0040
   43.0000  -999.2500  1474.3241    10.3277  -999.2500    10.0802     2.2935     0.2146     0.1176   133.0675
   43.5000  -999.2500  1494.6196     9.8280  -999.2500    10.0231     2.2738     0.2266     0.2178   133.7638
   44.0000  -999.2500  1413.9550     9.1579  -999.2500     9.8083     2.2289     0.2598     0.1289   133.8122
   44.5000  -999.2500  1522.5178    14.1430    36.2736     9.9000     2.3082     0.2110     0.0650   133.8714
   45.0000  -999.2500  1464.2677     9.5944    21.5835    10.0046     2.3603     0.1830     0.1195   135.4592
   45.5000  -999.2500  1325.3318     8.9930    14.6441    10.0353     2.3219     0.1911     0.1441   137.0533
   46.0000  -999.2500  1438.7944     8.8024    11.5021     9.3774     2.3090     0.2102     0.0842   138.9612
   46.5000  -999.2500  1494.6196     8.5235     9.9527     8.6197     2.3635     0.1765     0.0465   140.2422
   47.0000  -999.2500  1494.6196     9.1580    10.6822     8.2917     2.3905     0.1582     0.0821   140.6298
   47.5000  -999.2500  1494.6196    11.0398    11.3263     8.2800     2.3602     0.1810     0.0568   140.7206
   48.0000  -999.2500  1494.6196    12.2803    11.7115     8.3507     2.3614     0.1743     0.0476   140.8086
   48.5000  -999.2500  1494.6196    10.7914    11.2502     8.2554     2.3844     0.1679     0.0570   140.8911
   49.0000  -999.2500  1494.6196     9.7502    10.8943     8.3397     2.3872     0.1624     0.0291   140.9436
   49.5000  -999.2500  1494.6196     8.9406    10.5204     8.4242     2.3981     0.1567     0.0547   139.9321
   50.0000  -999.2500  1494.6196     8.2983    10.6531     8.3216     2.4137     0.1470     0.0910   138.8270
   50.5000  -999.2500  1494.6196     8.5666    10.8164     8.2229     2.4127     0.1464     0.0782   140.6303
   51.0000  -999.2500  1494.6196     8.8429    10.6733     8.3440     2.4250     0.1370     0.0522   140.0341
   51.5000  -999.2500  1494.6196     8.9901    10.4692     8.3520     2.4492     0.1250     0.0627   138.7274
   52.0000  -999.2500  1494.6196     8.9751    10.2689     8.3511     2.4498     0.1311     0.0759   137.5054
   52.5000  -999.2500  1494.6196     8.9633    10.0725     8.3661     2.4110     0.1426     0.0359   140.8129
   53.0000  -999.2500  1494.6196     8.9516    10.0310     8.3869     2.3977     0.1547     0.0172   144.6349
   53.5000  -999.2500  1494.6196     8.9398    10.0146     8.4081     2.4026     0.1520     0.0118   145.8293
   54.0000  -999.2500  1494.6196     8.9281     9.9982     8.4294     2.4090     0.1474     0.0126   145.8649
   54.5000  -999.2500  1494.6196     8.9171     9.9818     8.4225     2.3971     0.1602     0.0017   143.9284
   55.0000  -999.2500  1494.6196     8.8702     9.9655     8.4133     2.3917     0.1567     0.0175   141.4137
   55.5000  -999.2500  1494.6196     8.7010     9.9527     8.4042     2.4047     0.1495     0.0223   138.8277
   56.0000  -999.2500  1494.6196     8.5349     9.6281     8.3951     2.3836     0.1665     0.0165   136.7468
   56.5000  -999.2500  1494.6196     8.3722     9.3178     8.3861     2.3962     0.1594     0.0338   135.6515
   57.0000  -999.2500  1494.6196     8.2127     9.0175     8.3773     2.4206     0.1470     0.0647   136.7686
   57.5000  -999.2500  1494.6196     8.0562     8.7268     8.3787     2.4128     0.1398     0.0871   138.5537
   58.0000  -999.2500  1494.6196     7.8985     8.6637     8.4037     2.4062     0.1530     0.0527   139.3695
   58.5000  -999.2500  1494.6196     7.9663     8.7994     8.4715     2.4207     0.1430     0.0756   139.3813
   59.0000  -999.2500  1494.6196     8.0356     8.9787     8.5537     2.4345     0.1271     0.1186   140.0513
   59.5000  -999.2500  1494.6196     8.1056     9.1618     8.6449     2.4407     0.1367     0.1565   141.8956
   60.0000  -999.2500  1494.6196     8.1766     9.3514     8.7523     2.4158     0.1450     0.1180   143.1747
