~VERSION INFORMATION
 VERS.                2.0:   CWLS LOG ASCII STANDARD - VERSION 2.0
 WRAP.                 NO:   ONE LINE PER DEPTH STEP
~WELL INFORMATION
#MNEM.UNIT      DATA TYPE    INFORMATION
#----------   ------------   ------------------------------
 STRT.F           14.0000:   START DEPTH
 STOP.F          549.0000:   STOP DEPTH
 STEP.F            0.5000:   STEP LENGTH
 NULL.          -999.2500:   NO VALUE
 COMP.   LAWRENCE-ALLISON:   COMPANY
 WELL.    NPR 3 #58-64SX3:   WELL
 FLD .           NPR NO 3:   FIELD
 LOC .       S3 T38N R78W:   LOCATION
 CNTY.            NATRONA:   COUNTY
 STAT.            WYOMING:   STATE
 CTRY. UNITED STATES OF AMERICA:   COUNTRY
 SRVC.      Dresser Atlas:   SERVICE COMPANY
 DATE.        05-DEC-1984:   LOGDATE
 API .       490251099700:   API NUMBER
~CURVE INFORMATION
#MNEM.UNIT       API CODE    CURVE DESCRIPTION
#----------   ------------   ------------------------------
 DEPT.F                  :   
 RFOC.OHMM   07 220 04 00:   RESISTIVITY FOCUSED LOG
 RILD.OHMM   07 120 46 00:   INDUCTION LOG DEEP RESISTIVITY
 RILM.OHMM   07 120 44 00:   INDUCTION LOG MEDIUM RESISTIVITY
 SPR .MV     07 010 01 00:   SPONTANEOUS POTENTIAL
 DT  .US/F   60 520 00 00:   INTERVAL TRANSIT TIME
 CALD.IN     45 280 60 00:   CALIPER FROM DENSITY LOG
 CORR.G/C3   45 356 01 00:   DENSITY CORRECTION
 CNC .DEC    42 890 03 00:   NEUTRON POROSITY SANDSTONE
 DEN .G/C3   45 350 01 00:   COMPENSATED BULK DENSTIY
 GRD .GAPI   45 310 01 00:   GAMMA RAY FROM DENSITY LOG
 PORD.DEC    45 890 12 00:   POROSITY DENSITY SANDSTONE
~PARAMETER INFORMATION
#MNEM.UNIT          VALUE    DESCRIPTION
#----------   ------------   ------------------------------
 PD  .                 GL:   PERMANENT DATUM
 EPD .F              5188:   ELEVATION PERMANENT DATUM
 LMF .                 KB:   LOG MEASURED FROM
 DMF .                 KB:   DRILLING MEASURED FROM
 EGL .F              5188:   GROUND LEVEL
 DATE.        05-DEC-1984:   RUN DATE
 RUN .                  1:   RUN NUMBER
 DD  .F               556:   DEPTH DRILLER
 DL  .F               551:   DEPTH LOGGER
 BLI .F               548:   BOTTOM LOG INTERVAL
 CS  .IN            8.625:   CASING SIZE
 CBD .F                20:   CASING BOTTOM DRILLER
 CBL .F                20:   CASING BOTTOM LOGGER
 BS  .IN            7.875:   BIT SIZE
 BSD .F               556:   BIT SIZE AT DEPTH
 DFT .          KCL WATER:   DRILLING FLUID TYPE
 MSS .           FLOWLINE:   MUD SAMPLE SOURCE
 RMS .OHMM            .36:   RESISTIVITY MUD SAMPLE
 MST .F                70:   MUD SAMPLE TEMPERATURE
 RMF .OHMM            .26:   RESISTIVITY MUD FILTRATE SAMPLE
 MFST.F                70:   MUD FILTRATE SAMPLE TEMPERATURE
 RMC .OHMM            .46:   RESISTIVITY MUD CAKE
 MCST.F                70:   MUD CAKE SAMPLE TEMPERATURE
 MFSS.               CALC:   MUD FILTRATE SAMPLE SOURCE
 MCSS.               CALC:   MUD CAKE SAMPLE SOURCE
 RMB .OHMM            .29:   RESISTIVITY MUD AT BHT
 BHT .F                85:   BOTTOM HOLE TEMPERATURE
 TCS .HRS               3:   TIME CURCULATED STOPPED
 MRT .F               100:   MAXIMUM RECORDED TEMPERATURE
 LUN .               6274:   LOGGING UNIT NUMBER
 LUL .               GLTE:   LOGGING UNIT LOCATION
 ENGI.             PAUTIO:   RECORDING ENGINEER
 WITN.       GROONS/LUERS:   WITNESSED BY
 CLNT.            A2DTECH:   CLIENT CODE
 ORIG.           5" PRINT:   ORIGIN OF DATA
 UWI .       490251099700:   UNIQUE WELL ID
 DICO. A2D Technologies, Inc.:   DIGITIZING COMPANY
~OTHER INFORMATION
~A   DEPT     RFOC       RILD       RILM        SPR         DT       CALD       CORR          CNC      DEN         GRD      PORD   
# ...
  319.0000    16.2702    17.1915    17.2432   -53.9108    95.3365     8.0279     0.0482     0.2447     2.4197    82.4662     0.1556
  319.5000    16.2631    17.0526    17.1054   -54.0811    94.7888     8.0418     0.0508     0.2470     2.4180    82.7444     0.1547
  320.0000    16.2560    16.9813    16.9156   -54.2487    94.7989     8.0399     0.0411     0.2400     2.4172    84.8745     0.1560
  320.5000    16.2489    16.7782    16.8333   -54.2624    95.0365     8.0384     0.0346     0.2343     2.4163    87.0046     0.1566
  321.0000    16.2418    16.7648    16.6985   -54.4299    95.1301     8.0369     0.0265     0.2299     2.4162    87.2840     0.1567
  321.5000    16.2333    16.7513    16.6856   -54.5975    95.2958     8.0353     0.0248     0.2287     2.4162    87.2524     0.1574
  322.0000    16.2262    16.6158    16.5529   -54.7650    95.4476     8.0338     0.0326     0.2310     2.4119    87.5307     0.1596
  322.5000    16.2192    16.6024    16.4746   -54.9326    95.5327     8.0323     0.0293     0.2323     2.4065    88.7348     0.1625
  323.0000    16.2122    16.5891    16.2890   -54.9463    95.4569     8.0308     0.0212     0.2339     2.4041    88.3374     0.1654
  323.5000    16.2052    16.4524    16.1563   -54.8027    95.3029     8.0292     0.0163     0.2396     2.4008    87.1296     0.1661
  324.0000    16.1981    16.2005    16.0271   -54.6626    95.0707     8.0278     0.0162     0.2419     2.4000    88.3273     0.1635
  324.5000    15.7253    15.9525    16.0156   -54.6797    94.8361     8.0262     0.0177     0.2384     2.4039    89.5315     0.1601
  325.0000    15.0450    15.5937    15.6572   -54.6935    94.4452     8.0247     0.0175     0.2394     2.4094    88.8838     0.1544
  325.5000    14.6058    15.4677    15.4190   -54.8610    93.8944     8.0231     0.0206     0.2416     2.4188    88.2361     0.1443
  326.0000    14.5995    15.2309    15.2444   -54.8747    93.1849     8.0216     0.0220     0.2436     2.4307    87.8971     0.1424
  326.5000    14.4871    15.1079    15.0385   -55.0423    92.7916     8.0201     0.0267     0.2437     2.4394    87.5580     0.1437
  327.0000    14.4808    14.9858    14.8339   -55.3637    92.9562     8.0495     0.0297     0.2440     2.4369    86.9103     0.1450
  327.5000    14.4745    14.8647    14.6082   -55.3774    93.1990     8.0479     0.0296     0.2444     2.4353    85.0281     0.1460
  328.0000    14.5758    14.7446    14.5976   -55.5449    93.3625     8.0464     0.0330     0.2441     2.4344    82.5285     0.1460
  328.5000    14.7837    14.7329    14.3756   -55.5586    93.2867     8.0448     0.0421     0.2425     2.4336    81.8808     0.1454
  329.0000    15.1031    14.7212    14.2607   -55.7262    92.9751     8.0430     0.0515     0.2394     2.4343    81.8504     0.1432
  329.5000    14.4495    14.4958    14.2504   -55.7400    92.6624     8.0415     0.0418     0.2378     2.4366    83.3632     0.1382
  330.0000    14.2339    14.3787    14.2401   -55.7538    92.3497     8.0400     0.0321     0.2433     2.4455    86.1106     0.1284
  330.5000    14.1243    14.2625    14.2298   -55.7677    92.2739     8.0384     0.0241     0.2447     2.4622    90.7098     0.1236
  331.0000    14.1182    14.1473    14.1160   -55.7815    92.3591     8.0369     0.0224     0.2418     2.4693    99.0452     0.1221
  331.5000    14.1121    14.0330    13.7993   -55.7954    92.6020     8.0354     0.0334     0.2319     2.4729    97.6071     0.1222
  332.0000    14.2093    14.0218    13.8904   -55.6546    92.8448     8.0339     0.0428     0.2231     2.4729    93.8518     0.1224
  332.5000    14.3227    14.0106    14.0872   -55.6717    93.0082     8.0323     0.0538     0.2282     2.4736    90.8892     0.1218
  333.0000    14.6160    14.1023    14.0745   -55.6855    93.3304     8.0308     0.0712     0.2328     2.4751    89.9329     0.1200
  333.5000    14.7182    14.1945    14.1700   -55.6992    93.7320     8.0293     0.0838     0.2359     2.4767    89.2852     0.1187
  334.0000    14.9266    14.2928    14.2610   -55.5569    94.1336     8.0123     0.0741     0.2372     2.4702    88.3289     0.1274
  334.5000    15.0310    14.3903    14.3552   -55.5708    94.2176     7.9953     0.0501     0.2369     2.4574    88.2985     0.1385
  335.0000    15.0229    14.6093    14.4500   -55.5864    94.3017     7.9938     0.0468     0.2366     2.4463    88.2681     0.1402
  335.5000    15.1280    15.0399    14.4395   -55.6002    94.2270     7.9923     0.0499     0.2392     2.4414    88.8549     0.1392
  336.0000    15.1198    15.4353    14.4291   -55.3062    93.9937     8.0062     0.0513     0.2427     2.4509    88.2072     0.1380
  336.5000    15.0034    15.1960    14.4185   -55.3199    93.6810     8.0201     0.0494     0.2437     2.4477    86.3250     0.1390
  337.0000    14.9969    14.9633    14.1866   -55.1763    93.4476     8.0182     0.0415     0.2425     2.4436    85.6773     0.1413
  337.5000    14.7732    14.6268    13.9660   -55.1935    93.2936     8.0167     0.0334     0.2406     2.4380    86.8814     0.1445
  338.0000    14.5528    14.2979    13.6679   -55.2062    93.0582     8.0152     0.0206     0.2394     2.4348    88.0856     0.1467
  338.5000    14.1280    14.0790    13.4600   -55.2209    92.7434     8.0295     0.0188     0.2451     2.4363    90.2157     0.1433
  339.0000    13.6158    13.8635    13.2552   -55.2346    92.3428     8.0276     0.0251     0.2493     2.4427    91.4239     0.1395
  339.5000    13.3155    13.6512    13.0536   -55.0938    91.7253     8.0261     0.0329     0.2516     2.4524    94.5432     0.1324
  340.0000    13.0212    13.5409    12.7614   -55.0632    91.7302     8.0246     0.0360     0.2502     2.4607    98.7664     0.1275
  340.5000    12.9209    13.4315    12.5673   -54.8142    91.8143     8.0385     0.0422     0.2469     2.4551    93.7902     0.1307
  341.0000    12.8214    13.4208    12.4668   -54.8279    91.9132     8.0370     0.0405     0.2421     2.4518    91.9079     0.1352
  341.5000    12.7226    13.4102    12.3672   -54.8416    92.1422     8.0354     0.0324     0.2412     2.4502    91.5765     0.1368
  342.0000    12.8103    13.3995    12.3583   -54.7014    92.3057     8.0339     0.0307     0.2435     2.4517    94.0076     0.1337
  342.5000    12.9930    13.5861    12.5333   -54.5513    92.7068     8.0324     0.0369     0.2438     2.4540    96.4463     0.1308
  343.0000    13.2749    13.8765    12.8933   -54.2673    92.7909     8.0309     0.0448     0.2451     2.4564    97.0408     0.1289
  343.5000    13.6723    14.1732    13.3632   -54.1272    93.0337     8.0293     0.0462     0.2484     2.4611    95.7682     0.1264
  344.0000    14.2981    14.7973    14.0540   -53.9871    93.5940     8.0278     0.0429     0.2576     2.4674    94.5032     0.1242
  344.5000    14.9202    15.5624    14.8889   -53.6931    94.5511     8.0263     0.0380     0.2570     2.4609    93.2383     0.1298
  345.0000    16.0191    16.4872    16.0056   -52.7871    96.9368     8.0247     0.0280     0.2542     2.4482    92.2819     0.1374
  345.5000    17.8646    17.8546    17.2059   -51.8778    99.6400     8.0232     0.0250     0.2488     2.4195    91.0170     0.1597
  346.0000    20.2157    20.5068    19.3249   -50.9684   105.6764     8.0213     0.0376     0.2463     2.3686    87.5915     0.1931
  346.5000    24.6082    22.7202    21.3922   -49.9052   107.1097     8.0198     0.0502     0.2483     2.3399    82.6228     0.2046
  347.0000    27.4432    24.9890    24.2386   -49.3035   107.0351     8.0183     0.0501     0.2489     2.3303    80.1233     0.2078
  347.5000    29.0806    27.6863    27.2406   -48.5480   106.1668     8.0168     0.0436     0.2490     2.3319    79.7736     0.2063
  348.0000    31.0414    30.4905    29.9959   -47.9463   104.5049     8.0152     0.0339     0.2547     2.3359    78.7696     0.2022
  348.5000    33.1344    34.8244    32.3363   -47.4985   101.0969     8.0296     0.0227     0.2579     2.3415    77.2531     0.1967
  349.0000    35.6276    36.8939    33.2709   -47.0506    99.9905     8.0431     0.0273     0.2567     2.3523    76.9076     0.1914
