~VERSION INFORMATION
 VERS.                2.0:   CWLS LOG ASCII STANDARD - VERSION 2.0
 WRAP.                 NO:   ONE LINE PER DEPTH STEP
~WELL INFORMATION
#MNEM.UNIT      DATA TYPE    INFORMATION
#----------   ------------   ------------------------------
 STRT.F           32.0000:   START DEPTH
 STOP.F          662.0000:   STOP DEPTH
 STEP.F            0.5000:   STEP LENGTH
 NULL.          -999.2500:   NO VALUE
 COMP.    FENIX & SCISSON:   COMPANY
 WELL.   NPR 67SX34 #3-34:   WELL
 FLD .             TEAPOT:   FIELD
 LOC .      S34 T39N R78W:   LOCATION
 CNTY.            NATRONA:   COUNTY
 STAT.            WYOMING:   STATE
 CTRY. UNITED STATES OF AMERICA:   COUNTRY
 SRVC.            Unknown:   SERVICE COMPANY
 DATE.        03-SEP-1978:   LOGDATE
 API .       490251070500:   API NUMBER
~CURVE INFORMATION
#MNEM.UNIT       API CODE    CURVE DESCRIPTION
#----------   ------------   ------------------------------
 DEPT.F                  :   
 ILD .OHMM   05 120 46 00:   INDUCTION LOG DEEP
 SN  .OHMM   05 040 00 00:   SHORT NORMAL
 SPR .MV     05 010 01 00:   SPONTANEOUS POTENTIAL FROM RES.
 CALD.IN     45 280 60 00:   CALIPER FROM DENSITY LOG
 DEN .G/C3   45 350 01 00:   COMPENSATED BULK DENSTIY
 DPHI.DEC    45 890 12 00:   DENSITY POROSITY SANDSTONE
 DRHO.G/C3   45 356 01 00:   DENSITY CORRECTION
 GRD .GAPI   45 310 01 00:   GAMMA RAY FROM DENSITY LOG
~PARAMETER INFORMATION
#MNEM.UNIT          VALUE    DESCRIPTION
#----------   ------------   ------------------------------
 PD  .                 GL:   PERMANENT DATUM
 EPD .F              5076:   ELEVATION PERMANENT DATUM
 LMF .                 KB:   LOG MEASURED FROM
 DAPD.F                 4:   FEET ABOVE PERMANENT DATUM
 DMF .                 KB:   DRILLING MEASURED FROM
 EKB .F              5080:   KELLING BUSHING
 EGL .F              5076:   GROUND LEVEL
 DATE.        03-SEP-1978:   RUN DATE
 RUN .                  1:   RUN NUMBER
 DD  .F               660:   DEPTH DRILLER
 DL  .F               662:   DEPTH LOGGER
 BLI .F               662:   BOTTOM LOG INTERVAL
 TLI .F                40:   TOP LOG INTERVAL
 CS  .IN            8.625:   CASING SIZE
 CBD .F                40:   CASING BOTTOM DRILLER
 BS  .IN            7.875:   BIT SIZE
 BSD .F               660:   BIT SIZE AT DEPTH
 DFT .                KCL:   DRILLING FLUID TYPE
 DFD .                9.0:   DRILLING FLUID DENSITY
 DFV .                 34:   DRILLING FLUID VISCOSITY
 MSS .           FLOWLINE:   MUD SAMPLE SOURCE
 RMS .OHMM            1.4:   RESISTIVITY MUD SAMPLE
 MST .F                65:   MUD SAMPLE TEMPERATURE
 RMF .OHMM            3.2:   RESISTIVITY MUD FILTRATE SAMPLE
 MFST.F                77:   MUD FILTRATE SAMPLE TEMPERATURE
 RMC .OHMM            2.1:   RESISTIVITY MUD CAKE
 MCST.F                78:   MUD CAKE SAMPLE TEMPERATURE
 MFSS.               MEAS:   MUD FILTRATE SAMPLE SOURCE
 TCS .HRS               1:   TIME CURCULATED STOPPED
 LUN .               3006:   LOGGING UNIT NUMBER
 LUL .               CASP:   LOGGING UNIT LOCATION
 ENGI.             MILLER:   RECORDING ENGINEER
 WITN.           MCGINLEY:   WITNESSED BY
 CLNT.            A2DTECH:   CLIENT CODE
 ORIG.        2" 5" PRINT:   ORIGIN OF DATA
 UWI .       490251070500:   UNIQUE WELL ID
 DICO. A2D Technologies, Inc.:   DIGITIZING COMPANY
~OTHER INFORMATION
~A   DEPT      ILD         SN        SPR       CALD        DEN       DPHI       DRHO         GRD  
   32.0000  -999.2500  -999.2500  -999.2500  -999.2500  -999.2500  -999.2500  -999.2500    57.6404
   32.5000  -999.2500  -999.2500  -999.2500  -999.2500  -999.2500  -999.2500  -999.2500    57.4651
   33.0000  -999.2500  -999.2500  -999.2500  -999.2500  -999.2500  -999.2500  -999.2500    57.3144
   33.5000  -999.2500  -999.2500  -999.2500  -999.2500  -999.2500  -999.2500  -999.2500    57.6066
   34.0000  -999.2500  -999.2500  -999.2500  -999.2500  -999.2500  -999.2500  -999.2500    57.9136
   34.5000  -999.2500  -999.2500  -999.2500  -999.2500  -999.2500  -999.2500  -999.2500    58.9538
   35.0000  -999.2500  -999.2500  -999.2500  -999.2500  -999.2500  -999.2500  -999.2500    60.7457
   35.5000  -999.2500  -999.2500  -999.2500  -999.2500  -999.2500  -999.2500  -999.2500    66.5609
   36.0000  -999.2500  -999.2500  -999.2500  -999.2500  -999.2500  -999.2500  -999.2500    67.1592
   36.5000  -999.2500  -999.2500  -999.2500  -999.2500  -999.2500  -999.2500  -999.2500    65.0764
   37.0000  -999.2500  -999.2500  -999.2500  -999.2500  -999.2500  -999.2500  -999.2500    63.1419
   37.5000  -999.2500  -999.2500  -999.2500  -999.2500  -999.2500  -999.2500  -999.2500    60.7603
   38.0000  -999.2500  -999.2500  -999.2500  -999.2500  -999.2500  -999.2500  -999.2500    53.3116
   38.5000  -999.2500  -999.2500  -999.2500  -999.2500  -999.2500  -999.2500  -999.2500    49.4398
   39.0000  -999.2500  -999.2500  -999.2500  -999.2500  -999.2500  -999.2500  -999.2500    47.9523
   39.5000  -999.2500  -999.2500  -999.2500  -999.2500  -999.2500  -999.2500  -999.2500    46.7630
   40.0000  -999.2500  -999.2500  -999.2500  -999.2500  -999.2500  -999.2500  -999.2500    46.6169
   40.5000  -999.2500  -999.2500  -999.2500  -999.2500  -999.2500  -999.2500  -999.2500    46.6205
   41.0000  -999.2500  -999.2500  -999.2500  -999.2500  -999.2500  -999.2500  -999.2500    46.4737
   41.5000  -999.2500  -999.2500  -999.2500  -999.2500  -999.2500  -999.2500  -999.2500    46.3276
   42.0000  -999.2500  -999.2500  -999.2500     7.8866  -999.2500  -999.2500  -999.2500    47.0764
   42.5000  -999.2500  -999.2500  -999.2500     7.8866  -999.2500  -999.2500  -999.2500    53.4876
   43.0000  -999.2500  -999.2500  -999.2500     7.8866  -999.2500  -999.2500  -999.2500    58.4086
   43.5000  -999.2500  -999.2500  -999.2500     7.9675  -999.2500  -999.2500  -999.2500    68.9927
   44.0000  -999.2500  -999.2500  -999.2500     8.0626  -999.2500  -999.2500  -999.2500    73.7646
   44.5000  -999.2500  -999.2500  -999.2500     7.9570  -999.2500  -999.2500  -999.2500    73.4694
   45.0000  -999.2500  -999.2500  -999.2500     7.9989  -999.2500  -999.2500  -999.2500    73.4724
   45.5000  -999.2500  -999.2500  -999.2500     8.4477  -999.2500  -999.2500  -999.2500    72.9568
   46.0000  -999.2500  -999.2500  -999.2500     7.5785  -999.2500  -999.2500     0.1654    70.7956
   46.5000  -999.2500  -999.2500  -999.2500     7.4295  -999.2500  -999.2500     0.1654    70.5005
   47.0000  -999.2500  -999.2500  -999.2500     7.3838  -999.2500  -999.2500     0.1638    71.3983
   47.5000  -999.2500  -999.2500  -999.2500     7.3411  -999.2500  -999.2500     0.1653    71.1032
   48.0000     2.4300     2.9386   -15.4433     7.3565  -999.2500  -999.2500     0.1713    71.1061
   48.5000     2.3839     2.9580   -15.1966     7.8793  -999.2500  -999.2500     0.2328    81.9883
   49.0000     2.3767     3.0222   -15.0433     9.0290  -999.2500  -999.2500     0.2463    79.6067
   49.5000     2.4441     3.0855   -14.8901    10.0145  -999.2500  -999.2500     0.2511    74.2445
   50.0000     2.9255     3.1501   -15.0376     9.2537     2.3236     0.1727     0.1712    71.1177
   50.5000     3.8576     3.3062   -15.4851     8.9706     2.2928     0.1815     0.1573    70.5245
   51.0000     4.7250     3.4225   -16.0838     8.8952     2.4174     0.2007     0.1246    70.2301
   51.5000     6.0049     3.8225   -16.8328     8.3964     2.3866     0.2058     0.0930    69.6369
   52.0000     6.7540     4.2108   -15.0254     9.0913     2.3753     0.1459     0.1560    68.5966
   52.5000     7.1381     4.5764   -13.2105     8.8789     2.4954     0.1743     0.1320    67.7053
   53.0000     7.1876     5.1806   -12.1618     7.6296     2.4601     0.2043     0.0764    67.5585
   53.5000     7.0889     5.9074   -11.2567     7.6599     2.3820     0.2055     0.0313    67.5621
   54.0000     7.3383     6.5074   -10.6524     7.7797     2.3700     0.1995     0.0253    68.0121
   54.5000     7.5441     6.9729   -10.4998     7.6458     2.3790     0.1944     0.0298    68.4621
   55.0000     8.0842     7.4735   -10.6466     7.6612     2.3805     0.2022     0.0252    69.0611
   55.5000     8.4851     7.9511   -10.7942     7.6915     2.3745     0.2068     0.0192    69.6602
   56.0000     8.7231     8.4030   -10.7906     7.7218     2.3677     0.2012     0.0222    69.6453
   56.5000     8.7836     8.8806   -10.7877     7.7372     2.3730     0.1978     0.0281    69.3680
   57.0000     8.7836     9.3207   -10.7849     7.7376     2.3778     0.1969     0.0356    69.0735
   57.5000     8.7231     9.5192   -10.6316     7.7381     2.3842     0.1954     0.0461    67.8842
   58.0000     8.8445     9.7826   -10.9288     7.7236     2.3856     0.1942     0.0446    60.7336
   58.5000     8.9059     9.9187   -10.9259     7.7390     2.3864     0.1933     0.0415    58.3513
   59.0000     9.0354     9.9874   -10.9233     7.7244     2.3856     0.1960     0.0370    59.9943
   59.5000     9.2192    10.1264   -10.7699     7.7101     2.3818     0.1996     0.0340    62.6797
   60.0000     9.4124    10.1264   -10.7669     7.6956     2.3803     0.1992     0.0324    65.0869
   60.5000     9.5435    10.1264   -10.6130     7.6662     2.3811     0.2011     0.0324    65.5172
   61.0000     9.7436    10.0567   -10.6101     7.5920     2.3803     0.2041     0.0309    66.8932
   61.5000    10.0889     9.9874   -10.4571     7.4879     2.3764     0.2056     0.0323    69.0164
   62.0000    10.4411    10.1264   -10.3037     7.4436     2.3720     0.2038     0.0338    72.2330
   62.5000    10.7340    10.1323   -10.3008     7.4590     2.3720     0.2017     0.0413    72.6831
   63.0000    10.8834    10.2673   -10.4483     7.4594     2.3727     0.2014     0.0533    72.5369
   63.5000    10.9589    10.3385   -10.4447     7.4300     2.3750     0.2011     0.0653    71.3476
   64.0000    10.9589    10.4102   -10.4419     7.4006     2.3780     0.1981     0.0731    66.2834
   64.5000    10.9589    10.4824   -10.4390     7.4011     2.3779     0.1754     0.0892    65.3922
   65.0000    10.8084    10.5624   -10.2857     7.4314     2.3922     0.1369     0.1357    64.7591
   65.5000    10.7340    10.8508   -10.2822     7.4468     2.4582     0.1333     0.1717    62.2688
   66.0000    10.7063    10.9261   -10.2793     7.5218     2.5063     0.1502     0.1177    60.0363
   66.5000    10.5136    11.0018   -10.5772     7.6566     2.4447     0.1622     0.0996    59.5914
   67.0000    10.4320    10.7761   -11.1759     7.8212     2.4394     0.1727     0.0966    60.7872
   67.5000    10.2268    10.7019   -12.1103     7.7918     2.4319     0.1850     0.0920    64.0688
   68.0000    10.1563    10.6282   -12.3732     7.8374     2.4109     0.1790     0.0995    67.2007
   68.5000    10.0168    10.4824   -12.0688     7.8357     2.4049     0.1706     0.1070    65.2669
   69.0000     9.9478    10.4102   -12.0660     7.7634     2.4206     0.1757     0.1023    64.2266
   69.5000     9.8792    10.4102   -12.0631     7.7190     2.4161     0.1766     0.0904    65.5708
   70.0000     9.7436    10.2579   -12.9824     7.7195     2.4153     0.1781     0.0859    68.8723
   70.5000     9.4124    10.0567   -13.7108     7.7050     2.4153     0.1703     0.0844    69.6244
   71.0000     9.0926     9.7826   -14.3094     7.6756     2.4171     0.1526     0.0978    70.0512
   71.5000     8.8445     9.2565   -14.7577     7.6312     2.4348     0.1562     0.0948    70.6502
   72.0000     8.6614     8.6984   -15.2060     7.7360     2.4550     0.1718     0.0843    71.9944
