~VERSION INFORMATION
 VERS.                2.0:   CWLS LOG ASCII STANDARD - VERSION 2.0
 WRAP.                 NO:   ONE LINE PER DEPTH STEP
~WELL INFORMATION
#MNEM.UNIT      DATA TYPE    INFORMATION
#----------   ------------   ------------------------------
 STRT.F           11.5000:   START DEPTH
 STOP.F          697.0000:   STOP DEPTH
 STEP.F            0.5000:   STEP LENGTH
 NULL.          -999.2500:   NO VALUE
 COMP. FENIX & SCISSON INC:   COMPANY
 WELL.    NPR3 SX-2 #12-2:   WELL
 FLD .             TEAPOT:   FIELD
 LOC .       S2 T38N R78W:   LOCATION
 CNTY.            NATRONA:   COUNTY
 STAT.            WYOMING:   STATE
 CTRY. UNITED STATES OF AMERICA:   COUNTRY
 SRVC.           BIRDWELL:   SERVICE COMPANY
 DATE.        13-JAN-1978:   LOGDATE
 API .       490251055000:   API NUMBER
~CURVE INFORMATION
#MNEM.UNIT       API CODE    CURVE DESCRIPTION
#----------   ------------   ------------------------------
 DEPT.F                  :   
 CALD.IN     45 280 60 00:   CALIPER FROM DENSITY LOG
 CORR.G/C3   45 356 01 00:   DENSITY CORRECTION
 RHOB.G/C3   45 350 01 00:   BULK DENSITY
 GRD .GAPI   45 310 01 00:   GAMMA RAY FROM DENSITY LOG
 DPHI.DEC    45 890 12 00:   DENSITY POROSITY SANDSTONE
 ILD .OHMM   05 120 46 00:   INDUCTION LOG DEEP
 SN  .OHMM   05 040 16 00:   SHORT NORMAL 16"
 SPR .MV     05 010 01 00:   SPONTANEOUS POTENTIAL FROM RES.
~PARAMETER INFORMATION
#MNEM.UNIT          VALUE    DESCRIPTION
#----------   ------------   ------------------------------
 PD  .                 GL:   PERMANENT DATUM
 EPD .F              5094:   ELEVATION PERMANENT DATUM
 LMF .                 KB:   LOG MEASURED FROM
 DAPD.F                 4:   FEET ABOVE PERMANENT DATUM
 DMF .                 KB:   DRILLING MEASURED FROM
 EKB .F              5098:   KELLING BUSHING
 EGL .F              5094:   GROUND LEVEL
 DATE.        13-JAN-1978:   RUN DATE
 RUN .                  1:   RUN NUMBER
 DD  .F               695:   DEPTH DRILLER
 DL  .F               697:   DEPTH LOGGER
 BLI .F               692:   BOTTOM LOG INTERVAL
 TLI .F                30:   TOP LOG INTERVAL
 CS  .IN            8.625:   CASING SIZE
 CBD .F                35:   CASING BOTTOM DRILLER
 CBL .F                35:   CASING BOTTOM LOGGER
 BS  .IN            7.875:   BIT SIZE
 BSD .F               695:   BIT SIZE AT DEPTH
 DFT .                KCL:   DRILLING FLUID TYPE
 DFD .                8.6:   DRILLING FLUID DENSITY
 DFV .                 32:   DRILLING FLUID VISCOSITY
 DFPH.                9.5:   DRILLING FLUID PH
 DFL .                 12:   DRILLING FLUID LOSS
 MSS .           FLOWLINE:   MUD SAMPLE SOURCE
 RMS .OHMM            0.3:   RESISTIVITY MUD SAMPLE
 MST .F                59:   MUD SAMPLE TEMPERATURE
 RMF .OHMM           0.24:   RESISTIVITY MUD FILTRATE SAMPLE
 MFST.F                70:   MUD FILTRATE SAMPLE TEMPERATURE
 RMC .OHMM           0.56:   RESISTIVITY MUD CAKE
 MCST.F                63:   MUD CAKE SAMPLE TEMPERATURE
 MFSS.               MEAS:   MUD FILTRATE SAMPLE SOURCE
 MCSS.               MEAS:   MUD CAKE SAMPLE SOURCE
 RMB .OHMM           0.26:   RESISTIVITY MUD AT BHT
 BHT .F                72:   BOTTOM HOLE TEMPERATURE
 TCS .HRS               2:   TIME CURCULATED STOPPED
 MRT .F                72:   MAXIMUM RECORDED TEMPERATURE
 LUN .               2958:   LOGGING UNIT NUMBER
 LUL .             CASPER:   LOGGING UNIT LOCATION
 ENGI.           MARTINEZ:   RECORDING ENGINEER
 WITN.       MR. MCGINLEY:   WITNESSED BY
 CLNT.            A2DTECH:   CLIENT CODE
 ORIG.           5" PRINT:   ORIGIN OF DATA
 UWI .       490251055000:   UNIQUE WELL ID
 DICO. A2D Technologies, Inc.:   DIGITIZING COMPANY
~OTHER INFORMATION
~A   DEPT     CALD       CORR       RHOB         GRD      DPHI        ILD         SN        SPR   
# ...
  214.0000     8.4887     0.1291     2.5234    87.3454     0.1025    11.1239    11.3734   -19.1736
  214.5000     8.4887     0.1289     2.5310    85.9922     0.0782    11.1988    11.3648   -19.1917
  215.0000     8.4887     0.1171     2.5152    85.6908     0.0878    11.2742    11.3578   -19.2098
  215.5000     8.4887     0.1006     2.5160    88.8421     0.0818    11.3496    11.3509   -19.2279
  216.0000     8.4887     0.0811     2.5183    91.8437     0.0838    11.3473    11.4230   -19.2459
  216.5000     8.5038     0.0616     2.4991    95.5963     0.0958    11.4243    11.4952   -19.2640
  217.0000     8.5038     0.0511     2.4800    90.3392     0.1032    11.4459    11.5304   -19.2821
  217.5000     8.5038     0.0541     2.4688    87.3348     0.1099    11.4989    11.5728   -19.3002
  218.0000     8.5038     0.0751     2.4598    86.4324     0.1138    11.5757    11.6342   -19.3182
  218.5000     8.4887     0.0933     2.4613    88.2477     0.0997    11.5734    11.6254   -19.3189
  219.0000     8.4737     0.0901     2.4815    89.4525     0.0967    11.5710    11.7008   -19.3134
  219.5000     8.4887     0.0871     2.4756    88.9802     0.1087    11.5686    11.6928   -19.1579
  220.0000     8.5038     0.0976     2.4658    88.6784     0.1126    11.5662    11.6041   -19.1534
  220.5000     8.5188     0.1021     2.4823    90.4788     0.1045    11.4837    11.5971   -18.9979
  221.0000     8.5188     0.0976     2.4771    93.9308     0.1036    11.4023    11.5900   -18.8424
  221.5000     8.4887     0.0976     2.4679    99.7852     0.1061    11.3214    11.6637   -18.5358
  222.0000     8.4436     0.0976     2.4606   102.0359     0.1102    11.3976    11.7373   -18.2293
  222.5000     8.4135     0.1022     2.4486    99.1816     0.1183    11.4750    11.8117   -17.9227
  223.0000     8.4286     0.1186     2.4411    98.8299     0.1225    11.7125    11.8865   -17.6162
  223.5000     8.4737     0.1502     2.4404   101.6011     0.1234    11.9556    12.0449   -17.4607
  224.0000     8.5338     0.2027     2.4501   103.8719     0.1207    12.2038    12.0358   -17.6073
  224.5000     8.5940     0.2072     2.4794   102.0283     0.0985    12.4570    12.1139   -17.4517
  225.0000     8.6391     0.2312     2.4723    99.9250     0.1126    12.8037    12.1046   -17.2709
  225.5000     8.6842     0.2793     2.5364   102.1755     0.1066    12.9794    12.0973   -16.5354
  226.0000     8.6842     0.3048     2.5529    99.7716     0.0745    13.1575    12.0065   -16.3799
  226.5000     8.6842     0.2639     2.5381    99.7701     0.0792    13.2461    11.9991   -16.3755
  227.0000     8.6842     0.2276     2.5304   100.3693     0.0853    13.2427    11.9918   -16.5232
  227.5000     8.6842     0.2147     2.5379   100.5430     0.0865    13.1488    11.9845   -16.5176
  228.0000     8.6992     0.2057     2.5634    99.0150     0.0751    13.0555    12.0637   -16.6653
  228.5000     8.6992     0.1907     2.5552    97.0566     0.0736    12.9629    12.2212   -16.9619
  229.0000     8.7143     0.1667     2.5394    96.9100     0.0826    12.8710    12.3822   -17.2607
  229.5000     8.7293     0.1336     2.5289    98.8601     0.0895    12.8684    12.4821   -17.7083
  230.0000     8.7293     0.1244     2.5244   100.0598     0.0895    12.7771    12.6454   -18.0060
  230.5000     8.7293     0.1426     2.5304    99.6079     0.0737    12.5991    12.7957   -18.6073
  231.0000     8.7293     0.1580     2.5419    99.4567     0.0690    12.5965    12.9656   -19.3696
  231.5000     8.7293     0.1652     2.5492   100.6560     0.0607    12.6813    13.0477   -19.8298
  232.0000     8.7293     0.1667     2.5612   103.2071     0.0585    12.7760    13.1304   -20.2529
  232.5000     8.7293     0.1697     2.5620   105.3077     0.0573    12.9412    13.1224   -20.2485
  233.0000     8.7293     0.1712     2.5605   106.3574     0.0567    13.0290    13.1144   -20.3962
  233.5000     8.7143     0.1712     2.5627   105.7453     0.0561    13.0257    13.0159   -20.3906
  234.0000     8.6992     0.1697     2.5657   104.5125     0.0549    13.0231    12.9180   -20.2351
  234.5000     8.6992     0.1697     2.5710   102.5988     0.0516    12.8416    12.8193   -20.2307
  235.0000     8.6992     0.1743     2.5777   100.3451     0.0471    12.5754    12.7231   -20.2263
  235.5000     8.6992     0.1802     2.5755    98.5418     0.0537    12.4002    12.7153   -20.2218
  236.0000     8.6842     0.1622     2.5548    97.9398     0.0627    12.2274    12.7076   -20.2174
  236.5000     8.6692     0.1592     2.5448    99.8903     0.0636    12.0570    12.6130   -20.2129
  237.0000     8.6692     0.1607     2.5590   101.2401     0.0606    11.9715    12.6045   -20.2085
  237.5000     8.6692     0.1607     2.5545   100.9384     0.0651    11.9690    12.5973   -20.2165
  238.0000     8.6692     0.1607     2.5411    97.6336     0.0714    11.9560    12.5895   -20.5257
  238.5000     8.6692     0.1608     2.5478    94.6241     0.0777    11.8812    12.4947   -20.7994
  239.0000     8.6692     0.1546     2.5508    96.5696     0.0816    11.8788    12.4870   -21.0959
  239.5000     8.6692     0.1452     2.5478    98.3800     0.0834    11.8763    12.4314   -21.0915
  240.0000     8.6692     0.1306     2.5418    97.1769     0.0786    11.8739    12.3839   -21.2392
  240.5000     8.6692     0.1126     2.5358    96.7254     0.0735    11.8715    12.2909   -21.2336
  241.0000     8.6692     0.0946     2.5320   100.1770     0.0732    11.8691    12.1145   -21.3814
  241.5000     8.6842     0.0886     2.5291    99.4248     0.0750    11.8667    11.9406   -21.5280
  242.0000     8.6842     0.0961     2.5299    97.7717     0.0753    11.8643    11.9333   -21.6746
  242.5000     8.6842     0.1111     2.5329    97.3198     0.0723    11.8619    11.9260   -21.8202
  243.0000     8.6992     0.1231     2.5404    98.8198     0.0669    11.7777    11.9188   -21.8156
  243.5000     8.6992     0.1230     2.5524   100.7703     0.0615    11.6936    11.9115   -21.9622
  244.0000     8.6992     0.1156     2.5576    97.8559     0.0606    11.6107    11.8221   -21.9577
  244.5000     8.6992     0.0946     2.5486    96.1123     0.0665    11.6083    11.7333   -21.9532
  245.0000     8.6992     0.0511     2.5254    95.8106     0.0834    11.5260    11.7260   -21.9478
  245.5000     8.6992     0.0345     2.5172    95.9593     0.0780    11.4443    11.7173   -21.9433
  246.0000     8.6992     0.0390     2.5239    97.9097     0.0798    11.3631    11.7101   -21.9389
  246.5000     8.6992     0.0450     2.5164   102.7131     0.0849    11.3608    11.7030   -21.7834
  247.0000     8.6992     0.0526     2.5202   105.1144     0.0807    11.3585    11.6959   -21.7789
  247.5000     8.6992     0.0602     2.5299   104.2117     0.0669    11.3562    11.6887   -21.6234
  248.0000     8.6992     0.0691     2.5405   103.7597     0.0649    11.4327    11.6010   -21.6190
  248.5000     8.6842     0.0711     2.5517   102.9975     0.0813    11.5096    11.5939   -21.6145
  249.0000     8.6842     0.0691     2.5525   101.7448     0.0822    11.5871    11.5869   -21.7613
  249.5000     8.6992     0.0631     2.5495    99.4006     0.0812    11.5842    11.5798   -21.7567
  250.0000     8.6992     0.0556     2.5417   100.4502     0.0743    11.5819    11.5727   -21.9033
  250.5000     8.6988     0.0480     2.5322   102.8512     0.0713    11.5795    11.6461   -22.0499
  251.0000     8.6983     0.0411     2.5247   103.9007     0.0879    11.6581    11.7198   -22.0685
  251.5000     8.6979     0.0366     2.5142   103.4488     0.0936    11.7424    11.8107   -22.1921
  252.0000     8.6974     0.0314     2.4977    99.0161     0.0942    11.7556    11.8582   -22.3387
  252.5000     8.6970     0.0269     2.5024    96.2766     0.0897    11.7689    11.9058   -22.3332
  253.0000     8.6965     0.0238     2.5104    96.5827     0.0858    11.7822    11.9534   -22.3287
  253.5000     8.6960     0.0238     2.5112    99.5916     0.0846    11.7955    12.0009   -22.3036
  254.0000     8.6806     0.0238     2.5112   100.9488     0.0849    11.8088    12.0569   -22.2746
