~VERSION INFORMATION
 VERS.                2.0:   CWLS LOG ASCII STANDARD - VERSION 2.0
 WRAP.                 NO:   ONE LINE PER DEPTH STEP
~WELL INFORMATION
#MNEM.UNIT      DATA TYPE    INFORMATION
#----------   ------------   ------------------------------
 STRT.F           20.0000:   START DEPTH
 STOP.F          964.0000:   STOP DEPTH
 STEP.F            0.5000:   STEP LENGTH
 NULL.          -999.2500:   NO VALUE
 COMP. FENIX & SCISSON INC:   COMPANY
 WELL.    NPR-3 SX #58-11:   WELL
 FLD .             TEAPOT:   FIELD
 LOC .      S11 T38N R78W:   LOCATION
 CNTY.            NATRONA:   COUNTY
 STAT.            WYOMING:   STATE
 CTRY. UNITED STATES OF AMERICA:   COUNTRY
 SRVC.            Unknown:   SERVICE COMPANY
 DATE.        09-MAR-1978:   LOGDATE
 API .       490251060100:   API NUMBER
~CURVE INFORMATION
#MNEM.UNIT       API CODE    CURVE DESCRIPTION
#----------   ------------   ------------------------------
 DEPT.F                  :   
 SPR .MV     05 010 01 00:   SPONTANEOUS POTENTIAL FROM RES.
 SN  .OHMM   05 040 16 00:   SHORT NORMAL 16"
 ILD .OHMM   05 120 46 00:   INDUCTION LOG DEEP
 CALD.IN     45 280 60 00:   CALIPER
 GRD .GAPI   45 310 01 00:   GAMMA RAY FROM DENSITY LOG
 CORR.G/C3   45 356 01 00:   DENSITY CORRECTION
 RHOB.G/C3   45 350 01 00:   BULK DENSITY
 DPHI.DEC    45 890 12 00:   DENSITY POROSITY SANDSTONE
~PARAMETER INFORMATION
#MNEM.UNIT          VALUE    DESCRIPTION
#----------   ------------   ------------------------------
 PD  .                 GL:   PERMANENT DATUM
 EPD .F              5219:   ELEVATION PERMANENT DATUM
 LMF .                 KB:   LOG MEASURED FROM
 DAPD.F                 4:   FEET ABOVE PERMANENT DATUM
 DMF .                 KB:   DRILLING MEASURED FROM
 EKB .F              5223:   KELLING BUSHING
 EGL .F              5219:   GROUND LEVEL
 DATE.           3-9-1978:   RUN DATE
 RUN .                  1:   RUN NUMBER
 DD  .F               963:   DEPTH DRILLER
 DL  .F               966:   DEPTH LOGGER
 BLI .F               960:   BOTTOM LOG INTERVAL
 TLI .F                80:   TOP LOG INTERVAL
 CS  .IN            8.625:   CASING SIZE
 CBD .F                40:   CASING BOTTOM DRILLER
 BS  .IN            7.875:   BIT SIZE
 BSD .F               963:   BIT SIZE AT DEPTH
 DFT .         LIGNO SULF:   DRILLING FLUID TYPE
 DFD .                8.6:   DRILLING FLUID DENSITY
 DFV .                 30:   DRILLING FLUID VISCOSITY
 DFPH.               10.5:   DRILLING FLUID PH
 DFL .                4.8:   DRILLING FLUID LOSS
 MSS .          FLOW LINE:   MUD SAMPLE SOURCE
 RMS .OHMM            1.7:   RESISTIVITY MUD SAMPLE
 MST .F                60:   MUD SAMPLE TEMPERATURE
 RMF .OHMM            1.5:   RESISTIVITY MUD FILTRATE SAMPLE
 MFST.F                74:   MUD FILTRATE SAMPLE TEMPERATURE
 RMC .OHMM            2.8:   RESISTIVITY MUD CAKE
 MCST.F                68:   MUD CAKE SAMPLE TEMPERATURE
 MFSS.               MEAS:   MUD FILTRATE SAMPLE SOURCE
 MCSS.               MEAS:   MUD CAKE SAMPLE SOURCE
 RMB .OHMM           1.38:   RESISTIVITY MUD AT BHT
 BHT .F                74:   BOTTOM HOLE TEMPERATURE
 TCS .HRS               4:   TIME CURCULATED STOPPED
 MRT .F                74:   MAXIMUM RECORDED TEMPERATURE
 LUN .               2958:   LOGGING UNIT NUMBER
 LUL .               CASP:   LOGGING UNIT LOCATION
 ENGI.             MILLER:   RECORDING ENGINEER
 WITN.         HARRINGTON:   WITNESSED BY
 CLNT.            A2DTECH:   CLIENT CODE
 ORIG.      2" , 5" PRINT:   ORIGIN OF DATA
 UWI .       490251060100:   UNIQUE WELL ID
 DICO. A2D Technologies, Inc.:   DIGITIZING COMPANY
~OTHER INFORMATION
~A   DEPT      SPR         SN        ILD       CALD         GRD      CORR       RHOB       DPHI   
# ...
  303.5000   -26.0197     3.5505     3.2408     7.8064    73.4781     0.0491     2.3502     0.1790
  304.0000   -25.8120     3.4574     3.2780     7.8200    72.0890     0.0391     2.3688     0.1597
  304.5000   -25.6448     3.4812     3.3611     7.8335    70.6775     0.0289     2.4011     0.1551
  305.0000   -25.7700     3.5545     3.4463     7.8465    70.7156     0.0212     2.4277     0.1511
  305.5000   -26.4158     3.8076     3.5337     7.8590    71.9909     0.0219     2.4224     0.1471
  306.0000   -27.0573     4.0679     3.6208     7.8541    74.4862     0.0226     2.4115     0.1453
  306.5000   -27.7115     4.3457     3.7779     7.8488    76.7912     0.0235     2.4131     0.1457
  307.0000   -27.6990     4.6424     3.9373     7.8428    75.7624     0.0241     2.4181     0.1460
  307.5000   -27.5194     4.9561     4.1026     7.8372    74.6253     0.0283     2.4179     0.1475
  308.0000   -27.3330     4.9764     4.2758     7.8315    73.3790     0.0381     2.4069     0.1514
  308.5000   -27.2448     4.9968     4.8323     7.8257    72.2881     0.0480     2.4076     0.1530
  309.0000   -27.1859     5.0170     4.8685     7.8200    72.2378     0.0485     2.4081     0.1533
  309.5000   -26.9697     5.0369     4.8662     7.8143    72.4914     0.0495     2.4071     0.1566
  310.0000   -26.7624     5.0494     4.8117     7.8086    72.9626     0.0413     2.4022     0.1624
  310.5000   -26.5554     5.0494     4.7729     7.8029    77.3809     0.0288     2.3894     0.1708
  311.0000   -26.4295     5.0494     4.7332     7.7971    81.0757     0.0315     2.3747     0.1792
  311.5000   -26.3911     4.9857     4.6338     7.7914    85.0952     0.0340     2.3753     0.1876
  312.0000   -26.3524     4.6123     4.3056     7.7857    87.4327     0.0365     2.3418     0.1959
  312.5000   -26.3142     4.2668     4.0007     7.7800    89.1738     0.0401     2.3282     0.2018
  313.0000   -26.2773     3.9472     3.6883     7.7743    88.0888     0.0347     2.3267     0.2018
  313.5000   -26.2731     3.6516     3.3822     7.7686    85.2545     0.0191     2.3392     0.1869
  314.0000   -26.3999     3.4894     3.2408     7.7629    82.7886     0.0137     2.3559     0.1733
  314.5000   -26.5248     3.4770     3.2918     7.7571    80.3510     0.0176     2.3749     0.1625
  315.0000   -26.6407     3.4637     3.3318     7.7514    80.1612     0.0202     2.3951     0.1585
  315.5000   -26.5439     3.4562     3.3317     7.7457    78.8069     0.0235     2.3983     0.1573
  316.0000   -26.4377     3.5010     3.3317     7.7400    76.7516     0.0237     2.3955     0.1573
  316.5000   -26.3353     3.7494     3.3533     7.7343    77.3231     0.0204     2.3918     0.1541
  317.0000   -26.3121     4.0855     3.5721     7.7284    79.5846     0.0175     2.4221     0.1511
  317.5000   -26.7489     4.1963     3.7841     7.7227    79.6919     0.0143     2.4170     0.1505
  318.0000   -27.1858     4.3267     3.9863     7.7174    77.8850     0.0157     2.4144     0.1520
  318.5000   -27.6269     4.4612     4.1992     7.7107    75.9801     0.0243     2.4085     0.1499
  319.0000   -27.5746     4.5615     4.3153     7.7063    74.0955     0.0231     2.4106     0.1477
  319.5000   -27.4411     4.6549     4.4791     7.7030    72.0851     0.0211     2.4164     0.1503
  320.0000   -26.9993     4.7437     4.4746     7.7503    71.6533     0.0203     2.4146     0.1534
  320.5000   -26.6375     4.8343     4.4569     7.7999    72.3946     0.0195     2.4041     0.1574
  321.0000   -26.6063     4.8662     4.4395     7.8498    72.9702     0.0189     2.3950     0.1614
  321.5000   -26.5685     4.7619     4.4224     7.8973    76.8031     0.0181     2.3897     0.1653
  322.0000   -26.5306     4.6645     4.3948     7.8987    78.4667     0.0174     2.3846     0.1693
  322.5000   -26.4932     4.5692     4.3944     7.8992    77.8136     0.0188     2.3795     0.1732
  323.0000   -26.4557     4.4780     4.4352     7.8975    77.3288     0.0272     2.3744     0.1755
  323.5000   -26.4182     4.2943     4.1009     7.8971    78.1973     0.0364     2.3639     0.1875
  324.0000   -26.3807     4.0780     3.8816     7.8963    81.3711     0.0384     2.3526     0.1852
  324.5000   -26.3431     3.8726     3.6739     7.8955    80.2202     0.0301     2.3495     0.1787
  325.0000   -26.3056     3.6788     3.4766     7.8947    74.3869     0.0228     2.3522     0.1676
  325.5000   -26.2681     3.4574     3.3319     7.8939    68.7688     0.0172     2.3793     0.1704
  326.0000   -26.2306     3.5530     3.3319     7.8932    62.7632     0.0190     2.3726     0.1752
  326.5000   -26.1931     3.6544     3.3319     7.8924    64.3015     0.0204     2.3599     0.1826
  327.0000   -26.1555     3.4839     3.2982     7.8917    68.1498     0.0220     2.3458     0.1918
  327.5000   -26.1177     3.3839     3.1815     7.8909    69.4874     0.0234     2.3321     0.2011
  328.0000   -26.0804     3.6883     3.2085     7.8902    70.8042     0.0249     2.3183     0.2104
  328.5000   -26.0650     3.5683     3.1707     7.8894    79.6479     0.0261     2.3047     0.2141
  329.0000   -26.1932     3.2552     3.0616     7.8886    81.4887     0.0277     2.2986     0.2177
  329.5000   -26.3228     3.0500     2.9562     7.8879    79.8030     0.0295     2.2923     0.2214
  330.0000   -26.4509     2.9210     2.8482     7.8871    78.5690     0.0380     2.2859     0.2250
  330.5000   -26.5790     2.7975     2.7029     7.8864    78.7173     0.0452     2.2789     0.2307
  331.0000   -26.5797     2.6853     2.5502     7.8856    78.5388     0.0541     2.2774     0.2249
  331.5000   -26.4438     2.6177     2.3673     7.8849    78.2123     0.0474     2.2841     0.2182
  332.0000   -26.3082     2.5725     2.4334     7.8841    72.4334     0.0261     2.3085     0.1985
  332.5000   -26.1719     2.6316     2.5283     7.8833    66.0885     0.0298     2.3679     0.1811
  333.0000   -26.0357     2.7322     2.6270     7.8826    67.5858     0.0342     2.3943     0.1638
  333.5000   -25.8974     2.8477     2.7294     7.8818    69.9563     0.0395     2.4063     0.1548
  334.0000   -25.8950     3.0417     2.8359     7.8811    72.8304     0.0369     2.4074     0.1531
  334.5000   -25.9673     3.2736     2.9899     7.8803    72.9224     0.0312     2.4087     0.1514
  335.0000   -26.0404     3.6294     3.1807     7.8795    73.0564     0.0257     2.4003     0.1604
  335.5000   -26.1140     4.0077     3.3838     7.8788    73.0875     0.0211     2.3884     0.1691
  336.0000   -26.1869     3.9871     3.5998     7.8780    75.0303     0.0209     2.3762     0.1740
  336.5000   -26.2487     3.9684     3.8568     7.8773    76.8980     0.0208     2.3688     0.1758
  337.0000   -26.2000     3.9490     3.8171     7.8765    78.1025     0.0209     2.3676     0.1789
  337.5000   -26.1502     3.9347     3.7649     7.8758    78.2586     0.0208     2.3657     0.1849
  338.0000   -26.1010     3.8089     3.6528     7.8750    78.3845     0.0217     2.3484     0.1908
  338.5000   -26.0482     3.6660     3.5119     7.8742    78.3730     0.0233     2.3374     0.1968
  339.0000   -25.9254     3.5283     3.4109     7.8735    78.5754     0.0250     2.3308     0.2021
  339.5000   -25.7917     3.3941     3.3141     7.8727    78.8507     0.0300     2.3244     0.2062
  340.0000   -25.6560     3.2542     3.1077     7.8720    83.1343     0.0369     2.3170     0.2102
  340.5000   -25.8179     3.0925     2.9134     7.8712    87.5882     0.0427     2.3110     0.2151
  341.0000   -26.0090     2.9376     2.7512     7.8705    89.6582     0.0516     2.3048     0.2113
  341.5000   -26.1994     2.8157     2.6689     7.8697    88.9507     0.0352     2.3120     0.1956
  342.0000   -26.3894     2.7944     2.6194     7.8689    87.9627     0.0286     2.3493     0.1770
  342.5000   -26.5816     2.7946     2.6936     7.8682    81.6181     0.0287     2.4058     0.1569
  343.0000   -26.6459     3.0255     2.8197     7.8674    75.1832     0.0289     2.4268     0.1338
  343.5000   -26.6468     3.1952     2.9516     7.8667    74.1229     0.0289     2.4301     0.1315
