~VERSION INFORMATION
 VERS.                2.0:   CWLS LOG ASCII STANDARD - VERSION 2.0
 WRAP.                 NO:   ONE LINE PER DEPTH STEP
~WELL INFORMATION
#MNEM.UNIT      DATA TYPE    INFORMATION
#----------   ------------   ------------------------------
 STRT.F            0.5000:   START DEPTH
 STOP.F         3087.0000:   STOP DEPTH
 STEP.F            0.5000:   STEP LENGTH
 NULL.          -999.2500:   NO VALUE
 COMP. DEPARTMENT OF ENERGY:   COMPANY
 WELL.    NPR-3 #201-A-29:   WELL
 FLD . TEAPOT NAVAL RESERVE:   FIELD
 LOC .      S29 T39N R78W:   LOCATION
 CNTY.            NATRONA:   COUNTY
 STAT.            WYOMING:   STATE
 CTRY. UNITED STATES OF AMERICA:   COUNTRY
 SRVC.      NL McCullough:   SERVICE COMPANY
 DATE.        24-JUN-1965:   LOGDATE
 API .       490251144400:   API NUMBER
~CURVE INFORMATION
#MNEM.UNIT       API CODE    CURVE DESCRIPTION
#----------   ------------   ------------------------------
 DEPT.F                  :   
 GRR .GAPI   30 310 01 00:   GAMMA RAY
 CALI.IN     30 280 01 00:   CALIPER
~PARAMETER INFORMATION
#MNEM.UNIT          VALUE    DESCRIPTION
#----------   ------------   ------------------------------
 PD  .                 GL:   PERMANENT DATUM
 LMF .                 GL:   LOG MEASURED FROM
 EDF .F              5012:   DRILLING FLOOR
 DATE.        24-JUN-1965:   RUN DATE
 RUN .                  1:   RUN NUMBER
 DD  .F              2782:   DEPTH DRILLER
 DL  .F              2772:   DEPTH LOGGER
 BLI .F              2770:   BOTTOM LOG INTERVAL
 TLI .F              2300:   TOP LOG INTERVAL
 CS  .IN            6.625:   CASING SIZE
 CBD .F              2756:   CASING BOTTOM DRILLER
 ENGI.         COWLTHORPE:   RECORDING ENGINEER
 WITN.             HUDSON:   WITNESSED BY
 CLNT.            A2DTECH:   CLIENT CODE
 ORIG.           5" PRINT:   ORIGIN OF DATA
 UWI .       490251144400:   UNIQUE WELL ID
 DICO. A2D Technologies, Inc.:   DIGITIZING COMPANY
~OTHER INFORMATION
~A    DEPT     GRR         CALI 
# ...
 2309.0000    71.9325     6.7043
 2309.5000    71.1360     6.7043
 2310.0000    64.9675     6.7043
 2310.5000    69.4369     6.7043
 2311.0000    66.5374     6.7043
 2311.5000    67.8388     6.7043
 2312.0000    67.4397     6.7043
 2312.5000    67.9659     6.7043
 2313.0000    68.7141     6.7043
 2313.5000    64.6100     6.7043
 2314.0000    64.7031     6.7043
 2314.5000    66.3073     6.7043
 2315.0000    60.9093     6.7043
 2315.5000    65.8263     6.7043
 2316.0000    65.7223     6.7043
 2316.5000    64.8353     6.7043
 2317.0000    65.3827     6.7043
 2317.5000    63.5067     6.7043
 2318.0000    60.0616     6.7043
 2318.5000    67.6561     6.7043
 2319.0000    65.6601     6.7043
 2319.5000    63.6196     6.7043
 2320.0000    67.6489     6.7043
 2320.5000    66.9905     6.7043
 2321.0000    63.3180     6.7043
 2321.5000    68.2342     6.7043
 2322.0000    63.1126     6.7043
 2322.5000    66.7986     6.7043
 2323.0000    67.2214     6.7043
 2323.5000    65.9391     6.7043
 2324.0000    60.3497     6.7043
 2324.5000    66.5102     6.7043
 2325.0000    67.4388     6.7043
 2325.5000    67.6176     6.7043
 2326.0000    67.4529     6.7043
 2326.5000    67.2950     6.7043
 2327.0000    67.1429     6.7043
 2327.5000    65.1615     6.7043
 2328.0000    66.3097     6.7043
 2328.5000    67.4925     6.7043
 2329.0000    67.2547     6.7043
 2329.5000    68.1804     6.7043
 2330.0000    67.4992     6.7043
 2330.5000    65.3622     6.7048
 2331.0000    67.5425     6.7058
 2331.5000    66.4865     6.7068
 2332.0000    65.9364     6.7078
 2332.5000    68.0274     6.7088
 2333.0000    70.7283     6.7098
 2333.5000    66.6422     6.7108
 2334.0000    65.8229     6.7118
 2334.5000    63.5263     6.7128
 2335.0000    67.7227     6.7138
 2335.5000    67.1898     6.7148
 2336.0000    66.0443     6.7158
 2336.5000    70.3865     6.7168
 2337.0000    67.0285     6.7177
 2337.5000    67.5161     6.7187
 2338.0000    65.0203     6.7197
 2338.5000    66.9167     6.7207
 2339.0000    67.5287     6.7217
 2339.5000    67.8060     6.7227
 2340.0000    66.8485     6.7237
 2340.5000    67.1193     6.7238
 2341.0000    67.5269     6.7227
 2341.5000    66.9319     6.7215
 2342.0000    66.9361     6.7204
 2342.5000    62.8401     6.7192
 2343.0000    65.6520     6.7181
 2343.5000    63.4464     6.7169
 2344.0000    62.8559     6.7158
 2344.5000    63.9391     6.7147
 2345.0000    61.9297     6.7135
 2345.5000    64.5739     6.7124
 2346.0000    63.2232     6.7113
 2346.5000    61.2490     6.7101
 2347.0000    68.1219     6.7090
 2347.5000    66.8921     6.7078
 2348.0000    65.0993     6.7067
 2348.5000    66.5236     6.7056
 2349.0000    69.3968     6.7045
 2349.5000    69.4120     6.7021
 2350.0000    69.5184     6.6996
 2350.5000    69.9836     6.6970
 2351.0000    69.9839     6.6945
 2351.5000    70.0407     6.6920
 2352.0000    70.3748     6.6895
 2352.5000    69.2956     6.6870
 2353.0000    70.2668     6.6845
 2353.5000    70.1133     6.6864
 2354.0000    66.9264     6.6887
 2354.5000    69.0910     6.6910
 2355.0000    67.1020     6.6933
 2355.5000    67.0713     6.6956
 2356.0000    68.7778     6.6979
 2356.5000    66.7848     6.7002
 2357.0000    64.7083     6.7024
 2357.5000    63.0474     6.7042
 2358.0000    67.7388     6.7031
 2358.5000    66.5661     6.7021
 2359.0000    67.3772     6.7010
 2359.5000    66.9754     6.7000
 2360.0000    64.5820     6.6990
 2360.5000    62.1998     6.6980
 2361.0000    65.7020     6.6969
 2361.5000    66.9028     6.6959
 2362.0000    69.2913     6.6949
 2362.5000    71.9083     6.6939
 2363.0000    70.4071     6.6928
 2363.5000    70.4179     6.6918
 2364.0000    69.5025     6.6908
 2364.5000    69.0547     6.6898
 2365.0000    70.4224     6.6887
 2365.5000    69.4423     6.6877
 2366.0000    68.4828     6.6867
 2366.5000    67.9378     6.6857
 2367.0000    69.6535     6.6846
 2367.5000    67.9674     6.6843
 2368.0000    65.1156     6.6843
 2368.5000    66.4289     6.6843
 2369.0000    66.1166     6.6843
 2369.5000    69.5858     6.6843
 2370.0000    69.5889     6.6843
 2370.5000    69.5839     6.6843
 2371.0000    69.4521     6.6843
 2371.5000    68.2380     6.6843
 2372.0000    67.7775     6.6843
 2372.5000    68.1187     6.6843
 2373.0000    66.7601     6.6843
 2373.5000    64.7648     6.6843
 2374.0000    62.7476     6.6843
 2374.5000    63.7248     6.6843
 2375.0000    64.1954     6.6843
 2375.5000    64.8737     6.6843
 2376.0000    65.9366     6.6843
 2376.5000    61.1498     6.6843
 2377.0000    66.0516     6.6843
 2377.5000    64.6817     6.6843
 2378.0000    66.9725     6.6843
 2378.5000    66.8477     6.6843
 2379.0000    67.4038     6.6843
 2379.5000    70.7220     6.6843
 2380.0000    69.0862     6.6843
 2380.5000    66.2587     6.6843
 2381.0000    73.6018     6.6843
 2381.5000    75.2206     6.6843
 2382.0000    72.1052     6.6843
 2382.5000    68.9166     6.6843
 2383.0000    67.7756     6.6843
 2383.5000    66.6246     6.6843
 2384.0000    66.9649     6.6843
 2384.5000    67.2842     6.6843
 2385.0000    67.0844     6.6843
 2385.5000    66.8804     6.6843
 2386.0000    69.4676     6.6843
 2386.5000    65.7351     6.6843
 2387.0000    65.7623     6.6843
 2387.5000    65.0518     6.6843
 2388.0000    65.5048     6.6843
 2388.5000    64.5208     6.6843
 2389.0000    64.7904     6.6843
 2389.5000    67.4564     6.6843
 2390.0000    67.7743     6.6843
 2390.5000    65.9161     6.6843
 2391.0000    66.0121     6.6843
 2391.5000    66.6908     6.6843
 2392.0000    67.1469     6.6843
 2392.5000    65.3378     6.6843
 2393.0000    65.5786     6.6843
 2393.5000    66.5751     6.6843
 2394.0000    64.4723     6.6843
 2394.5000    58.3929     6.6843
 2395.0000    55.1190     6.6843
 2395.5000    58.9582     6.6843
 2396.0000    58.8027     6.6843
 2396.5000    58.9398     6.6843
 2397.0000    56.3679     6.6844
 2397.5000    57.2452     6.6854
 2398.0000    55.3730     6.6864
 2398.5000    56.2046     6.6874
 2399.0000    53.7516     6.6884
 2399.5000    51.2627     6.6893
 2400.0000    55.1158     6.6903
 2400.5000    56.2269     6.6913
 2401.0000    54.8367     6.6923
 2401.5000    52.1247     6.6933
 2402.0000    54.2582     6.6943
 2402.5000    54.3391     6.6953
 2403.0000    52.0716     6.6963
 2403.5000    55.7999     6.6972
 2404.0000    57.7218     6.6982
 2404.5000    57.6937     6.6992
 2405.0000    56.8889     6.7002
 2405.5000    55.8314     6.7012
 2406.0000    55.4469     6.7022
 2406.5000    56.6401     6.7032
 2407.0000    51.2225     6.7042
 2407.5000    55.7591     6.7043
 2408.0000    55.1237     6.7043
 2408.5000    55.7854     6.7043
 2409.0000    55.3275     6.7043
 2409.5000    55.9900     6.7043
 2410.0000    58.4076     6.7043
 2410.5000    59.1928     6.7043
 2411.0000    59.7695     6.7043
 2411.5000    61.7636     6.7043
 2412.0000    62.9900     6.7043
 2412.5000    65.8375     6.7043
 2413.0000    66.1251     6.7043
 2413.5000    71.0615     6.7043
 2414.0000    74.2433     6.7043
 2414.5000    70.3121     6.7043
 2415.0000    68.7328     6.7043
 2415.5000    75.5779     6.7043
 2416.0000    73.8305     6.7043
 2416.5000    72.6837     6.7043
 2417.0000    75.5410     6.7043
 2417.5000    75.9385     6.7043
 2418.0000    74.7647     6.7043
 2418.5000    76.4205     6.7043
 2419.0000    76.8293     6.7043
 2419.5000    75.3039     6.7043
 2420.0000    74.3070     6.7043
 2420.5000    75.1686     6.7043
 2421.0000    74.7054     6.7043
 2421.5000    70.9604     6.7043
 2422.0000    72.9798     6.7043
 2422.5000    69.0452     6.7043
 2423.0000    67.2294     6.7043
 2423.5000    62.3939     6.7043
 2424.0000    55.6173     6.7043
 2424.5000    59.5880     6.7043
 2425.0000    58.2202     6.7043
 2425.5000    57.6573     6.7043
 2426.0000    57.2692     6.7043
 2426.5000    57.4805     6.7043
 2427.0000    59.2873     6.7043
 2427.5000    55.9806     6.7043
 2428.0000    59.3834     6.7043
 2428.5000    59.6427     6.7043
 2429.0000    63.2001     6.7043
 2429.5000    60.3681     6.7043
 2430.0000    64.2237     6.7043
