~VERSION INFORMATION
 VERS.                2.0:   CWLS LOG ASCII STANDARD - VERSION 2.0
 WRAP.                 NO:   ONE LINE PER DEPTH STEP
~WELL INFORMATION
#MNEM.UNIT      DATA TYPE    INFORMATION
#----------   ------------   ------------------------------
 STRT.F           83.0000:   START DEPTH
 STOP.F         3044.0000:   STOP DEPTH
 STEP.F            0.5000:   STEP LENGTH
 NULL.          -999.2500:   NO VALUE
 COMP.   TESORO PETROLEUM:   COMPANY
 WELL.  NPR # 3  AX #81-4:   WELL
 FLD .        TEAPOT DOME:   FIELD
 LOC .       S4 T38N R78W:   LOCATION
 CNTY.            NATRONA:   COUNTY
 STAT.            WYOMING:   STATE
 CTRY. UNITED STATES OF AMERICA:   COUNTRY
 SRVC.       Schlumberger:   SERVICE COMPANY
 DATE.        31-JUL-1969:   LOGDATE
 API .       490251002700:   API NUMBER
~CURVE INFORMATION
#MNEM.UNIT       API CODE    CURVE DESCRIPTION
#----------   ------------   ------------------------------
 DEPT.F                  :   
 CILD.MMHO   05 110 46 00:   CONDUCTIVITY INDUCTION LOG DEEP
 ILD .OHMM   05 120 46 00:   INDUCTION LOG DEEP
 SN  .OHMM   05 040 16 00:   SHORT NORMAL 16"
 SPR .MV     05 010 01 00:   SPONTANEOUS POTENTIAL FROM RES.
 CALD.IN     45 280 60 00:   CALIPER FROM DENSITY
 DPHI.DEC    45 890 12 00:   DENSITY POROSITY SANDSTONE
 GRD .GAPI   45 310 01 00:   GAMMA RAY FROM DENSITY LOG
 RHOB.G/C3   45 350 01 00:   BULK DENSITY
 DRHO.G/C3   45 356 01 00:   DENSITY CORRECTION
~PARAMETER INFORMATION
#MNEM.UNIT          VALUE    DESCRIPTION
#----------   ------------   ------------------------------
 PD  .                 GL:   PERMANENT DATUM
 EPD .F              5170:   ELEVATION PERMANENT DATUM
 LMF .                 KB:   LOG MEASURED FROM
 DAPD.F                13:   FEET ABOVE PERMANENT DATUM
 DMF .                 KB:   DRILLING MEASURED FROM
 EKB .F              5183:   KELLING BUSHING
 EGL .F              5170:   GROUND LEVEL
 DATE.            7-31-69:   RUN DATE
 RUN .                  2:   RUN NUMBER
 DD  .F              3047:   DEPTH DRILLER
 DL  .F              3044:   DEPTH LOGGER
 BLI .F              3043:   BOTTOM LOG INTERVAL
 TLI .F               626:   TOP LOG INTERVAL
 CS  .IN            10.75:   CASING SIZE
 CBD .F               625:   CASING BOTTOM DRILLER
 CBL .F               626:   CASING BOTTOM LOGGER
 BS  .IN             6.25:   BIT SIZE
 BSD .F              3047:   BIT SIZE AT DEPTH
 DFT .      FRESH GEL MUD:   DRILLING FLUID TYPE
 DFD .                9.7:   DRILLING FLUID DENSITY
 DFV .                 50:   DRILLING FLUID VISCOSITY
 DFPH.                9.5:   DRILLING FLUID PH
 DFL .                  8:   DRILLING FLUID LOSS
 MSS .          FLOW LINE:   MUD SAMPLE SOURCE
 RMS .OHMM           1.35:   RESISTIVITY MUD SAMPLE
 MST .F                74:   MUD SAMPLE TEMPERATURE
 RMF .OHMM            .81:   RESISTIVITY MUD FILTRATE SAMPLE
 MFST.F                74:   MUD FILTRATE SAMPLE TEMPERATURE
 MFSS.                  M:   MUD FILTRATE SAMPLE SOURCE
 RMB .OHMM            .83:   RESISTIVITY MUD AT BHT
 BHT .F               121:   BOTTOM HOLE TEMPERATURE
 TCS .HRS               4:   TIME CURCULATED STOPPED
 MRT .F               121:   MAXIMUM RECORDED TEMPERATURE
 LUN .               4507:   LOGGING UNIT NUMBER
 LUL .               CSPR:   LOGGING UNIT LOCATION
 ENGI.               MIXA:   RECORDING ENGINEER
 WITN.                MAY:   WITNESSED BY
 CLNT.            A2DTECH:   CLIENT CODE
 ORIG.     1", 2.5" PRINT:   ORIGIN OF DATA
 UWI .       490251002700:   UNIQUE WELL ID
 DICO. A2D Technologies, Inc.:   DIGITIZING COMPANY
~OTHER INFORMATION
~A   DEPT      CILD       ILD         SN        SPR       CALD       DPHI        GRD       RHOB       DRHO   
# ...
 2638.0000    65.6173    15.0929    16.9595   -16.0051    10.0282     0.1157    79.1788     2.4497     0.0366
 2638.5000    65.6482    15.0929    17.0087   -15.6844    10.0592     0.1176    80.9487     2.4437     0.0301
 2639.0000    64.9924    15.2477    17.1716   -15.2952    10.0696     0.1152    82.2398     2.4554     0.0321
 2639.5000    64.1667    15.4025    17.3345   -14.8148    10.0914     0.1035    84.2119     2.4662     0.0381
 2640.0000    64.1975    15.5573    17.4299   -14.8148    10.0985     0.0940    86.6248     2.4790     0.0421
 2640.5000    63.3372    15.7121    17.3568   -14.7102    10.0980     0.0820    86.6162     2.4972     0.0467
 2641.0000    61.7568    15.5573    17.0350   -14.3895    10.1274     0.0646    84.1980     2.5129     0.0365
 2641.5000    61.2037    15.3855    16.4628   -14.1975    10.1270     0.0526    87.2015     2.5300     0.0248
 2642.0000    67.8119    14.7289    15.8150   -14.1975    10.1266     0.0574    98.0363     2.5449     0.0229
 2642.5000    76.3422    13.9222    15.1673   -14.1975    10.1261     0.0701    97.6445     2.5441     0.0331
 2643.0000    85.9936    13.1395    14.5197   -14.0323    10.1257     0.1085    92.5479     2.5066     0.0466
 2643.5000    90.6528    12.4938    14.0961   -13.7116    10.1252     0.1150    87.6808     2.4767     0.0386
 2644.0000    93.7688    11.8482    13.6544   -13.5802    10.1248     0.1146    84.7470     2.4587     0.0264
 2644.5000    95.3415    11.2902    13.2315   -13.5802    10.1243     0.1100    85.8316     2.4587     0.0185
 2645.0000    98.4575    10.9674    12.7649   -13.5802    10.1239     0.1027    89.4224     2.4722     0.0179
 2645.5000   101.6040    10.6448    12.4541   -13.5802    10.1234     0.0963    92.3443     2.4707     0.0226
 2646.0000   103.2457    10.3221    12.1434   -13.5802    10.1230     0.0909    93.7470     2.4899     0.0362
 2646.5000   104.8882     9.9993    11.9883   -13.5802    10.1225     0.0859    91.5208     2.5073     0.0452
 2647.0000   106.2918     9.7531    11.8333   -13.2716    10.1221     0.0870    87.4094     2.5052     0.0481
 2647.5000   104.7782     9.5917    11.8270   -13.2716    10.1035     0.0922    86.2727     2.4908     0.0456
 2648.0000   104.4442     9.6099    11.6791   -12.9630    10.0913     0.0951    89.8249     2.4930     0.0376
 2648.5000   102.8636     9.6749    11.6799   -12.9630    10.0909     0.0925    93.0972     2.5107     0.0233
 2649.0000   101.7901     9.7779    11.6807   -12.9630    10.0904     0.0837    91.2815     2.5318     0.0138
 2649.5000   101.2465     9.8297    11.6815   -12.9630    10.0899     0.0747    87.0560     2.5460     0.0093
 2650.0000    99.6657     9.8297    11.6822   -12.9630    10.0596     0.0651    88.8547     2.5561     0.0209
 2650.5000    98.7963     9.8297    11.6830   -12.9630    10.0294     0.0513    90.6534     2.5631     0.0358
 2651.0000    96.9553     9.8297    11.7354   -12.9630     9.9991     0.0534    91.8836     2.5569     0.0451
 2651.5000    95.7716     9.8297    11.8403   -12.9010     9.9976     0.0682    93.0459     2.5397     0.0496
 2652.0000    95.8025     9.9845    11.8411   -12.6543     9.9684     0.0765    89.6018     2.5173     0.0422
 2652.5000    95.8391     9.9845    11.8419   -12.6543     9.9636     0.0708    87.0047     2.5233     0.0311
 2653.0000    95.8687    10.1393    11.9198   -12.5560     9.9258     0.0669    90.1657     2.5293     0.0229
 2653.5000    95.8982    10.1393    12.0827   -12.3457     9.8775     0.0655    95.6969     2.5248     0.0192
 2654.0000    95.9278    10.1393    12.2456   -12.3457     9.8679     0.0607    99.8998     2.5475     0.0201
 2654.5000    95.9574    10.1188    12.4085   -12.3457     9.8467     0.0570   101.4247     2.5533     0.0271
 2655.0000    96.0647     9.9574    12.4688   -12.3457     9.8340     0.0555   100.2711     2.5525     0.0437
 2655.5000    99.3174     9.7624    12.4696   -12.3457     9.7881     0.0661    98.6772     2.5449     0.0514
 2656.0000   102.5716     9.3995    12.3552   -12.3457     9.7558     0.0836    98.3855     2.5323     0.0567
 2656.5000   106.3122     8.9153    12.0722   -12.3457     9.7382     0.0890    99.1503     2.5196     0.0483
 2657.0000   112.7897     8.4845    11.5375   -12.3457     9.7251     0.0859    99.1516     2.5092     0.0311
 2657.5000   118.5067     8.1618    11.0710   -12.3457     9.7246     0.0855    98.5063     2.5009     0.0243
 2658.0000   123.5495     7.8390     9.9814   -12.5649     9.7242     0.0878    98.3478     2.5027     0.0258
 2658.5000   132.2161     7.5163     9.3591   -12.6543     9.7237     0.0818    98.3392     2.5050     0.0258
 2659.0000   139.8615     7.1935     9.0483   -12.6543     9.6934     0.0770    98.9331     2.5029     0.0267
 2659.5000   149.5604     6.8707     8.7335   -12.6543     9.6929     0.0716   100.7317     2.5170     0.0267
 2660.0000   157.8185     6.6409     8.5722   -12.6543     9.6925     0.0656   100.0807     2.5318     0.0251
 2660.5000   163.5076     6.4795     8.4108   -12.6543     9.6919     0.0602    98.9066     2.5399     0.0225
 2661.0000   167.5164     6.3181     8.2495   -12.6543     9.6319     0.0655    98.8976     2.5129     0.0184
 2661.5000   170.7688     6.1567     8.0882   -12.6543     9.6315     0.0788    99.1306     2.5129     0.0151
 2662.0000   173.0294     5.9954     7.9626   -12.3457     9.6310     0.0752   100.3932     2.5279     0.0131
 2662.5000   175.7327     5.8050     7.9212   -12.3457     9.6306     0.0729   102.0332     2.5249     0.0124
 2663.0000   176.7284     5.8050     7.8084   -12.3457     9.6301     0.0755   104.5688     2.5172     0.0124
 2663.5000   177.9570     5.6502     7.8092   -12.3457     9.6297     0.0742   106.8480     2.5114     0.0124
 2664.0000   178.3387     5.6502     7.8100   -12.3457     9.6293     0.0652   106.4340     2.5216     0.0124
 2664.5000   176.8250     5.4954     7.8107   -12.3457     9.6288     0.0539   103.8900     2.5403     0.0178
 2665.0000   176.8546     5.6502     7.8115   -12.3457     9.6284     0.0447   104.4681     2.5577     0.0282
 2665.5000   176.8841     5.6502     7.8123   -12.3457     9.6279     0.0450   103.8827     2.5610     0.0412
 2666.0000   175.3705     5.6672     7.8131   -12.3457     9.6275     0.0560    98.7886     2.5376     0.0546
 2666.5000   173.7321     5.8050     7.8139   -12.3457     9.6270     0.0678    94.7044     2.5284     0.0662
 2667.0000   170.5396     5.8050     7.8146   -12.3457     9.6266     0.0732    92.7635     2.5243     0.0557
 2667.5000   167.3474     5.8417     7.9212   -12.3457     9.6487     0.0744    90.3453     2.5235     0.0342
 2668.0000   163.6216     6.0031     7.9720   -12.3457     9.6555     0.0787    91.5415     2.5208     0.0218
 2668.5000   157.2084     6.1146     8.0912   -12.3457     9.6550     0.0823    95.7499     2.5132     0.0184
 2669.0000   150.7926     6.2276     8.1294   -12.3457     9.6546     0.0835    95.6479     2.5069     0.0188
 2669.5000   145.3211     6.4241     8.1302   -12.3457     9.6542     0.0769    93.3231     2.5135     0.0202
 2670.0000   144.2906     6.4241     8.1309   -12.3457     9.6537     0.0721    96.4458     2.5250     0.0259
 2670.5000   148.7604     6.2717     7.9759   -12.3457     9.6556     0.0690   101.5248     2.5325     0.0291
 2671.0000   155.9148     5.9490     7.5094   -12.3457     9.6827     0.0667   106.1317     2.5296     0.0287
 2671.5000   164.0021     5.6262     7.1948   -12.3457     9.6822     0.0684   109.3017     2.5236     0.0240
 2672.0000   172.8997     5.3034     6.5545   -12.3457     9.6818     0.0768   111.1246     2.5176     0.0175
 2672.5000   184.3596     4.8781     6.0687   -12.3457     9.6901     0.0775   111.5134     2.5194     0.0139
 2673.0000   202.0292     4.2849     5.5632   -12.3457     9.7107     0.0755   116.0425     2.5221     0.0125
 2673.5000   241.3273     3.6393     4.9684   -12.3457     9.7103     0.0791   123.9906     2.5160     0.0114
 2674.0000   291.3029     3.1160     4.6122   -12.3457     9.7099     0.0835   130.0945     2.5062     0.0118
