~VERSION INFORMATION
 VERS.                2.0:   CWLS LOG ASCII STANDARD - VERSION 2.0
 WRAP.                 NO:   ONE LINE PER DEPTH STEP
~WELL INFORMATION
#MNEM.UNIT      DATA TYPE    INFORMATION
#----------   ------------   ------------------------------
 STRT.F           36.0000:   START DEPTH
 STOP.F          521.0000:   STOP DEPTH
 STEP.F            0.5000:   STEP LENGTH
 NULL.          -999.2500:   NO VALUE
 COMP. FENIX & SCISSON INC:   COMPANY
 WELL.        NPR-3 #36-3:   WELL
 FLD .             TEAPOT:   FIELD
 LOC .       S3 T38N R78W:   LOCATION
 CNTY.            NATRONA:   COUNTY
 STAT.            WYOMING:   STATE
 CTRY. UNITED STATES OF AMERICA:   COUNTRY
 SRVC.            Unknown:   SERVICE COMPANY
 DATE.        09-JUL-1978:   LOGDATE
 API .       490251066200:   API NUMBER
~CURVE INFORMATION
#MNEM.UNIT       API CODE    CURVE DESCRIPTION
#----------   ------------   ------------------------------
 DEPT.F                  :   
 CALD.IN     45 280 60 00:   CALIPER FROM DENSITY LOG
 GRD .GAPI   45 310 01 00:   GAMMA RAY FROM DENSITY LOG
 CORR.G/C3   45 356 01 00:   DENSITY CORRECTION
 DPHI.DEC    45 890 12 00:   DENSITY POROSITY SANDSTONE
 RHOB.G/C3   45 350 01 00:   BULK DENSITY
 SPR .MV     07 010 01 00:   SPONTANEOUS POTENTIAL
 ILD .OHMM   07 120 46 00:   INDUCTION LOG DEEP
 SN  .OHMM   07 040 16 00:   SHORT NORMAL 16"
~PARAMETER INFORMATION
#MNEM.UNIT          VALUE    DESCRIPTION
#----------   ------------   ------------------------------
 PD  .                 GL:   PERMANENT DATUM
 EPD .F              5216:   ELEVATION PERMANENT DATUM
 LMF .                 KB:   LOG MEASURED FROM
 DAPD.F                 4:   FEET ABOVE PERMANENT DATUM
 DMF .                 KB:   DRILLING MEASURED FROM
 EKB .F              5220:   KELLING BUSHING
 EGL .F              5216:   GROUND LEVEL
 DATE.        09-JUL-1978:   RUN DATE
 RUN .                  1:   RUN NUMBER
 DD  .F               520:   DEPTH DRILLER
 DL  .F               524:   DEPTH LOGGER
 BLI .F               519:   BOTTOM LOG INTERVAL
 TLI .F                50:   TOP LOG INTERVAL
 CS  .IN            8.625:   CASING SIZE
 CBD .F                40:   CASING BOTTOM DRILLER
 BS  .IN            7.875:   BIT SIZE
 BSD .F               520:   BIT SIZE AT DEPTH
 DFT .                KCL:   DRILLING FLUID TYPE
 DFD .                8.6:   DRILLING FLUID DENSITY
 DFV .                 32:   DRILLING FLUID VISCOSITY
 DFPH.                9.5:   DRILLING FLUID PH
 DFL .               14.4:   DRILLING FLUID LOSS
 MSS .           FLOWLINE:   MUD SAMPLE SOURCE
 RMS .OHMM           0.24:   RESISTIVITY MUD SAMPLE
 MST .F                70:   MUD SAMPLE TEMPERATURE
 RMF .OHMM           0.24:   RESISTIVITY MUD FILTRATE SAMPLE
 MFST.F                70:   MUD FILTRATE SAMPLE TEMPERATURE
 RMC .OHMM           0.42:   RESISTIVITY MUD CAKE
 MCST.F                72:   MUD CAKE SAMPLE TEMPERATURE
 MFSS.               MEAS:   MUD FILTRATE SAMPLE SOURCE
 BHT .F                80:   BOTTOM HOLE TEMPERATURE
 TCS .HRS               3:   TIME CURCULATED STOPPED
 MRT .F                80:   MAXIMUM RECORDED TEMPERATURE
 LUN .               2958:   LOGGING UNIT NUMBER
 LUL .               CASP:   LOGGING UNIT LOCATION
 ENGI.             MILLER:   RECORDING ENGINEER
 WITN.           MCGINLEY:   WITNESSED BY
 CLNT.            A2DTECH:   CLIENT CODE
 ORIG.           5" PRINT:   ORIGIN OF DATA
 UWI .       490251066200:   UNIQUE WELL ID
 DICO. A2D Technologies, Inc.:   DIGITIZING COMPANY
~OTHER INFORMATION
~A   DEPT     CALD        GRD       CORR       DPHI       RHOB        SPR        ILD         SN   
# ...
  360.0000     8.4398    58.3908     0.0081     0.1837     2.3656   -11.5628    24.8627    15.5862
  360.5000     8.4253    60.1850     0.0157     0.1900     2.3746   -11.7272    24.8544    15.5810
  361.0000     8.3962    62.4264     0.0128     0.1801     2.3829   -11.5914    24.8442    15.5759
  361.5000     8.3818    63.4755     0.0069     0.1831     2.3837   -11.7594    24.6649    15.5707
  362.0000     8.3676    64.2265    -0.0005     0.1861     2.3785   -12.0740    24.4869    15.3512
  362.5000     8.3682    64.2449    -0.0019     0.1830     2.3763   -12.2384    24.1428    15.2392
  363.0000     8.3688    64.5574     0.0012     0.1812     2.3802   -12.2527    23.3153    15.2341
  363.5000     8.3544    66.9282     0.0028     0.1758     2.3921   -12.5675    22.3610    15.2290
  364.0000     8.3550    68.8714    -0.0030     0.1696     2.3989   -12.8855    21.7439    15.2240
  364.5000     8.3556    66.3438    -0.0045     0.1720     2.3885   -12.8998    21.4369    15.2189
  365.0000     8.3562    64.4123    -0.0028     0.1820     2.3765   -13.0643    21.2822    15.2126
  365.5000     8.3717    64.7162     0.0033     0.1883     2.3811   -13.0786    21.1287    15.1026
  366.0000     8.3723    67.4046     0.0034     0.1904     2.3886   -13.0931    21.1217    14.8900
  366.5000     8.3730    70.0931    -0.0010     0.1919     2.3782   -13.1107    21.1147    14.7823
  367.0000     8.3885    70.0990    -0.0039     0.1975     2.3730   -13.1250    21.1230    14.7774
  367.5000     8.3891    70.1048    -0.0069     0.2035     2.3551   -13.1393    21.3942    14.7724
  368.0000     8.3897    70.1107    -0.0082     0.2103     2.3492   -13.0030    21.5354    14.8702
  368.5000     8.3902    66.2418    -0.0018     0.2079     2.3544   -13.0180    21.6775    14.8640
  369.0000     8.3908    65.2042     0.0070     0.2031     2.3687   -12.8819    21.8206    14.9636
  369.5000     8.3914    65.8064     0.0056     0.1986     2.3642   -12.7461    21.8115    14.9574
  370.0000     8.3920    63.4278     0.0012     0.2013     2.3635   -12.7640    21.8042    14.9524
  370.5000     8.3926    57.9195    -0.0017     0.2007     2.3651   -12.7783    21.7952    15.0513
  371.0000     8.3932    56.8822    -0.0016     0.1950     2.3763   -12.7928    21.7880    15.0451
  371.5000     8.3937    57.9671    -0.0015     0.1971     2.3679   -12.9606    21.7808    15.0401
  372.0000     8.3943    67.6960     0.0031     0.2009     2.3559   -13.1250    21.6236    15.0351
  372.5000     8.3932    66.1412     0.0107     0.2033     2.3578   -13.1393    21.6164    15.0301
  373.0000     8.3806    63.6136     0.0153     0.2054     2.3675   -13.1536    21.6092    15.0251
  373.5000     8.3813    63.0233     0.0079     0.1979     2.3713   -13.1681    21.6003    14.9163
  374.0000     8.3670    62.1336     0.0035     0.1961     2.3699   -13.1858    21.4444    14.9103
  374.5000     8.3825    62.1409     0.0021     0.1977     2.3677   -13.3503    21.2897    14.8025
  375.0000     8.3831    61.9963     0.0007     0.2006     2.3662   -13.3646    20.9905    14.4933
  375.5000     8.3837    63.7920     0.0024     0.2020     2.3648   -13.5290    20.8391    14.2892
  376.0000     8.3843    65.5863     0.0040     0.2020     2.3648   -13.5535    20.4048    14.2845
  376.5000     8.3848    66.9334     0.0100     0.2017     2.3641   -14.0116    19.9591    14.2786
  377.0000     8.3854    67.3849     0.0146     0.1999     2.3671   -14.3262    19.5615    14.1753
  377.5000     8.3860    66.7961     0.0147     0.1968     2.3739   -14.7910    19.2866    13.8793
  378.0000     8.3866    66.5037     0.0119     0.1907     2.3822   -14.8053    19.1475    13.7789
  378.5000     8.3872    66.9569     0.0122     0.1899     2.3815   -14.8198    19.1411    13.7743
  379.0000     8.3878    68.0060     0.0151     0.1923     2.3823   -14.8375    18.8722    13.7697
  379.5000     8.3885    67.1104     0.0212     0.1878     2.3876   -14.8518    18.8657    13.7641
  380.0000     8.3891    62.6031     0.0288     0.1842     2.3921   -14.7123    18.8581    13.7595
  380.5000     8.3897    60.5539     0.0259     0.1824     2.3976   -14.7302    18.8518    13.7549
  381.0000     8.3902    60.4289     0.0215     0.1749     2.4086   -14.7447    18.8455    13.7504
  381.5000     8.3908    63.4169     0.0171     0.1746     2.4034   -14.6122    18.8393    13.7458
  382.0000     8.3914    69.2350     0.0052     0.1785     2.3975   -14.6265    18.8330    13.7411
  382.5000     8.3920    69.8356     0.0038     0.1838     2.3878   -14.6408    18.8267    13.7355
  383.0000     8.4075    65.8191     0.0069     0.1907     2.3789   -14.6551    18.8190    13.7310
  383.5000     8.4081    63.8875     0.0115     0.1960     2.3707   -14.9699    18.6832    13.8218
  384.0000     8.4087    63.4448     0.0116     0.1999     2.3655   -15.1378    18.6770    13.8172
  384.5000     8.4092    64.0483     0.0042     0.2005     2.3678   -15.3022    18.6708    13.8126
  385.0000     8.3949    65.6935    -0.0001     0.1960     2.3761   -15.4667    18.6646    13.8079
  385.5000     8.3955    66.2955     0.0000     0.1942     2.3761   -15.6311    18.4023    13.8023
  386.0000     8.3962    66.8975     0.0001     0.1933     2.3822   -16.1061    18.2680    13.7977
  386.5000     8.3968    65.8602     0.0002     0.1888     2.3889   -16.5642    18.1362    13.7932
  387.0000     8.3824    66.4622     0.0003     0.1815     2.3949   -17.0289    18.1302    13.7886
  387.5000     8.3831    67.2132     0.0004     0.1788     2.4010   -17.6438    18.1241    13.7840
  388.0000     8.3837    67.0701     0.0005     0.1776     2.4003   -17.5075    18.1181    13.7783
  388.5000     8.3843    64.2354     0.0021     0.1755     2.4095   -17.5325    18.1121    13.7737
  389.0000     8.3849    63.9522     0.0022     0.1600     2.4267   -18.1408    18.1059    13.7692
  389.5000     8.3854    64.1287     0.0023     0.1477     2.4491   -18.6055    18.0986    13.7646
  390.0000     8.4009    64.5615    -0.0021     0.1420     2.4632   -18.6198    18.2195    13.7600
  390.5000     8.4015    62.1829    -0.0125     0.1462     2.4513   -18.6341    18.2119    13.7555
  391.0000     8.4021    62.3378    -0.0183     0.1507     2.4454   -18.6486    18.2059    13.7498
  391.5000     8.4176    65.7714    -0.0182     0.1560     2.4402   -18.6663    18.0745    13.7452
  392.0000     8.4182    67.1186    -0.0166     0.1676     2.4111   -18.6806    17.5758    13.7406
  392.5000     8.4188    66.8249    -0.0090     0.1787     2.3992   -18.8450    17.5687    13.6413
  393.0000     8.4344    67.8755     0.0000     0.1814     2.3970   -19.0095    17.6861    13.3564
  393.5000     8.4350    68.6251     0.0016     0.1801     2.4008   -19.0240    17.3161    12.8832
  394.0000     8.4356    68.9305     0.0017     0.1736     2.4083   -19.1918    16.7225    12.3675
  394.5000     8.4361    71.1718     0.0018     0.1741     2.4106   -19.2061    16.1493    12.3634
  395.0000     8.4367    69.6874     0.0020     0.1777     2.4031   -19.2204    15.8126    12.3593
  395.5000     8.4373    67.0107     0.0021     0.1807     2.4017   -19.2347    15.4819    12.3552
  396.0000     8.4528    66.1222     0.0022     0.1818     2.3928   -19.2492    15.4768    12.3511
  396.5000     8.4534    67.6186     0.0023     0.1815     2.3958   -19.2669    15.4716    12.3366
  397.0000     8.4689    69.5619     0.0024     0.1736     2.4213   -19.2812    15.4665    12.1721
  397.5000     8.4695    71.6617     0.0025     0.1633     2.4265   -19.2955    15.3549    12.0007
  398.0000     8.4849    71.3303     0.0011     0.1691     2.4159   -19.3098    15.2441    11.9967
  398.5000     8.4855    70.1028     0.0012     0.1713     2.4139   -19.3241    15.1328    11.9100
  399.0000     8.4861    67.2023     0.0013     0.1671     2.4237   -19.1882    15.0236    11.6612
  399.5000     8.4868    64.9727     0.0029     0.1632     2.4327   -19.2061    14.7105    11.4841
  400.0000     8.4726    61.4009     0.0015     0.1623     2.4298   -19.2336    14.4956    11.3306
