~VERSION INFORMATION
 VERS.                2.0:   CWLS LOG ASCII STANDARD - VERSION 2.0
 WRAP.                 NO:   ONE LINE PER DEPTH STEP
~WELL INFORMATION
#MNEM.UNIT      DATA TYPE    INFORMATION
#----------   ------------   ------------------------------
 STRT.F            0.0000:   START DEPTH
 STOP.F         2838.0000:   STOP DEPTH
 STEP.F            0.5000:   STEP LENGTH
 NULL.          -999.2500:   NO VALUE
 COMP. INTEX OIL CO U S NAVY:   COMPANY
 WELL. NAVAL PETROLEUM RESERVE 3 29 #NPR #3 (204A29)-29:   WELL
 FLD .                N/A:   FIELD
 LOC .      S29 T39N R78W:   LOCATION
 CNTY.            NATRONA:   COUNTY
 STAT.            WYOMING:   STATE
 CTRY. UNITED STATES OF AMERICA:   COUNTRY
 SRVC.      NL McCullough:   SERVICE COMPANY
 DATE.        24-JUN-1965:   LOGDATE
 API .       490251021700:   API NUMBER
~CURVE INFORMATION
#MNEM.UNIT       API CODE    CURVE DESCRIPTION
#----------   ------------   ------------------------------
 DEPT.F                  :   
 GR  .GAPI   30 310 01 00:   GAMMA RAY
 HD  .IN     70 280 01 00:   DAIMETER
~PARAMETER INFORMATION
#MNEM.UNIT          VALUE    DESCRIPTION
#----------   ------------   ------------------------------
 PD  .                 GL:   PERMANENT DATUM
 LMF .                 GL:   LOG MEASURED FROM
 EDF .F              5016:   DRILLING FLOOR
 DATE.        24-JUN-1965:   RUN DATE
 RUN .                  1:   RUN NUMBER
 DD  .F              2838:   DEPTH DRILLER
 DL  .F              2838:   DEPTH LOGGER
 BLI .F              2836:   BOTTOM LOG INTERVAL
 TLI .F              2400:   TOP LOG INTERVAL
 CS  .IN            6.625:   CASING SIZE
 CBD .F              2820:   CASING BOTTOM DRILLER
 BSD .F              2838:   BIT SIZE AT DEPTH
 LUN .               1497:   LOGGING UNIT NUMBER
 ENGI.         COWLTHORPE:   RECORDING ENGINEER
 WITN.         MR. HUDSON:   WITNESSED BY
 CLNT.            A2DTECH:   CLIENT CODE
 ORIG.           5" PRINT:   ORIGIN OF DATA
 UWI .       490251021700:   UNIQUE WELL ID
 DICO. A2D Technologies, Inc.:   DIGITIZING COMPANY
~OTHER INFORMATION
~A    DEPT      GR           HD 
# ...
  850.5000  -999.2500     6.3887
  851.0000  -999.2500     6.3889
  851.5000  -999.2500     6.3890
  852.0000  -999.2500     6.3894
  852.5000  -999.2500     6.3901
  853.0000  -999.2500     6.3908
  853.5000  -999.2500     6.3915
  854.0000  -999.2500     6.3922
  854.5000  -999.2500     6.3929
  855.0000  -999.2500     6.3936
  855.5000  -999.2500     6.3943
  856.0000  -999.2500     6.3950
  856.5000  -999.2500     6.3957
  857.0000  -999.2500     6.3964
  857.5000  -999.2500     6.3971
  858.0000  -999.2500     6.3978
  858.5000  -999.2500     6.3986
  859.0000  -999.2500     6.3993
  859.5000  -999.2500     6.4000
  860.0000  -999.2500     6.4157
  860.5000  -999.2500     6.4152
  861.0000  -999.2500     6.4146
  861.5000  -999.2500     6.4140
  862.0000  -999.2500     6.4134
  862.5000  -999.2500     6.4129
  863.0000  -999.2500     6.4123
  863.5000  -999.2500     6.4117
  864.0000  -999.2500     6.4111
  864.5000  -999.2500     6.4106
  865.0000  -999.2500     6.4100
  865.5000  -999.2500     6.4094
  866.0000  -999.2500     6.4088
  866.5000  -999.2500     6.4083
  867.0000  -999.2500     6.4077
  867.5000  -999.2500     6.4071
  868.0000  -999.2500     6.4065
  868.5000  -999.2500     6.4060
  869.0000  -999.2500     6.4054
  869.5000  -999.2500     6.4048
  870.0000  -999.2500     6.4042
  870.5000  -999.2500     6.4037
  871.0000  -999.2500     6.4031
  871.5000  -999.2500     6.4025
  872.0000  -999.2500     6.4020
  872.5000  -999.2500     6.4014
  873.0000  -999.2500     6.3862
  873.5000  -999.2500     6.3868
  874.0000  -999.2500     6.3874
  874.5000  -999.2500     6.3728
  875.0000  -999.2500     6.3735
  875.5000  -999.2500     6.3741
  876.0000  -999.2500     6.3747
  876.5000  -999.2500     6.3753
  877.0000  -999.2500     6.3911
  877.5000  -999.2500     6.3766
  878.0000  -999.2500     6.3772
  878.5000  -999.2500     6.3778
  879.0000  -999.2500     6.3632
  879.5000  -999.2500     6.3639
  880.0000  -999.2500     6.3645
  880.5000  -999.2500     6.3500
  881.0000  -999.2500     6.3355
  881.5000  -999.2500     6.3361
  882.0000  -999.2500     6.3670
  882.5000  -999.2500     6.3826
  883.0000  -999.2500     6.3832
  883.5000  -999.2500     6.3838
  884.0000  -999.2500     6.3844
  884.5000  -999.2500     6.4000
  885.0000  -999.2500     6.4006
  885.5000  -999.2500     6.4012
  886.0000  -999.2500     6.4018
  886.5000  -999.2500     6.4025
  887.0000  -999.2500     6.4031
  887.5000  -999.2500     6.4127
  888.0000  -999.2500     6.4193
  888.5000  -999.2500     6.4199
  889.0000  -999.2500     6.4355
  889.5000  -999.2500     6.4361
  890.0000  -999.2500     6.4368
  890.5000  -999.2500     6.4373
  891.0000  -999.2500     6.4530
  891.5000  -999.2500     6.4537
  892.0000  -999.2500     6.4543
  892.5000  -999.2500     6.4549
  893.0000  -999.2500     6.4555
  893.5000  -999.2500     6.4561
  894.0000  -999.2500     6.4567
  894.5000  -999.2500     6.4422
  895.0000  -999.2500     6.4428
  895.5000  -999.2500     6.4434
  896.0000  -999.2500     6.4440
  896.5000  -999.2500     6.4466
  897.0000  -999.2500     6.4603
  897.5000  -999.2500     6.4609
  898.0000  -999.2500     6.4615
  898.5000  -999.2500     6.4621
  899.0000  -999.2500     6.4627
  899.5000  -999.2500     6.4696
  900.0000  -999.2500     6.4793
  900.5000  -999.2500     6.4890
  901.0000  -999.2500     6.4804
  901.5000  -999.2500     6.4347
  902.0000  -999.2500     6.4049
  902.5000  -999.2500     6.4052
  903.0000  -999.2500     6.4055
  903.5000  -999.2500     6.4208
  904.0000  -999.2500     6.4362
  904.5000  -999.2500     6.4297
  905.0000  -999.2500     6.4217
  905.5000  -999.2500     6.4370
  906.0000  -999.2500     6.4373
  906.5000  -999.2500     6.4376
  907.0000  -999.2500     6.4380
  907.5000  -999.2500     6.4534
  908.0000  -999.2500     6.4536
  908.5000  -999.2500     6.4539
  909.0000  -999.2500     6.4542
  909.5000  -999.2500     6.4545
  910.0000  -999.2500     6.4548
  910.5000  -999.2500     6.4551
  911.0000  -999.2500     6.4555
  911.5000  -999.2500     6.4557
  912.0000  -999.2500     6.4561
  912.5000  -999.2500     6.4564
  913.0000  -999.2500     6.4566
  913.5000  -999.2500     6.4569
  914.0000  -999.2500     6.4572
  914.5000  -999.2500     6.4575
  915.0000  -999.2500     6.4578
  915.5000  -999.2500     6.4581
  916.0000  -999.2500     6.4584
  916.5000  -999.2500     6.4588
  917.0000  -999.2500     6.4591
  917.5000  -999.2500     6.4594
  918.0000  -999.2500     6.4597
  918.5000  -999.2500     6.4448
  919.0000  -999.2500     6.4452
  919.5000  -999.2500     6.4455
  920.0000  -999.2500     6.4458
  920.5000  -999.2500     6.4461
  921.0000  -999.2500     6.4464
  921.5000  -999.2500     6.4554
  922.0000  -999.2500     6.4621
  922.5000  -999.2500     6.4774
  923.0000  -999.2500     6.4777
  923.5000  -999.2500     6.4931
  924.0000  -999.2500     6.4934
  924.5000  -999.2500     6.5087
  925.0000  -999.2500     6.5090
  925.5000  -999.2500     6.5093
  926.0000  -999.2500     6.5097
  926.5000  -999.2500     6.4799
  927.0000  -999.2500     6.4802
  927.5000  -999.2500     6.4653
  928.0000  -999.2500     6.4657
  928.5000  -999.2500     6.4660
  929.0000  -999.2500     6.4663
  929.5000  -999.2500     6.4666
  930.0000  -999.2500     6.4669
  930.5000  -999.2500     6.4672
  931.0000  -999.2500     6.4675
  931.5000  -999.2500     6.4678
  932.0000  -999.2500     6.4681
  932.5000  -999.2500     6.4533
  933.0000  -999.2500     6.4536
  933.5000  -999.2500     6.4539
  934.0000  -999.2500     6.4542
  934.5000  -999.2500     6.4545
  935.0000  -999.2500     6.4548
  935.5000  -999.2500     6.4551
  936.0000  -999.2500     6.4705
  936.5000  -999.2500     6.4708
  937.0000  -999.2500     6.4711
  937.5000  -999.2500     6.4714
  938.0000  -999.2500     6.4797
  938.5000  -999.2500     6.4871
  939.0000  -999.2500     6.4874
  939.5000  -999.2500     6.4877
  940.0000  -999.2500     6.4880
  940.5000  -999.2500     6.4882
  941.0000  -999.2500     6.4886
  941.5000  -999.2500     6.4889
  942.0000  -999.2500     6.4892
  942.5000  -999.2500     6.4895
  943.0000  -999.2500     6.4898
  943.5000  -999.2500     6.4901
  944.0000  -999.2500     6.5054
  944.5000  -999.2500     6.5057
  945.0000  -999.2500     6.5060
  945.5000  -999.2500     6.5063
  946.0000  -999.2500     6.5067
  946.5000  -999.2500     6.5220
  947.0000  -999.2500     6.5223
  947.5000  -999.2500     6.5226
  948.0000  -999.2500     6.5229
  948.5000  -999.2500     6.5232
  949.0000  -999.2500     6.5235
  949.5000  -999.2500     6.5238
  950.0000  -999.2500     6.5228
  950.5000  -999.2500     6.5205
  951.0000  -999.2500     6.5182
  951.5000  -999.2500     6.5159
  952.0000  -999.2500     6.5136
  952.5000  -999.2500     6.5113
  953.0000  -999.2500     6.5090
  953.5000  -999.2500     6.5068
  954.0000  -999.2500     6.5045
  954.5000  -999.2500     6.5022
  955.0000  -999.2500     6.5000
  955.5000  -999.2500     6.5006
  956.0000  -999.2500     6.5012
  956.5000  -999.2500     6.5018
  957.0000  -999.2500     6.5024
  957.5000  -999.2500     6.5030
  958.0000  -999.2500     6.5036
  958.5000  -999.2500     6.5042
  959.0000  -999.2500     6.5048
  959.5000  -999.2500     6.5054
  960.0000  -999.2500     6.5060
  960.5000  -999.2500     6.5066
  961.0000  -999.2500     6.5072
  961.5000  -999.2500     6.5078
  962.0000  -999.2500     6.5084
  962.5000  -999.2500     6.5090
  963.0000  -999.2500     6.5096
  963.5000  -999.2500     6.5102
  964.0000  -999.2500     6.5108
  964.5000  -999.2500     6.5114
  965.0000  -999.2500     6.5122
  965.5000  -999.2500     6.5127
  966.0000  -999.2500     6.5133
  966.5000  -999.2500     6.5139
  967.0000  -999.2500     6.5296
  967.5000  -999.2500     6.5302
  968.0000  -999.2500     6.5308
  968.5000  -999.2500     6.5313
  969.0000  -999.2500     6.5319
  969.5000  -999.2500     6.5325
  970.0000  -999.2500     6.5332
  970.5000  -999.2500     6.5337
  971.0000  -999.2500     6.5430
  971.5000  -999.2500     6.5501
