~VERSION INFORMATION
 VERS.                2.0:   CWLS LOG ASCII STANDARD - VERSION 2.0
 WRAP.                 NO:   ONE LINE PER DEPTH STEP
~WELL INFORMATION
#MNEM.UNIT      DATA TYPE    INFORMATION
#----------   ------------   ------------------------------
 STRT.F            1.0000:   START DEPTH
 STOP.F          520.0000:   STOP DEPTH
 STEP.F            0.5000:   STEP LENGTH
 NULL.          -999.2500:   NO VALUE
 COMP. LAWRENCE/ALLISON INC:   COMPANY
 WELL.      77-13 SX #3-3:   WELL
 FLD .              NPR 3:   FIELD
 LOC .       S3 T38N R78W:   LOCATION
 CNTY.            NATRONA:   COUNTY
 STAT.            WYOMING:   STATE
 CTRY. UNITED STATES OF AMERICA:   COUNTRY
 SRVC.           Gearhart:   SERVICE COMPANY
 DATE.        22-JUN-1988:   LOGDATE
 API .       490251123700:   API NUMBER
~CURVE INFORMATION
#MNEM.UNIT       API CODE    CURVE DESCRIPTION
#----------   ------------   ------------------------------
 DEPT.F                  :   
 GRR .GAPI   07 310 01 00:   GAMMA RAY
 RILD.OHMM   07 120 46 00:   INDUCTION LOG DEEP RESISTIVITY
 RILM.OHMM   07 120 44 00:   INDUCTION LOG MEDIUM RESISTIVITY
~PARAMETER INFORMATION
#MNEM.UNIT          VALUE    DESCRIPTION
#----------   ------------   ------------------------------
 PD  .                 GL:   PERMANENT DATUM
 EPD .F              5166:   ELEVATION PERMANENT DATUM
 LMF .                 KB:   LOG MEASURED FROM
 DAPD.F                10:   FEET ABOVE PERMANENT DATUM
 DMF .                 KB:   DRILLING MEASURED FROM
 EKB .F              5176:   KELLING BUSHING
 EGL .F              5166:   GROUND LEVEL
 DATE.        22-JUN-1988:   RUN DATE
 RUN .                  1:   RUN NUMBER
 DD  .F               530:   DEPTH DRILLER
 DL  .F               528:   DEPTH LOGGER
 BLI .F               520:   BOTTOM LOG INTERVAL
 TLI .F                50:   TOP LOG INTERVAL
 CS  .IN            9.625:   CASING SIZE
 CBD .F                50:   CASING BOTTOM DRILLER
 CBL .F                50:   CASING BOTTOM LOGGER
 BS  .IN             8.75:   BIT SIZE
 BSD .F               530:   BIT SIZE AT DEPTH
 DFT .                AIR:   DRILLING FLUID TYPE
 TLAB.HRS            0908:   TIME LOGGER AT BOTTOM
 MRT .F                70:   MAXIMUM RECORDED TEMPERATURE
 LUN .               7597:   LOGGING UNIT NUMBER
 LUL .           GILLETTE:   LOGGING UNIT LOCATION
 ENGI.           JOHNSTON:   RECORDING ENGINEER
 WITN.             STRONG:   WITNESSED BY
 CLNT.            A2DTECH:   CLIENT CODE
 ORIG.           5" PRINT:   ORIGIN OF DATA
 UWI .       490251123700:   UNIQUE WELL ID
 DICO. A2D Technologies, Inc.:   DIGITIZING COMPANY
~OTHER INFORMATION
~A    DEPT       GRR     RILD       RILM   
# ...
  274.0000   150.9652    10.2063     9.7306
  274.5000   150.3684    10.2135     9.6633
  275.0000   149.7717    10.2016     9.5966
  275.5000   149.1750    10.1929     9.3982
  276.0000   148.8666    10.1212     9.2035
  276.5000   148.5903    10.0498     9.0132
  277.0000   148.2980     9.9112     9.0771
  277.5000   147.9654     9.9783     9.2702
  278.0000   147.0562    10.0459     9.4674
  278.5000   144.8726    10.1849     9.8050
  279.0000   142.2611    10.2540    10.0136
  279.5000   141.0556     9.9690    10.2984
  280.0000   140.7602     8.9123    10.1513
  280.5000   140.7753     8.1935     9.5828
  281.0000   141.0919     7.7462     8.4344
  281.5000   143.2349     7.4785     7.0969
  282.0000   146.5955     7.3729     5.9707
  282.5000   154.2179     7.2689     5.7256
  283.0000   160.9272     7.2672     5.7663
  283.5000   161.5450     7.2655     6.1413
  284.0000   154.8631     7.3665     6.8211
  284.5000   145.7427     7.7335     8.0119
  285.0000   140.5798     8.2913     8.9611
  285.5000   139.6756     9.5996    10.0228
  286.0000   140.2996    11.1144    11.3681
  286.5000   141.2249    11.9161    12.1924
  287.0000   141.8458    12.2510    12.1933
  287.5000   141.5505    12.4205    12.0247
  288.0000   141.2582    12.5924    11.7759
  288.5000   141.8821    13.1285    11.6944
  289.0000   143.7207    13.8801    11.8602
  289.5000   145.2549    15.0907    12.3693
  290.0000   142.8316    16.7545    13.3593
  290.5000   134.6246    18.2158    14.7345
  291.0000   117.2851    19.6667    16.9476
  291.5000   100.8588    20.7926    20.4712
  292.0000    86.2590    22.7646    23.0791
  292.5000    78.6608    25.4517    26.4105
  293.0000    78.0639    28.4560    31.5372
  293.5000    79.2938    31.8149    37.5208
  294.0000    80.5275    34.1117    41.0318
  294.5000    82.3868    35.0684    42.6814
  295.0000    84.2416    35.5536    42.6843
  295.5000    85.4308    35.8463    41.8010
  296.0000    86.0518    36.5465    40.0861
  296.5000    86.6727    37.0522    38.7113
  297.0000    87.3465    37.5997    38.4435
  297.5000    87.6128    38.6206    38.7167
  298.0000    87.0160    39.7557    39.8178
  298.5000    85.5061    41.4353    41.8184
  299.0000    82.1696    43.7802    45.1655
  299.5000    79.7464    45.6443    49.4676
  300.0000    78.4798    47.5727    53.2692
  300.5000    77.7798    49.2528    58.7257
  301.0000    77.0418    50.2845    69.5295
  301.5000    73.4008    50.9804    78.2879
  302.0000    68.8466    51.3257    84.2476
  302.5000    67.3363    51.3137    86.6555
  303.0000    71.3157    51.3016    87.8896
  303.5000    77.1792    49.4750    83.1289
  304.0000    79.5495    49.1408    72.2933
  304.5000    79.6154    48.1345    66.4877
  305.0000    80.1850    47.4743    63.3243
  305.5000    80.8058    47.1537    61.1609
  306.0000    81.4236    46.5093    59.0715
  306.5000    77.7857    47.5061    57.4509
  307.0000    78.4065    50.2458    57.0011
  307.5000    81.7671    52.4064    61.6411
  308.0000    85.7364    53.1544    67.0512
  308.5000    84.8352    52.4280    69.9392
  309.0000    80.2810    50.6396    69.3505
  309.5000    78.1621    48.9121    64.1495
  310.0000    79.6962    47.2436    59.1723
  310.5000    85.7965    45.6109    56.7525
  311.0000    92.8100    43.9943    51.8312
  311.5000    95.8661    41.4014    47.6688
  312.0000    96.4870    39.4345    45.0844
  312.5000    94.2920    38.0873    44.1575
  313.0000    89.6861    37.0477    43.2497
  313.5000    87.0862    36.7956    42.3583
  314.0000    89.5365    36.2928    40.6282
  314.5000    92.2882    35.3022    39.2402
  315.0000    94.7355    33.1587    35.8375
  315.5000    96.2696    31.5834    32.5017
  316.0000    97.8037    30.7198    29.6833
  316.5000    99.6422    30.5121    27.4912
  317.0000   101.4807    30.3061    26.3596
  317.5000   103.0147    29.8921    26.1886
  318.0000   103.9400    29.4836    26.9676
  318.5000   105.1697    29.0539    28.0987
  319.0000   106.7037    28.6833    28.5004
  319.5000   107.6290    28.6907    28.7063
  320.0000   107.0322    28.4954    28.9137
  320.5000   105.5221    28.5028    28.9197
  321.0000   104.6209    28.5087    28.9257
  321.5000   104.3285    28.5145    29.3392
  322.0000   103.9878    28.5204    29.3452
  322.5000   103.4392    28.5263    29.5573
  323.0000   104.0631    28.7321    29.5634
  323.5000   105.5971    28.9394    29.7770
  324.0000   105.9136    29.3524    30.2027
  324.5000   104.4035    29.5642    30.4209
  325.0000   102.8934    29.9862    30.6408
  325.5000   101.6878    30.4142    30.6472
  326.0000   102.0042    30.4206    30.4398
  326.5000   102.6250    30.0062    30.4464
  327.0000   103.2459    29.5947    29.8217
  327.5000   101.4314    29.1903    29.6185
  328.0000    99.6169    28.7914    29.2131
  328.5000    99.0198    29.0006    28.8133
  329.0000   100.2498    29.0065    28.4204
  329.5000   102.3986    28.8092    28.0315
  330.0000   104.5356    28.0228    27.8419
  330.5000   102.0376    27.4461    27.4609
  331.0000    99.8296    27.0725    27.2737
  331.5000    97.8745    26.3322    26.7144
  332.0000   100.9336    25.7916    26.3488
  332.5000   103.3809    25.6174    25.9882
  333.0000   104.6106    25.4444    25.8123
  333.5000   106.1447    25.2726    25.8177
  334.0000   107.6788    25.8142    26.0044
  334.5000   107.0819    26.1827    26.1924
  335.0000   105.8733    26.3716    26.5680
  335.5000   103.1488    26.3770    26.5735
  336.0000   101.6388    26.1975    26.5790
  336.5000   100.7377    26.3879    26.5845
  337.0000   100.7497    26.3933    26.5900
  337.5000   101.6750    26.3987    26.5955
  338.0000   103.8180    25.8568    25.8658
  338.5000   107.1786    25.1498    25.3353
  339.0000   108.4083    24.4621    24.9886
  339.5000   105.3763    23.9599    24.6453
  340.0000   101.4309    23.4680    24.3093
  340.5000   102.0518    23.1473    23.9766
  341.0000   104.1987    22.9910    23.8144
  341.5000   106.3512    22.9969    23.8194
  342.0000   107.2633    23.0017    23.6518
  342.5000   107.3111    23.1676    23.3345
  343.0000   107.8965    22.8510    23.1510
  343.5000   107.9087    22.5387    22.5431
  344.0000   107.6158    22.2307    22.3895
  344.5000   107.3234    21.9270    21.9303
  345.0000   107.3385    21.6262    21.4794
  345.5000   106.7417    20.8895    21.0378
  346.0000   105.5361    20.3183    20.7499
  346.5000   102.1996    20.0406    20.4659
  347.0000   100.9941    19.7667    20.3265
  347.5000   101.3105    19.6333    20.1890
  348.0000   101.6270    19.6375    20.0524
  348.5000   102.5523    19.6415    19.7788
  349.0000   103.7821    19.5088    19.5083
  349.5000   106.2294    19.3780    19.3763
  350.0000   108.0680    19.0976    19.2453
  350.5000   108.9933    18.9198    18.8282
  351.0000   108.3965    18.7419    18.4111
  351.5000   106.2777    18.5820    17.9454
  352.0000   102.3324    18.0689    17.8203
  352.5000   102.2069    17.6931    17.5728
  353.0000   106.3139    17.4465    17.3288
  353.5000   108.7613    17.2034    17.0881
  354.0000   108.7853    16.9636    16.8507
  354.5000   105.7413    16.7272    16.6167
  355.0000   103.9169    16.6096    16.3859
  355.5000   103.9605    16.6085    16.1583
  356.0000   108.3755    16.3770    16.0457
  356.5000   113.2708    16.3759    15.7125
  357.0000   115.5428    16.2608    15.7125
  357.5000   114.9461    16.1465    15.7125
  358.0000   114.6537    16.1454    15.8228
  358.5000   114.3614    16.1443    15.8228
  359.0000   114.0720    16.2563    15.9503
  359.5000   114.0841    16.3690    16.1780
  360.0000   113.7887    16.5981    16.5009
  360.5000   111.3685    16.8304    16.6167
  361.0000   107.7276    16.9471    16.8507
  361.5000   106.8234    17.1843    16.9690
  362.0000   107.7517    17.3035    16.9690
  362.5000   108.3726    17.4235    16.9690
  363.0000   107.4715    17.4191    16.9690
  363.5000   105.9615    17.1731    16.7333
  364.0000   104.7529    16.9401    16.3859
  364.5000   107.2032    16.6916    16.0457
