~VERSION INFORMATION
 VERS.                2.0:   CWLS LOG ASCII STANDARD - VERSION 2.0
 WRAP.                 NO:   ONE LINE PER DEPTH STEP
~WELL INFORMATION
#MNEM.UNIT      DATA TYPE    INFORMATION
#----------   ------------   ------------------------------
 STRT.F            8.0000:   START DEPTH
 STOP.F          551.0000:   STOP DEPTH
 STEP.F            0.5000:   STEP LENGTH
 NULL.          -999.2500:   NO VALUE
 COMP.   FLUOR DANIEL INC:   COMPANY
 WELL. NAVAL PETROLEUM RESERVE 3 S-10 #31-10:   WELL
 FLD .        TEAPOT DOME:   FIELD
 LOC .      S10 T38N R78W:   LOCATION
 CNTY.            NATRONA:   COUNTY
 STAT.            WYOMING:   STATE
 CTRY. UNITED STATES OF AMERICA:   COUNTRY
 SRVC.       Schlumberger:   SERVICE COMPANY
 DATE.        21-JUN-1970:   LOGDATE
 API .       490251039400:   API NUMBER
~CURVE INFORMATION
#MNEM.UNIT       API CODE    CURVE DESCRIPTION
#----------   ------------   ------------------------------
 DEPT.F                  :   
 SPR .MV     05 010 01 00:   SPONTANEOUS POTENTIAL FROM RES.
 ASN .OHMM   05 041 16 00:   AMPLIFIED SHORT NORMAL 16"
 ILD .OHMM   05 120 46 00:   INDUCTION LOG DEEP
 CILD.MMHO   05 110 46 00:   CONDUCTIVITY INDUCTION LOG DEEP
 CALD.IN     45 280 60 00:   CALIPER FROM DENSITY LOG
 CORR.G/C3   45 356 01 00:   DENSITY CORRECTION
 RHOB.G/C3   45 350 01 00:   BULK DENSITY
 DPHI.DEC    45 890 12 00:   DENSITY POROSITY SANDSTONE
~PARAMETER INFORMATION
#MNEM.UNIT          VALUE    DESCRIPTION
#----------   ------------   ------------------------------
 PD  .                 GL:   PERMANENT DATUM
 EPD .F              5256:   ELEVATION PERMANENT DATUM
 LMF .                 KB:   LOG MEASURED FROM
 DAPD.F                10:   FEET ABOVE PERMANENT DATUM
 DMF .                 KB:   DRILLING MEASURED FROM
 EKB .F              5266:   KELLING BUSHING
 EGL .F              5256:   GROUND LEVEL
 DATE.        27-JUN-1970:   RUN DATE
 RUN .                  1:   RUN NUMBER
 DD  .F               553:   DEPTH DRILLER
 DL  .F               552:   DEPTH LOGGER
 BLI .F               551:   BOTTOM LOG INTERVAL
 TLI .F                44:   TOP LOG INTERVAL
 CS  .IN             9.75:   CASING SIZE
 BS  .IN                9:   BIT SIZE
 BSD .F               553:   BIT SIZE AT DEPTH
 DFT .        FRESHGELMUD:   DRILLING FLUID TYPE
 DFD .                9.2:   DRILLING FLUID DENSITY
 BHT .F               100:   BOTTOM HOLE TEMPERATURE
 TCS .HRS               1:   TIME CURCULATED STOPPED
 MRT .F               100:   MAXIMUM RECORDED TEMPERATURE
 ENGI.             TUSNES:   RECORDING ENGINEER
 WITN.                HAZ:   WITNESSED BY
 CLNT.            A2DTECH:   CLIENT CODE
 ORIG.           5" PRINT:   ORIGIN OF DATA
 UWI .       490251039400:   UNIQUE WELL ID
 DICO. A2D Technologies, Inc.:   DIGITIZING COMPANY
~OTHER INFORMATION
~A    DEPT     SPR        ASN        ILD       CILD         CALD     CORR       RHOB       DPHI   
# ...
  210.5000   -32.2981    10.5393    10.5872    94.1124     8.7514     0.0034     2.4575     0.1160
  211.0000   -32.2981    10.6999    10.7423    91.7707     8.7670    -0.0026     2.4395     0.1247
  211.5000   -32.2981    10.9353    10.9746    90.1995     8.7525    -0.0035     2.4328     0.1259
  212.0000   -32.2981    11.1707    11.1297    87.8578     8.7532     0.0088     2.4441     0.1199
  212.5000   -32.1429    11.4061    11.2847    87.0570     8.7538     0.0126     2.4644     0.1147
  213.0000   -32.1429    11.7035    11.3627    85.4441     8.7544     0.0029     2.4787     0.1096
  213.5000   -31.9876    11.7815    11.4406    83.9137     8.7550    -0.0068     2.4824     0.1078
  214.0000   -31.9876    11.7822    11.5978    83.1125     8.7556    -0.0023     2.4697     0.1114
  214.5000   -31.8323    11.7828    11.6785    82.3053     8.7562     0.0045     2.4630     0.1143
  215.0000   -31.8323    11.7834    11.7515    82.2749     8.7718     0.0106     2.4600     0.1155
  215.5000   -31.8323    11.7064    11.6751    83.0225     8.7874     0.0129     2.4743     0.1104
  216.0000   -31.8323    11.6298    11.5987    82.9845     8.8031     0.0099     2.4923     0.1040
  216.5000   -31.8323    11.4756    11.4452    83.7321     8.8187     0.0107     2.5014     0.0995
  217.0000   -31.8323    11.3987    11.2918    83.6940     8.8043     0.0101     2.4916     0.1040
  217.5000   -31.8323    11.1673    11.1381    84.4417     8.8049     0.0041     2.4804     0.1088
  218.0000   -31.9876    11.0131    10.9845    85.1817     8.8055    -0.0049     2.4654     0.1145
  218.5000   -32.2981    10.8587    10.8310    85.9217     8.7909    -0.0108     2.4482     0.1196
  219.0000   -32.2981    10.7046    10.6774    86.6617     8.7916    -0.0002     2.4355     0.1225
  219.5000   -32.4534    10.6278    10.5238    87.4017     8.7922    -0.0152     2.4340     0.1237
  220.0000   -32.7640    10.6285    10.3705    88.1417     8.7928     0.0066     2.4648     0.1210
  220.5000   -32.7640    10.5516    10.3712    88.8752     8.7934     0.0194     2.4799     0.1086
  221.0000   -32.9193    10.5524    10.2948    89.6141     8.7940     0.0097     2.4738     0.1062
  221.5000   -32.9193    10.5530    10.3728    89.5837     8.7795     0.0158     2.4992     0.1104
  222.0000   -32.7640    10.4760    10.3735    90.3237     8.7952     0.0308     2.5183     0.0920
  222.5000   -32.6087    10.4768    10.3743    90.2928     8.7958     0.0286     2.5093     0.1001
  223.0000   -32.4534    10.4774    10.3751    91.0333     8.7964     0.0166     2.4810     0.1076
  223.5000   -32.2981    10.4780    10.4530    91.1351     8.7970     0.0015     2.4816     0.1049
  224.0000   -32.2981    10.3238    10.3764    91.7429     8.7826     0.0295     2.4958     0.1022
  224.5000   -31.9876    10.3245    10.3774    91.7048     8.7833     0.0200     2.4857     0.1075
  225.0000   -31.8065    10.3251    10.3781    91.6744     8.7838     0.0084     2.4562     0.1156
  225.5000   -31.5217    10.2483    10.3789    92.4220     8.7845     0.0027     2.4268     0.1253
  226.0000   -31.3665    10.2439    10.3025    93.1544     8.7850     0.0020     2.4157     0.1315
  226.5000   -31.2112    10.2302    10.2261    93.9021     8.7706     0.0080     2.4480     0.1307
  227.0000   -31.2112    10.2165    10.1497    94.6421     8.7712     0.0126     2.4562     0.1226
  227.5000   -31.0559    10.2028    10.0720    95.3821     8.7718     0.0172     2.4713     0.1165
  228.0000   -31.2112    10.1890     9.9197    96.1221     8.7724     0.0232     2.4893     0.1021
  228.5000   -31.2112    10.1753     9.8433    97.6325     8.7730     0.0270     2.4961     0.1016
  229.0000   -31.2112    10.1616     9.7670    98.3725     8.7736     0.0091     2.4766     0.1130
  229.5000   -31.3665    10.1479     9.7677    99.1063     8.7742    -0.0007     2.4541     0.1163
  230.0000   -31.3665    10.1341     9.6913    99.8459     8.7748     0.0414     2.4924     0.1016
  230.5000   -31.6770    10.1204     9.6149   100.5855     8.7754     0.0137     2.4497     0.1118
  231.0000   -31.8323    10.1067     9.5387   102.0953     8.7760     0.0070     2.4340     0.1259
  231.5000   -31.9876    10.0930     9.5395   102.0649     8.7766     0.0093     2.4190     0.1316
  232.0000   -31.9876    10.0792     9.4629   103.5753     8.7772     0.0229     2.4475     0.1168
  232.5000   -32.2981    10.0655     9.3865   104.4168     8.7778     0.0319     2.4693     0.1105
  233.0000   -32.2981    10.0518     9.3101   105.0554     8.7784     0.0297     2.4784     0.1068
  233.5000   -32.1429    10.0381     9.2337   106.5658     8.7790     0.0268     2.4874     0.1014
  234.0000   -31.9876    10.0243     9.1573   106.5278     8.7796     0.0299     2.4979     0.0969
  234.5000   -31.9876    10.0106     9.0039   106.4973     8.7802     0.0427     2.5077     0.0941
  235.0000   -31.8323     9.9969     9.0047   106.4669     8.7808     0.0502     2.5137     0.0929
  235.5000   -31.6770     9.9351     8.9281   106.4365     8.7814     0.0540     2.5115     0.0935
  236.0000   -31.5217     9.8888     8.9291   106.4061     8.7820     0.0473     2.4530     0.1037
  236.5000   -31.3665     9.8424     8.8525   106.3757     8.7826     0.0016     2.4396     0.1166
  237.0000   -31.2112     9.7826     8.8534   106.3453     8.7832     0.0099     2.4178     0.1265
  237.5000   -31.0559     9.7523     8.8542   107.0853     8.7688     0.0081     2.4074     0.1316
  238.0000   -30.9006     9.7065     8.8550   107.0549     8.7694    -0.0075     2.4014     0.1376
  238.5000   -30.7453     9.6606     8.7014   107.8025     8.7850    -0.0013     2.3992     0.1400
  239.0000   -30.7453     9.5995     8.6250   108.5362     8.7856     0.0131     2.4262     0.1294
  239.5000   -30.7453     9.5072     8.5486   110.0453     8.7712     0.0192     2.4352     0.1240
  240.0000   -31.0559     9.3995     8.3951   111.5557     8.7868     0.0312     2.4428     0.1209
  240.5000   -31.2112     9.2608     8.2415   113.8367     8.7724     0.0441     2.4555     0.1110
  241.0000   -31.3665     9.0756     8.0875   116.9181     8.7730     0.0186     2.4728     0.1236
  241.5000   -31.3665     8.8286     7.9277   119.9391     8.7585     0.0344     2.4856     0.1103
  242.0000   -31.6770     8.5815     7.6975   122.9903     8.7591     0.0382     2.4954     0.1022
  242.5000   -31.6770     8.4118     7.4730   126.0416     8.7597     0.0150     2.4572     0.1014
  243.0000   -31.8323     8.3041     7.3966   128.3224     8.7453     0.0128     2.4467     0.1202
  243.5000   -31.8323     8.2891     7.3973   129.8328     8.7461     0.0091     2.4407     0.1250
  244.0000   -31.8323     8.2898     7.3211   131.3356     8.7467     0.0046     2.4317     0.1307
  244.5000   -31.8323     8.3214     7.3991   132.0833     8.7473     0.0017     2.4138     0.1371
  245.0000   -31.8323     8.4768     7.3998   132.0452     8.7479     0.0002     2.3943     0.1421
  245.5000   -31.8323     8.6632     7.4778   128.9332     8.7485     0.0040     2.4296     0.1263
  246.0000   -31.8323     8.7103     7.6328   124.2803     8.7491     0.0101     2.4619     0.1146
  246.5000   -31.6770     8.7418     7.7108   119.6274     8.7497     0.0139     2.4544     0.1169
  247.0000   -31.5217     8.7889     7.7887   119.5969     8.7503     0.0109     2.4372     0.1223
  247.5000   -31.3665     8.8359     7.9438   119.5665     8.7509     0.0072     2.4297     0.1260
  248.0000   -31.2112     8.8985     7.9445   120.3065     8.7515     0.0058     2.4289     0.1272
  248.5000   -31.0559     8.9610     7.9453   121.0477     8.7521     0.0043     2.4395     0.1277
  249.0000   -31.0559     8.9771     8.0232   120.2457     8.7527     0.0044     2.4471     0.1280
  249.5000   -30.9006     8.9932     8.1012   119.4449     8.7533     0.0067     2.4553     0.1250
  250.0000   -30.7453     9.0171     8.1791   118.1827     8.7537     0.0150     2.4621     0.1204
  250.5000   -30.2996     9.1047     8.2559   116.2822     8.7508     0.0286     2.4554     0.1191
