~VERSION INFORMATION
 VERS.                2.0:   CWLS LOG ASCII STANDARD - VERSION 2.0
 WRAP.                 NO:   ONE LINE PER DEPTH STEP
~WELL INFORMATION
#MNEM.UNIT      DATA TYPE    INFORMATION
#----------   ------------   ------------------------------
 STRT.F           20.0000:   START DEPTH
 STOP.F          744.0000:   STOP DEPTH
 STEP.F            0.5000:   STEP LENGTH
 NULL.          -999.2500:   NO VALUE
 COMP. FENIX & SCISSON INCORP.:   COMPANY
 WELL.          SX #53-15:   WELL
 FLD .             TEAPOT:   FIELD
 LOC .      S15 T38N R78W:   LOCATION
 CNTY.            NATRONA:   COUNTY
 STAT.            WYOMING:   STATE
 CTRY. UNITED STATES OF AMERICA:   COUNTRY
 SRVC.              Welex:   SERVICE COMPANY
 DATE.        02-MAR-1977:   LOGDATE
 API .       490251030000:   API NUMBER
~CURVE INFORMATION
#MNEM.UNIT       API CODE    CURVE DESCRIPTION
#----------   ------------   ------------------------------
 DEPT.F                  :   
 SGRD.OHMM   07 220 05 00:   SHALLOW RESISTIVITY
 ILD .OHMM   07 120 46 00:   INDUCTION LOG DEEP
 ILM .OHMM   07 120 44 00:   INDUCTION LOG MEDIUM
 SPR .MV     07 010 01 00:   SPONTANEOUS POTENTIAL
 GRD .GAPI   45 310 01 00:   GAMMA RAY FROM DENSITY LOG
 CALD.IN     45 280 60 00:   CALIPER
 RHOB.G/C3   45 350 01 00:   BULK DENSITY
 DPHI.DEC    45 890 10 00:   DENSITY POROSITY SANDSTONE
 CORR.G/C3   45 356 01 00:   DENSITY CORRECTION
~PARAMETER INFORMATION
#MNEM.UNIT          VALUE    DESCRIPTION
#----------   ------------   ------------------------------
 PD  .                 GL:   PERMANENT DATUM
 EPD .F              5253:   ELEVATION PERMANENT DATUM
 LMF .                 GL:   LOG MEASURED FROM
 DMF .                 GL:   DRILLING MEASURED FROM
 EGL .F              5253:   GROUND LEVEL
 DATE.             3-2-77:   RUN DATE
 RUN .                  1:   RUN NUMBER
 DD  .F               750:   DEPTH DRILLER
 DL  .F               747:   DEPTH LOGGER
 BLI .F               745:   BOTTOM LOG INTERVAL
 TLI .F                44:   TOP LOG INTERVAL
 CS  .IN            8.625:   CASING SIZE
 CBD .F                40:   CASING BOTTOM DRILLER
 CBL .F                44:   CASING BOTTOM LOGGER
 BS  .IN            7.875:   BIT SIZE
 BSD .F               750:   BIT SIZE AT DEPTH
 DFT .           CHEM-GEL:   DRILLING FLUID TYPE
 MSS .          FLOW LINE:   MUD SAMPLE SOURCE
 RMS .OHMM           .425:   RESISTIVITY MUD SAMPLE
 MST .F                56:   MUD SAMPLE TEMPERATURE
 RMF .OHMM           .436:   RESISTIVITY MUD FILTRATE SAMPLE
 MFST.F                56:   MUD FILTRATE SAMPLE TEMPERATURE
 RMC .OHMM           .712:   RESISTIVITY MUD CAKE
 MCST.F                56:   MUD CAKE SAMPLE TEMPERATURE
 MFSS.           MEASURED:   MUD FILTRATE SAMPLE SOURCE
 MCSS.           MEASURED:   MUD CAKE SAMPLE SOURCE
 RMB .OHMM            .35:   RESISTIVITY MUD AT BHT
 BHT .F                68:   BOTTOM HOLE TEMPERATURE
 TCS .HRS               2:   TIME CURCULATED STOPPED
 MRT .F                68:   MAXIMUM RECORDED TEMPERATURE
 LUN .               8611:   LOGGING UNIT NUMBER
 LUL .           GILLETTE:   LOGGING UNIT LOCATION
 ENGI.          D. LAWSON:   RECORDING ENGINEER
 WITN.           S. BURKE:   WITNESSED BY
 CLNT.            A2DTECH:   CLIENT CODE
 ORIG.        2" 5" PRINT:   ORIGIN OF DATA
 UWI .       490251030000:   UNIQUE WELL ID
 DICO. A2D Technologies, Inc.:   DIGITIZING COMPANY
~OTHER INFORMATION
~A   DEPT     SGRD        ILD        ILM        SPR         GRD      CALD         RHOB       DPHI      CORR  
# ...
  421.5000     9.6477     6.4796     7.4124   -28.9763   116.4670     8.5700     2.4726     0.1037     0.0634
  422.0000     9.4729     6.2610     7.3291   -28.9748   117.4471     8.5680     2.4704     0.1044     0.0661
  422.5000     9.3023     6.0498     7.0143   -28.9733   119.8995     8.5545     2.4622     0.1104     0.0669
  423.0000     9.1328     5.8458     6.5620   -28.9718   121.3009     8.5409     2.4543     0.1158     0.0678
  423.5000     8.9673     5.6486     6.1389   -28.9703   121.4276     8.5274     2.4456     0.1186     0.0657
  424.0000     7.6620     5.4581     5.7416   -28.9688   120.0825     8.5139     2.4220     0.1264     0.0631
  424.5000     5.7028     5.3695     5.7416   -28.9673   119.6812     8.5003     2.4187     0.1297     0.0605
  425.0000     4.7756     5.3503     6.1401   -28.9658   122.3942     8.4868     2.4248     0.1276     0.0580
  425.5000     9.0163     5.3341     6.4939   -28.9643   124.5443     8.4733     2.4360     0.1234     0.0596
  426.0000     9.2456     5.5642     6.8682   -28.9628   126.5181     8.4598     2.4471     0.1192     0.0624
  426.5000     9.4604     5.7637     7.2640   -28.9613   127.2714     8.4510     2.4573     0.1159     0.0653
  427.0000     9.6846     5.9703     7.8529   -28.9598   127.6137     8.4564     2.4564     0.1168     0.0658
  427.5000     9.9180     6.1843     7.2961   -28.9583   127.7966     8.4614     2.4514     0.1177     0.0637
  428.0000    10.1570     6.4060     7.5468   -28.9568   127.4975     8.4662     2.4465     0.1186     0.0600
  428.5000    10.4479     6.6357     7.8657   -28.9552   127.3278     8.4671     2.4426     0.1194     0.0622
  429.0000    10.3888     6.8734     7.9469   -28.9538   129.3304     8.4535     2.4461     0.1190     0.0662
  429.5000    10.2934     7.0565     7.9731   -28.9538   130.1737     8.4404     2.4494     0.1179     0.0702
  430.0000    10.1632     7.2046     7.9989   -28.9605   129.5872     8.4303     2.4536     0.1153     0.0743
  430.5000    10.7624     7.3558     8.4892   -28.9670   126.5908     8.4114     2.4635     0.1106     0.0783
  431.0000    11.5619     7.5101     8.8518   -28.9735   121.7418     8.3891     2.4728     0.1059     0.0818
  431.5000    11.2855     7.5689     8.8518   -28.9800   121.0401     8.3665     2.4784     0.1011     0.0830
  432.0000    11.0645     7.6828     8.8518   -28.9865   121.0397     8.3440     2.4815     0.0986     0.0842
  432.5000    10.9403     7.7956     8.9060   -28.9930   120.7936     8.3297     2.4825     0.0982     0.0855
  433.0000    11.2058     7.9100     8.9929   -28.9995   121.5475     8.3304     2.4824     0.0994     0.0823
  433.5000    11.3955     8.0059     9.0807   -29.0060   121.0236     8.3485     2.4781     0.1043     0.0754
  434.0000    11.5883     8.0362     9.1694   -29.0125   122.3135     8.3678     2.4577     0.1097     0.0687
  434.5000    11.7769     8.0665     9.3271   -29.0190   123.5891     8.3871     2.4592     0.1103     0.0685
  435.0000    11.7524     8.0969     9.5564   -29.0255   124.8618     8.4062     2.4699     0.1088     0.0709
  435.5000    11.7288     8.1275     9.7917   -29.0320   126.1391     8.4255     2.4724     0.1072     0.0733
  436.0000    11.7053     8.1581    10.0709   -29.0385   127.3533     8.4455     2.4711     0.1058     0.0757
  436.5000    11.6819     8.1889    10.0151   -29.0450   128.0587     8.4380     2.4704     0.1096     0.0777
  437.0000    11.6689     8.2198     9.9288   -29.0515   122.2117     8.4222     2.4603     0.1131     0.0739
  437.5000    11.7926     8.2509     9.8440   -29.0579   118.7680     8.4066     2.4419     0.1166     0.0702
  438.0000    11.8788     8.2820     9.7598   -29.0644   120.4959     8.3382     2.4521     0.1186     0.0664
  438.5000    11.9657     8.2990     9.6764   -29.0709   122.8054     8.2889     2.4765     0.1039     0.0627
  439.0000    12.0532     8.2612     9.5937   -29.0774   125.1086     8.2887     2.5007     0.0921     0.0598
  439.5000    12.1413     8.2350     9.5117   -29.0839   127.2433     8.3502     2.5251     0.0803     0.0617
  440.0000    12.2300     8.2090     9.4302   -29.0904   127.3010     8.4384     2.5476     0.0675     0.0636
  440.5000    12.3306     8.1831     9.3547   -29.0969   126.4827     8.5274     2.5405     0.0646     0.0653
  441.0000    12.1196     8.1573     9.3545   -29.1034   126.7140     8.6159     2.5300     0.0707     0.0672
  441.5000    11.8800     8.1315     9.3547   -29.1099   127.4091     8.6441     2.5196     0.0767     0.0665
  442.0000    11.6435     8.1059     9.3547   -29.1164   127.2929     8.6436     2.5092     0.0826     0.0643
  442.5000    11.4121     8.0803     9.3547   -29.1229   126.7443     8.6285     2.4989     0.0886     0.0621
  443.0000    11.2461     8.0548     9.3547   -29.1294   126.1951     8.6135     2.4885     0.0945     0.0599
  443.5000    11.2474     8.0294     9.3547   -29.1359   126.2494     8.5984     2.4814     0.0993     0.0609
  444.0000    11.2487     8.0040     9.3547   -29.1424   127.7818     8.5834     2.4807     0.0990     0.0622
  444.5000    11.2457     7.9788     8.9608   -29.1489   129.4654     8.5684     2.4803     0.0986     0.0635
  445.0000    10.9663     7.9536     8.5356   -29.1554   129.9755     8.5533     2.4751     0.1014     0.0648
  445.5000    10.6943     7.9285     8.1320   -29.1619   129.6329     8.5383     2.4662     0.1081     0.0653
  446.0000    10.4215     7.6984     7.6935   -29.1684   127.4663     8.5233     2.4524     0.1148     0.0609
  446.5000    10.1556     7.3099     7.2344   -29.1749   126.8121     8.5082     2.4380     0.1215     0.0602
  447.0000     9.8966     6.8036     6.8027   -29.1814   128.6284     8.4932     2.4296     0.1262     0.0606
  447.5000     9.6441     6.3323     6.3968   -29.1879   129.3172     8.4782     2.4263     0.1275     0.0611
  448.0000     9.0500     5.8937     6.0151   -29.1944   128.6617     8.4631     2.4230     0.1324     0.0617
  448.5000     8.4599     5.4855     5.6562   -29.2009   127.2252     8.4501     2.4217     0.1381     0.0628
  449.0000     7.9045     5.1056     5.3187   -29.2074   125.7619     8.4535     2.4221     0.1339     0.0644
  449.5000     7.3859     4.7490     5.0049   -29.2139   125.5390     8.4574     2.4199     0.1318     0.0655
  450.0000     6.9014     4.3734     4.7267   -29.2204   124.4018     8.4613     2.4081     0.1437     0.0625
  450.5000     6.4487     3.8990     4.1188   -29.2269   124.3698     8.4651     2.3884     0.1547     0.0594
  451.0000     6.0183     3.4826     3.6254   -29.2334   122.5884     8.4690     2.3693     0.1649     0.0564
  451.5000     5.2522     3.1096     3.1928   -29.2399   120.6642     8.4728     2.3501     0.1778     0.0533
  452.0000     4.4228     2.7766     2.8124   -29.2464   120.4851     8.4767     2.3309     0.1898     0.0503
  452.5000     3.7322     2.3933     2.5048   -29.2529   121.5914     8.4805     2.3118     0.1997     0.0472
  453.0000     2.9856     2.4339     2.5725   -29.2594   122.1312     8.4844     2.2963     0.2071     0.0442
  453.5000     3.1803     2.4955     2.6486   -29.2659   121.1257     8.4882     2.2981     0.2120     0.0410
  454.0000     3.9739     2.6058     2.7229   -29.2724   122.7970     8.4921     2.3351     0.1832     0.0430
  454.5000     5.2729     2.7705     2.9916   -29.2789   124.9801     8.4959     2.3732     0.1528     0.0479
  455.0000     6.8396     2.9311     3.2629   -29.2854   126.6545     8.4998     2.4125     0.1349     0.0527
  455.5000     5.0501     3.2418     3.5589   -29.2919   127.9883     8.5036     2.4014     0.1370     0.0536
  456.0000     3.6562     3.5617     3.8816   -29.2984   128.6228     8.5075     2.3917     0.1375     0.0467
  456.5000     8.6521     3.9118     4.2337   -29.3049   127.8971     8.5095     2.4197     0.1254     0.0424
  457.0000     9.1053     4.2958     4.6176   -29.3114   127.1923     8.5077     2.4492     0.1158     0.0477
  457.5000     9.3547     4.7177     5.0364   -29.3179   127.2532     8.5061     2.4765     0.1062     0.0540
