~VERSION INFORMATION
 VERS.                2.0:   CWLS LOG ASCII STANDARD - VERSION 2.0
 WRAP.                 NO:   ONE LINE PER DEPTH STEP
~WELL INFORMATION
#MNEM.UNIT      DATA TYPE    INFORMATION
#----------   ------------   ------------------------------
 STRT.F           16.0000:   START DEPTH
 STOP.F         1254.0000:   STOP DEPTH
 STEP.F            0.5000:   STEP LENGTH
 NULL.          -999.2500:   NO VALUE
 COMP. FENIX & SCISSON INC:   COMPANY
 WELL. NAVAL PET RESERVE 3   75-S-14 #75-14:   WELL
 FLD .             TEAPOT:   FIELD
 LOC .      S14 T38N R78W:   LOCATION
 CNTY.            NATRONA:   COUNTY
 STAT.            WYOMING:   STATE
 CTRY. UNITED STATES OF AMERICA:   COUNTRY
 SRVC.              Welex:   SERVICE COMPANY
 DATE.        17-FEB-1977:   LOGDATE
 API .       490251027400:   API NUMBER
~CURVE INFORMATION
#MNEM.UNIT       API CODE    CURVE DESCRIPTION
#----------   ------------   ------------------------------
 DEPT.F                  :   
 SGRD.OHMM   07 220 05 00:   SHALLOW RESISTIVITY
 ILM .OHMM   07 120 44 00:   INDUCTION LOG MEDIUM
 SPR .MV     07 010 01 00:   SPONTANEOUS POTENTIAL
 ILD .OHMM   07 120 46 00:   INDUCTION LOG DEEP
 CALD.IN     45 280 60 00:   CALIPER
 GRD .GAPI   45 310 01 00:   GAMMA RAY FROM DENSITY LOG
 DPHI.DEC    45 890 12 00:   DENSITY POROSITY SANDSTONE
 RHOB.G/C3   45 350 01 00:   BULK DENSITY
 CORR.G/C3   45 356 01 00:   DENSITY CORRECTION
~PARAMETER INFORMATION
#MNEM.UNIT          VALUE    DESCRIPTION
#----------   ------------   ------------------------------
 PD  .                 GL:   PERMANENT DATUM
 EPD .F              5336:   ELEVATION PERMANENT DATUM
 LMF .                 GL:   LOG MEASURED FROM
 DMF .                 GL:   DRILLING MEASURED FROM
 EKB .F              5341:   KELLING BUSHING
 EGL .F              5336:   GROUND LEVEL
 DATE.          2-17-1977:   RUN DATE
 RUN .                  1:   RUN NUMBER
 DD  .F              1260:   DEPTH DRILLER
 DL  .F              1258:   DEPTH LOGGER
 BLI .F              1256:   BOTTOM LOG INTERVAL
 TLI .F                30:   TOP LOG INTERVAL
 CS  .IN            8.625:   CASING SIZE
 CBD .F                42:   CASING BOTTOM DRILLER
 CBL .F                42:   CASING BOTTOM LOGGER
 BS  .IN            7.875:   BIT SIZE
 BSD .F              1260:   BIT SIZE AT DEPTH
 DFT .          KCL WATER:   DRILLING FLUID TYPE
 DFD .                9.5:   DRILLING FLUID DENSITY
 DFV .                 34:   DRILLING FLUID VISCOSITY
 MSS .          FLOW LINE:   MUD SAMPLE SOURCE
 RMS .OHMM            .30:   RESISTIVITY MUD SAMPLE
 MST .F                43:   MUD SAMPLE TEMPERATURE
 RMF .OHMM            .28:   RESISTIVITY MUD FILTRATE SAMPLE
 MFST.F                43:   MUD FILTRATE SAMPLE TEMPERATURE
 RMC .OHMM            .40:   RESISTIVITY MUD CAKE
 MCST.F                43:   MUD CAKE SAMPLE TEMPERATURE
 MFSS.           MEASURED:   MUD FILTRATE SAMPLE SOURCE
 MCSS.           MEASURED:   MUD CAKE SAMPLE SOURCE
 RMB .OHMM            .13:   RESISTIVITY MUD AT BHT
 BHT .F               101:   BOTTOM HOLE TEMPERATURE
 TCS .HRS               5:   TIME CURCULATED STOPPED
 MRT .F               101:   MAXIMUM RECORDED TEMPERATURE
 LUN .               8611:   LOGGING UNIT NUMBER
 LUL .           GILLETTE:   LOGGING UNIT LOCATION
 ENGI.             LAWSON:   RECORDING ENGINEER
 WITN.         STUEBINGER:   WITNESSED BY
 CLNT.            A2DTECH:   CLIENT CODE
 ORIG.       2", 5" PRINT:   ORIGIN OF DATA
 UWI .       490251027400:   UNIQUE WELL ID
 DICO. A2D Technologies, Inc.:   DIGITIZING COMPANY
~OTHER INFORMATION
~A   DEPT     SGRD        ILM        SPR        ILD       CALD         GRD      DPHI       RHOB       CORR   
# ...
 1074.5000     8.7351     5.0772   -43.4568     3.8730     8.2327   140.5430     0.1000     2.4678     0.0488
 1075.0000     7.7863     5.0269   -43.1368     4.0053     8.2369   136.2128     0.0930     2.4973     0.0557
 1075.5000     6.3378     4.9846   -42.8168     4.1411     8.2399   138.1517     0.0977     2.4865     0.0505
 1076.0000     7.9952     5.1478   -42.4968     4.2816     8.2594   140.7443     0.1013     2.4757     0.0451
 1076.5000     9.1489     5.3267   -42.1767     4.4268     8.2249   139.0480     0.0906     2.4880     0.0474
 1077.0000     9.1489     5.5119   -41.8570     4.5769     8.1878   136.3595     0.0854     2.5034     0.0533
 1077.5000     9.1493     5.7036   -41.5346     4.7321     8.1505   133.6394     0.0896     2.4939     0.0519
 1078.0000     9.4019     5.9019   -41.4013     4.8925     8.1131   134.5652     0.0962     2.4823     0.0461
 1078.5000     9.6909     6.1070   -41.3721     5.0584     8.0800   135.9505     0.1045     2.4777     0.0489
 1079.0000     9.9880     6.3194   -41.3451     5.2299     8.0597   137.3438     0.0914     2.4925     0.0521
 1079.5000    10.2170     6.5391   -41.3179     5.4073     8.0578   138.7122     0.0870     2.5006     0.0519
 1080.0000    10.0373     6.7664   -41.2906     5.5907     8.0550   139.3278     0.0934     2.4871     0.0458
 1080.5000     9.9388     6.9145   -41.2634     5.7802     8.0518   137.2341     0.0998     2.4739     0.0400
 1081.0000    10.0746     7.0256   -41.2358     5.8471     8.0487   135.2253     0.1082     2.4600     0.0364
 1081.5000    10.1958     7.1386   -41.1815     5.8721     8.0455   133.1918     0.1042     2.4708     0.0380
 1082.0000    10.2170     7.2533   -41.0692     5.8967     8.0424   131.6694     0.0984     2.4868     0.0402
 1082.5000    10.2170     7.4039   -40.9578     5.9216     8.0418   130.2534     0.0926     2.5031     0.0425
 1083.0000    10.2322     7.3568   -40.8461     5.9467     8.0418   128.8403     0.0868     2.5193     0.0447
 1083.5000    10.3466     7.2913   -40.7333     5.9718     8.0418   127.4252     0.0830     2.5320     0.0469
 1084.0000    10.5017     7.2261   -40.6253     5.9917     8.0418   126.0071     0.0816     2.5172     0.0489
 1084.5000    10.3403     7.1614   -40.7499     5.9919     8.0418   124.5758     0.0805     2.5077     0.0518
 1085.0000    10.0828     7.0975   -40.8899     6.0298     8.0417   123.1341     0.0777     2.5108     0.0580
 1085.5000     9.8344     7.0341   -41.0289     6.0659     8.0423   127.1290     0.0737     2.5138     0.0639
 1086.0000     9.5919     6.9713   -41.1676     6.1023     8.0568   131.8671     0.0746     2.5168     0.0642
 1086.5000     9.4050     6.9090   -41.3063     6.1389     8.0713   131.5107     0.0768     2.5188     0.0636
 1087.0000    10.2001     6.8473   -41.4434     6.2164     8.0837   130.1484     0.0790     2.5198     0.0609
 1087.5000    10.9067     6.7923   -41.5746     6.1280     8.0968   128.8570     0.0810     2.5110     0.0584
 1088.0000    11.4097     6.7443   -41.6165     5.9324     8.0933   125.3742     0.0836     2.5011     0.0558
 1088.5000    11.3625     6.6967   -41.5599     5.9428     8.0803   121.4320     0.0888     2.4912     0.0541
 1089.0000    11.3000     6.6494   -41.4484     5.6084     8.0670   119.1569     0.0939     2.4814     0.0541
 1089.5000    11.2378     6.6024   -41.3370     5.2825     8.0538   121.2990     0.0991     2.4715     0.0541
 1090.0000    11.1759     6.5391   -41.2259     4.9742     8.0406   123.3646     0.1042     2.4617     0.0559
 1090.5000    11.1144     6.4356   -41.1148     4.6838     8.0273   125.4353     0.1094     2.4518     0.0581
 1091.0000     8.6530     6.3318   -40.9650     4.4104     8.0140   127.4155     0.1145     2.4420     0.0603
 1091.5000     6.2089     5.1132   -40.5871     4.1529     8.0019   128.5765     0.1196     2.4321     0.0619
 1092.0000     4.4551     4.3420   -40.2068     3.9241     8.0067   128.3114     0.1248     2.4222     0.0597
 1092.5000     3.9970     4.6909   -39.8272     3.9241     8.0122   124.6345     0.1279     2.4167     0.0576
 1093.0000     6.8917     5.1292   -39.4478     4.1168     8.0177   121.0305     0.1080     2.4411     0.0584
 1093.5000    10.3692     5.6180   -39.0684     4.2729     8.0231   117.9780     0.0938     2.4700     0.0635
 1094.0000    11.4747     5.8233   -38.6889     4.4349     8.0286   117.1724     0.0795     2.4990     0.0628
 1094.5000    11.7647     6.0403   -38.3095     4.6807     8.0340   116.3459     0.0770     2.5231     0.0582
 1095.0000    12.0621     6.2654   -37.9301     4.9990     8.0395   115.5120     0.0819     2.5134     0.0580
 1095.5000    12.3670     6.5791   -37.5507     5.3389     8.0346   114.8613     0.0859     2.5043     0.0631
 1096.0000    12.6250     7.0827   -37.1712     5.7020     8.0218   116.6233     0.0900     2.4953     0.0643
 1096.5000    12.4490     7.6249   -36.7918     6.0897     8.0089   118.4786     0.0898     2.4923     0.0616
 1097.0000    12.3010     8.2086   -36.4128     6.5063     7.9958   120.4561     0.0859     2.5008     0.0587
 1097.5000    12.1548     8.8998   -36.0335     6.8821     7.9827   123.1142     0.0829     2.5090     0.0560
 1098.0000    12.0102     8.7978   -35.6368     6.8772     7.9912   125.6993     0.0798     2.5172     0.0557
 1098.5000    11.8674     8.6862   -34.9642     6.8795     8.0015   128.2303     0.0767     2.5243     0.0603
 1099.0000    11.7263     8.5782   -34.2545     6.8785     8.0116   129.5961     0.0762     2.5178     0.0648
 1099.5000    11.5869     8.8076   -33.5416     6.8785     8.0217   124.0745     0.0762     2.5015     0.0672
 1100.0000    11.5152     9.0385   -32.7766     6.8785     8.0318   120.0520     0.0893     2.4852     0.0625
 1100.5000    12.0573     9.2755   -31.7386     6.8787     8.0420   115.8969     0.1022     2.4805     0.0580
 1101.0000    12.0573     9.5187   -30.7341     6.8765     8.0521   114.2788     0.0993     2.4859     0.0572
 1101.5000    12.0160     9.7683   -29.7293     7.1997     8.0617   112.7820     0.0962     2.4914     0.0608
 1102.0000    11.9469    10.0245   -28.7242     7.5452     8.0614   109.0039     0.0930     2.4974     0.0670
 1102.5000    12.5161    10.2873   -27.7191     7.9060     8.0524   104.1949     0.0914     2.4881     0.0732
 1103.0000    14.2461    10.5571   -26.7140     8.2840     8.0433    99.3294     0.0977     2.4739     0.0775
 1103.5000    16.2152    10.8339   -25.7089     8.6801     8.0453    94.4682     0.1043     2.4596     0.0728
 1104.0000    18.5807    11.1180   -24.7038     9.0952     8.0496    89.5487     0.1109     2.4452     0.0684
 1104.5000    17.4555    11.4095   -23.6987     9.5316     8.0540    86.9857     0.1174     2.4309     0.0639
 1105.0000    16.1853    11.7290   -22.6932    10.0307     8.0585    84.6411     0.1240     2.4164     0.0610
 1105.5000    15.0179    11.5097   -21.6872    10.3114     8.0611    82.3656     0.1327     2.4042     0.0591
 1106.0000    14.1093    11.3131   -20.6883    10.1867     8.0386    78.6462     0.1262     2.4207     0.0615
 1106.5000    15.5871    11.1195   -19.9059    10.0560     8.0158    73.6380     0.1162     2.4373     0.0684
 1107.0000    12.8594    10.9294   -19.5159     9.9270     7.9931    69.3278     0.1204     2.4540     0.0752
 1107.5000    20.3715    10.7962   -19.1192     9.7997     7.9704    72.5245     0.1275     2.4557     0.0822
 1108.0000     9.3188    10.9511   -18.7300     9.6740     7.9477    76.7611     0.1346     2.4388     0.0834
 1108.5000     9.9448    11.1716   -18.4571     9.5499     7.9250    80.9713     0.1417     2.4211     0.0820
 1109.0000    11.7620    11.3966   -18.4460     9.4274     7.9022    84.4836     0.1487     2.4033     0.0718
 1109.5000    13.8503    11.6260   -18.9366     9.3065     7.8795    86.4702     0.1558     2.3857     0.0678
 1110.0000    14.6737    11.8601   -19.4065     9.1871     7.8629    88.4632     0.1628     2.3679     0.0650
 1110.5000    10.6726    12.0989   -19.8745     9.0691     7.8819    88.3323     0.1663     2.3605     0.0622
