~VERSION INFORMATION
 VERS.                2.0:   CWLS LOG ASCII STANDARD - VERSION 2.0
 WRAP.                 NO:   ONE LINE PER DEPTH STEP
~WELL INFORMATION
#MNEM.UNIT      DATA TYPE    INFORMATION
#----------   ------------   ------------------------------
 STRT.F           32.0000:   START DEPTH
 STOP.F          697.0000:   STOP DEPTH
 STEP.F            0.5000:   STEP LENGTH
 NULL.          -999.2500:   NO VALUE
 COMP.    FENIX & SCISSON:   COMPANY
 WELL.      NPR-3 #81S3-3:   WELL
 FLD .        TEAPOT DOME:   FIELD
 LOC .       S3 T38N R78W:   LOCATION
 CNTY.            NATRONA:   COUNTY
 STAT.            WYOMING:   STATE
 CTRY. UNITED STATES OF AMERICA:   COUNTRY
 SRVC.           BIRDWELL:   SERVICE COMPANY
 DATE.        11-JAN-1978:   LOGDATE
 API .       490251055400:   API NUMBER
~CURVE INFORMATION
#MNEM.UNIT       API CODE    CURVE DESCRIPTION
#----------   ------------   ------------------------------
 DEPT.F                  :   
 ILD .OHMM   05 120 46 00:   INDUCTION LOG DEEP
 SN  .OHMM   05 040 16 00:   SHORT NORMAL 16"
 SPR .MV     05 010 01 00:   SPONTANEOUS POTENTIAL FROM RES.
 CALD.IN     45 280 60 00:   CALIPER FROM DENSITY LOG
 DPHI.DEC    45 890 12 00:   DENSITY POROSITY SANDSTONE
 DRHO.G/C3   45 356 01 00:   DENSITY CORRECTION
 GRD .GAPI   45 310 01 00:   GAMMA RAY FROM DENSITY LOG
 RHOB.G/C3   45 350 01 00:   BULK DENSITY
~PARAMETER INFORMATION
#MNEM.UNIT          VALUE    DESCRIPTION
#----------   ------------   ------------------------------
 PD  .                 GL:   PERMANENT DATUM
 EPD .F              5119:   ELEVATION PERMANENT DATUM
 LMF .                 KB:   LOG MEASURED FROM
 DAPD.F                 4:   FEET ABOVE PERMANENT DATUM
 DMF .                 KB:   DRILLING MEASURED FROM
 EKB .F              5123:   KELLING BUSHING
 EGL .F              5119:   GROUND LEVEL
 DATE.        11-JAN-1978:   RUN DATE
 RUN .                  1:   RUN NUMBER
 DD  .F               695:   DEPTH DRILLER
 DL  .F               704:   DEPTH LOGGER
 BLI .F               697:   BOTTOM LOG INTERVAL
 TLI .F                40:   TOP LOG INTERVAL
 CS  .IN            8.625:   CASING SIZE
 CBD .F                40:   CASING BOTTOM DRILLER
 CBL .F                40:   CASING BOTTOM LOGGER
 BS  .IN            7.875:   BIT SIZE
 BSD .F               695:   BIT SIZE AT DEPTH
 DFT .                KCL:   DRILLING FLUID TYPE
 DFD .                8.6:   DRILLING FLUID DENSITY
 DFV .                 31:   DRILLING FLUID VISCOSITY
 DFPH.                9.5:   DRILLING FLUID PH
 DFL .                7.6:   DRILLING FLUID LOSS
 MSS .           FLOWLINE:   MUD SAMPLE SOURCE
 RMS .OHMM           0.32:   RESISTIVITY MUD SAMPLE
 MST .F                62:   MUD SAMPLE TEMPERATURE
 RMF .OHMM           0.32:   RESISTIVITY MUD FILTRATE SAMPLE
 MFST.F                62:   MUD FILTRATE SAMPLE TEMPERATURE
 RMC .OHMM            0.8:   RESISTIVITY MUD CAKE
 MCST.F                63:   MUD CAKE SAMPLE TEMPERATURE
 MFSS.               MEAS:   MUD FILTRATE SAMPLE SOURCE
 MCSS.               MEAS:   MUD CAKE SAMPLE SOURCE
 TCS .HRS               2:   TIME CURCULATED STOPPED
 LUN .               2958:   LOGGING UNIT NUMBER
 LUL .             CASPER:   LOGGING UNIT LOCATION
 ENGI.           REYNOLDS:   RECORDING ENGINEER
 WITN.         HARRINGTON:   WITNESSED BY
 CLNT.            A2DTECH:   CLIENT CODE
 ORIG.           5" PRINT:   ORIGIN OF DATA
 UWI .       490251055400:   UNIQUE WELL ID
 DICO. A2D Technologies, Inc.:   DIGITIZING COMPANY
~OTHER INFORMATION
~A   DEPT      ILD         SN        SPR       CALD       DPHI       DRHO         GRD      RHOB   
# ...
  194.0000    10.7349    11.1329   -39.7731     8.7577     0.1008     0.0605    87.9095     2.4784
  194.5000    10.4455    11.1367   -39.3183     8.7583     0.0983     0.0591    84.0671     2.4814
  195.0000    10.3774    11.0627   -39.1631     8.7589     0.0932     0.0576    83.7852     2.4905
  195.5000    10.6001    11.0675   -39.1572     8.7595     0.0866     0.0591    85.0378     2.4965
  196.0000    10.8274    11.0713   -39.1513     8.7601     0.0823     0.0592    85.7326     2.5003
  196.5000    10.9855    11.1520   -39.1454     8.7607     0.0814     0.0622    83.7996     2.5048
  197.0000    11.2188    11.2334   -38.8409     8.7613     0.0895     0.0637    82.4616     2.4994
  197.5000    11.4594    11.4732   -38.5365     8.7619     0.0856     0.0608    82.5176     2.5036
  198.0000    11.6243    11.6372   -38.3814     8.7628     0.0793     0.0563    82.5691     2.5108
  198.5000    11.7926    11.7221   -38.3755     8.7642     0.0750     0.0518    82.6206     2.5161
  199.0000    11.8795    11.8076   -38.2203     8.7655     0.0738     0.0578    82.6722     2.5214
  199.5000    11.8844    11.8116   -38.2144     8.7669     0.0750     0.0684    82.7237     2.5191
  200.0000    11.8893    11.8157   -38.2085     8.7682     0.0826     0.0714    82.7753     2.5079
  200.5000    11.8942    11.8198   -38.3533     8.7696     0.0916     0.0715    84.7605     2.4959
  201.0000    11.8991    11.8239   -38.4966     8.7709     0.0842     0.0700    86.6865     2.5064
  201.5000    11.9033    11.8280   -38.6400     8.7723     0.0785     0.0700    87.1222     2.5109
  202.0000    11.9089    11.8321   -38.7821     8.7736     0.0747     0.0685    87.2766     2.5140
  202.5000    11.8302    11.8362   -38.9254     8.7750     0.0759     0.0686    87.4300     2.5170
  203.0000    11.7545    11.8407   -39.6655     8.7763     0.0798     0.0686    88.3286     2.5125
  203.5000    11.7594    11.8203   -39.6596     8.7777     0.0795     0.0686    89.9724     2.5110
  204.0000    11.6829    11.7866   -39.6537     8.7790     0.0768     0.0687    90.7219     2.5133
  204.5000    11.6877    11.7529   -39.6478     8.7803     0.0773     0.0672    91.1735     2.5110
  205.0000    11.6105    11.7193   -39.6418     8.7817     0.0800     0.0672    91.3269     2.5073
  205.5000    11.6165    11.6856   -39.6293     8.7830     0.0812     0.0672    91.3313     2.5050
  206.0000    11.5173    11.6519   -39.3302     8.7844     0.0791     0.0658    91.4847     2.5051
  206.5000    11.4710    11.6148   -39.0258     8.7857     0.0818     0.0643    93.1285     2.5051
  207.0000    11.4246    11.6180   -38.7213     8.7871     0.0800     0.0671    94.6232     2.5051
  207.5000    11.3783    11.6209   -38.8646     8.7884     0.0812     0.0693    91.6470     2.5081
  208.0000    11.3319    11.6241   -39.4557     8.7884     0.0814     0.0709    91.8004     2.5119
  208.5000    11.2999    11.6274   -39.7498     8.7877     0.0820     0.0725    92.9971     2.5111
  209.0000    11.3031    11.6306   -39.2946     8.7870     0.0832     0.0725    95.2429     2.5059
  209.5000    11.3063    11.6338   -38.9901     8.7863     0.0856     0.0741    96.2846     2.5029
  210.0000    11.3100    11.6370   -38.8349     8.7856     0.0823     0.0726    94.4411     2.5002
  210.5000    11.3132    11.6407   -38.6797     8.7849     0.0820     0.0727    93.7598     2.5055
  211.0000    11.3163    11.6439   -38.6738     8.7842     0.0856     0.0728    94.3615     2.5086
  211.5000    11.3982    11.6471   -38.9678     8.7835     0.0883     0.0728    93.6207     2.5108
  212.0000    11.4807    11.6503   -39.4082     8.7828     0.0888     0.0714    90.4955     2.5056
  212.5000    11.5638    11.6536   -39.5530     8.7821     0.0870     0.0714    90.6489     2.4996
  213.0000    11.5670    11.6568   -39.5456     8.7814     0.0837     0.0698    90.3553     2.5006
  213.5000    11.6507    11.6600   -39.5396     8.7810     0.0783     0.0685    89.0184     2.5102
  214.0000    11.6540    11.6628   -39.5337     8.7571     0.0750     0.0731    88.4256     2.5170
  214.5000    11.7383    11.6664   -39.5277     8.7524     0.0767     0.0807    90.8156     2.5215
  215.0000    11.7416    11.6696   -39.3725     8.7555     0.0899     0.0853    92.7574     2.5028
  215.5000    11.7448    11.6728   -39.0681     8.7600     0.0887     0.0913    96.0405     2.4938
  216.0000    11.8298    11.6761   -39.2129     8.7644     0.0926     0.0974    99.6217     2.4976
  216.5000    11.8331    11.6790   -39.5055     8.7689     0.0911     0.1035    98.2848     2.4916
  217.0000    11.8364    11.6825   -39.6488     8.7733     0.0860     0.1066    97.9911     2.5006
  217.5000    11.9220    11.6857   -38.8951     8.7778     0.0809     0.1111    97.9955     2.5104
  218.0000    11.9253    11.6889   -38.5906     8.7822     0.0772     0.1142    97.1058     2.5187
  218.5000    12.0117    11.7734   -38.5847     8.7867     0.0748     0.1097    97.4083     2.5210
  219.0000    12.0150    11.8896   -38.7295     8.7911     0.0715     0.0888    96.9429     2.5233
  219.5000    12.1020    11.9442   -38.8728     8.7956     0.0643     0.0798    95.4808     2.5355
  220.0000    12.1896    12.0305   -38.8654     8.8000     0.0562     0.0829    93.3987     2.5439
  220.5000    12.3632    12.2017   -38.2624     8.8043     0.0686     0.0829    91.4657     2.5452
  221.0000    12.4527    12.3752   -38.2565     8.7899     0.0757     0.0830    96.2391     2.5197
  221.5000    12.5429    12.5513   -37.9520     8.7905     0.0732     0.0847    98.9261     2.5205
  222.0000    12.7216    12.6420   -37.4983     8.7911     0.0693     0.0861    99.8247     2.5303
  222.5000    12.8137    12.7334   -37.7909     8.7917     0.0630     0.0877   100.4252     2.5378
  223.0000    12.9064    12.8254   -38.3820     8.7923     0.0594     0.0877   100.1316     2.5408
  223.5000    12.9998    12.9181   -38.2268     8.7929     0.0551     0.0848    97.6025     2.5446
  224.0000    13.0939    13.0114   -38.3702     8.7935     0.0518     0.0698    95.3714     2.5484
  224.5000    13.1887    13.0150   -38.8119     8.7940     0.0596     0.0623    94.4805     2.5514
  225.0000    13.2842    13.1091   -38.6567     8.7946     0.0590     0.0609    97.1686     2.5432
  225.5000    13.3803    13.2038   -38.2030     8.7952     0.0668     0.0610    98.6633     2.5275
  226.0000    13.3840    13.2992   -38.6507     8.7958     0.0683     0.0610    99.1148     2.5275
  226.5000    13.4809    13.3029   -38.7881     8.7964     0.0671     0.0596    98.9702     2.5298
  227.0000    13.4846    13.3991   -38.7821     8.7970     0.0674     0.0551   101.4129     2.5314
  227.5000    13.4884    13.4028   -38.7761     8.7976     0.0676     0.0507   103.3010     2.5330
  228.0000    13.5860    13.5109   -38.7522     8.7982     0.0685     0.0492   100.1441     2.5351
  228.5000    13.7796    13.6917   -38.4657     8.7970     0.0712     0.0508    96.1573     2.5216
  229.0000    13.8793    13.7907   -38.1612     8.7943     0.0754     0.0539    94.9695     2.5186
  229.5000    14.1750    13.9869   -37.7075     8.7916     0.0778     0.0569    94.2287     2.5217
  230.0000    14.3770    14.1948   -37.5510     8.7888     0.0823     0.0555    93.6370     2.5172
  230.5000    14.5819    14.3768   -37.5451     8.7861     0.0856     0.0555    93.3423     2.5030
  231.0000    14.8926    14.5932   -37.5392     8.7834     0.0871     0.0559    92.3046     2.5007
  231.5000    15.2099    14.5972   -37.9810     8.7807     0.0813     0.0587    90.2225     2.5068
  232.0000    15.5339    14.6012   -38.2750     8.7780     0.0750     0.0618    89.0347     2.5166
  232.5000    15.8649    14.6053   -37.8199     8.7752     0.0765     0.0618    89.3372     2.5159
  233.0000    15.9798    14.6093   -37.6647     8.7725     0.0780     0.0589    92.9183     2.5144
  233.5000    16.2074    14.6133   -37.5095     8.7698     0.0702     0.0589    95.0092     2.5220
  234.0000    15.9875    14.6173   -37.5035     8.7671     0.0687     0.0575    94.2684     2.5303
