~VERSION INFORMATION
 VERS.                2.0:   CWLS LOG ASCII STANDARD - VERSION 2.0
 WRAP.                 NO:   ONE LINE PER DEPTH STEP
~WELL INFORMATION
#MNEM.UNIT      DATA TYPE    INFORMATION
#----------   ------------   ------------------------------
 STRT.F            4.0000:   START DEPTH
 STOP.F          530.0000:   STOP DEPTH
 STEP.F            0.5000:   STEP LENGTH
 NULL.          -999.2500:   NO VALUE
 COMP. LAWRENCE-ALLISON &ASSOC:   COMPANY
 WELL.  NPR 3 #77-22STX10:   WELL
 FLD .             TEAPOT:   FIELD
 LOC .      S10 T38N R78W:   LOCATION
 CNTY.            NATRONA:   COUNTY
 STAT.            WYOMING:   STATE
 CTRY. UNITED STATES OF AMERICA:   COUNTRY
 SRVC.           Gearhart:   SERVICE COMPANY
 DATE.        27-JUN-1986:   LOGDATE
 API .       490251108100:   API NUMBER
~CURVE INFORMATION
#MNEM.UNIT       API CODE    CURVE DESCRIPTION
#----------   ------------   ------------------------------
 DEPT.F                  :   
 GRR .GAPI   07 310 01 00:   GAMMA RAY FROM RES. LOG.
 SPR .MV     07 010 01 00:   SPONTANEOUS POTENTIAL
 ILM .OHMM   07 120 44 00:   INDUCTION LOG MEDIUM
 ILD .OHMM   07 120 46 00:   INDUCTION LOG DEEP
 RLLA.OHMM   07 220 00 00:   LATEROLOG RESISTIVITY
~PARAMETER INFORMATION
#MNEM.UNIT          VALUE    DESCRIPTION
#----------   ------------   ------------------------------
 PD  .                 GL:   PERMANENT DATUM
 EPD .F              5188:   ELEVATION PERMANENT DATUM
 LMF .                 KB:   LOG MEASURED FROM
 DAPD.F                 5:   FEET ABOVE PERMANENT DATUM
 DMF .                 KB:   DRILLING MEASURED FROM
 EKB .F              5193:   KELLING BUSHING
 EGL .F              5188:   GROUND LEVEL
 DATE.            6-27-86:   RUN DATE
 RUN .                  1:   RUN NUMBER
 DD  .F               555:   DEPTH DRILLER
 DL  .F               534:   DEPTH LOGGER
 BLI .F               530:   BOTTOM LOG INTERVAL
 TLI .F                44:   TOP LOG INTERVAL
 CS  .IN            8.625:   CASING SIZE
 CBD .F                42:   CASING BOTTOM DRILLER
 CBL .F                44:   CASING BOTTOM LOGGER
 BS  .IN            7.875:   BIT SIZE
 BSD .F               555:   BIT SIZE AT DEPTH
 DFT .                AIR:   DRILLING FLUID TYPE
 MSS .           FLOWLINE:   MUD SAMPLE SOURCE
 RMS .OHMM            1.5:   RESISTIVITY MUD SAMPLE
 MST .F                68:   MUD SAMPLE TEMPERATURE
 RMF .OHMM            1.2:   RESISTIVITY MUD FILTRATE SAMPLE
 MFST.F                66:   MUD FILTRATE SAMPLE TEMPERATURE
 RMC .OHMM            1.7:   RESISTIVITY MUD CAKE
 MCST.F                66:   MUD CAKE SAMPLE TEMPERATURE
 MFSS.                  M:   MUD FILTRATE SAMPLE SOURCE
 MCSS.                  M:   MUD CAKE SAMPLE SOURCE
 RMB .OHMM            1.5:   RESISTIVITY MUD AT BHT
 BHT .F                65:   BOTTOM HOLE TEMPERATURE
 TCS .HRS            0600:   TIME CURCULATED STOPPED
 TLAB.HRS            0055:   TIME LOGGER AT BOTTOM
 MRT .F                61:   MAXIMUM RECORDED TEMPERATURE
 LUN .               7609:   LOGGING UNIT NUMBER
 LUL .           GILLETTE:   LOGGING UNIT LOCATION
 ENGI.            WANGLER:   RECORDING ENGINEER
 WITN.              FIVAS:   WITNESSED BY
 CLNT.            A2DTECH:   CLIENT CODE
 ORIG.       2", 5" PRINT:   ORIGIN OF DATA
 UWI .       490251108100:   UNIQUE WELL ID
 DICO. A2D Technologies, Inc.:   DIGITIZING COMPANY
~OTHER INFORMATION
~A    DEPT      GRR       SPR        ILM        ILD       RLLA   
# ...
  248.0000    99.9045   -87.7326     6.7894     7.0328     7.9399
  248.5000   101.5247   -85.9072     6.6078     6.8783     7.6590
  249.0000   100.6903   -84.6131     6.4310     6.7192     6.9675
  249.5000    99.9058   -84.6961     6.2589     6.5638     6.9028
  250.0000    99.1540   -85.5285     6.1542     6.4121     7.1567
  250.5000    98.3077   -84.8334     6.0948     6.2638     7.4590
  251.0000    97.4827   -84.2652     6.0359     6.1586     7.7685
  251.5000    96.8301   -83.4039     5.9777     6.0843     8.0944
  252.0000    97.9283   -82.7249     5.9199     6.0110     7.9355
  252.5000   103.3774   -82.2641     5.8628     5.9454     7.5819
  253.0000   104.6443   -81.7469     5.8061     5.9907     7.4820
  253.5000   105.6411   -81.2169     5.7276     6.0324     7.3131
  254.0000   105.6633   -81.5365     5.8074     6.0872     7.0988
  254.5000   104.7821   -81.6191     5.9437     6.1599     7.0988
  255.0000   100.8914   -80.9395     6.0831     6.3148     7.5779
  255.5000    98.0336   -79.0768     6.2259     6.4842     7.4378
  256.0000    96.0066   -79.0728     6.3823     6.7197     7.5052
  256.5000    97.9250   -77.8753     6.5922     6.9857     7.6490
  257.0000   101.1099   -77.6423     6.8089     7.1422     7.5934
  257.5000   101.1543   -77.5437     7.0988     7.2768     7.5070
  258.0000    99.4882   -76.1088     7.0413     7.3687     7.5081
  258.5000    97.7856   -75.5516     6.9614     7.2914     7.5080
  259.0000    97.1007   -75.6749     6.8823     7.2102     7.5082
  259.5000    96.9722   -76.8245     6.6815     7.0132     7.3825
  260.0000    96.8513   -76.6004     6.3393     6.6810     7.3687
  260.5000    96.3903   -76.0787     6.0574     6.3870     7.2935
  261.0000    94.0472   -75.9228     5.9335     6.1504     6.7580
  261.5000    92.2959   -75.4552     5.8031     5.9226     6.6108
  262.0000    92.9725   -74.4932     5.6769     5.6744     6.5617
  262.5000    95.2083   -73.6444     5.5177     5.7617     6.5269
  263.0000    97.4714   -72.4768     5.6138     5.8643     6.9964
  263.5000    99.4233   -73.1423     5.7276     6.0532     7.3840
  264.0000   100.8085   -73.7917     6.0067     6.3002     7.7931
  264.5000   101.1394   -74.7000     6.3054     6.6573     8.2615
  265.0000   101.4235   -75.0539     6.6189     6.9701     8.7165
  265.5000   101.0855   -75.1570     6.9480     7.2739     9.1520
  266.0000    99.6716   -74.8935     7.2566     7.5894     9.5683
  266.5000    98.2664   -74.6062     7.5125     7.9145     9.6587
  267.0000    97.4294   -74.3497     7.7775     8.1951     9.8396
  267.5000    97.9146   -72.4054     7.9426     8.3152    10.0663
  268.0000    99.5676   -71.1090     8.0576     8.4372    10.3493
  268.5000    97.2718   -70.9365     8.1743     8.5609    10.6403
  269.0000    95.0824   -72.9464     8.2927     8.6554    10.8085
  269.5000    93.5514   -71.6555     8.4128     8.7050    10.3214
  270.0000    95.2944   -71.2911     8.4818     8.7547     9.7460
  270.5000    97.9036   -70.5859     8.5027     8.8007     9.3475
  271.0000   101.5388   -69.9375     8.5231     8.8154     9.2124
  271.5000   102.8167   -71.6074     8.5438     8.8308     9.1328
  272.0000   103.7162   -72.4374     8.5554     8.8461     9.2301
  272.5000   104.4174   -72.8540     8.5553     8.8615     9.3266
  273.0000   103.9892   -72.9041     8.5553     8.8808     9.3921
  273.5000   102.3131   -72.9635     8.5553     8.8003     8.9489
  274.0000   100.6157   -73.0318     8.5543     8.7169     8.3971
  274.5000    99.3530   -73.2153     8.5717     8.7982     8.7504
  275.0000    96.9053   -72.5191     8.6099     8.8833     9.1144
  275.5000    93.6720   -70.8307     8.7165     8.9645     9.2488
  276.0000    92.0278   -69.7345     8.6899     9.0480     9.3065
  276.5000    92.5045   -69.1930     8.6665     8.9562     9.7516
  277.0000    91.7721   -69.3044     8.6431     8.8635     9.7476
  277.5000    88.9883   -69.4019     8.1691     8.5820     9.7487
  278.0000    86.2190   -70.3090     7.5223     7.8727    10.1201
  278.5000    86.9850   -72.3032     7.0657     7.2519     9.1584
  279.0000    90.0385   -72.9536     6.6810     6.7122     8.0349
  279.5000    94.1040   -73.3067     6.3180     6.6223     7.2038
  280.0000   100.2413   -73.4180     5.9454     6.5269     7.0988
  280.5000   101.5468   -73.0849     5.9744     6.4456     7.5075
  281.0000    98.6220   -72.6681     6.0518     6.4062     8.5460
  281.5000    94.2777   -72.7790     6.3527     7.0320     9.7659
  282.0000    90.2465   -73.4111     6.9137     7.6029    11.1477
  282.5000    92.5642   -73.4007     7.5815     8.2201    11.6406
  283.0000    95.4433   -74.7761     8.3137     8.8875    11.6152
  283.5000    98.0948   -76.7870     9.1328     9.5762    11.4289
  284.0000    96.2598   -77.7323     9.8086    10.1503    11.2145
  284.5000    93.8779   -79.0524    10.3402    10.7029    11.2463
  285.0000    91.4872   -79.4046    10.4589    10.8321    11.2847
  285.5000    89.1387   -79.7215    10.5790    10.9833    11.3191
  286.0000    87.5038   -81.1614    10.7009    11.1099    11.5255
  286.5000    87.9581   -81.6743    10.8756    11.2551    11.8138
  287.0000    87.9498   -81.3017    11.0888    11.4050    12.2669
  287.5000    86.1284   -81.1708    11.6950    12.7027    13.6179
  288.0000    80.5455   -79.8906    12.7624    14.3576    15.5601
  288.5000    73.1907   -79.9794    14.0789    16.2282    17.9984
  289.0000    68.0056   -80.6460    15.6650    18.3426    20.8188
  289.5000    63.4545   -80.8687    17.4298    20.0088    23.9356
  290.0000    58.7515   -79.3437    19.3935    21.6377    26.0935
  290.5000    49.0740   -79.3868    21.2217    23.4851    27.1984
  291.0000    44.8009   -80.5398    23.0801    25.4884    28.2475
  291.5000    46.4964   -82.4782    24.0501    26.8484    27.8866
  292.0000    52.4237   -82.5276    24.4283    28.7796    27.2916
  292.5000    57.7278   -80.6825    24.7880    28.5123    26.9597
  293.0000    59.1715   -79.9266    25.1756    28.2475    27.8461
  293.5000    58.7846   -80.3909    25.5344    29.1717    28.7796
  294.0000    58.1496   -80.6978    25.8984    29.5967    28.8884
  294.5000    56.8051   -82.1871    26.2675    29.6866    29.0718
  295.0000    55.4767   -81.3965    26.4687    30.0489    29.2568
  295.5000    54.1413   -81.3152    26.4944    30.4156    29.4426
  296.0000    53.3431   -80.4461    26.5201    30.7223    29.5979
  296.5000    53.1892   -80.4262    26.5459    30.4321    29.3722
  297.0000    55.2326   -80.8527    26.5716    30.1871    29.1450
  297.5000    57.2316   -81.2358    26.5974    29.9426    28.9196
  298.0000    58.6886   -81.9935    26.6232    29.5978    28.6959
  298.5000    59.2807   -80.8395    26.6491    29.7359    28.5123
  299.0000    57.1388   -81.6360    26.6748    29.9951    29.9192
  299.5000    55.0352   -82.6969    26.7013    30.2520    31.1732
  300.0000    55.6140   -83.8200    26.7788    30.4369    31.5945
  300.5000    58.2422   -83.1869    26.8833    29.5016    30.4369
  301.0000    60.8562   -83.0088    26.9875    29.1246    30.0486
  301.5000    62.4397   -83.1301    27.0922    28.5871    29.7589
  302.0000    62.0922   -83.1324    27.1974    27.9851    29.3218
  302.5000    60.5580   -83.3193    27.3030    28.2475    29.7893
  303.0000    59.0631   -84.0192    27.4090    29.6003    30.3440
  303.5000    57.6481   -83.1693    27.5154    30.4482    30.9091
  304.0000    56.3801   -83.1864    27.6223    30.5185    31.8907
  304.5000    54.9163   -83.2847    27.7251    30.5889    31.6867
  305.0000    54.9847   -83.5093    27.7251    30.6595    31.3595
  305.5000    56.3975   -83.8776    27.7251    30.7223    31.0103
  306.0000    58.7305   -83.6365    27.7251    29.9110    30.4674
  306.5000    59.5755   -83.1606    27.5558    29.0494    29.8701
  307.0000    59.5252   -82.4128    27.1145    29.0464    27.8565
  307.5000    62.0020   -81.7377    26.6777    29.0508    25.9588
  308.0000    64.7260   -81.9759    26.2106    28.8084    25.7307
  308.5000    67.2512   -82.2735    26.2178    28.6190    25.4229
