~VERSION INFORMATION
 VERS.                2.0:   CWLS LOG ASCII STANDARD - VERSION 2.0
 WRAP.                 NO:   ONE LINE PER DEPTH STEP
~WELL INFORMATION
#MNEM.UNIT      DATA TYPE    INFORMATION
#----------   ------------   ------------------------------
 STRT.F           32.0000:   START DEPTH
 STOP.F          697.0000:   STOP DEPTH
 STEP.F            0.5000:   STEP LENGTH
 NULL.          -999.2500:   NO VALUE
 COMP.    FENIX & SCISSON:   COMPANY
 WELL.      NPR-3 #81S3-3:   WELL
 FLD .        TEAPOT DOME:   FIELD
 LOC .       S3 T38N R78W:   LOCATION
 CNTY.            NATRONA:   COUNTY
 STAT.            WYOMING:   STATE
 CTRY. UNITED STATES OF AMERICA:   COUNTRY
 SRVC.           BIRDWELL:   SERVICE COMPANY
 DATE.        11-JAN-1978:   LOGDATE
 API .       490251055400:   API NUMBER
~CURVE INFORMATION
#MNEM.UNIT       API CODE    CURVE DESCRIPTION
#----------   ------------   ------------------------------
 DEPT.F                  :   
 ILD .OHMM   05 120 46 00:   INDUCTION LOG DEEP
 SN  .OHMM   05 040 16 00:   SHORT NORMAL 16"
 SPR .MV     05 010 01 00:   SPONTANEOUS POTENTIAL FROM RES.
 CALD.IN     45 280 60 00:   CALIPER FROM DENSITY LOG
 DPHI.DEC    45 890 12 00:   DENSITY POROSITY SANDSTONE
 DRHO.G/C3   45 356 01 00:   DENSITY CORRECTION
 GRD .GAPI   45 310 01 00:   GAMMA RAY FROM DENSITY LOG
 RHOB.G/C3   45 350 01 00:   BULK DENSITY
~PARAMETER INFORMATION
#MNEM.UNIT          VALUE    DESCRIPTION
#----------   ------------   ------------------------------
 PD  .                 GL:   PERMANENT DATUM
 EPD .F              5119:   ELEVATION PERMANENT DATUM
 LMF .                 KB:   LOG MEASURED FROM
 DAPD.F                 4:   FEET ABOVE PERMANENT DATUM
 DMF .                 KB:   DRILLING MEASURED FROM
 EKB .F              5123:   KELLING BUSHING
 EGL .F              5119:   GROUND LEVEL
 DATE.        11-JAN-1978:   RUN DATE
 RUN .                  1:   RUN NUMBER
 DD  .F               695:   DEPTH DRILLER
 DL  .F               704:   DEPTH LOGGER
 BLI .F               697:   BOTTOM LOG INTERVAL
 TLI .F                40:   TOP LOG INTERVAL
 CS  .IN            8.625:   CASING SIZE
 CBD .F                40:   CASING BOTTOM DRILLER
 CBL .F                40:   CASING BOTTOM LOGGER
 BS  .IN            7.875:   BIT SIZE
 BSD .F               695:   BIT SIZE AT DEPTH
 DFT .                KCL:   DRILLING FLUID TYPE
 DFD .                8.6:   DRILLING FLUID DENSITY
 DFV .                 31:   DRILLING FLUID VISCOSITY
 DFPH.                9.5:   DRILLING FLUID PH
 DFL .                7.6:   DRILLING FLUID LOSS
 MSS .           FLOWLINE:   MUD SAMPLE SOURCE
 RMS .OHMM           0.32:   RESISTIVITY MUD SAMPLE
 MST .F                62:   MUD SAMPLE TEMPERATURE
 RMF .OHMM           0.32:   RESISTIVITY MUD FILTRATE SAMPLE
 MFST.F                62:   MUD FILTRATE SAMPLE TEMPERATURE
 RMC .OHMM            0.8:   RESISTIVITY MUD CAKE
 MCST.F                63:   MUD CAKE SAMPLE TEMPERATURE
 MFSS.               MEAS:   MUD FILTRATE SAMPLE SOURCE
 MCSS.               MEAS:   MUD CAKE SAMPLE SOURCE
 TCS .HRS               2:   TIME CURCULATED STOPPED
 LUN .               2958:   LOGGING UNIT NUMBER
 LUL .             CASPER:   LOGGING UNIT LOCATION
 ENGI.           REYNOLDS:   RECORDING ENGINEER
 WITN.         HARRINGTON:   WITNESSED BY
 CLNT.            A2DTECH:   CLIENT CODE
 ORIG.           5" PRINT:   ORIGIN OF DATA
 UWI .       490251055400:   UNIQUE WELL ID
 DICO. A2D Technologies, Inc.:   DIGITIZING COMPANY
~OTHER INFORMATION
~A   DEPT      ILD         SN        SPR       CALD       DPHI       DRHO         GRD      RHOB   
# ...
  477.5000    10.5409    11.5250   -38.0970     8.6406     0.0485     0.2302    92.9980     2.5610
  478.0000    12.2809    12.9757   -38.0756     8.6411     0.0286     0.1866    92.7241     2.5948
  478.5000    14.1111    13.8959   -37.9328     8.6416     0.0048     0.1520    93.0547     2.6279
  479.0000    15.1277    14.4938   -37.9254     8.6420     0.0159     0.1294    93.7773     2.6324
  479.5000    15.1308    14.6824   -37.9165     8.6424     0.0328     0.1174    94.2289     2.6076
  480.0000    15.2392    14.7885   -37.9091     8.6429     0.0352     0.1129    89.9114     2.5829
  480.5000    15.2423    14.7926   -37.7525     8.6433     0.0382     0.1160    86.6360     2.5769
  481.0000    15.2455    15.1072   -37.4466     8.6587     0.0526     0.1235    89.6222     2.5686
  481.5000    15.4616    15.3221   -36.9914     8.6591     0.0782     0.1295    90.8189     2.5251
  482.0000    15.7899    15.7568   -36.0885     8.6744     0.0888     0.1401    97.9769     2.5131
  482.5000    16.3543    16.3164   -35.6334     8.6749     0.0996     0.1521   100.6639     2.4966
  483.0000    17.0774    16.8959   -34.7305     8.6902     0.1141     0.1717   100.2212     2.4620
  483.5000    18.4532    17.2553   -33.8276     8.6757     0.1225     0.1777    98.1392     2.4493
  484.0000    20.0785    18.1173   -33.6709     8.6762     0.1321     0.1808    88.6056     2.4245
  484.5000    22.0509    19.5567   -33.2158     8.6766     0.1457     0.1900    75.1973     2.3952
  485.0000    23.8039    20.8201   -32.4621     8.6751     0.1715     0.1973    52.8470     2.3885
  485.5000    25.6963    21.8602   -31.4100     8.6626     0.1860     0.1887    46.5910     2.3425
  486.0000    27.9322    22.6366   -31.1041     8.6632     0.1778     0.1657    46.5966     2.3412
  486.5000    30.1527    23.4405   -30.7982     8.6487     0.1483     0.1567    57.0332     2.3689
  487.0000    31.8779    24.1055   -30.6416     8.6492     0.1414     0.1583    60.0183     2.3898
  487.5000    30.1651    24.4484   -30.3357     8.6496     0.1556     0.1583    59.4266     2.3961
  488.0000    30.3813    24.9685   -30.0298     8.6351     0.1953     0.1583    51.0853     2.3421
  488.5000    32.1212    25.1495   -29.8731     8.6207     0.1971     0.1583    47.9601     2.3180
  489.0000    33.4930    25.5149   -29.7164     8.5765     0.1950     0.1553    47.5163     2.3278
  489.5000    34.4405    25.8696   -29.7090     8.5620     0.1848     0.1463    49.4593     2.3309
  490.0000    33.2752    26.2620   -29.7015     8.5774     0.1778     0.1298    52.4443     2.3549
  490.5000    32.3714    26.6109   -29.6940     8.5927     0.1766     0.1373    53.4920     2.3625
  491.0000    31.9318    26.6197   -29.6851     8.5932     0.1884     0.1463    52.9003     2.3595
  491.5000    32.3847    26.6270   -29.6777     8.5936     0.1947     0.1479    51.2654     2.3302
  492.0000    33.0724    26.6343   -29.6704     8.5941     0.1814     0.1313    50.3756     2.3377
  492.5000    33.7747    26.6416   -29.6630     8.5945     0.1618     0.1208    53.5098     2.3595
  493.0000    34.0199    26.6489   -29.8049     8.6098     0.1552     0.1148    57.2400     2.3723
  493.5000    34.5135    27.0280   -29.6482     8.6400     0.1669     0.1133    58.2876     2.3806
  494.0000    35.2579    27.2233   -29.1931     8.6703     0.1817     0.1134    59.9394     2.3656
  494.5000    36.5214    27.6105   -29.1857     8.6856     0.1871     0.1134    61.2832     2.3401
  495.0000    38.5735    28.0032   -29.0291     8.6860     0.1907     0.1149    60.8048     2.3296
  495.5000    41.3522    28.2056   -28.8724     8.6865     0.2028     0.1149    57.3794     2.3116
  496.0000    43.4182    28.2133   -28.7158     8.6871     0.2022     0.1149    49.0707     2.3064
  496.5000    44.3402    28.6146   -28.2606     8.7179     0.1948     0.1149    48.1798     2.3387
  497.0000    44.9688    28.8214   -28.1058     8.7622     0.1619     0.1149    54.7427     2.3650
  497.5000    44.9780    28.6283   -28.9940     8.8073     0.1416     0.1133    58.0259     2.3883
  498.0000    44.0609    28.6381   -28.9848     8.8226     0.1359     0.1366    57.2851     2.4071
  498.5000    42.5680    28.6460   -28.9774     8.8083     0.1729     0.1391    54.7560     2.4073
  499.0000    41.4096    28.4559   -29.1194     8.7641     0.1739     0.1000    52.9721     2.3621
  499.5000    40.0086    28.4639   -29.1119     8.7050     0.1699     0.1000    51.6353     2.3636
  500.0000    39.4635    28.4717   -29.1045     8.6459     0.1669     0.0985    51.0425     2.3696
  500.5000    39.1988    28.4795   -29.0970     8.6017     0.1681     0.0835    56.7112     2.3636
  501.0000    38.3996    28.0789   -29.2390     8.5276     0.1687     0.0715    61.3356     2.3614
  501.5000    37.6185    27.5009   -29.2313     8.4984     0.1704     0.0790    64.4697     2.3606
  502.0000    37.1077    26.5959   -29.3735     8.4839     0.1990     0.0820    62.8348     2.3379
  502.5000    36.1001    26.2372   -29.3642     8.4844     0.2027     0.0775    62.3922     2.3082
  503.0000    35.6101    25.8835   -29.3568     8.4849     0.1994     0.0700    55.3921     2.3097
  503.5000    35.1268    25.1849   -29.4987     8.4853     0.1912     0.0625    50.1805     2.3443
  504.0000    34.1727    24.5036   -29.7917     8.4844     0.1668     0.0716    50.0358     2.3834
  504.5000    33.6889    23.8407   -30.3795     8.3969     0.1475     0.0701    52.2758     2.3834
  505.0000    32.9612    23.3553   -30.3721     8.2931     0.1451     0.0701    57.9434     2.3894
  505.5000    31.3469    22.7235   -30.3123     8.4722     0.1451     0.0701    59.7363     2.3985
  506.0000    28.9581    22.1087   -30.2082     8.5024     0.1451     0.0701    61.6163     2.4015
  506.5000    26.8366    22.2211   -30.2008     8.5326     0.1486     0.0701    62.7457     2.3969
  507.0000    25.7480    21.6142   -30.1935     8.5330     0.1516     0.0701    62.7516     2.3917
  507.5000    25.7533    21.1677   -30.1861     8.5335     0.1531     0.0769    61.8634     2.3863
  508.0000    25.5793    20.7315   -30.1787     8.5339     0.1591     0.0980    60.3790     2.3778
  508.5000    25.7639    20.4695   -30.1714     8.5493     0.1733     0.1296    62.0242     2.3638
  509.0000    25.7692    20.4782   -30.0147     8.5646     0.1953     0.1552    69.1837     2.3197
  509.5000    25.9539    20.3420   -30.0074     8.5948     0.1907     0.1628    73.2134     2.3220
  510.0000    25.9592    20.2084   -30.0000     8.5953     0.1675     0.1674    72.6232     2.3543
  510.5000    26.1453    20.2171   -29.9925     8.6106     0.1561     0.1704    66.6679     2.3806
  511.0000    26.1507    20.0843   -29.9851     8.6110     0.1627     0.1961    65.0343     2.3716
  511.5000    26.1560    19.9507   -30.1271     8.5966     0.1639     0.2082    64.8914     2.3679
  512.0000    26.3435    19.4135   -30.1179     8.5673     0.1627     0.2202    64.8973     2.3717
  512.5000    26.3489    19.3912   -30.7076     8.5379     0.1611     0.2338    66.0955     2.3777
  513.0000    26.3543    19.3538   -31.2991     8.5373     0.1599     0.2399    69.2311     2.3672
  513.5000    25.9965    19.3165   -31.2898     8.5537     0.1618     0.2640    70.1312     2.3688
  514.0000    26.3713    19.2791   -31.2825     8.5691     0.1687     0.2701    67.4546     2.3688
  514.5000    26.0150    19.2418   -31.2751     8.5695     0.1743     0.2717    64.4784     2.3515
  515.0000    26.0261    19.2044   -31.4170     8.5402     0.1697     0.2717    64.0338     2.3621
  515.5000    26.0347    19.1670   -31.4096     8.5257     0.1599     0.2703    63.7382     2.3839
  516.0000    26.0437    19.1297   -31.4022     8.4964     0.1444     0.2478    63.3054     2.4102
  516.5000    26.0527    19.0923   -30.9471     8.4969     0.1235     0.1967    64.9816     2.4500
  517.0000    26.0618    19.0549   -30.1935     8.5271     0.1157     0.1666    65.8510     2.4831
  517.5000    26.0708    19.0176   -30.0387     8.5427     0.1203     0.1545    65.8569     2.4388
