~VERSION INFORMATION
 VERS.                2.0:   CWLS LOG ASCII STANDARD - VERSION 2.0
 WRAP.                 NO:   ONE LINE PER DEPTH STEP
~WELL INFORMATION
#MNEM.UNIT      DATA TYPE    INFORMATION
#----------   ------------   ------------------------------
 STRT.F            0.0000:   START DEPTH
 STOP.F          795.0000:   STOP DEPTH
 STEP.F            0.5000:   STEP LENGTH
 NULL.          -999.2500:   NO VALUE
 COMP. BROWN JOHN E&C INC:   COMPANY
 WELL. NPR 3 SX-11 #41-11:   WELL
 FLD .             TEAPOT:   FIELD
 LOC .      S11 T38N R78W:   LOCATION
 CNTY.            NATRONA:   COUNTY
 STAT.            WYOMING:   STATE
 CTRY. UNITED STATES OF AMERICA:   COUNTRY
 SRVC.           Gearhart:   SERVICE COMPANY
 DATE.        19-AUG-1988:   LOGDATE
 API .       490251125300:   API NUMBER
~CURVE INFORMATION
#MNEM.UNIT       API CODE    CURVE DESCRIPTION
#----------   ------------   ------------------------------
 DEPT.F                  :   
 ILD .OHMM   07 120 46 00:   INDUCTION LOG DEEP
 ILM .OHMM   07 120 44 00:   INDUCTION LOG MEDIUM
 GRR .GAPI   07 310 01 00:   GAMMA RAY FROM RES. LOG.
~PARAMETER INFORMATION
#MNEM.UNIT          VALUE    DESCRIPTION
#----------   ------------   ------------------------------
 PD  .                 GL:   PERMANENT DATUM
 EPD .F              5093:   ELEVATION PERMANENT DATUM
 LMF .                 KB:   LOG MEASURED FROM
 DAPD.F                10:   FEET ABOVE PERMANENT DATUM
 DMF .                 KB:   DRILLING MEASURED FROM
 EKB .F              5103:   KELLING BUSHING
 EGL .F              5093:   GROUND LEVEL
 DATE.            8-19-88:   RUN DATE
 RUN .                  1:   RUN NUMBER
 DD  .F               800:   DEPTH DRILLER
 DL  .F             802.5:   DEPTH LOGGER
 BLI .F               794:   BOTTOM LOG INTERVAL
 CS  .IN            9.625:   CASING SIZE
 CBD .F                48:   CASING BOTTOM DRILLER
 CBL .F                48:   CASING BOTTOM LOGGER
 BS  .IN             8.75:   BIT SIZE
 BSD .F               800:   BIT SIZE AT DEPTH
 DFT .                AIR:   DRILLING FLUID TYPE
 TCS .HRS            1900:   TIME CURCULATED STOPPED
 TLAB.HRS            2000:   TIME LOGGER AT BOTTOM
 MRT .F                70:   MAXIMUM RECORDED TEMPERATURE
 LUN .               7597:   LOGGING UNIT NUMBER
 LUL .           GILLETTE:   LOGGING UNIT LOCATION
 ENGI.          HUCKFELDT:   RECORDING ENGINEER
 WITN.             STRONG:   WITNESSED BY
 CLNT.            A2DTECH:   CLIENT CODE
 ORIG.        2" 5" PRINT:   ORIGIN OF DATA
 UWI .       490251125300:   UNIQUE WELL ID
 DICO. A2D Technologies, Inc.:   DIGITIZING COMPANY
~OTHER INFORMATION
~A    DEPT     ILD        ILM         GRR  
# ...
  637.0000    17.4294    16.4928    79.3698
  637.5000    17.2759    16.1755    79.7448
  638.0000    17.1242    15.8643    81.3874
  638.5000    16.9839    15.7609    83.2976
  639.0000    16.9839    15.8005    82.8729
  639.5000    16.8259    15.8829    81.4694
  640.0000    16.9701    15.9667    81.1124
  640.5000    17.1802    16.0506    83.2899
  641.0000    17.3929    16.1350    85.3603
  641.5000    17.6083    16.2335    87.2272
  642.0000    17.8218    16.4261    86.1368
  642.5000    18.0096    16.6209    84.9671
  643.0000    18.1994    16.7968    83.8077
  643.5000    18.3911    16.9674    82.6565
  644.0000    18.7484    17.1432    81.4891
  644.5000    19.2371    17.1432    81.4835
  645.0000    19.5701    17.1802    82.2435
  645.5000    19.6506    17.2427    83.0125
  646.0000    19.7313    17.3041    83.4750
  646.5000    19.8124    17.4726    83.5684
  647.0000    19.8939    17.7171    83.7807
  647.5000    19.9068    18.0866    84.7682
  648.0000    19.6819    18.4637    85.7814
  648.5000    19.5277    18.8218    86.7014
  649.0000    19.3774    18.8218    86.3042
  649.5000    19.1192    18.1781    85.8994
  650.0000    18.8561    17.9629    87.1789
  650.5000    18.5950    17.9629    88.9501
  651.0000    18.3377    17.8072    90.8074
  651.5000    18.0840    17.6390    91.5761
  652.0000    17.8337    17.4724    89.8998
  652.5000    17.6093    17.3074    87.6538
  653.0000    17.4903    17.1432    88.1432
  653.5000    17.3755    16.7995    88.7883
  654.0000    17.0452    16.4268    89.4233
  654.5000    16.4477    16.0412    90.0473
  655.0000    16.1605    15.6653    90.4270
  655.5000    15.8566    15.4154    89.3435
  656.0000    15.6144    15.3042    87.7259
  656.5000    15.6144    15.1829    86.1105
  657.0000    15.8487    15.2627    86.2150
  657.5000    16.0317    15.4187    87.4895
  658.0000    16.2166    15.5763    88.7088
  658.5000    16.4039    15.6144    87.6939
  659.0000    16.5924    15.5350    87.1575
  659.5000    16.6700    15.4530    87.1357
  660.0000    16.5157    15.3716    86.7202
  660.5000    16.2668    15.2909    85.5504
  661.0000    16.0217    15.2099    85.1217
  661.5000    15.7802    15.1242    85.9695
  662.0000    15.5424    15.0343    88.6264
  662.5000    15.4268    14.9455    91.6390
  663.0000    15.3409    14.8569    92.6350
  663.5000    15.2555    14.7640    91.4543
  664.0000    15.1706    14.6188    90.2992
  664.5000    15.0861    14.4654    87.9405
  665.0000    15.0021    14.3137    85.6152
  665.5000    14.9019    14.2219    85.5014
  666.0000    14.9247    14.3494    86.2097
  666.5000    14.9527    14.5105    87.0173
  667.0000    14.9814    14.6734    85.7980
  667.5000    15.0095    14.7633    84.6967
  668.0000    15.0403    14.7633    84.2851
  668.5000    14.8333    14.6279    83.7695
  669.0000    14.6015    14.4501    83.2225
  669.5000    14.3723    14.0864    84.5785
  670.0000    14.1468    13.7308    86.8956
  670.5000    13.9248    13.4726    89.2859
  671.0000    13.7003    13.2912    89.2313
  671.5000    13.6181    13.1122    88.1539
  672.0000    13.5340    13.0325    86.9813
  672.5000    13.4505    12.9788    87.7273
  673.0000    13.3675    12.9254    89.4830
  673.5000    13.3052    12.8722    91.2774
  674.0000    13.2681    12.8331    92.0469
  674.5000    13.2318    12.8874    91.9670
  675.0000    13.1969    12.9536    89.1721
  675.5000    13.0662    12.7921    86.2118
  676.0000    12.9475    12.5665    85.0473
  676.5000    12.8299    12.3449    84.2877
  677.0000    12.7133    12.1192    85.5656
  677.5000    12.5956    11.8913    87.5048
  678.0000    12.2489    11.7515    89.4715
  678.5000    11.9091    11.6721    91.1753
  679.0000    11.8428    11.5933    90.4018
  679.5000    11.7776    11.5149    89.6218
  680.0000    11.7128    11.4295    88.8832
  680.5000    11.6483    11.3356    89.4293
  681.0000    11.5843    11.2424    92.6322
  681.5000    11.5204    11.1500    95.7883
  682.0000    11.4568    11.0516    98.9694
  682.5000    11.3659    11.0516    99.7778
  683.0000    11.3913    11.0516    97.5446
  683.5000    11.4384    11.0713    95.3365
  684.0000    11.4857    11.1063    93.5592
  684.5000    11.5332    11.1415    93.2274
  685.0000    11.5800    11.1550    92.6315
  685.5000    11.5800    11.1572    89.8082
  686.0000    11.4175    11.0098    87.6636
  686.5000    11.3052    10.9092    88.4723
  687.0000    11.1940    10.8095    89.5278
  687.5000    11.0839    10.7107    89.6633
  688.0000    11.0516    10.6123    87.3797
  688.5000    11.1667    10.4993    85.9903
  689.0000    11.2936    10.3538    87.5341
  689.5000    11.4219    10.2102    89.6175
  690.0000    11.5526    10.0648    90.3931
  690.5000    11.5806    10.0664    90.4255
  691.0000    11.4650    10.0660    91.3376
  691.5000    11.3693    10.1081    93.8605
  692.0000    11.2740    10.1499    96.4434
  692.5000    11.2600    10.1918    97.5875
  693.0000    11.2600    10.2340    98.7436
  693.5000    11.2600    10.2951    99.9612
  694.0000    11.2600    10.3769    98.8321
  694.5000    11.3133    10.4593    96.9569
  695.0000    11.4824    10.5473    96.1375
  695.5000    11.6539    10.6827    96.1237
  696.0000    11.8762    10.8677    96.1187
  696.5000    12.3463    11.0870    95.8982
  697.0000    12.8331    11.3108    94.8667
  697.5000    13.4593    11.5391    95.5572
  698.0000    14.2215    12.3747    95.9866
  698.5000    15.4096    13.4143    92.2382
  699.0000    16.7082    14.7652    88.4596
  699.5000    18.1535    16.2946    84.7045
  700.0000    19.7937    18.0859    80.9505
  700.5000    21.5483    20.3511    77.0601
  701.0000    23.3335    22.9001    75.2161
  701.5000    25.1432    25.4504    73.9258
  702.0000    25.8427    27.9685    72.6571
  702.5000    26.3454    30.3445    71.3795
  703.0000    26.1211    28.9005    71.1224
  703.5000    25.7102    27.1033    72.9798
  704.0000    25.1911    26.0802    76.8141
  704.5000    24.6479    25.0748    80.5201
  705.0000    24.1169    24.1083    81.3592
  705.5000    23.5975    23.3363    81.0850
  706.0000    23.0893    22.8138    80.8363
  706.5000    22.5918    22.3031    80.5880
  707.0000    22.1038    21.8037    80.3446
  707.5000    21.6564    21.3156    80.4078
  708.0000    21.3320    20.8294    80.8652
  708.5000    20.9670    20.3439    82.0965
  709.0000    20.6062    19.9057    84.7419
  709.5000    20.2822    19.8182    86.1720
  710.0000    20.1339    19.7376    86.0001
  710.5000    19.9987    19.6572    85.6292
  711.0000    19.8643    19.5772    84.3718
  711.5000    19.7217    19.3700    82.7812
  712.0000    19.3784    19.0526    81.4089
  712.5000    18.9984    18.7407    81.3761
  713.0000    18.5772    18.4338    84.1812
  713.5000    18.1442    18.0118    86.9297
  714.0000    17.7213    17.5090    89.0746
  714.5000    17.3082    17.0194    87.9795
  715.0000    16.9047    16.5454    87.0771
  715.5000    16.8184    16.3388    87.6707
  716.0000    16.7824    16.3021    90.4618
  716.5000    16.7465    16.2655    93.1818
  717.0000    16.7106    16.2290    90.9014
  717.5000    16.6748    16.1070    87.8015
  718.0000    16.4753    15.8806    84.6849
  718.5000    16.2502    15.7078    84.1748
  719.0000    16.0282    15.5942    87.8668
  719.5000    15.8091    15.4814    90.7625
  720.0000    15.5889    15.2673    90.8576
  720.5000    15.3336    15.0439    91.0768
  721.0000    15.0825    14.8226    92.2457
  721.5000    14.8356    14.5242    93.4270
  722.0000    14.5742    14.1968    92.2955
  722.5000    14.2135    13.8780    89.3484
  723.0000    13.8607    13.5663    86.4336
  723.5000    13.5351    13.2603    87.1878
  724.0000    13.3248    13.0214    88.7427
  724.5000    13.1961    12.8769    90.0260
  725.0000    13.1982    12.7348    89.5747
  725.5000    13.1977    12.5956    88.4580
  726.0000    13.1978    12.5670    87.3549
  726.5000    13.1978    12.5388    86.2482
  727.0000    13.1978    12.5107    85.1447
  727.5000    13.1978    12.4832    84.0127
