~VERSION INFORMATION
 VERS.                2.0:   CWLS LOG ASCII STANDARD - VERSION 2.0
 WRAP.                 NO:   ONE LINE PER DEPTH STEP
~WELL INFORMATION
#MNEM.UNIT      DATA TYPE    INFORMATION
#----------   ------------   ------------------------------
 STRT.F           36.0000:   START DEPTH
 STOP.F          700.0000:   STOP DEPTH
 STEP.F            0.5000:   STEP LENGTH
 NULL.          -999.2500:   NO VALUE
 COMP. FENIX & SCISSON INC:   COMPANY
 WELL. NPR #3 13SX14 #13-14:   WELL
 FLD .             TEAPOT:   FIELD
 LOC .      S14 T38N R78W:   LOCATION
 CNTY.            NATRONA:   COUNTY
 STAT.            WYOMING:   STATE
 CTRY. UNITED STATES OF AMERICA:   COUNTRY
 SRVC.              Welex:   SERVICE COMPANY
 DATE.        28-FEB-1977:   LOGDATE
 API .       490251029600:   API NUMBER
~CURVE INFORMATION
#MNEM.UNIT       API CODE    CURVE DESCRIPTION
#----------   ------------   ------------------------------
 DEPT.F                  :   
 CALD.IN     45 280 60 00:   CALIPER FROM DENSITY LOG
 GRD .GAPI   45 310 01 00:   GAMMA RAY FROM DENSITY LOG
 CORR.G/C3   45 356 01 00:   DENSITY CORRECTION
 RHOB.G/C3   45 350 01 00:   BULK DENSITY
 DPHI.DEC    45 890 12 00:   DENSITY POROSITY SANDSTONE
 SPR .MV     07 010 01 00:   SPONTANEOUS POTENTIAL
 SGRD.OHMM   07 220 05 00:   SHALLOW RESISTIVITY
 ILD .OHMM   07 120 46 00:   INDUCTION LOG DEEP
 ILM .OHMM   07 120 44 00:   INDUCTION LOG MEDIUM
~PARAMETER INFORMATION
#MNEM.UNIT          VALUE    DESCRIPTION
#----------   ------------   ------------------------------
 PD  .                 GL:   PERMANENT DATUM
 EPD .F              5238:   ELEVATION PERMANENT DATUM
 LMF .                 GL:   LOG MEASURED FROM
 DMF .                 GL:   DRILLING MEASURED FROM
 EGL .F              5238:   GROUND LEVEL
 DATE.            2-28-77:   RUN DATE
 RUN .                  1:   RUN NUMBER
 DD  .F               710:   DEPTH DRILLER
 DL  .F               706:   DEPTH LOGGER
 BLI .F               704:   BOTTOM LOG INTERVAL
 TLI .F                42:   TOP LOG INTERVAL
 CS  .IN            8.625:   CASING SIZE
 CBD .F                42:   CASING BOTTOM DRILLER
 CBL .F                42:   CASING BOTTOM LOGGER
 BS  .IN            7.875:   BIT SIZE
 BSD .F               710:   BIT SIZE AT DEPTH
 DFT .           CHEM-GEL:   DRILLING FLUID TYPE
 DFD .                8.7:   DRILLING FLUID DENSITY
 DFV .                 33:   DRILLING FLUID VISCOSITY
 DFPH.                  7:   DRILLING FLUID PH
 DFL .                  8:   DRILLING FLUID LOSS
 MSS .          FLOW LINE:   MUD SAMPLE SOURCE
 RMS .OHMM           .382:   RESISTIVITY MUD SAMPLE
 MST .F                54:   MUD SAMPLE TEMPERATURE
 RMF .OHMM           .342:   RESISTIVITY MUD FILTRATE SAMPLE
 MFST.F                54:   MUD FILTRATE SAMPLE TEMPERATURE
 RMC .OHMM           .821:   RESISTIVITY MUD CAKE
 MCST.F                54:   MUD CAKE SAMPLE TEMPERATURE
 MFSS.           MEASURED:   MUD FILTRATE SAMPLE SOURCE
 MCSS.           MEASURED:   MUD CAKE SAMPLE SOURCE
 RMB .OHMM           .333:   RESISTIVITY MUD AT BHT
 BHT .F                62:   BOTTOM HOLE TEMPERATURE
 TCS .HRS               3:   TIME CURCULATED STOPPED
 MRT .F                62:   MAXIMUM RECORDED TEMPERATURE
 LUN .               8611:   LOGGING UNIT NUMBER
 LUL .           GILLETTE:   LOGGING UNIT LOCATION
 ENGI.               DOAK:   RECORDING ENGINEER
 WITN.               JAPP:   WITNESSED BY
 CLNT.            A2DTECH:   CLIENT CODE
 ORIG.       2", 5" PRINT:   ORIGIN OF DATA
 UWI .       490251029600:   UNIQUE WELL ID
 DICO. A2D Technologies, Inc.:   DIGITIZING COMPANY
~OTHER INFORMATION
~A   DEPT       CALD       GRD       CORR        RHOB     DPHI         SPR        SGRD      ILD        ILM   
# ...
  145.5000     8.0277   123.1874     0.0230     2.4678     0.1042   -35.8638     9.4858     6.0879     7.6984
  146.0000     8.0308   124.7071     0.0219     2.4604     0.1097   -35.8098     9.1696     6.0877     7.4888
  146.5000     8.0338   126.3030     0.0212     2.4531     0.1151   -35.7556     8.8618     6.0878     7.2830
  147.0000     8.0368   127.1579     0.0233     2.4470     0.1175   -35.6979     8.4868     6.0885     7.1190
  147.5000     8.0398   125.4451     0.0254     2.4492     0.1157   -35.7650     8.6333     6.1069     7.1192
  148.0000     8.0428   126.8609     0.0274     2.4515     0.1138   -35.8745     8.8513     6.1429     7.2563
  148.5000     8.0458   127.2612     0.0284     2.4537     0.1122   -35.9852     9.0746     6.1792     7.3621
  149.0000     8.0488   126.2838     0.0266     2.4555     0.1128   -36.0723     9.3022     6.2156     7.4691
  149.5000     8.0518   125.8067     0.0249     2.4542     0.1133   -35.9774     9.6541     6.2523     7.5772
  150.0000     8.0548   126.1416     0.0232     2.4528     0.1133   -35.8797     9.6263     6.2892     7.6865
  150.5000     8.0579   126.5174     0.0214     2.4531     0.1133   -35.7827     9.5709     6.3263     7.8095
  151.0000     8.0613   126.8982     0.0197     2.4539     0.1133   -35.6857     9.5158     6.3636     7.7056
  151.5000     8.0492   127.3032     0.0180     2.4548     0.1136   -35.5887     9.4610     6.4012     7.5920
  152.0000     8.0317   126.7621     0.0163     2.4518     0.1155   -35.4917     9.4066     6.4349     7.4801
  152.5000     8.0142   126.0098     0.0146     2.4478     0.1176   -35.3933     9.2603     6.3836     7.3699
  153.0000     8.0015   126.8157     0.0128     2.4437     0.1195   -35.2931     9.0786     6.3277     7.2613
  153.5000     8.0086   127.7392     0.0110     2.4396     0.1215   -35.3765     8.9009     6.2723     7.1876
  154.0000     8.0178   128.4940     0.0120     2.4355     0.1235   -35.4770     8.6440     6.2173     7.2433
  154.5000     8.0270   129.2100     0.0136     2.4332     0.1251   -35.5790     8.6899     6.2018     7.2937
  155.0000     8.0363   129.9754     0.0151     2.4370     0.1236   -35.6794     8.8041     6.1449     7.3445
  155.5000     8.0455   131.7443     0.0167     2.4409     0.1221   -35.4154     8.7510     6.1449     7.3892
  156.0000     8.0548   133.6358     0.0182     2.4447     0.1201   -35.1043     8.6430     6.2018     7.3400
  156.5000     8.0640   134.5197     0.0179     2.4485     0.1175   -35.2147     8.7889     6.2350     7.3214
  157.0000     8.0733   131.8056     0.0159     2.4523     0.1146   -35.3602     8.9942     6.2705     7.3702
  157.5000     8.0825   129.7177     0.0139     2.4561     0.1117   -35.4790     9.2044     6.3071     7.4636
  158.0000     8.0919   127.6139     0.0119     2.4581     0.1110   -35.3079     9.4187     6.3905     7.5582
  158.5000     8.1011   125.4629     0.0099     2.4560     0.1127   -35.1306     9.7413     6.4927     7.6540
  159.0000     8.0945   124.3883     0.0079     2.4539     0.1124   -35.2882     9.5820     6.5964     7.7509
  159.5000     8.0868   123.3244     0.0059     2.4519     0.1154   -35.4405     9.2919     6.7017     7.8489
  160.0000     8.0791   122.2587     0.0039     2.4499     0.1175   -35.2438     9.0816     6.8087     7.9562
  160.5000     8.0714   122.8827     0.0038     2.4476     0.1157   -35.0574     9.3905     6.9174     7.9574
  161.0000     8.0637   123.6881     0.0052     2.4458     0.1172   -34.8929     9.6991     7.0278     7.9513
  161.5000     8.0560   121.8776     0.0067     2.4478     0.1177   -34.9133    10.0178     7.0563     8.0593
  162.0000     8.0484   119.3219     0.0081     2.4547     0.1133   -34.9359    10.2977     7.0563     8.1609
  162.5000     8.0416   116.7216     0.0096     2.4618     0.1086   -34.9576    10.1659     7.0626     8.2634
  163.0000     8.0418   114.1363     0.0110     2.4688     0.1039   -34.9793    10.0288     7.1048     8.3662
  163.5000     8.0418   114.0074     0.0125     2.4758     0.0990   -35.0009     9.8338     7.1473     8.4691
  164.0000     8.0418   113.2221     0.0139     2.4831     0.0971   -35.0224     9.9465     7.1900     8.5749
  164.5000     8.0343   112.3745     0.0154     2.4824     0.0968   -35.0440    10.1528     7.2330     8.7231
  165.0000     8.0211   111.6249     0.0168     2.4811     0.0966   -35.0656    10.2032     7.2760     8.6226
  165.5000     8.0078   111.7542     0.0183     2.4847     0.0944   -35.0890     9.9004     7.3211     8.5189
  166.0000     7.9945   114.4539     0.0197     2.4882     0.0922   -35.1527     9.6465     7.2564     8.4164
  166.5000     7.9812   117.6034     0.0207     2.4918     0.0898   -35.2229     9.3908     7.1899     8.3152
  167.0000     7.9679   120.6648     0.0188     2.4915     0.0911   -35.2933     9.4464     7.1239     8.2153
  167.5000     7.9724   121.1371     0.0169     2.4898     0.0924   -35.3636     9.5194     7.0564     8.1165
  168.0000     7.9898   121.7327     0.0151     2.4881     0.0937   -35.4339     9.6596     6.9778     8.0189
  168.5000     8.0073   122.3562     0.0133     2.4863     0.0939   -35.5042     9.3798     6.8976     7.9225
  169.0000     8.0250   123.0303     0.0114     2.4860     0.0934   -35.5744     9.0294     6.8184     7.8249
  169.5000     8.0426   124.6921     0.0096     2.4865     0.0954   -35.6447     8.8847     6.7384     7.6785
  170.0000     8.0603   126.2750     0.0077     2.4821     0.0981   -35.7150     9.2134     6.7737     7.7378
  170.5000     8.0783   123.3256     0.0083     2.4774     0.1002   -35.7853     9.5656     6.8677     7.8818
  171.0000     8.0762   120.1122     0.0106     2.4790     0.0986   -35.8556     9.4723     6.9629     8.0300
  171.5000     8.0693   118.6701     0.0128     2.4820     0.0966   -35.9259     9.2367     7.0595     8.2279
  172.0000     8.0623   120.9449     0.0108     2.4792     0.0983   -35.9961     9.3274     7.1574     8.4336
  172.5000     8.0553   123.3309     0.0088     2.4766     0.0998   -36.0664     9.6126     7.2567     8.6435
  173.0000     8.0484   125.7167     0.0120     2.4801     0.0971   -36.1367     9.9066     7.3574     8.8580
  173.5000     8.0414   128.0636     0.0158     2.4859     0.0943   -36.2070    10.2081     7.4594     9.0782
  174.0000     8.0344   129.6915     0.0193     2.4917     0.0916   -36.2773    10.5182     7.5629     9.3046
  174.5000     8.0275   127.6964     0.0205     2.4973     0.0888   -36.3477    10.7789     7.6678     9.1630
  175.0000     8.0256   125.7543     0.0218     2.4946     0.0880   -36.4181    10.4951     7.7742     9.0508
  175.5000     8.0465   125.4581     0.0231     2.4976     0.0881   -36.4807    10.1498     7.8818     9.4514
  176.0000     8.0671   125.6103     0.0244     2.4987     0.0892   -36.4814    10.5617     7.9309     9.8011
  176.5000     8.0877   124.1465     0.0236     2.4968     0.0886   -36.4812    11.1887     7.9548    10.0197
  177.0000     8.1082   122.7747     0.0213     2.4949     0.0899   -36.4811    10.7927     7.9109     9.6715
  177.5000     8.1287   123.8326     0.0191     2.4930     0.0914   -36.4810    10.4749     7.8042     9.3947
  178.0000     8.1490   125.1204     0.0170     2.4916     0.0901   -36.4807    10.1664     7.6989     9.1255
  178.5000     8.1582   124.7563     0.0184     2.4960     0.0888   -36.4817     9.9249     7.5950     8.8647
  179.0000     8.1508   123.4120     0.0186     2.4997     0.0874   -36.5119    10.1003     7.4925     8.6115
  179.5000     8.1435   122.0799     0.0172     2.4958     0.0877   -36.6303    10.2471     7.3914     8.4574
  180.0000     8.1361   121.3247     0.0158     2.4877     0.0926   -36.7450    10.3931     7.2917     8.3913
  180.5000     8.1287   123.0652     0.0143     2.4794     0.0974   -36.8597    10.2185     7.1933     8.3258
  181.0000     8.1213   124.7436     0.0129     2.4711     0.1022   -36.9743     9.9434     7.0962     8.2607
  181.5000     8.1139   126.4080     0.0115     2.4674     0.1053   -37.0784     9.6751     7.0005     8.1962
