~VERSION INFORMATION
 VERS.                2.0:   CWLS LOG ASCII STANDARD - VERSION 2.0
 WRAP.                 NO:   ONE LINE PER DEPTH STEP
~WELL INFORMATION
#MNEM.UNIT      DATA TYPE    INFORMATION
#----------   ------------   ------------------------------
 STRT.F            0.0000:   START DEPTH
 STOP.F         1110.0000:   STOP DEPTH
 STEP.F            0.5000:   STEP LENGTH
 NULL.          -999.2500:   NO VALUE
 COMP. FENIX & SCISSON INC:   COMPANY
 WELL. NAVAL PETROLEUM RESERVE 3 SX-1 #63-14:   WELL
 FLD .       TEA POT DOME:   FIELD
 LOC .      S14 T38N R78W:   LOCATION
 CNTY.            NATRONA:   COUNTY
 STAT.            WYOMING:   STATE
 CTRY. UNITED STATES OF AMERICA:   COUNTRY
 SRVC.            Unknown:   SERVICE COMPANY
 DATE.        15-APR-1978:   LOGDATE
 API .       490251061500:   API NUMBER
~CURVE INFORMATION
#MNEM.UNIT       API CODE    CURVE DESCRIPTION
#----------   ------------   ------------------------------
 DEPT.F                  :   
 NPHI.DEC    42 890 03 00:   NEUTRON POROSITY SANDSTONE
 GRD .GAPI   45 310 01 00:   GAMMA RAY FROM DENSITY LOG
 CALD.IN     45 280 60 00:   CALIPER FROM DENSITY LOG
 RHOB.G/C3   45 350 01 00:   BULK DENSITY
 DPHI.DEC    45 890 12 00:   DENSITY POROSITY SANDSTONE
 CORR.G/C3   45 356 01 00:   DENSITY CORRECTION
 SPR .MV     05 010 01 00:   SPONTANEOUS POTENTIAL FROM RES.
 SN  .OHMM   05 040 16 00:   SHORT NORMAL 16"
 ILD .OHMM   05 120 46 00:   INDUCTION LOG DEEP
~PARAMETER INFORMATION
#MNEM.UNIT          VALUE    DESCRIPTION
#----------   ------------   ------------------------------
 PD  .                 GL:   PERMANENT DATUM
 EPD .F              5253:   ELEVATION PERMANENT DATUM
 LMF .                 KB:   LOG MEASURED FROM
 DAPD.F                 4:   FEET ABOVE PERMANENT DATUM
 DMF .                 KB:   DRILLING MEASURED FROM
 EKB .F              5257:   KELLING BUSHING
 EGL .F              5253:   GROUND LEVEL
 DATE.          4-15-1978:   RUN DATE
 RUN .                  1:   RUN NUMBER
 DD  .F              1095:   DEPTH DRILLER
 DL  .F              1102:   DEPTH LOGGER
 BLI .F              1100:   BOTTOM LOG INTERVAL
 TLI .F               850:   TOP LOG INTERVAL
 CS  .IN            9.625:   CASING SIZE
 CBD .F                40:   CASING BOTTOM DRILLER
 CBL .F                40:   CASING BOTTOM LOGGER
 BS  .IN            7.875:   BIT SIZE
 BSD .F              1095:   BIT SIZE AT DEPTH
 DFT .                KCL:   DRILLING FLUID TYPE
 DFD .                8.6:   DRILLING FLUID DENSITY
 DFV .                 30:   DRILLING FLUID VISCOSITY
 DFPH.                 10:   DRILLING FLUID PH
 DFL .                  8:   DRILLING FLUID LOSS
 MSS .           FLOWLINE:   MUD SAMPLE SOURCE
 RMS .OHMM            .46:   RESISTIVITY MUD SAMPLE
 MST .F                58:   MUD SAMPLE TEMPERATURE
 RMF .OHMM             .5:   RESISTIVITY MUD FILTRATE SAMPLE
 MFST.F                60:   MUD FILTRATE SAMPLE TEMPERATURE
 RMC .OHMM             .5:   RESISTIVITY MUD CAKE
 MCST.F                60:   MUD CAKE SAMPLE TEMPERATURE
 MFSS.           MEASURED:   MUD FILTRATE SAMPLE SOURCE
 RMB .OHMM            .33:   RESISTIVITY MUD AT BHT
 BHT .F                80:   BOTTOM HOLE TEMPERATURE
 TCS .HRS               6:   TIME CURCULATED STOPPED
 MRT .F                80:   MAXIMUM RECORDED TEMPERATURE
 LUN .               2958:   LOGGING UNIT NUMBER
 LUL .               CASP:   LOGGING UNIT LOCATION
 ENGI.             MILLER:   RECORDING ENGINEER
 WITN.           MCGINLEY:   WITNESSED BY
 CLNT.            A2DTECH:   CLIENT CODE
 ORIG.      2" & 5" PRINT:   ORIGIN OF DATA
 UWI .       490251061500:   UNIQUE WELL ID
 DICO. A2D Technologies, Inc.:   DIGITIZING COMPANY
~OTHER INFORMATION
~A    DEPT    NPHI         GRD      CALD       RHOB       DPHI       CORR        SPR         SN        ILD   
# ...
  182.5000  -999.2500    91.9256     7.7899     2.4020     0.1356     0.0626   -50.3802     6.6975     6.5149
  183.0000  -999.2500    91.0884     7.6807     2.3951     0.1399     0.0626   -50.3778     6.7189     6.5358
  183.5000  -999.2500    90.4615     7.5714     2.3900     0.1432     0.0626   -50.3755     6.7405     6.5567
  184.0000  -999.2500    90.5424     7.4618     2.3911     0.1425     0.0626   -50.3731     6.7624     6.5777
  184.5000  -999.2500    93.4254     7.3621     2.3913     0.1420     0.0626   -50.3707     6.7769     6.5922
  185.0000  -999.2500    96.0865     7.3794     2.3776     0.1527     0.0600   -50.3683     6.6774     6.4954
  185.5000  -999.2500    96.2702     7.4624     2.3654     0.1627     0.0562   -50.3659     6.6026     6.4226
  186.0000  -999.2500    92.4943     7.5063     2.3651     0.1671     0.0524   -50.3635     6.5286     6.3507
  186.5000  -999.2500    91.3249     7.4534     2.3678     0.1585     0.0509   -50.3612     6.4555     6.2795
  187.0000  -999.2500    93.4420     7.4020     2.3702     0.1580     0.0516   -50.3588     6.3830     6.2091
  187.5000  -999.2500    94.3534     7.4019     2.3796     0.1612     0.0523   -50.3564     6.3112     6.1396
  188.0000  -999.2500    90.7657     7.5133     2.3892     0.1518     0.0567   -50.3540     6.2378     6.0678
  188.5000  -999.2500    84.7990     7.6350     2.3988     0.1461     0.0623   -50.3516     6.2954     6.1238
  189.0000  -999.2500    79.0365     7.7035     2.4083     0.1416     0.0629   -50.3492     6.3722     6.1984
  189.5000  -999.2500    78.9995     7.7578     2.4174     0.1370     0.0602   -50.3469     6.4500     6.2742
  190.0000  -999.2500    85.5894     7.7657     2.4231     0.1324     0.0604   -50.3445     6.5287     6.3508
  190.5000  -999.2500    91.4785     7.7720     2.4246     0.1316     0.0645   -50.3421     6.6084     6.4283
  191.0000  -999.2500    98.0862     7.7801     2.4260     0.1321     0.0642   -50.3397     6.6891     6.5068
  191.5000  -999.2500    96.8342     7.6920     2.4301     0.1311     0.0568   -50.3373     6.7706     6.5863
  192.0000  -999.2500    94.6868     7.6064     2.4394     0.1257     0.0587   -50.3349     6.8548     6.6667
  192.5000  -999.2500    92.2068     7.7185     2.4460     0.1204     0.0609   -50.3326     6.9640     6.7769
  193.0000  -999.2500    88.9468     7.7981     2.4417     0.1156     0.0631   -50.3302     7.1525     6.9568
  193.5000  -999.2500    85.6223     7.7896     2.4330     0.1160     0.0651   -50.3278     7.3397     7.1396
  194.0000  -999.2500    86.1301     7.7821     2.4243     0.1259     0.0627   -50.3254     7.5328     7.3273
  194.5000  -999.2500    87.0988     7.8117     2.4238     0.1313     0.0506   -50.3230     7.7312     7.5199
  195.0000  -999.2500    91.0027     7.8720     2.4291     0.1284     0.0413   -50.3206     7.9267     7.7106
  195.5000  -999.2500    95.1075     7.9330     2.4381     0.1235     0.0486   -50.3182     7.9254     7.7094
  196.0000  -999.2500    96.0034     7.9579     2.4472     0.1186     0.0556   -50.3159     7.9256     7.7098
  196.5000  -999.2500    96.7635     7.9578     2.4497     0.1178     0.0623   -50.3135     7.9256     7.7097
  197.0000  -999.2500    96.9542     7.9324     2.4573     0.1134     0.0606   -50.3111     7.9256     7.7104
  197.5000  -999.2500    94.0591     7.8674     2.4754     0.1025     0.0586   -50.3087     7.9564     7.7106
  198.0000  -999.2500    87.0778     7.8896     2.4812     0.0941     0.0562   -50.3063     8.0724     7.5814
  198.5000  -999.2500    80.0217     7.9269     2.4418     0.1153     0.0469   -50.3039     8.1902     7.4821
  199.0000  -999.2500    76.0885     7.9646     2.4159     0.1312     0.0375   -50.3016     8.2991     7.3840
  199.5000  -999.2500    79.9335     8.0019     2.4078     0.1340     0.0441   -50.2992     8.0739     7.2871
  200.0000  -999.2500    90.4138     8.0395     2.4066     0.1368     0.0529   -50.2968     7.8723     7.1915
  200.5000  -999.2500    92.5227     8.0510     2.4054     0.1371     0.0608   -50.2944     7.6757     7.0972
  201.0000  -999.2500    92.2894     8.0387     2.4043     0.1374     0.0606   -50.2920     7.4840     7.0041
  201.5000  -999.2500    92.3352     8.0257     2.4031     0.1382     0.0606   -50.2896     7.2971     6.9123
  202.0000  -999.2500    92.3966     7.9952     2.4019     0.1398     0.0606   -50.2873     7.1149     6.8216
  202.5000  -999.2500    92.2989     7.9327     2.4031     0.1414     0.0606   -50.2849     6.9029     6.7147
  203.0000  -999.2500    91.4205     7.8704     2.4052     0.1398     0.0611   -50.2825     6.9116     6.7232
  203.5000  -999.2500    90.5362     7.8073     2.4072     0.1362     0.0616   -50.2801     6.9224     6.7337
  204.0000  -999.2500    89.3092     7.8215     2.4067     0.1363     0.0621   -50.2777     6.9332     6.7443
  204.5000  -999.2500    85.8896     7.8491     2.4051     0.1370     0.0626   -50.2753     6.9441     6.7549
  205.0000  -999.2500    85.1489     7.8767     2.4043     0.1375     0.0631   -50.2729     6.9550     6.7655
  205.5000  -999.2500    84.9669     7.8057     2.4058     0.1365     0.0636   -50.2706     6.9665     6.7770
  206.0000  -999.2500    84.7918     7.7236     2.4073     0.1355     0.0641   -50.2682     6.9646     6.7656
  206.5000  -999.2500    84.5756     7.6420     2.4058     0.1358     0.0645   -50.2658     6.9615     6.7502
  207.0000  -999.2500    86.9375     7.6125     2.4002     0.1410     0.0625   -50.2634     6.9584     6.7349
  207.5000  -999.2500    90.1360     7.5858     2.3951     0.1439     0.0603   -50.2610     6.9554     6.7196
  208.0000  -999.2500    92.1826     7.5185     2.3964     0.1431     0.0581   -50.2587     6.9523     6.7042
  208.5000  -999.2500    90.5889     7.4654     2.3930     0.1424     0.0560   -50.2563     6.9493     6.6890
  209.0000  -999.2500    87.9154     7.4973     2.3872     0.1449     0.0538   -50.2539     6.9462     6.6737
  209.5000  -999.2500    87.2068     7.5038     2.3812     0.1485     0.0517   -50.2515     6.9432     6.6585
  210.0000  -999.2500    88.8890     7.4404     2.3801     0.1521     0.0495   -50.2491     6.9401     6.6434
  210.5000  -999.2500    90.7627     7.5071     2.3831     0.1544     0.0481   -50.2467     6.9371     6.6283
  211.0000  -999.2500    90.9202     7.5984     2.3887     0.1527     0.0473   -50.2443     6.9340     6.6132
  211.5000  -999.2500    90.9597     7.6726     2.3906     0.1500     0.0465   -50.2420     6.9310     6.5981
  212.0000  -999.2500    91.0117     7.7450     2.3923     0.1490     0.0456   -50.2396     6.9279     6.5831
  212.5000  -999.2500    91.2368     7.7764     2.3959     0.1479     0.0448   -50.2372     6.9249     6.5681
  213.0000  -999.2500    92.2680     7.8009     2.4002     0.1469     0.0451   -50.2348     6.9219     6.5531
  213.5000  -999.2500    93.3006     7.8715     2.4046     0.1440     0.0459   -50.2324     6.9188     6.5382
  214.0000  -999.2500    93.3874     7.9361     2.4082     0.1414     0.0467   -50.2300     6.9158     6.5233
  214.5000  -999.2500    93.0182     7.9120     2.4091     0.1387     0.0475   -50.2276     6.9127     6.5084
  215.0000  -999.2500    92.5556     7.8849     2.4094     0.1361     0.0484   -50.2253     6.9097     6.4936
  215.5000  -999.2500    90.6871     7.8888     2.4097     0.1334     0.0473   -50.2229     6.9066     6.4787
  216.0000  -999.2500    88.8689     7.8926     2.4093     0.1343     0.0457   -50.2205     6.9029     6.4717
  216.5000  -999.2500    88.4989     7.8472     2.4077     0.1362     0.0441   -50.2181     6.9406     6.5446
  217.0000  -999.2500    91.3061     7.8587     2.4062     0.1381     0.0426   -50.2157     6.9915     6.5998
  217.5000  -999.2500    93.0902     7.8847     2.4046     0.1400     0.0437   -50.2133     7.0427     6.6554
  218.0000  -999.2500    92.1174     7.9111     2.4031     0.1418     0.0448   -50.2110     7.0944     6.7114
  218.5000  -999.2500    91.3561     7.9374     2.4031     0.1399     0.0458   -50.2086     7.1464     6.7680
