~VERSION INFORMATION
 VERS.                2.0:   CWLS LOG ASCII STANDARD - VERSION 2.0
 WRAP.                 NO:   ONE LINE PER DEPTH STEP
~WELL INFORMATION
#MNEM.UNIT      DATA TYPE    INFORMATION
#----------   ------------   ------------------------------
 STRT.F           34.5000:   START DEPTH
 STOP.F          880.5000:   STOP DEPTH
 STEP.F            0.5000:   STEP LENGTH
 NULL.          -999.2500:   NO VALUE
 COMP. FENIX & SCISSON INC:   COMPANY
 WELL. NAVAL PETROLEUM RESERVE 3 S-14 #35-14:   WELL
 FLD .             TEAPOT:   FIELD
 LOC .      S14 T38N R78W:   LOCATION
 CNTY.            NATRONA:   COUNTY
 STAT.            WYOMING:   STATE
 CTRY. UNITED STATES OF AMERICA:   COUNTRY
 SRVC.            Unknown:   SERVICE COMPANY
 DATE.        24-APR-1978:   LOGDATE
 API .       490251062000:   API NUMBER
~CURVE INFORMATION
#MNEM.UNIT       API CODE    CURVE DESCRIPTION
#----------   ------------   ------------------------------
 DEPT.F                  :   
 RHOB.G/C3   45 350 01 00:   BULK DENSITY
 DPHI.DEC    45 890 12 00:   DENSITY POROSITY SANDSTONE
 CORR.G/C3   45 356 01 00:   DENSITY CORRECTION
 GRD .GAPI   45 310 01 00:   GAMMA RAY FROM DENSITY LOG
 CALD.IN     45 280 60 00:   CALIPER FROM DENSITY LOG
 SPR .MV     05 010 01 00:   SPONTANEOUS POTENTIAL FROM RES.
 SN  .OHMM   05 040 16 00:   SHORT NORMAL 16"
 ILD .OHMM   05 120 46 00:   INDUCTION LOG DEEP
~PARAMETER INFORMATION
#MNEM.UNIT          VALUE    DESCRIPTION
#----------   ------------   ------------------------------
 PD  .                 GL:   PERMANENT DATUM
 EPD .F              5246:   ELEVATION PERMANENT DATUM
 LMF .                 KB:   LOG MEASURED FROM
 DMF .                 KB:   DRILLING MEASURED FROM
 EKB .F              5250:   KELLING BUSHING
 EGL .F              5246:   GROUND LEVEL
 DATE.          4-24-1978:   RUN DATE
 RUN .                  1:   RUN NUMBER
 DD  .F               880:   DEPTH DRILLER
 DL  .F               880:   DEPTH LOGGER
 BLI .F               884:   BOTTOM LOG INTERVAL
 TLI .F                50:   TOP LOG INTERVAL
 CS  .IN            8.625:   CASING SIZE
 CBD .F                40:   CASING BOTTOM DRILLER
 CBL .F                50:   CASING BOTTOM LOGGER
 BS  .IN            7.875:   BIT SIZE
 BSD .F               880:   BIT SIZE AT DEPTH
 DFT .                KCL:   DRILLING FLUID TYPE
 DFD .                8.6:   DRILLING FLUID DENSITY
 DFV .                 32:   DRILLING FLUID VISCOSITY
 DFPH.                 10:   DRILLING FLUID PH
 DFL .               12.8:   DRILLING FLUID LOSS
 MSS .            MUD PIT:   MUD SAMPLE SOURCE
 RMS .OHMM            .34:   RESISTIVITY MUD SAMPLE
 MST .F                62:   MUD SAMPLE TEMPERATURE
 RMF .OHMM             .3:   RESISTIVITY MUD FILTRATE SAMPLE
 MFST.F                70:   MUD FILTRATE SAMPLE TEMPERATURE
 RMC .OHMM            .58:   RESISTIVITY MUD CAKE
 MCST.F                70:   MUD CAKE SAMPLE TEMPERATURE
 MFSS.           MEASURED:   MUD FILTRATE SAMPLE SOURCE
 RMB .OHMM            .28:   RESISTIVITY MUD AT BHT
 BHT .F                74:   BOTTOM HOLE TEMPERATURE
 TCS .HRS               4:   TIME CURCULATED STOPPED
 MRT .F                74:   MAXIMUM RECORDED TEMPERATURE
 LUN .               2958:   LOGGING UNIT NUMBER
 LUL .              CASP.:   LOGGING UNIT LOCATION
 ENGI.             MILLER:   RECORDING ENGINEER
 WITN.           MCGINLEY:   WITNESSED BY
 CLNT.            A2DTECH:   CLIENT CODE
 ORIG.       2", 5" PRINT:   ORIGIN OF DATA
 UWI .       490251062000:   UNIQUE WELL ID
 DICO. A2D Technologies, Inc.:   DIGITIZING COMPANY
~OTHER INFORMATION
~A   DEPT     RHOB       DPHI       CORR         GRD      CALD        SPR         SN        ILD   
# ...
  480.0000     2.4784     0.0998     0.0386    98.5542     8.4677   -32.2439     7.4157     7.0637
  480.5000     2.4732     0.0998     0.0344    97.0959     8.4761   -32.1716     7.5335     7.1512
  481.0000     2.4740     0.0998     0.0328    95.6007     8.4762   -32.1703     7.6532     7.2399
  481.5000     2.4730     0.0977     0.0312    95.3670     8.4762   -32.1714     7.7748     7.3296
  482.0000     2.4733     0.0958     0.0320    95.4533     8.4700   -32.1726     7.8983     7.4205
  482.5000     2.4762     0.0977     0.0332    94.8690     8.4593   -32.1659     8.0238     7.5125
  483.0000     2.4743     0.0996     0.0343    94.7281     8.4488   -31.9791     8.1513     7.6056
  483.5000     2.4730     0.1002     0.0355    95.2160     8.4398   -31.7845     8.2809     7.6999
  484.0000     2.4763     0.0982     0.0366    93.9078     8.3644   -31.5908     8.4124     7.7953
  484.5000     2.4799     0.0956     0.0407    92.7396     8.3215   -31.3973     8.5461     7.8920
  485.0000     2.4841     0.0908     0.0500    93.5080     8.2981   -31.2038     8.6819     7.9898
  485.5000     2.4977     0.0714     0.0627    93.4681     8.2750   -31.0102     8.8199     8.0889
  486.0000     2.5115     0.0741     0.0754    90.4665     8.2522   -30.8164     8.9600     8.1891
  486.5000     2.5098     0.0787     0.0842    87.8262     8.2368   -30.6175     9.1024     8.2906
  487.0000     2.5031     0.0834     0.0868    89.1980     8.2371   -30.5776     9.2470     8.3934
  487.5000     2.4965     0.0880     0.0895    91.1605     8.2370   -30.5771     9.3940     8.4975
  488.0000     2.4899     0.0930     0.0894    93.2664     8.2371   -30.5776     9.5432     8.6028
  488.5000     2.4840     0.0935     0.0860    94.9249     8.2371   -30.5777     9.6949     8.7095
  489.0000     2.4852     0.0869     0.0851    94.8124     8.2371   -30.5777     9.9249     8.8063
  489.5000     2.4975     0.0774     0.0918    91.6348     8.2371   -30.5777     9.9086     8.8063
  490.0000     2.5094     0.0776     0.0977    89.1459     8.2371   -30.5777     9.8770     8.8063
  490.5000     2.5097     0.0761     0.0995    89.4825     8.2371   -30.5777     9.8456     8.8063
  491.0000     2.5144     0.0670     0.1019    88.7577     8.2371   -30.5777     9.8142     8.8064
  491.5000     2.5268     0.0643     0.1070    85.7379     8.2371   -30.5777     9.7829     8.8064
  492.0000     2.5429     0.0566     0.1123    84.4489     8.2371   -30.5777     9.7517     8.8061
  492.5000     2.5307     0.0720     0.1071    84.1459     8.2370   -30.5777     9.7207     8.8070
  493.0000     2.5109     0.0847     0.0998    83.8297     8.2370   -30.5777     9.6888     8.6933
  493.5000     2.4953     0.0854     0.0932    83.9116     8.2372   -30.5777     9.6588     8.6143
  494.0000     2.4969     0.0853     0.0949    84.6018     8.2453   -30.5769     9.5007     8.5362
  494.5000     2.4989     0.0826     0.0967    86.8025     8.2639   -30.5716     9.4039     8.4588
  495.0000     2.4970     0.0860     0.0986    88.4784     8.2824   -30.7761     9.3081     8.3822
  495.5000     2.4916     0.0894     0.0989    87.6149     8.3009   -31.0023     9.2133     8.3062
  496.0000     2.4834     0.0955     0.0914    87.3977     8.3172   -31.2266     9.1194     8.2464
  496.5000     2.4752     0.1020     0.0689    88.9576     8.3168   -31.3850     9.0259     8.2156
  497.0000     2.4670     0.1086     0.0532    90.4575     8.3166   -31.4070     8.9660     8.1849
  497.5000     2.4609     0.1053     0.0491    90.0749     8.3157   -31.4316     8.9551     8.1543
  498.0000     2.4584     0.1073     0.0448    89.5131     8.3577   -31.4556     8.9448     8.1238
  498.5000     2.4559     0.1133     0.0404    88.9559     8.4090   -31.4798     8.9343     8.0952
  499.0000     2.4556     0.1073     0.0416    88.4012     8.4152   -31.5040     8.9239     8.0692
  499.5000     2.4633     0.1015     0.0449    87.8460     8.3871   -31.5283     8.9134     8.0433
  500.0000     2.4706     0.0990     0.0444    87.3015     8.3596   -31.5525     8.9030     8.0174
  500.5000     2.4772     0.0966     0.0439    86.9835     8.3895   -31.5771     8.8929     7.9916
  501.0000     2.4765     0.0988     0.0433    87.2794     8.4281   -31.5991     8.8593     7.9659
  501.5000     2.4727     0.1016     0.0428    86.0892     8.4220   -31.6218     8.7762     7.9403
  502.0000     2.4731     0.0982     0.0423    84.4152     8.4030   -31.6444     8.6940     7.9148
  502.5000     2.4768     0.0952     0.0417    84.1872     8.3835   -31.6671     8.6125     7.8893
  503.0000     2.4805     0.0940     0.0412    87.0922     8.3643   -31.6898     8.5317     7.8640
  503.5000     2.4842     0.0932     0.0433    90.1413     8.3424   -31.7125     8.4786     7.8387
  504.0000     2.4879     0.0866     0.0469    92.4987     8.3190   -31.7352     8.4576     7.8135
  504.5000     2.4887     0.0897     0.0467    91.1203     8.2972   -31.7575     8.4367     7.7883
  505.0000     2.4857     0.0942     0.0416    90.0474     8.2967   -31.7732     8.4158     7.7633
  505.5000     2.4827     0.0949     0.0382    89.9176     8.2968   -31.7729     8.3292     7.8139
  506.0000     2.4838     0.0941     0.0366    89.7787     8.2967   -31.7729     8.2215     7.7317
  506.5000     2.4888     0.0882     0.0351    89.5063     8.2987   -31.7729     8.1150     7.6475
  507.0000     2.4964     0.0849     0.0381    87.8228     8.3160   -31.7729     8.0100     7.5642
  507.5000     2.5007     0.0790     0.0416    85.9555     8.3335   -31.7729     7.9063     7.4818
  508.0000     2.5027     0.0793     0.0450    85.3909     8.3510   -31.7729     7.8040     7.4003
  508.5000     2.5014     0.0841     0.0484    85.8432     8.3685   -31.7729     7.7030     7.3197
  509.0000     2.4926     0.0920     0.0490    86.2972     8.3858   -31.7729     7.6033     7.2400
  509.5000     2.4768     0.0929     0.0489    86.2748     8.3953   -31.7729     7.5049     7.1611
  510.0000     2.4818     0.0923     0.0544    86.2275     8.3918   -31.7729     7.4489     7.0927
  510.5000     2.4857     0.0918     0.0591    86.1828     8.3886   -31.7730     7.4247     7.0322
  511.0000     2.4847     0.0931     0.0588    86.1419     8.3853   -31.7730     7.4007     6.9722
  511.5000     2.4843     0.0942     0.0579    86.2807     8.3822   -31.7723     7.3767     6.9128
  512.0000     2.4842     0.0925     0.0571    86.6547     8.3788   -31.7338     7.3528     6.8698
  512.5000     2.4856     0.0906     0.0617    87.2258     8.3693   -31.6488     7.3266     6.8926
  513.0000     2.4871     0.0898     0.0671    88.4738     8.3391   -31.5410     7.2588     6.9107
  513.5000     2.4874     0.0911     0.0728    89.3637     8.3105   -31.2881     7.1844     6.9332
  514.0000     2.4859     0.0923     0.0786    87.0475     8.2113   -31.0263     7.1108     6.8990
  514.5000     2.4846     0.0965     0.0843    83.2477     8.0532   -30.9759     7.0379     6.8538
  515.0000     2.4721     0.1049     0.0898    81.3551     7.8961   -30.9754     6.9657     6.8089
  515.5000     2.4611     0.1066     0.1006    80.8989     7.7975   -30.9760     6.8945     6.7643
  516.0000     2.4518     0.1098     0.1144    82.2016     7.8147   -30.9761     6.8612     6.7200
  516.5000     2.4426     0.1217     0.1378    84.8653     7.9013   -30.9759     6.8437     6.6760
  517.0000     2.4402     0.1153     0.1514    86.7676     7.9866   -30.9762     6.8259     6.6323
  517.5000     2.4472     0.1058     0.1552    88.5191     8.0716   -30.9749     6.8070     6.5888
  518.0000     2.4485     0.1116     0.1500    90.2595     8.1564   -31.1526     6.7196     6.5172
  518.5000     2.4372     0.1230     0.1128    91.2674     8.2255   -31.4703     6.6278     6.3956
  519.0000     2.4379     0.1191     0.0905    89.0279     8.2544   -31.7882     6.5373     6.2762
  519.5000     2.4430     0.1134     0.0823    89.2239     8.2835   -32.0142     6.4479     6.1591
  520.0000     2.4517     0.1047     0.0801    89.1685     8.3124   -32.1093     6.3698     6.0432
