~VERSION INFORMATION
 VERS.                2.0:   CWLS LOG ASCII STANDARD - VERSION 2.0
 WRAP.                 NO:   ONE LINE PER DEPTH STEP
~WELL INFORMATION
#MNEM.UNIT      DATA TYPE    INFORMATION
#----------   ------------   ------------------------------
 STRT.F            7.0000:   START DEPTH
 STOP.F          690.0000:   STOP DEPTH
 STEP.F            0.5000:   STEP LENGTH
 NULL.          -999.2500:   NO VALUE
 COMP. FENIX & SCISSON INC:   COMPANY
 WELL.  NPR#3 #26-46 SX11:   WELL
 FLD .             TEAPOT:   FIELD
 LOC .      S11 T38N R78W:   LOCATION
 CNTY.            NATRONA:   COUNTY
 STAT.            WYOMING:   STATE
 CTRY. UNITED STATES OF AMERICA:   COUNTRY
 SRVC.      Dresser Atlas:   SERVICE COMPANY
 DATE.        13-AUG-1985:   LOGDATE
 API .       490251083600:   API NUMBER
~CURVE INFORMATION
#MNEM.UNIT       API CODE    CURVE DESCRIPTION
#----------   ------------   ------------------------------
 DEPT.F                  :   
 DPHI.DEC    45 890 12 00:   DENSITY POROSITY SANDSTONE
 NPHI.DEC    42 890 03 00:   NEUTRON POROSITY SANDSTONE
 RHOB.G/C3   45 350 01 00:   BULK DENSITY
 CORR.G/C3   45 356 01 00:   DENSITY CORRECTION
 CALD.IN     45 280 60 00:   CALIPER
 SPR .MV     07 010 01 00:   SPONTANEOUS POTENTIAL
 ILD .OHMM   07 120 46 00:   INDUCTION LOG DEEP
 ILM .OHMM   07 120 44 00:   INDUCTION LOG MEDIUM
 SFL .OHMM   07 220 01 00:   SHALLOW FOCUSED LOG RESISTIVITY
 GRR .GAPI   07 310 01 00:   GAMMA RAY FROM RES. LOG.
~PARAMETER INFORMATION
#MNEM.UNIT          VALUE    DESCRIPTION
#----------   ------------   ------------------------------
 PD  .                 GL:   PERMANENT DATUM
 EPD .F              5193:   ELEVATION PERMANENT DATUM
 LMF .                 KB:   LOG MEASURED FROM
 DAPD.F                 5:   FEET ABOVE PERMANENT DATUM
 DMF .                 KB:   DRILLING MEASURED FROM
 EKB .F              5198:   KELLING BUSHING
 EGL .F              5193:   GROUND LEVEL
 DATE.          8-13-1985:   RUN DATE
 RUN .                  8:   RUN NUMBER
 DD  .F               664:   DEPTH DRILLER
 BLI .F               635:   BOTTOM LOG INTERVAL
 TLI .F               340:   TOP LOG INTERVAL
 CBL .F               340:   CASING BOTTOM LOGGER
 BS  .IN             8.75:   BIT SIZE
 BSD .F               664:   BIT SIZE AT DEPTH
 DFT .          KPC WATER:   DRILLING FLUID TYPE
 LUN .           HL- 6274:   LOGGING UNIT NUMBER
 LUL .           GILLETTE:   LOGGING UNIT LOCATION
 ENGI.             RAUTIO:   RECORDING ENGINEER
 WITN.            SCHULTE:   WITNESSED BY
 CLNT.            A2DTECH:   CLIENT CODE
 ORIG.        2" 5" PRINT:   ORIGIN OF DATA
 UWI .       490251083600:   UNIQUE WELL ID
 DICO. A2D Technologies, Inc.:   DIGITIZING COMPANY
~OTHER INFORMATION
~A    DEPT    DPHI       NPHI       RHOB       CORR       CALD         SPR       ILD        ILM        SFL        GRR   
# ...
  375.5000     0.2009     0.3970     2.2905     0.1792     6.0427   -13.1283     6.6925     6.8438     8.0250   100.1029
  376.0000     0.2138     0.4183     2.2620     0.1687     6.0424   -13.1279     6.6952     6.7873     7.8965   100.9971
  376.5000     0.2244     0.4396     2.2335     0.1583     6.0420   -15.0074     6.5798     6.6771     8.1310   101.8896
  377.0000     0.2433     0.4611     2.2049     0.1502     6.0417   -17.1347     6.4022     6.4978     8.3447   102.1505
  377.5000     0.2673     0.4877     2.1764     0.1451     6.0414   -17.4353     6.2295     6.3233     7.8856    98.4207
  378.0000     0.2937     0.5318     2.1475     0.1382     6.0410   -15.2587     6.0604     6.1594     7.5288    94.7446
  378.5000     0.2982     0.5496     2.1184     0.1329     6.0407   -12.9688     5.8395     5.9776     7.3514    92.4177
  379.0000     0.2855     0.5161     2.1482     0.1332     6.0404   -12.7026     5.4366     5.7195     7.1005    93.8331
  379.5000     0.2552     0.4720     2.1942     0.1372     6.0400   -13.5457     5.0641     5.3697     6.7420    96.9694
  380.0000     0.2279     0.4373     2.2508     0.1530     6.0397   -14.6999     4.6797     4.9938     6.3999   100.1461
  380.5000     0.2117     0.4236     2.3152     0.1678     6.0394   -15.3617     4.1855     4.5200     6.0752   100.2877
  381.0000     0.2109     0.4177     2.3275     0.1652     6.0390   -14.3308     3.6418     4.0912     5.7656    97.6005
  381.5000     0.2047     0.3982     2.3352     0.1712     6.0387   -12.8954     3.1717     3.6919     5.4987    95.8675
  382.0000     0.1957     0.3714     2.3429     0.1832     6.0384   -13.0147     2.7892     3.3559     5.2434    96.0919
  382.5000     0.1842     0.3381     2.3503     0.1955     6.0380   -13.8571     2.5060     2.8211     4.8137    96.6876
  383.0000     0.1838     0.3214     2.3751     0.2020     6.0377   -14.7110     2.2682     2.4035     4.3241    97.3037
  383.5000     0.1842     0.3187     2.3692     0.2072     6.0374   -14.9537     2.1085     2.0937     3.8556    98.8819
  384.0000     0.1846     0.3266     2.3717     0.2123     6.0370   -13.3053     2.0231     1.8413     3.5602    99.0327
  384.5000     0.1813     0.3352     2.3747     0.2174     6.0367   -12.1031     2.0702     1.8438     3.2645    98.3201
  385.0000     0.1834     0.3352     2.3758     0.2226     6.0363   -12.1233     2.1384     1.8279     3.2346    99.0899
  385.5000     0.1854     0.3402     2.3722     0.2277     6.0360   -12.1230     2.2443     1.9975     3.6995    99.8802
  386.0000     0.1875     0.3506     2.3686     0.2330     6.0357   -12.0494     2.4319     2.2018     4.3052    97.9957
  386.5000     0.1896     0.3641     2.3649     0.2334     6.0353   -11.9656     2.7433     2.4335     5.6296    94.0360
  387.0000     0.1954     0.3776     2.3537     0.2245     6.0350   -12.0486     3.1927     2.7959     5.6123    90.0165
  387.5000     0.2101     0.3968     2.3276     0.2133     6.0347   -12.2984     3.7157     3.2124     5.5156    88.4223
  388.0000     0.2295     0.4007     2.3016     0.2020     6.0343   -12.5517     4.2238     3.6908     6.9331    88.2729
  388.5000     0.2503     0.3833     2.2759     0.1809     6.0340   -12.9933     4.6661     4.1852     7.4724    94.1259
  389.0000     0.2500     0.3725     2.2580     0.1571     6.0337   -13.9276     5.0441     4.6635     7.1451   100.7214
  389.5000     0.2323     0.3689     2.2827     0.1442     6.0333   -14.8287     5.2101     4.8639     6.8748   101.2447
  390.0000     0.2072     0.3685     2.3162     0.1426     6.0330   -14.0300     5.3654     5.0772     6.7911   100.7163
  390.5000     0.1932     0.3603     2.3565     0.2010     6.0327   -13.0312     5.3400     5.1080     6.7531   100.4602
  391.0000     0.2013     0.3670     2.3423     0.2005     6.0323   -13.0097     5.2969     5.1396     6.8155   101.6991
  391.5000     0.2135     0.3837     2.3208     0.1982     6.0320   -13.1965     5.2532     5.1715     7.0710   105.2799
  392.0000     0.2195     0.3956     2.2987     0.1964     6.0317   -13.8657     5.1752     5.0827     7.2510   108.7713
  392.5000     0.2144     0.3846     2.2900     0.2214     6.0313   -13.3283     4.9630     4.9953     7.5414   111.9289
  393.0000     0.2066     0.3692     2.3117     0.2266     6.0310   -12.7250     4.7594     4.9093     7.5414   110.7720
  393.5000     0.2031     0.3580     2.3270     0.2328     6.0307   -12.8171     4.5642     4.6867     6.6688   108.8997
  394.0000     0.2030     0.3474     2.3417     0.2382     6.0303   -12.8970     4.3822     4.5407     5.9085   108.0002
  394.5000     0.2095     0.3265     2.3296     0.2304     6.0300   -13.1607     4.3070     4.5272     5.3654   109.0981
  395.0000     0.2216     0.3121     2.3145     0.2239     6.0297   -13.1117     4.2238     4.5136     5.8465   110.1592
  395.5000     0.2331     0.3149     2.2996     0.2174     6.0293   -12.6820     4.2421     4.5002     6.5121   111.2168
  396.0000     0.2368     0.3248     2.2861     0.2108     6.0290   -12.2477     4.2629     4.4868     6.1049   111.9052
  396.5000     0.2365     0.3341     2.2851     0.2125     6.0286   -12.1254     4.4186     4.4737     6.4059   111.1223
  397.0000     0.2381     0.3362     2.2841     0.2147     6.0283   -12.1235     4.6085     4.4641     6.8983   108.0071
  397.5000     0.2400     0.3392     2.2807     0.2156     6.0280   -12.1240     4.8065     4.6061     7.0710   104.1982
  398.0000     0.2410     0.3444     2.2771     0.2165     6.0276   -12.1242     5.0120     4.7224     6.4045   100.7364
  398.5000     0.2463     0.3459     2.2686     0.2175     6.0273   -12.1241     5.2184     4.9173     6.2164   102.2423
  399.0000     0.2571     0.3416     2.2534     0.2101     6.0270   -12.1208     5.4160     5.1613     6.8155   104.6921
  399.5000     0.2679     0.3330     2.2383     0.1994     6.0266   -12.3016     5.6231     5.4173     7.4743   105.5805
  400.0000     0.2740     0.3262     2.2233     0.1912     6.0270   -12.5519     5.8381     5.6861     7.6201   105.7960
  400.5000     0.2742     0.3273     2.2277     0.1987     6.0280   -12.8054     6.0372     5.9369     7.7090   106.0023
  401.0000     0.2632     0.3332     2.2344     0.1987     6.0291   -12.8972     6.1875     6.0638     7.7811   105.9388
  401.5000     0.2658     0.3377     2.2373     0.2031     6.0301   -12.8486     6.3416     6.2064     7.8369   104.2411
  402.0000     0.2703     0.3370     2.2303     0.1947     6.0312   -12.7981     6.5090     6.3318     7.8965   102.6546
  402.5000     0.2738     0.3348     2.2234     0.1919     6.0322   -12.7470     6.4283     6.2494     7.7859   103.5129
  403.0000     0.2727     0.3394     2.2230     0.1980     6.0332   -12.7467     6.3435     6.1628     7.6701   108.2785
  403.5000     0.2721     0.3575     2.2246     0.1999     6.0343   -12.8033     6.2598     6.0775     7.5560   111.1750
  404.0000     0.2770     0.3805     2.2139     0.2005     6.0353   -12.8596     6.1773     5.9917     7.4435   109.1635
  404.5000     0.2869     0.4043     2.2017     0.1911     6.0364   -12.9162     6.0543     5.8925     7.3328   107.2562
  405.0000     0.2950     0.3948     2.1873     0.1845     6.0374   -12.9730     5.9225     5.7930     7.2233   107.1573
  405.5000     0.2922     0.3784     2.1977     0.1840     6.0384   -13.0314     5.7936     5.6951     7.1623   107.3619
  406.0000     0.2765     0.3619     2.2176     0.1906     6.0395   -13.0839     5.6693     5.5989     7.1125   108.7639
  406.5000     0.2622     0.3455     2.2375     0.2045     6.0405   -12.9487     5.4367     5.5043     7.0630   110.6307
  407.0000     0.2550     0.3392     2.2508     0.2100     6.0416   -12.1801     5.2161     5.4150     7.0140   112.4769
  407.5000     0.2531     0.3364     2.2565     0.2136     6.0426   -11.5032     5.0051     5.3178     6.8943   112.1067
  408.0000     0.2544     0.3409     2.2548     0.2116     6.0437   -11.5200     4.7734     5.1177     6.7637   108.4548
  408.5000     0.2556     0.3529     2.2531     0.2076     6.0447   -11.5230     4.5195     4.8035     6.6355   104.8326
