~VERSION INFORMATION
 VERS.                2.0:   CWLS LOG ASCII STANDARD - VERSION 2.0
 WRAP.                 NO:   ONE LINE PER DEPTH STEP
~WELL INFORMATION
#MNEM.UNIT      DATA TYPE    INFORMATION
#----------   ------------   ------------------------------
 STRT.F            0.0000:   START DEPTH
 STOP.F          883.0000:   STOP DEPTH
 STEP.F            0.5000:   STEP LENGTH
 NULL.          -999.2500:   NO VALUE
 COMP.       F D SERV INC:   COMPANY
 WELL. N P R 3 SX-35 #26-1-35:   WELL
 FLD .             TEAPOT:   FIELD
 LOC .      S35 T39N R78W:   LOCATION
 CNTY.            NATRONA:   COUNTY
 STAT.            WYOMING:   STATE
 CTRY. UNITED STATES OF AMERICA:   COUNTRY
 SRVC.     Atlas Wireline:   SERVICE COMPANY
 DATE.        21-NOV-1991:   LOGDATE
 API .       490252247800:   API NUMBER
~CURVE INFORMATION
#MNEM.UNIT       API CODE    CURVE DESCRIPTION
#----------   ------------   ------------------------------
 DEPT.F                  :   
 GRR .GAPI   07 310 01 00:   GAMMA RAY
 RILD.OHMM   07 120 46 00:   INDUCTION LOG DEEP RESISTIVITY
 RILM.OHMM   07 120 44 00:   INDUCTION LOG MEDIUM RESISTIVITY
 SPR .MV     07 010 01 00:   SPONTANEOUS POTENTIAL
 RFOC.OHMM   07 270 04 00:   RESISTIVITY FOCUSED LOG
~PARAMETER INFORMATION
#MNEM.UNIT          VALUE    DESCRIPTION
#----------   ------------   ------------------------------
 PD  .                 GL:   PERMANENT DATUM
 EPD .F              5098:   ELEVATION PERMANENT DATUM
 LMF .                 KB:   LOG MEASURED FROM
 DAPD.F                10:   FEET ABOVE PERMANENT DATUM
 DMF .                 KB:   DRILLING MEASURED FROM
 EKB .F              5108:   KELLING BUSHING
 EGL .F              5098:   GROUND LEVEL
 DATE.        21-NOV-1991:   RUN DATE
 RUN .                  1:   RUN NUMBER
 DD  .F               939:   DEPTH DRILLER
 DL  .F               887:   DEPTH LOGGER
 BLI .F               884:   BOTTOM LOG INTERVAL
 CS  .IN            9.625:   CASING SIZE
 CBD .F                40:   CASING BOTTOM DRILLER
 CBL .F                47:   CASING BOTTOM LOGGER
 BS  .IN             8.75:   BIT SIZE
 BSD .F               939:   BIT SIZE AT DEPTH
 DFT .               LSND:   DRILLING FLUID TYPE
 MSS .            MUDTANK:   MUD SAMPLE SOURCE
 RMS .OHMM           0.32:   RESISTIVITY MUD SAMPLE
 MST .F                90:   MUD SAMPLE TEMPERATURE
 RMB .OHMM           0.27:   RESISTIVITY MUD AT BHT
 BHT .F               103:   BOTTOM HOLE TEMPERATURE
 TCS .HRS               2:   TIME CURCULATED STOPPED
 MRT .F               103:   MAXIMUM RECORDED TEMPERATURE
 LUN .            HL 6307:   LOGGING UNIT NUMBER
 LUL .             CASPER:   LOGGING UNIT LOCATION
 ENGI.            WADDELL:   RECORDING ENGINEER
 WITN.             STRONG:   WITNESSED BY
 CLNT.            A2DTECH:   CLIENT CODE
 ORIG.           5" PRINT:   ORIGIN OF DATA
 UWI .       490252247800:   UNIQUE WELL ID
 DICO. A2D Technologies, Inc.:   DIGITIZING COMPANY
~OTHER INFORMATION
~A    DEPT      GRR      RILD       RILM        SPR       RFOC   
# ...
  488.0000   117.1517     7.0256     7.8145   -47.6611     7.6736
  488.5000   114.6287     7.0222     7.9248   -47.5211     7.7785
  489.0000   113.0199     7.0181     8.1389   -47.5329     8.0573
  489.5000   112.7808     7.0148     8.3649   -47.0894     8.2157
  490.0000   116.8586     7.0606     8.5385   -46.6488     8.2101
  490.5000   121.9142     7.0573     8.2400   -46.5058     8.1485
  491.0000   127.7496     7.0539     7.9530   -46.0653     8.0874
  491.5000   126.8237     7.0506     7.7839   -45.7735     8.1408
  492.0000   124.3045     7.0973     7.6718   -45.6305     8.1924
  492.5000   122.0129     7.1429     7.4981   -45.8885     8.1280
  493.0000   117.6728     7.0891     7.2461   -46.1978     8.0126
  493.5000   112.1946     7.0365     7.1418   -46.3555     8.2353
  494.0000   105.0925     6.9842     7.0882   -46.5131     8.1735
  494.5000   103.5143     6.8841     7.0351   -46.5190     7.9439
  495.0000   108.7328     6.8810     7.0313   -46.6768     7.7207
  495.5000   119.8072     6.9744     7.0768   -46.9875     7.6095
  496.0000   125.7695     6.9702     7.1225   -47.1451     7.7665
  496.5000   124.3883     6.9669     7.2243   -47.1510     7.9267
  497.0000   123.6901     6.9637     7.3153   -47.0037     8.1459
  497.5000   122.9918     6.9604     7.3635   -47.0110     8.2561
  498.0000   122.7488     6.9087     7.3586   -46.8649     8.1810
  498.5000   121.1401     6.8574     7.2021   -46.4158     8.0198
  499.0000   122.3034     6.8519     7.0490   -46.1182     7.7945
  499.5000   124.9749     6.7551     6.8991   -45.6704     7.6822
  500.0000   126.5567     6.7524     6.7998   -45.2210     7.6245
  500.5000   121.3022     6.7018     6.7960   -44.7702     7.6203
  501.0000   119.4659     6.6986     6.8400   -44.6243     7.7766
  501.5000   120.1333     6.6488     7.1278   -44.3282     7.8828
  502.0000   121.2560     6.5535     7.3267   -44.0303     7.8775
  502.5000   122.6100     6.4596     7.1201   -44.0365     7.8184
  503.0000   124.2534     6.2780     6.8243   -44.0425     7.6521
  503.5000   125.9859     6.0597     6.6792   -43.7463     7.5418
  504.0000   127.7914     5.8900     6.6285   -43.9039     7.3278
  504.5000   130.9627     5.7251     6.4366   -44.2133     7.1569
  505.0000   129.1263     5.5647     6.1745   -45.1296     6.8747
  505.5000   127.9728     5.4089     6.1282   -45.7425     6.6816
  506.0000   130.3421     5.4462     6.2376   -46.2036     6.4487
  506.5000   131.4753     5.5176     6.3680   -46.0577     6.2675
  507.0000   129.4184     5.5925     6.4566   -46.0637     6.1342
  507.5000   125.9976     5.6692     6.5461   -45.7660     6.6161
  508.0000   123.9241     5.7455     6.6833   -45.3182     6.9114
  508.5000   120.3816     5.8236     6.7756   -44.8688     7.2431
  509.0000   115.7333     5.8208     6.8217   -44.8747     7.3443
  509.5000   113.6781     5.8999     6.4045   -44.7274     7.1908
  510.0000   113.2179     5.9377     6.2272   -44.4298     7.0406
  510.5000   115.9410     5.9349     6.3135   -44.1336     7.0893
  511.0000   117.5277     5.9321     6.4906   -44.1395     7.2890
  511.5000   118.4317     5.9716     6.6267   -43.9681     7.4424
  512.0000   118.8893     5.9265     6.7185   -43.8478     7.3379
  512.5000   115.1553     5.9237     6.8594   -43.8552     7.2351
  513.0000   107.7120     5.9624     6.9060   -44.0128     7.1722
  513.5000   105.6585     5.9589     6.9043   -44.0187     7.0337
  514.0000   114.2997     5.9561     6.8548   -44.1763     6.9838
  514.5000   121.3492     5.9466     6.8058   -44.4857     6.9342
  515.0000   124.5293     5.9242     6.8524   -44.9469     7.0309
  515.5000   122.0188     5.9006     6.7557   -45.4320     7.0364
  516.0000   120.1912     5.9416     6.7543   -46.0223     7.1335
  516.5000   123.3697     5.9842     6.7561   -46.3317     7.2270
  517.0000   127.4602     6.1090     6.8462   -46.6411     7.3791
  517.5000   125.4050     6.1945     6.8927   -46.4937     7.5344
  518.0000   121.0736     6.2375     6.9396   -46.1961     7.8560
  518.5000   119.2461     6.2370     6.9872   -45.9000     7.8549
  519.0000   119.0118     6.3243     7.0347   -45.5994     7.7412
  519.5000   118.5500     6.3239     7.0330   -45.2832     7.6361
  520.0000   120.1975     6.3235     7.0315   -45.0072     7.5819
  520.5000   123.0891     6.2790     6.9811   -44.7111     7.4756
  521.0000   122.8532     6.1914     6.9794   -44.4120     7.3709
  521.5000   121.2533     6.1479     6.9294   -43.9641     7.1667
  522.0000   119.1981     6.0623     6.9280   -43.6650     7.0171
  522.5000   116.2324     6.0197     6.9266   -43.5205     6.9673
  523.0000   114.4049     6.0193     6.9252   -43.5266     7.0152
  523.5000   113.7154     6.0610     6.9238   -43.3807     7.0175
  524.0000   113.9364     6.0381     6.9725   -43.8433     7.0625
  524.5000   119.6186     6.0180     7.0184   -44.0009     7.0121
  525.0000   128.2614     6.1023     6.9193   -44.4620     6.9623
  525.5000   130.3050     6.1446     6.8697   -45.0749     6.9614
  526.0000   126.6549     6.1441     6.8205   -45.5360     6.9605
  526.5000   122.7787     6.1437     6.8192   -45.6937     6.9594
  527.0000   121.8616     6.1433     6.7703   -45.6996     6.9585
  527.5000   123.6760     6.0576     6.7690   -45.7056     6.9819
  528.0000   126.1943     6.0151     6.7675   -45.4093     7.0054
  528.5000   125.4820     5.9727     6.7659   -45.1102     7.0536
  529.0000   125.4754     5.9308     6.7176   -44.8126     7.1020
  529.5000   126.1533     5.9720     6.7161   -44.4697     7.1009
  530.0000   125.6898     5.9715     6.7147   -44.2174     7.1499
  530.5000   124.0898     5.9711     6.7134   -43.9211     7.1488
  531.0000   122.0347     5.9707     6.7120   -43.7754     7.1478
  531.5000   120.8900     5.9703     6.7106   -43.6296     7.1468
  532.0000   122.5494     5.9698     6.7089   -43.4837     7.1458
  532.5000   125.1998     5.8866     6.6609   -43.3379     7.1447
  533.0000   126.5589     5.8767     6.6132   -43.3452     7.1438
  533.5000   125.6418     5.8449     6.6119   -43.5029     7.0929
  534.0000   124.7247     5.8038     6.5645   -43.5088     7.0921
  534.5000   123.5800     5.8034     6.6092   -43.8181     7.0910
  535.0000   123.3458     5.8030     6.6541   -44.1275     7.0901
  535.5000   123.7944     5.8320     6.6466   -44.5888     7.0891
  536.0000   124.4706     5.8875     6.5589   -45.0512     7.0386
  536.5000   124.2347     5.9246     6.5119   -45.5124     6.9887
  537.0000   123.5452     5.9242     6.6021   -45.9735     6.9391
  537.5000   122.4005     5.9238     6.6474   -46.1311     6.9381
  538.0000   120.5730     5.9549     6.7395   -45.9838     6.8824
  538.5000   117.3797     6.0062     6.8326   -45.8391     6.8398
  539.0000   113.7312     6.0493     6.9273   -45.6935     6.9837
  539.5000   115.3209     6.0899     7.0229   -45.3043     7.4360
  540.0000   116.6770     6.1321     7.0215   -44.9476     8.1992
  540.5000   115.0754     6.1746     7.0201   -44.5825     8.1410
  541.0000   112.3374     6.1872     7.0186   -44.2011     7.8604
  541.5000   113.0136     6.2236     7.0172   -43.9020     7.3187
  542.0000   120.9736     6.3040     7.0158   -43.6044     7.1256
  542.5000   122.7896     6.3036     7.0144   -43.4586     7.2756
  543.0000   118.4566     6.3046     7.0129   -43.6177     7.5336
  543.5000   118.2223     6.3469     7.0114   -43.9272     7.6386
  544.0000   121.4691     6.3464     6.9610   -44.0862     7.7448
  544.5000   120.9389     6.3460     6.9596   -44.2438     7.7437
  545.0000   120.7046     6.3014     6.9581   -44.7049     7.6887
  545.5000   121.3809     6.2571     6.8603   -45.0143     7.5247
  546.0000   119.7809     6.1699     6.7637   -45.3237     7.3641
  546.5000   118.8655     6.0811     6.7122   -45.7848     7.1167
  547.0000   121.1334     5.9573     6.5744   -45.9424     6.9196
  547.5000   122.9477     5.8334     6.4819   -46.1002     6.8705
  548.0000   122.9044     5.7121     6.3908   -46.4097     6.9180
  548.5000   121.7947     5.5157     6.3008   -46.5671     6.8686
