~VERSION INFORMATION
 VERS.                2.0:   CWLS LOG ASCII STANDARD - VERSION 2.0
 WRAP.                 NO:   ONE LINE PER DEPTH STEP
~WELL INFORMATION
#MNEM.UNIT      DATA TYPE    INFORMATION
#----------   ------------   ------------------------------
 STRT.F           80.0000:   START DEPTH
 STOP.F         1011.0000:   STOP DEPTH
 STEP.F            0.5000:   STEP LENGTH
 NULL.          -999.2500:   NO VALUE
 COMP.          U.S. NAVY:   COMPANY
 WELL. RES 3 TEAPOT DOM #61S-11:   WELL
 FLD .             TEAPOT:   FIELD
 LOC .      S11 T38N R78W:   LOCATION
 CNTY.            NATRONA:   COUNTY
 STAT.            WYOMING:   STATE
 CTRY. UNITED STATES OF AMERICA:   COUNTRY
 SRVC.       Schlumberger:   SERVICE COMPANY
 DATE.        23-JUL-1964:   LOGDATE
 API .       490250637500:   API NUMBER
~CURVE INFORMATION
#MNEM.UNIT       API CODE    CURVE DESCRIPTION
#----------   ------------   ------------------------------
 DEPT.F                  :   
 CALS.IN     60 280 50 00:   CALIPER FROM SONIC LOG
 DT  .US/F   60 520 33 00:   INTERVAL TRANSIT TIME
 GR  .GAPI   30 310 01 00:   GAMMA RAY
 CILD.MMHO   05 110 46 00:   CONDUCTIVITY INDUCTION LOG DEEP
 ILD .OHMM   05 120 46 00:   INDUCTION LOG DEEP
 ASN .OHMM   05 041 16 00:   AMPLIFIED SHORT NORMAL 16"
 SPR .MV     05 010 01 00:   SPONTANEOUS POTENTIAL FROM RES.
~PARAMETER INFORMATION
#MNEM.UNIT          VALUE    DESCRIPTION
#----------   ------------   ------------------------------
 PD  .                 GL:   PERMANENT DATUM
 EPD .F              5199:   ELEVATION PERMANENT DATUM
 LMF .                 KB:   LOG MEASURED FROM
 DAPD.F                 5:   FEET ABOVE PERMANENT DATUM
 DMF .                 KB:   DRILLING MEASURED FROM
 EKB .F              5204:   KELLING BUSHING
 EGL .F              5199:   GROUND LEVEL
 DATE.          7-23-1964:   RUN DATE
 RUN .                  1:   RUN NUMBER
 DD  .F              1010:   DEPTH DRILLER
 DL  .F              1012:   DEPTH LOGGER
 BLI .F              1011:   BOTTOM LOG INTERVAL
 TLI .F                88:   TOP LOG INTERVAL
 CS  .IN            8.625:   CASING SIZE
 CBD .F                10:   CASING BOTTOM DRILLER
 BS  .IN             6.75:   BIT SIZE
 BSD .F              1010:   BIT SIZE AT DEPTH
 DFT .            GEL-OIL:   DRILLING FLUID TYPE
 DFD .                9.8:   DRILLING FLUID DENSITY
 DFV .                 54:   DRILLING FLUID VISCOSITY
 MSS .           FLOWLINE:   MUD SAMPLE SOURCE
 RMS .OHMM           1.47:   RESISTIVITY MUD SAMPLE
 MST .F                86:   MUD SAMPLE TEMPERATURE
 RMF .OHMM            .96:   RESISTIVITY MUD FILTRATE SAMPLE
 MFST.F                86:   MUD FILTRATE SAMPLE TEMPERATURE
 RMC .OHMM           2.10:   RESISTIVITY MUD CAKE
 MCST.F                86:   MUD CAKE SAMPLE TEMPERATURE
 MFSS.                 FP:   MUD FILTRATE SAMPLE SOURCE
 MCSS.                 FP:   MUD CAKE SAMPLE SOURCE
 TCS .HRS               2:   TIME CURCULATED STOPPED
 LUN .               4507:   LOGGING UNIT NUMBER
 LUL .              CSPR.:   LOGGING UNIT LOCATION
 ENGI.             DANNER:   RECORDING ENGINEER
 WITN.          JORGENSEN:   WITNESSED BY
 CLNT.            A2DTECH:   CLIENT CODE
 ORIG.      2" & 5" PRINT:   ORIGIN OF DATA
 UWI .       490250637500:   UNIQUE WELL ID
 DICO. A2D Technologies, Inc.:   DIGITIZING COMPANY
~OTHER INFORMATION
~A   DEPT     CALS         DT         GR        CILD         ILD        ASN      SPR   
# ...
  489.5000     6.7345   140.4963    34.4423   351.4581     2.9455     3.4610   -30.4734
  490.0000     6.7345   127.9218    33.0631   286.4052     3.6145     3.6230   -31.0599
  490.5000     6.6742   120.3924    31.3872   216.5000     5.3431     5.1985   -31.7715
  491.0000     6.4781   113.9926    30.8290   147.1931     7.0716     6.5348   -32.2045
  491.5000     6.1011   104.8065    33.4555   112.4967     8.8540     7.3338   -32.2059
  492.0000     5.8899    99.9880    36.8230    99.1061    10.3093     8.0969   -32.4950
  492.5000     5.8446    98.4074    34.2744    93.8923    10.6038     8.7233   -32.8033
  493.0000     5.8446    98.0317    32.6068    97.5850    10.4556     9.3225   -33.0736
  493.5000     5.8748    97.7312    37.1530   102.1205     9.7938     9.4551   -32.9311
  494.0000     5.9502    96.6025    35.3373   110.7711     8.8365     9.4845   -32.5005
  494.5000     6.0709    95.4737    32.2883   126.5440     7.6775     9.3520   -31.9266
  495.0000     6.2670    94.4955    35.5844   142.3169     5.9358     8.9985   -31.7844
  495.5000     6.5385    94.3455    38.1310   158.0898     5.4231     8.4288   -31.6416
  496.0000     6.7044    95.3253    38.7271   175.4810     5.2043     7.6683   -31.3552
  496.5000     6.7496    97.5851    34.5154   189.5793     5.0599     6.7747   -30.7813
  497.0000     6.7496   103.0076    33.7586   194.7749     5.0559     6.4654   -30.3435
  497.5000     6.7496   104.5896    36.7557   197.7165     5.0724     5.6554   -30.0647
  498.0000     6.7496   108.1295    36.2992   192.4158     5.2906     5.4492   -29.9221
  498.5000     6.7345   108.7538    32.9899   177.7081     5.6617     6.6084   -30.4994
  499.0000     6.7345   107.8298    29.5305   163.0004     6.3272     7.6141   -30.9324
  499.5000     6.7195   107.6047    30.1251   148.2927     7.0664     8.0412   -31.5267
  500.0000     6.7345   102.1084    31.3218   133.5849     7.9529     8.5404   -31.9618
  500.5000     6.7272   100.9789    33.2717   119.5931     8.6191     8.8094   -32.2077
  501.0000     6.7192    98.7199    36.1230   111.4032     8.9901     9.0785   -32.4536
  501.5000     6.7341    98.1928    33.5690   106.1850     9.1402     9.3258   -32.8102
  502.0000     6.7490    99.6988    33.1174   103.1912     9.2167     9.5634   -33.0994
  502.5000     6.7338    99.9247    36.1185   100.9448     9.4404     9.8009   -33.5324
  503.0000     6.5677    99.6988    39.1200    99.4413     9.8999    10.0564   -33.8216
  503.5000     6.4922    99.0964    39.4768    97.9378    10.3304    10.3245   -34.1110
  504.0000     6.4769    98.7199    37.6156    96.4339    10.4069    10.5925   -34.2563
  504.5000     6.4919    98.5693    35.2117    94.9264    10.4097    10.9024   -34.2577
  505.0000     6.4917    98.7952    35.3604    94.1659    10.3381    11.0812   -34.2590
  505.5000     6.4915    99.5482    34.3078    93.4053    10.2680    11.2931   -34.4043
  506.0000     6.5065   100.3012    33.9080    93.3877    10.1236    11.4929   -34.6938
  506.5000     6.5214   100.9036    33.8543    93.3657    10.0527    11.4933   -34.8390
  507.0000     6.5393   101.5060    33.1021    93.3481     9.9819    11.5673   -35.2721
  507.5000     6.5664   101.9578    33.8564    93.3305    10.0591    11.5678   -35.5612
  508.0000     6.5662   102.2590    33.6959    93.3129    10.2828    11.6418   -35.8503
  508.5000     6.5661   102.6355    36.2519    93.2297    10.6710    11.7896   -35.5643
  509.0000     6.5659   102.7861    36.5536    91.0445    11.1728    11.9373   -35.4214
  509.5000     6.5658   102.4849    37.9554    89.5410    11.3965    12.0114   -35.2789
  510.0000     6.5656   101.8072    43.3836    87.2946    11.5466    12.1591   -34.8490
  510.5000     6.5655   100.3765    47.9565    86.5340    11.5494    12.2331   -34.7065
  511.0000     6.5502    98.2681    46.7754    85.3633    11.5523    12.3808   -34.7082
  511.5000     6.5350    96.7620    45.2508    86.0708    11.5558    12.4550   -34.8535
  512.0000     6.5348    95.6325    48.1022    85.2836    11.5586    12.5291   -34.9987
  512.5000     6.5824    94.9548    48.3010    84.5052    11.5614    12.6768   -35.4317
  513.0000     6.6563    94.8042    49.7788    83.7269    11.7115    12.7508   -35.7209
  513.5000     6.6852    94.7289    50.5001    83.6914    11.7880    12.8279   -36.0287
  514.0000     6.6533    96.1596    47.7955    82.9123    11.8645    13.0463   -36.4434
  514.5000     6.5630    97.5151    50.1964    81.3829    11.9416    13.1204   -36.7325
  515.0000     6.5038    97.9669    51.0962    80.6045    12.0917    13.2681   -37.0217
  515.5000     6.5036    98.1175    48.6919    80.5691    12.1681    13.4158   -37.1669
  516.0000     6.5035    97.8163    44.7865    79.0477    12.3182    13.5635   -37.0244
  516.5000     6.5033    97.5904    38.1784    77.5260    12.3984    13.7230   -37.1700
  517.0000     6.5032    97.3645    37.2760    75.9962    12.8141    13.9326   -37.6031
  517.5000     6.4879    97.3645    33.2205    74.4749    13.2606    14.1540   -37.8922
  518.0000     6.4882    97.4398    32.9191    72.9536    14.0241    14.3016   -38.3252
  518.5000     6.4720    97.5904    35.4697    71.4323    14.6160    14.5966   -38.6186
  519.0000     6.5026    98.1175    38.6214    69.9010    15.1343    14.8249   -39.0477
  519.5000     6.5326    98.7199    40.5719    67.6378    15.5053    15.1867   -39.4808
  520.0000     6.5626    97.8916    34.8647    65.3736    15.7290    15.6289   -39.6260
  520.5000     6.5775    94.5783    34.4127    63.8523    15.8798    16.0712   -39.3396
  521.0000     6.5623    93.4488    35.7626    62.3310    15.9563    16.5871   -38.9094
  521.5000     6.5320    93.2982    37.2626    62.2955    15.8854    17.0332   -39.1988
  522.0000     6.5318    93.8253    35.0088    62.2512    15.8139    17.3244   -39.7758
  522.5000     6.5618    92.6958    36.2085    61.4728    15.5965    17.1039   -40.4966
  523.0000     6.5315    92.3193    39.6605    61.4374    15.2975    16.9569   -40.4979
  523.5000     6.4861    96.0843    43.8632    61.4020    14.8665    16.7365   -40.4993
  524.0000     6.4860    99.3223    45.5134    62.8524    14.5747    16.6633   -40.6446
  524.5000     6.4707   100.1506    46.2630    65.0458    14.3567    16.6530   -41.3657
  525.0000     6.4706   100.4518    47.4623    66.4874    14.2115    16.4434   -42.3743
  525.5000     6.4704   101.8825    49.8632    66.4520    14.0677    16.2229   -42.6634
  526.0000     6.4703   103.6898    49.1110    67.1683    13.9969    16.0024   -42.3770
  526.5000     6.4852   103.6898    44.3051    67.8678    14.0741    15.7083   -41.7928
  527.0000     6.4851   103.4639    46.5558    67.0877    14.2978    15.4878   -41.5165
  527.5000     6.4849   103.8404    44.0014    67.0443    14.5215    15.3409   -41.5182
  528.0000     6.4999   104.9699    46.8528    66.2659    14.8189    15.3414   -41.8073
  528.5000     6.4997   105.0452    47.4520    66.9823    14.9041    15.3419   -41.2332
  529.0000     6.4995   104.6687    48.2011    66.1951    15.1198    15.4159   -41.2316
  529.5000     6.5145   104.5934    51.6531    65.4161    15.1962    15.4163   -40.8046
  530.0000     6.5143   104.8193    49.6996    64.6295    15.1991    15.4905   -40.2304
  530.5000     6.5293   103.5392    48.7803    63.8511    15.1282    15.4909   -39.7998
  531.0000     6.5265   102.3343    52.3994    64.5586    14.7604    15.4914   -40.6648
  531.5000     6.5235   102.0331    55.1006    64.5232    14.1036    15.4180   -41.3202
  532.0000     6.5204   102.0331    55.2573    65.9736    13.5801    15.2713   -41.8189
  532.5000     6.5174   102.3343    54.6471    68.9011    12.7028    15.1146   -41.6764
  533.0000     6.5144   103.0873    54.6456    76.9006    11.8256    14.5359   -40.9583
  533.5000     6.5114   103.4639    54.7976    86.6887    10.9484    13.7347   -40.6627
  534.0000     6.5084   103.2380    59.0169    96.4769    10.0712    12.5195   -39.5226
  534.5000     6.5053   102.7861    60.6612   106.2587     9.1940    11.0762   -37.7973
