~VERSION INFORMATION
 VERS.                2.0:   CWLS LOG ASCII STANDARD - VERSION 2.0
 WRAP.                 NO:   ONE LINE PER DEPTH STEP
~WELL INFORMATION
#MNEM.UNIT      DATA TYPE    INFORMATION
#----------   ------------   ------------------------------
 STRT.F           30.0000:   START DEPTH
 STOP.F          691.0000:   STOP DEPTH
 STEP.F            0.5000:   STEP LENGTH
 NULL.          -999.2500:   NO VALUE
 COMP. U.S. DEPARTMENT OF ENERGY:   COMPANY
 WELL. NAVAL PETROLEUM RESERVE #3 #77-S-34:   WELL
 FLD .        TEAPOT DOME:   FIELD
 LOC .      S34 T39N R78W:   LOCATION
 CNTY.            NATRONA:   COUNTY
 STAT.            WYOMING:   STATE
 CTRY. UNITED STATES OF AMERICA:   COUNTRY
 SRVC.              Welex:   SERVICE COMPANY
 DATE.        26-APR-1977:   LOGDATE
 API .       490251034700:   API NUMBER
~CURVE INFORMATION
#MNEM.UNIT       API CODE    CURVE DESCRIPTION
#----------   ------------   ------------------------------
 DEPT.F                  :   
 CALD.IN     45 280 60 00:   CALIPER FROM DENSITY LOG
 CORR.G/C3   45 356 01 00:   DENSITY CORRECTION
 DPHI.DEC    45 890 12 00:   DENSITY POROSITY SANDSTONE
 RHOB.G/C3   45 350 01 00:   BULK DENSITY
 GRD .GAPI   45 310 01 00:   GAMMA RAY FROM DENSITY LOG
 ILD .OHMM   07 120 46 00:   INDUCTION LOG DEEP
 ILM .OHMM   07 120 44 00:   INDUCTION LOG MEDIUM
 SGRD.OHMM   07 220 05 00:   SHALLOW GUARD RESISTIVITY
 SPR .MV     07 010 01 00:   SPONTANEOUS POTENTIAL FROM RES.
~PARAMETER INFORMATION
#MNEM.UNIT          VALUE    DESCRIPTION
#----------   ------------   ------------------------------
 PD  .                 GL:   PERMANENT DATUM
 EPD .F              5075:   ELEVATION PERMANENT DATUM
 LMF .                 GL:   LOG MEASURED FROM
 DMF .                 GL:   DRILLING MEASURED FROM
 EGL .F              5075:   GROUND LEVEL
 DATE.          4-26-1977:   RUN DATE
 RUN .                  1:   RUN NUMBER
 DD  .F               700:   DEPTH DRILLER
 DL  .F               693:   DEPTH LOGGER
 BLI .F               691:   BOTTOM LOG INTERVAL
 TLI .F                35:   TOP LOG INTERVAL
 CS  .IN            8.625:   CASING SIZE
 CBD .F                40:   CASING BOTTOM DRILLER
 CBL .F                39:   CASING BOTTOM LOGGER
 BS  .IN            7.875:   BIT SIZE
 BSD .F               700:   BIT SIZE AT DEPTH
 DFT .            KCL MUD:   DRILLING FLUID TYPE
 DFD .                9.5:   DRILLING FLUID DENSITY
 DFV .                 35:   DRILLING FLUID VISCOSITY
 DFPH.               10.5:   DRILLING FLUID PH
 DFL .                 12:   DRILLING FLUID LOSS
 MSS .           FLOWLINE:   MUD SAMPLE SOURCE
 RMS .OHMM            .32:   RESISTIVITY MUD SAMPLE
 MST .F                66:   MUD SAMPLE TEMPERATURE
 RMF .OHMM            .28:   RESISTIVITY MUD FILTRATE SAMPLE
 MFST.F                66:   MUD FILTRATE SAMPLE TEMPERATURE
 RMC .OHMM            .49:   RESISTIVITY MUD CAKE
 MCST.F                66:   MUD CAKE SAMPLE TEMPERATURE
 RMB .OHMM            .28:   RESISTIVITY MUD AT BHT
 BHT .F                74:   BOTTOM HOLE TEMPERATURE
 TCS .HRS             1.5:   TIME CURCULATED STOPPED
 MRT .F                74:   MAXIMUM RECORDED TEMPERATURE
 LUN .               8611:   LOGGING UNIT NUMBER
 LUL .           GILLETTE:   LOGGING UNIT LOCATION
 ENGI.            C. DOAK:   RECORDING ENGINEER
 WITN.       MR. ROB LYON:   WITNESSED BY
 CLNT.            A2DTECH:   CLIENT CODE
 ORIG.           5" PRINT:   ORIGIN OF DATA
 UWI .       490251034700:   UNIQUE WELL ID
 DICO. A2D Technologies, Inc.:   DIGITIZING COMPANY
~OTHER INFORMATION
~A   DEPT       CALD      CORR      DPHI         RHOB       GRD       ILD        ILM       SGRD        SPR   
# ...
  650.5000     7.7636     0.0330     0.1169     2.4779   107.4251     6.0683     8.6008    11.8090   -43.7989
  651.0000     7.7783     0.0285     0.1214     2.4651   109.3785     6.4567     9.3593    11.6484   -43.8018
  651.5000     7.7780     0.0239     0.1262     2.4540   111.4810     6.7759    10.1471    11.5700   -43.5052
  652.0000     7.7777     0.0193     0.1313     2.4487   112.6830     7.2596    10.6484    11.6516   -43.3581
  652.5000     7.7775     0.0164     0.1343     2.4532   109.6764     7.6185    11.0215    11.7334   -43.0621
  653.0000     7.7923     0.0164     0.1286     2.4584   111.7922     7.8857    11.2517    11.8158   -43.2140
  653.5000     7.7920     0.0148     0.1256     2.4644   114.4944     8.0505    11.4866    11.7360   -43.2164
  654.0000     7.7917     0.0148     0.1241     2.4666   116.7467     8.2187    11.7265    11.7373   -43.0692
  654.5000     7.7914     0.0148     0.1283     2.4606   119.3842     8.3328    11.9713    11.8200   -42.9221
  655.0000     7.7912     0.0148     0.1301     2.4569   120.5019     8.5069    12.1374    11.9853   -42.6261
  655.5000     7.7910     0.0147     0.1334     2.4554   117.6577     8.6847    12.3058    12.2369   -42.4790
  656.0000     7.7907     0.0162     0.1375     2.4546   114.2129     8.9275    12.4765    12.4938   -42.1458
  656.5000     7.7905     0.0162     0.1408     2.4492   109.1199     9.1771    12.6496    12.4952   -41.7364
  657.0000     7.7902     0.0147     0.1429     2.4396   109.8730     9.4337    12.9138    12.6702   -41.4398
  657.5000     7.7899     0.0116     0.1450     2.4374   112.8750     9.6975    13.0030    13.0256   -41.1432
  658.0000     7.7897     0.0101     0.1453     2.4373   112.2488     9.8321    13.1834    13.4836   -41.1462
  658.5000     7.7895     0.0086     0.1431     2.4351   109.8844     9.9001    13.3663    13.7666   -41.1485
  659.0000     7.7835     0.0056     0.1399     2.4358   109.4372     9.9778    13.5517    13.8633   -41.0014
  659.5000     7.7740     0.0055     0.1378     2.4420   110.4911    10.1070    13.6454    13.7696   -40.8549
  660.0000     7.7738     0.0081     0.1372     2.4478   112.7444    10.1070    13.7397    13.6766   -40.7072
  660.5000     7.7735     0.0115     0.1372     2.4493   113.4975    10.1070    13.7397    13.6784   -40.5601
  661.0000     7.7583     0.0148     0.1372     2.4492   113.2011    10.1070    13.7397    14.1593   -40.3405
  661.5000     7.7581     0.0187     0.1349     2.4500   111.5555    10.1070    13.7397    14.5569   -40.1176
  662.0000     7.7578     0.0234     0.1325     2.4560   108.7113    10.1769    13.7397    14.2607   -40.2694
  662.5000     7.7576     0.0257     0.1307     2.4582   107.8144    10.1769    13.8347    13.6848   -40.2718
  663.0000     7.7595     0.0294     0.1325     2.4522   108.7183    10.1769    13.9303    13.5919   -40.4236
  663.5000     7.7721     0.0309     0.1319     2.4619   109.3215    10.1769    13.9303    13.9801   -40.5755
  664.0000     7.7718     0.0308     0.1307     2.4656   106.0275    10.1769    14.0266    14.5652   -40.5784
  664.5000     7.7865     0.0293     0.1332     2.4574   106.7807    10.1769    14.0266    14.5668   -40.5808
  665.0000     7.7862     0.0263     0.1364     2.4514   109.0331    10.1769    14.0266    14.5684   -40.4331
  665.5000     7.7860     0.0202     0.1355     2.4551   109.6363    10.1769    14.0266    14.1740   -40.2865
  666.0000     7.7857     0.0172     0.1301     2.4611   105.8925    10.1769    14.0266    13.9816   -40.2076
  666.5000     7.7855     0.0142     0.1259     2.4663   108.8945    10.1769    14.0266    13.8871   -40.1418
  667.0000     7.7852     0.0127     0.1223     2.4715   114.9176    10.1769    14.0266    13.7933   -39.9947
  667.5000     7.7850     0.0141     0.1184     2.4776   119.3972    10.2473    13.9303    14.0832   -40.1472
  668.0000     7.7847     0.0158     0.1163     2.4850   115.5018    10.1769    13.9303    14.2802   -40.1495
  668.5000     7.7845     0.0216     0.1157     2.4879   118.5046    10.1668    13.7397    14.2818   -40.3014
  669.0000     7.7842     0.0246     0.1172     2.4812   121.0569    10.0376    13.5517    14.1852   -40.4538
  669.5000     7.7840     0.0276     0.1190     2.4760   118.8124     9.9686    13.4587    13.8970   -40.6056
  670.0000     7.7837     0.0320     0.1169     2.4849   117.7664     9.7646    13.2745    13.7079   -40.6080
  670.5000     7.7985     0.0335     0.1175     2.4774   117.3201     9.6309    13.1834    13.5222   -40.7598
  671.0000     7.7833     0.0350     0.1202     2.4654   115.8253     9.3689    13.0030    13.3386   -40.7628
  671.5000     7.7830     0.0320     0.1247     2.4580   109.9817     9.1141    12.9138    13.2485   -40.9146
  672.0000     7.7827     0.0289     0.1295     2.4632    87.1214     8.9275    12.8251    12.8902   -40.9170
  672.5000     7.7825     0.0244     0.1259     2.4706  -999.2500     8.7448    12.8251    12.5412   -40.9194
  673.0000     7.7822     0.0198     0.1199     2.4774  -999.2500     8.5658    12.7371    12.5426   -40.9218
  673.5000     7.7820     0.0153     0.1184     2.4744  -999.2500     8.4485    12.7371    12.4578   -40.9247
  674.0000     7.7818     0.0168     0.1244     2.4654  -999.2500     8.3328    12.6496    12.5457   -40.9271
  674.5000     7.7965     0.0213     0.1274     2.4616  -999.2500     8.3328    12.4756    12.5470   -40.9294
  675.0000     7.7812     0.0273     0.1253     2.4713  -999.2500     8.2187    12.1374    12.4622   -40.9318
  675.5000     7.7810     0.0303     0.1217     2.4773  -999.2500     8.2187    11.8892    12.1920   -40.9342
  676.0000     7.7807     0.0300     0.1181     2.4810  -999.2500     8.1622    11.6460    11.7969   -40.9371
  676.5000     7.7805     0.0272     0.1166     2.4675  -999.2500     8.1622    11.3294    11.3987   -40.9395
  677.0000     7.7803     0.0227     0.1277     2.4451  -999.2500     8.0505    11.1744    11.2437   -40.7918
  677.5000     7.7800     0.0196     0.1337     2.4503  -999.2500     9.3045    11.0215    11.3230   -40.6452
  678.0000     7.7797     0.0151     0.1372     2.4578  -999.2500    13.2499    10.7961    11.2465   -40.1761
  678.5000     7.7795     0.0106     0.1372     2.4639  -999.2500    15.4971    10.7961    11.0941   -38.8569
  679.0000     7.7942     0.0091     0.1340     2.4652  -999.2500    15.6043    10.8707    10.9432   -37.0655
  679.5000     7.7940     0.0075     0.1316     2.4578  -999.2500    13.3163    10.9551    10.7205   -35.2742
  680.0000     7.7937     0.0090     0.1304     2.4577  -999.2500     7.7777    11.1744    11.1744   -31.3901
  680.5000     7.7934     0.0105     0.1283     2.4637  -999.2500     9.2406    11.1744    11.0989   -24.6666
  681.0000     7.7782     0.0135     0.1259     2.4750  -999.2500    11.9256    11.3294    11.2544   -17.1952
  681.5000     7.7780     0.0194     0.1220     2.4906  -999.2500    15.6043    11.4866    11.5701    -5.2394
  682.0000     7.7778     0.0254     0.1139     2.5056  -999.2500    23.1156    11.6460    11.5714    -1.5047
  682.5000     7.7775     0.0329     0.1051     2.5190  -999.2500    17.9620    11.4866    11.4143    -1.5156
  683.0000     7.7922     0.0374     0.0984     2.5250  -999.2500    14.2667    11.0215    11.1823    -1.6596
  683.5000     7.7919     0.0389     0.0969     2.5175  -999.2500    16.7181    10.5027    10.7307    -1.6620
  684.0000     7.7917     0.0403     0.0978     2.5077  -999.2500     9.6975    10.0052    10.3686    -1.8138
  684.5000     7.7915     0.0418     0.0990     2.5055  -999.2500     9.4337     9.6030    10.1576    -1.8162
  685.0000     7.7912     0.0433     0.1007     2.5017  -999.2500     9.2336     9.4716    10.0197    -1.8186
  685.5000     7.7760     0.0463     0.1043     2.4950  -999.2500     9.1771     9.4716     9.9520    -1.8215
  686.0000     7.7559     0.0523     0.1076     2.4905  -999.2500     9.1771     9.5371     9.9533    -1.8239
  686.5000     6.9982     0.0584     0.1106     2.4844  -999.2500     9.1141     9.6030     9.9544    -1.8263
