~VERSION INFORMATION
 VERS.                2.0:   CWLS LOG ASCII STANDARD - VERSION 2.0
 WRAP.                 NO:   ONE LINE PER DEPTH STEP
~WELL INFORMATION
#MNEM.UNIT      DATA TYPE    INFORMATION
#----------   ------------   ------------------------------
 STRT.F            8.0000:   START DEPTH
 STOP.F          664.0000:   STOP DEPTH
 STEP.F            0.5000:   STEP LENGTH
 NULL.          -999.2500:   NO VALUE
 COMP. LAWRENCE/ALLISON INC:   COMPANY
 WELL.    13-61 SX #11-11:   WELL
 FLD .             TEAPOT:   FIELD
 LOC .      S11 T38N R78W:   LOCATION
 CNTY.            NATRONA:   COUNTY
 STAT.            WYOMING:   STATE
 CTRY. UNITED STATES OF AMERICA:   COUNTRY
 SRVC.           Gearhart:   SERVICE COMPANY
 DATE.        22-JUN-1986:   LOGDATE
 API .       490251109700:   API NUMBER
~CURVE INFORMATION
#MNEM.UNIT       API CODE    CURVE DESCRIPTION
#----------   ------------   ------------------------------
 DEPT.F                  :   
 GRR .GAPI   07 310 01 00:   GAMMA RAY FROM RES. LOG.
 ILM .OHMM   07 120 44 00:   INDUCTION LOG MEDIUM
 ILD .OHMM   07 120 46 00:   INDUCTION LOG DEEP
~PARAMETER INFORMATION
#MNEM.UNIT          VALUE    DESCRIPTION
#----------   ------------   ------------------------------
 PD  .                 GL:   PERMANENT DATUM
 EPD .F              5154:   ELEVATION PERMANENT DATUM
 LMF .                 KB:   LOG MEASURED FROM
 DAPD.F                 5:   FEET ABOVE PERMANENT DATUM
 DMF .                 KB:   DRILLING MEASURED FROM
 EKB .F              5159:   KELLING BUSHING
 EGL .F              5154:   GROUND LEVEL
 DATE.            6-22-86:   RUN DATE
 RUN .                  1:   RUN NUMBER
 DD  .F               675:   DEPTH DRILLER
 DL  .F               673:   DEPTH LOGGER
 BLI .F               664:   BOTTOM LOG INTERVAL
 CS  .IN            8.625:   CASING SIZE
 CBD .F                44:   CASING BOTTOM DRILLER
 CBL .F                46:   CASING BOTTOM LOGGER
 BS  .IN            7.875:   BIT SIZE
 BSD .F               675:   BIT SIZE AT DEPTH
 DFT .                AIR:   DRILLING FLUID TYPE
 TCS .HRS            1830:   TIME CURCULATED STOPPED
 MRT .F                69:   MAXIMUM RECORDED TEMPERATURE
 LUN .               7609:   LOGGING UNIT NUMBER
 LUL .           GILLETTE:   LOGGING UNIT LOCATION
 ENGI.            WANGLER:   RECORDING ENGINEER
 WITN.              DAVIS:   WITNESSED BY
 CLNT.            A2DTECH:   CLIENT CODE
 ORIG.       2", 5" PRINT:   ORIGIN OF DATA
 UWI .       490251109700:   UNIQUE WELL ID
 DICO. A2D Technologies, Inc.:   DIGITIZING COMPANY
~OTHER INFORMATION
~A    DEPT      GRR       ILM        ILD   
# ...
  372.0000   128.6340     5.3631     5.6200
  372.5000   128.1271     5.6736     5.8697
  373.0000   127.9803     6.0041     6.1125
  373.5000   127.8683     6.3533     6.4570
  374.0000   126.4892     6.7228     6.7974
  374.5000   124.9688     6.8430     6.9077
  375.0000   123.4648     6.8430     6.9077
  375.5000   123.7070     6.6928     6.7834
  376.0000   125.6715     6.4845     6.5433
  376.5000   127.8314     6.2827     6.3117
  377.0000   129.9875     6.0873     6.0883
  377.5000   132.1568     5.8978     5.8728
  378.0000   134.5911     5.7134     5.7030
  378.5000   136.7626     5.5386     5.5116
  379.0000   131.9795     5.4054     5.6488
  379.5000   126.6688     5.4088     5.8345
  380.0000   122.6999     5.8382     6.0270
  380.5000   121.1918     6.1297     6.2286
  381.0000   119.6173     6.4359     6.5435
  381.5000   117.5762     6.7573     6.8784
  382.0000   115.8064     7.0947     7.2304
  382.5000   116.2720     7.4509     7.5677
  383.0000   116.6874     7.6637     7.7996
  383.5000   114.0640     7.7918     8.0298
  384.0000   111.5120     7.9525     8.2042
  384.5000   110.5821     8.1192     8.3762
  385.0000   114.2338     8.2894     8.5518
  385.5000   118.0138     8.4166     8.5991
  386.0000   119.4013     8.4355     8.6254
  386.5000   118.1791     8.4533     8.6518
  387.0000   117.6137     8.4712     8.6784
  387.5000   118.2974     8.4890     8.7049
  388.0000   119.0687     8.5070     8.7316
  388.5000   118.9423     8.5248     8.7393
  389.0000   116.5192     8.5427     8.7394
  389.5000   115.0283     8.5616     8.7394
  390.0000   114.8255     8.5678     8.7394
  390.5000   118.7523     8.6829     8.7701
  391.0000   123.0656     8.7567     8.8270
  391.5000   125.0534     8.8312     8.8843
  392.0000   120.2815     8.9062     8.9419
  392.5000   114.0885     8.9820     9.0745
  393.0000   111.5714     9.0584     8.7098
  393.5000   109.8212     9.1603     8.2504
  394.0000   108.0185     8.5626     7.8152
  394.5000   107.4862     8.0018     7.4030
  395.0000   110.8934     7.4999     7.0508
  395.5000   114.2772     7.1043     6.7670
  396.0000   115.5377     6.7296     6.4945
  396.5000   116.8425     6.3746     6.3480
  397.0000   117.6521     6.0553     6.6589
  397.5000   115.4193     6.0553     6.8846
  398.0000   112.8975     6.7574     7.1055
  398.5000   111.1459     7.2862     7.6512
  399.0000   112.6563     7.8563     8.2005
  399.5000   115.1945     8.4710     8.7892
  400.0000   117.7360     9.1339     9.4202
  400.5000   120.3605     9.8485    10.1590
  401.0000   117.5679    10.2332    10.4076
  401.5000   112.5784    10.4806    10.6796
  402.0000   109.9423    10.6464    10.9632
  402.5000   108.3656    10.7638    11.2667
  403.0000   109.0284    10.8663    11.5936
  403.5000   111.7374    11.0054    12.0427
  404.0000   112.7288    11.3398    12.5092
  404.5000   106.6948    12.1686    13.4905
  405.0000    99.8138    13.4432    14.7016
  405.5000    85.3010    14.8514    16.0215
  406.0000    71.7134    16.4070    17.4598
  406.5000    61.4474    18.1257    19.0272
  407.0000    55.0820    20.0243    20.7354
  407.5000    52.6515    21.8577    22.5987
  408.0000    57.6194    23.5051    24.6208
  408.5000    66.1986    25.2766    26.5194
  409.0000    70.0226    27.0256    28.1281
  409.5000    70.5488    27.5332    29.2147
  410.0000    69.9250    28.0620    30.2556
  410.5000    69.2273    29.1120    31.3281
  411.0000    67.9949    30.2659    32.4228
  411.5000    66.3328    31.4656    33.2430
  412.0000    65.2478    32.7317    34.0975
  412.5000    64.5311    33.8980    34.8411
  413.0000    64.6625    33.8557    34.6515
  413.5000    65.5381    33.8804    34.3772
  414.0000    67.2749    33.2117    33.5702
  414.5000    68.9979    32.0790    32.5554
  415.0000    70.7245    30.9885    31.4171
  415.5000    72.4643    29.9360    30.4906
  416.0000    73.0254    29.1353    30.2796
  416.5000    71.4320    28.3273    30.0647
  417.0000    69.2542    28.4127    29.8513
  417.5000    68.3989    28.5480    29.6916
  418.0000    71.4738    28.6836    29.9482
  418.5000    77.6560    28.8789    30.1554
  419.0000    80.2152    29.0756    30.3641
  419.5000    77.4396    29.2736    30.5742
  420.0000    71.5475    29.6916    30.7858
  420.5000    69.0005    29.7887    30.9989
  421.0000    68.1625    29.8772    31.2134
  421.5000    69.8900    29.9661    31.4294
  422.0000    70.8011    30.0552    31.6469
  422.5000    70.8787    30.1446    31.8661
  423.0000    71.6264    30.2339    32.0865
  423.5000    73.5597    30.4123    32.3151
  424.0000    74.8183    30.6195    32.3151
  424.5000    75.3081    30.8282    32.3157
  425.0000    74.5697    31.0381    32.3179
  425.5000    74.9867    31.2495    32.3201
  426.0000    76.8829    31.4158    31.8092
  426.5000    81.2691    30.8769    31.1969
  427.0000    83.7793    30.3574    30.5965
  427.5000    80.4334    29.7091    30.0075
  428.0000    75.6708    28.6691    29.2400
  428.5000    71.6619    27.6655    28.2724
  429.0000    70.6786    26.6971    27.3367
  429.5000    72.1362    25.7626    26.4321
  430.0000    73.5411    24.8607    25.5574
  430.5000    75.6669    23.9344    24.6232
  431.0000    77.8965    23.0889    23.6876
  431.5000    78.8802    22.8113    23.2390
  432.0000    79.6813    22.8126    23.2434
  432.5000    82.7077    22.9974    23.2457
  433.0000    85.7283    23.2140    23.2486
  433.5000    88.8021    23.5472    23.9144
  434.0000    88.7258    24.4036    24.8510
  434.5000    86.7656    25.6969    25.8546
  435.0000    82.3950    27.0588    26.8988
  435.5000    75.9873    28.4929    27.5513
  436.0000    73.0931    29.9723    27.6109
  436.5000    74.1538    29.8425    27.6719
  437.0000    78.8215    29.6916    27.7297
  437.5000    83.4732    28.3343    27.7997
  438.0000    86.3359    27.0872    27.0111
  438.5000    87.8145    25.8951    26.1200
  439.0000    87.9974    24.8908    25.2556
  439.5000    87.0376    24.2680    24.4198
  440.0000    84.5067    23.6608    23.6905
  440.5000    81.9846    23.1306    23.4025
  441.0000    80.4502    22.7491    22.8039
  441.5000    79.3659    22.3738    22.1806
  442.0000    78.2864    22.0030    22.0421
  442.5000    77.1964    21.6847    21.8544
  443.0000    77.1285    21.4420    21.6683
  443.5000    78.5608    21.2036    21.4838
  444.0000    80.5351    20.9679    21.3008
  444.5000    82.5084    20.7348    21.1195
  445.0000    84.4647    20.5043    20.9396
  445.5000    85.7008    20.2764    20.7613
  446.0000    85.6866    20.1179    20.5845
  446.5000    85.4672    19.9480    20.4092
  447.0000    84.7396    19.7795    20.3799
  447.5000    83.4563    19.6124    20.3801
  448.0000    82.2036    19.4467    20.3799
  448.5000    83.2983    19.2614    20.3799
  449.0000    86.1620    19.3419    20.3799
  449.5000    89.0175    19.4621    20.3799
  450.0000    91.3359    19.5831    20.3799
  450.5000    88.4891    19.7048    20.3800
  451.0000    85.2000    19.8127    20.3802
  451.5000    81.9077    19.6436    20.3832
  452.0000    78.7582    19.4936    20.2311
  452.5000    79.2900    19.3448    20.0297
  453.0000    81.6899    19.1972    19.8304
  453.5000    85.4219    19.0506    19.6330
  454.0000    86.0184    18.9023    19.4376
  454.5000    83.5990    18.7469    19.2442
  455.0000    81.4600    18.5500    19.0540
  455.5000    81.5294    18.3552    18.9003
  456.0000    82.3580    18.1624    18.6461
  456.5000    82.3578    17.9717    18.3937
  457.0000    81.3036    17.7829    18.1456
  457.5000    80.4428    17.5962    17.9009
  458.0000    81.5983    17.3694    17.6596
  458.5000    84.7985    17.1236    17.4215
  459.0000    85.6805    16.8812    17.1866
  459.5000    85.6776    16.6423    16.9549
  460.0000    84.2767    16.4068    16.7263
  460.5000    82.7407    16.1746    16.5008
  461.0000    81.2158    15.9457    16.2783
  461.5000    80.0217    15.7200    16.0601
  462.0000    80.6664    15.6393    15.9004
  462.5000    80.3966    15.6108    15.7981
