~VERSION INFORMATION
 VERS.                2.0:   CWLS LOG ASCII STANDARD - VERSION 2.0
 WRAP.                 NO:   ONE LINE PER DEPTH STEP
~WELL INFORMATION
#MNEM.UNIT      DATA TYPE    INFORMATION
#----------   ------------   ------------------------------
 STRT.F           40.0000:   START DEPTH
 STOP.F          534.0000:   STOP DEPTH
 STEP.F            0.5000:   STEP LENGTH
 NULL.          -999.2500:   NO VALUE
 COMP. LAWRENCE/ALLISON INC:   COMPANY
 WELL.   55-41 SX FI #3-3:   WELL
 FLD .             TEAPOT:   FIELD
 LOC .       S3 T38N R78W:   LOCATION
 CNTY.            NATRONA:   COUNTY
 STAT.            WYOMING:   STATE
 CTRY. UNITED STATES OF AMERICA:   COUNTRY
 SRVC.      Dresser Atlas:   SERVICE COMPANY
 DATE.        12-DEC-1983:   LOGDATE
 API .       490251089400:   API NUMBER
~CURVE INFORMATION
#MNEM.UNIT       API CODE    CURVE DESCRIPTION
#----------   ------------   ------------------------------
 DEPT.F                  :   
 RILD.OHMM   07 120 46 00:   INDUCTION LOG DEEP RESISTIVITY
 RILM.OHMM   07 120 44 00:   INDUCTION LOG MEDIUM RESISTIVITY
 RFOC.OHMM   07 220 04 00:   RESISTIVITY FOCUSED LOG
 CALD.IN     45 280 60 00:   CALIPER FROM DENSITY LOG
 GRD .GAPI   45 310 01 00:   GAMMA RAY FROM DENSITY LOG
 CORR.G/C3   45 356 01 00:   DENSITY CORRECTION
 DPHI.DEC    45 890 12 00:   DENSITY POROSITY SANDSTONE
 RHOB.G/C3   45 350 01 00:   BULK DENSITY
~PARAMETER INFORMATION
#MNEM.UNIT          VALUE    DESCRIPTION
#----------   ------------   ------------------------------
 PD  .                 GL:   PERMANENT DATUM
 EPD .F              5161:   ELEVATION PERMANENT DATUM
 LMF .                 KB:   LOG MEASURED FROM
 DAPD.F                10:   FEET ABOVE PERMANENT DATUM
 DMF .                 KB:   DRILLING MEASURED FROM
 EKB .F              5171:   KELLING BUSHING
 EGL .F              5161:   GROUND LEVEL
 DATE.        12-DEC-1983:   RUN DATE
 RUN .                  1:   RUN NUMBER
 DD  .F               490:   DEPTH DRILLER
 DL  .F               489:   DEPTH LOGGER
 BLI .F               487:   BOTTOM LOG INTERVAL
 CS  .IN            10.75:   CASING SIZE
 CBD .F                52:   CASING BOTTOM DRILLER
 CBL .F                46:   CASING BOTTOM LOGGER
 BS  .IN             8.75:   BIT SIZE
 BSD .F               490:   BIT SIZE AT DEPTH
 DFT .           AIR FOAM:   DRILLING FLUID TYPE
 TCS .HRS               3:   TIME CURCULATED STOPPED
 MRT .F                72:   MAXIMUM RECORDED TEMPERATURE
 LUN .               6274:   LOGGING UNIT NUMBER
 LUL .               GLTE:   LOGGING UNIT LOCATION
 ENGI.             RAUTIO:   RECORDING ENGINEER
 WITN.             GROOMS:   WITNESSED BY
 CLNT.            A2DTECH:   CLIENT CODE
 ORIG.           5" PRINT:   ORIGIN OF DATA
 UWI .       490251089400:   UNIQUE WELL ID
 DICO. A2D Technologies, Inc.:   DIGITIZING COMPANY
~OTHER INFORMATION
~A   DEPT     RILD       RILM       RFOC       CALD         GRD      CORR       DPHI       RHOB   
# ...
  202.0000     8.5065     7.9965  -999.2500    12.3077    76.0891     0.0510     0.1314     2.4565
  202.5000     8.3959     7.8930  -999.2500    12.3669    75.4893     0.0454     0.1457     2.4438
  203.0000     8.2867     7.7923  -999.2500    12.3817    76.3905     0.0339     0.1471     2.4364
  203.5000     8.1767     7.6914  -999.2500    12.3817    78.4023     0.0362     0.1465     2.4319
  204.0000     8.0121     7.5397  -999.2500    12.3521    79.5239     0.0490     0.1444     2.4320
  204.5000     7.7890     7.3910  -999.2500    12.2929    79.9778     0.0617     0.1423     2.4395
  205.0000     7.3923     7.0971  -999.2500    12.2189    79.0964     0.0640     0.1411     2.4473
  205.5000     6.9049     6.8148  -999.2500    12.1450    76.4346     0.0521     0.1408     2.4326
  206.0000     6.4496     6.4099  -999.2500    12.0710    73.7728     0.0267     0.1563     2.4027
  206.5000     5.9830     5.8610  -999.2500    11.9970    73.1118     0.0027     0.1796     2.3749
  207.0000     5.4366     5.2096  -999.2500    11.9379    75.7935     0.0103     0.1880     2.3667
  207.5000     4.9062     4.5280  -999.2500    11.9083    77.8053     0.0208     0.1948     2.3541
  208.0000     4.2777     3.8954  -999.2500    11.9083    78.4817     0.0231     0.2212     2.3167
  208.5000     3.6786     3.4618  -999.2500    11.9527    78.7109     0.0141     0.2606     2.2591
  209.0000     3.0390     3.0393  -999.2500    12.0118    74.4935     0.0029     0.2914     2.2059
  209.5000     2.7942     2.7430  -999.2500    12.0132    69.3836    -0.0038     0.2991     2.1752
  210.0000     2.5586     2.5623  -999.2500    11.9970    65.1639    -0.0060     0.2985     2.1708
  210.5000     2.4567     2.4941  -999.2500    11.9675    64.5029     0.0120     0.2680     2.2502
  211.0000     2.4414     2.5485  -999.2500    11.9527    71.6356     0.0263     0.2294     2.3012
  211.5000     2.4770     2.6217  -999.2500    11.9379    79.2112     0.0390     0.2079     2.3305
  212.0000     2.5480     2.7156  -999.2500    11.9371    82.1132     0.0488     0.1947     2.3485
  212.5000     2.7128     2.8716  -999.2500    11.9231    83.0122     0.0241     0.1806     2.3747
  213.0000     3.1203     3.2983  -999.2500    11.9379    82.7985     0.0151     0.1608     2.4025
  213.5000     3.5918     3.6853  -999.2500    11.9696    82.1397     0.0235     0.1464     2.4235
  214.0000     4.1091     4.1463  -999.2500    12.0144    82.5936     0.0287     0.1324     2.4452
  214.5000     4.8527     4.7953  -999.2500    12.0414    84.8280     0.0348     0.1298     2.4648
  215.0000     5.3109     5.2848  -999.2500    12.0414    86.6172     0.0370     0.1300     2.4588
  215.5000     5.7725     5.7050  -999.2500    11.9970    87.2938     0.0362     0.1324     2.4499
  216.0000     6.1459     5.9535  -999.2500    11.9527    87.0652     0.0323     0.1345     2.4491
  216.5000     6.4096     6.1675  -999.2500    11.9231    86.3991     0.0267     0.1306     2.4591
  217.0000     6.5932     6.2600  -999.2500    11.9231    84.3680     0.0215     0.1276     2.4674
  217.5000     6.7820     6.3901  -999.2500    11.9527    82.3589     0.0163     0.1267     2.4695
  218.0000     6.8807     6.3949  -999.2500    12.0118    80.8838     0.0148     0.1288     2.4620
  218.5000     6.7912     6.3109  -999.2500    12.0710    84.0106     0.0201     0.1374     2.4478
  219.0000     6.5657     6.1451  -999.2500    12.1154    87.3577     0.0329     0.1485     2.4291
  219.5000     6.2609     5.9415  -999.2500    12.1450    90.0372     0.0456     0.1610     2.4082
  220.0000     5.8079     5.7052  -999.2500    12.1450    91.8264     0.0644     0.1682     2.3993
  220.5000     5.4625     5.3294  -999.2500    12.1450    88.4969     0.0771     0.1667     2.4068
  221.0000     5.1731     4.9442  -999.2500    12.1154    82.7194     0.0817     0.1619     2.4091
  221.5000     4.9329     4.7795  -999.2500    12.0562    77.8321     0.0705     0.1600     2.4031
  222.0000     4.8017     4.6852  -999.2500    12.0118    76.5034     0.0488     0.1588     2.4106
  222.5000     4.7071     4.6565  -999.2500    11.9970    81.1880     0.0586     0.1513     2.4317
  223.0000     4.6780     4.6609  -999.2500    12.0858    83.6449     0.0773     0.1421     2.4452
  223.5000     4.7519     4.6644  -999.2500    12.1746    84.0967     0.0803     0.1397     2.4497
  224.0000     4.8828     4.7983  -999.2500    12.2337    80.5469     0.0639     0.1453     2.4250
  224.5000     5.0574     4.9360  -999.2500    12.2041    77.8829     0.0580     0.1519     2.4242
  225.0000     5.2382     5.1481  -999.2500    12.1450    81.8998     0.0662     0.1468     2.4371
  225.5000     5.5387     5.4836  -999.2500    12.0414    84.8018     0.0671     0.1405     2.4491
  226.0000     5.9788     5.8051  -999.2500    11.9379    83.9205     0.0499     0.1430     2.4437
  226.5000     6.3218     6.1010  -999.2500    11.8491    78.5881     0.0282     0.1438     2.4417
  227.0000     6.5029     6.4828  -999.2500    11.7604    73.7007     0.0297     0.1394     2.4507
  227.5000     6.7819     6.7150  -999.2500    11.7160    75.0449     0.0478     0.1309     2.4627
  228.0000     7.0729     7.0036  -999.2500    11.7308    78.6145     0.0728     0.1240     2.4778
  228.5000     7.2754     7.2544  -999.2500    11.7757    82.4067     0.0945     0.1216     2.4681
  229.0000     7.4838     7.3606  -999.2500    11.8206    84.1960     0.1025     0.1290     2.4561
  229.5000     7.6453     7.4170  -999.2500    11.8491    84.6499     0.0883     0.1347     2.4494
  230.0000     7.7033     7.3210  -999.2500    11.8491    84.8813     0.0764     0.1332     2.4554
  230.5000     7.7086     7.2748  -999.2500    11.8491    84.8902     0.0734     0.1299     2.4705
  231.0000     7.5560     7.1313  -999.2500    11.8470    84.8991     0.0727     0.1248     2.4742
  231.5000     7.4577     7.0403  -999.2500    11.8343    84.6852     0.0727     0.1200     2.4795
  232.0000     7.3062     6.9015  -999.2500    11.7899    87.0384     0.0735     0.1179     2.4781
  232.5000     7.1526     6.7189  -999.2500    11.7604    89.9335     0.0578     0.1250     2.4684
  233.0000     6.7774     6.4074  -999.2500    11.7160    92.0581     0.0369     0.1451     2.4422
  233.5000     6.4719     6.2378  -999.2500    11.6716    91.3993     0.0250     0.1546     2.4197
  234.0000     6.2571     6.0729  -999.2500    11.6568    87.8473     0.0209     0.1621     2.4085
  234.5000     6.0493     5.8304  -999.2500    11.6568    84.0728     0.0348     0.1782     2.3709
  235.0000     5.6895     5.5154  -999.2500    11.7012    81.8561     0.0378     0.2042     2.3260
  235.5000     5.0992     5.0107  -999.2500    11.7456    81.6401     0.0296     0.2167     2.3156
  236.0000     4.7959     4.7096  -999.2500    11.7899    82.5414     0.0109     0.2119     2.3121
  236.5000     4.6680     4.3802  -999.2500    11.8047    82.7728     0.0155     0.1895     2.3690
  237.0000     4.6080     4.1771  -999.2500    11.8195    81.4463     0.0301     0.1691     2.4327
  237.5000     4.6430     4.4476  -999.2500    11.8195    79.0070     0.0472     0.1479     2.4530
  238.0000     4.7432     4.7684  -999.2500    11.7899    78.1235     0.0593     0.1314     2.4673
  238.5000     4.8790     5.1123  -999.2500    11.7751    83.6983     0.0643     0.1252     2.4741
  239.0000     5.0534     5.4810  -999.2500    11.7456    87.4905     0.0583     0.1242     2.4711
  239.5000     5.3434     5.8359  -999.2500    11.7160    89.0572     0.0419     0.1304     2.4629
  240.0000     5.8078     6.2138  -999.2500    11.7012    89.5089     0.0284     0.1368     2.4502
  240.5000     6.4444     6.5257  -999.2500    11.6864    87.5170     0.0232     0.1377     2.4540
  241.0000     6.8142     6.8061  -999.2500    11.7012    85.5228     0.0203     0.1335     2.4585
  241.5000     7.0139     7.0499  -999.2500    11.7160    84.4167     0.0196     0.1349     2.4533
  242.0000     7.2674     7.2025  -999.2500    11.7308    84.2030     0.0196     0.1391     2.4488
