~VERSION INFORMATION
 VERS.                2.0:   CWLS LOG ASCII STANDARD - VERSION 2.0
 WRAP.                 NO:   ONE LINE PER DEPTH STEP
~WELL INFORMATION
#MNEM.UNIT      DATA TYPE    INFORMATION
#----------   ------------   ------------------------------
 STRT.F           70.0000:   START DEPTH
 STOP.F         1072.0000:   STOP DEPTH
 STEP.F            0.5000:   STEP LENGTH
 NULL.          -999.2500:   NO VALUE
 COMP. LAWRENCE/ALLISON INC:   COMPANY
 WELL.    67-66 SX #11-11:   WELL
 FLD .             TEAPOT:   FIELD
 LOC .      S11 T38N R78W:   LOCATION
 CNTY.            NATRONA:   COUNTY
 STAT.            WYOMING:   STATE
 CTRY. UNITED STATES OF AMERICA:   COUNTRY
 SRVC.      Dresser Atlas:   SERVICE COMPANY
 DATE.        03-FEB-1986:   LOGDATE
 API .       490251105700:   API NUMBER
~CURVE INFORMATION
#MNEM.UNIT       API CODE    CURVE DESCRIPTION
#----------   ------------   ------------------------------
 DEPT.F                  :   
 RILD.OHMM   07 120 46 00:   RESISTIVITY INDUCTION LOG DEEP
 RILM.OHMM   07 120 44 00:   RESISTIVITY INDUCTION LOG MEDIUM
 GRD .GAPI   45 310 01 00:   GAMMA RAY FROM DENSITY LOG
 CALD.IN     45 280 60 00:   CALIPER FROM DENSITY LOG
 CORR.G/C3   45 356 01 00:   DENSITY CORRECTION
 PORD.DEC    45 890 12 00:   POROSITY DENSITY SANDSTONE
 DEN .G/C3   45 350 01 00:   COMPENSATED BULK DENSTIY
~PARAMETER INFORMATION
#MNEM.UNIT          VALUE    DESCRIPTION
#----------   ------------   ------------------------------
 PD  .                 GL:   PERMANENT DATUM
 EPD .F              5245:   ELEVATION PERMANENT DATUM
 LMF .                 GL:   LOG MEASURED FROM
 DMF .                 GL:   DRILLING MEASURED FROM
 EGL .F              5245:   GROUND LEVEL
 DATE.        03-FEB-1986:   RUN DATE
 RUN .                  1:   RUN NUMBER
 DD  .F              1120:   DEPTH DRILLER
 DL  .F              1074:   DEPTH LOGGER
 BLI .F              1068:   BOTTOM LOG INTERVAL
 TLI .F                86:   TOP LOG INTERVAL
 CS  .IN            8.625:   CASING SIZE
 CBD .F                86:   CASING BOTTOM DRILLER
 CBL .F                86:   CASING BOTTOM LOGGER
 BS  .IN             6.25:   BIT SIZE
 BSD .F              1120:   BIT SIZE AT DEPTH
 DFT .                AIR:   DRILLING FLUID TYPE
 TCS .HRS               2:   TIME CURCULATED STOPPED
 LUN .               6274:   LOGGING UNIT NUMBER
 LUL .           GILLETTE:   LOGGING UNIT LOCATION
 ENGI.             MILLER:   RECORDING ENGINEER
 WITN.           JENNINGS:   WITNESSED BY
 CLNT.            A2DTECH:   CLIENT CODE
 ORIG.           5" PRINT:   ORIGIN OF DATA
 UWI .       490251105700:   UNIQUE WELL ID
 DICO. A2D Technologies, Inc.:   DIGITIZING COMPANY
~OTHER INFORMATION
~A   DEPT     RILD       RILM        GRD       CALD       CORR       PORD        DEN   
# ...
  661.5000     7.6101     7.5276   150.4668     7.6556     0.1155     0.1041     2.5145
  662.0000     7.6181     7.5360   150.4972     7.6724     0.0918     0.1122     2.4935
  662.5000     7.7861     7.7026   150.5276     7.6743     0.0636     0.1136     2.4891
  663.0000     7.8484     7.7647   150.5580     7.6761     0.0669     0.1100     2.4960
  663.5000     7.9662     7.8816   149.6915     7.6779     0.0807     0.1063     2.5029
  664.0000     8.0300     7.9451   147.0313     7.6797     0.0990     0.1063     2.5052
  664.5000     8.0942     8.0648   146.7551     7.6815     0.0873     0.1074     2.5000
  665.0000     8.2157     8.1862   148.3109     7.6834     0.0649     0.1095     2.5002
  665.5000     8.3390     8.3095   149.2078     7.6852     0.0456     0.1091     2.5003
  666.0000     8.4057     8.4931   148.0421     7.6870     0.0534     0.1101     2.4987
  666.5000     8.5318     8.6808   146.5777     7.6888     0.0642     0.1144     2.4861
  667.0000     8.6599     8.8727   146.3079     7.6753     0.0674     0.1230     2.4712
  667.5000     8.7991     9.0687   147.8342     7.6621     0.0481     0.1331     2.4570
  668.0000     8.9297     9.1419   148.1560     7.6490     0.0408     0.1349     2.4594
  668.5000     9.1165     9.1521   146.6992     7.6658     0.0487     0.1312     2.4632
  669.0000     9.1966     9.1623   141.6473     7.6676     0.0564     0.1287     2.4641
  669.5000     9.3272     9.2362   137.4924     7.6844     0.0657     0.1287     2.4695
  670.0000     9.3369     9.2465   136.6183     7.6862     0.0554     0.1226     2.4824
  670.5000     9.2820     9.2568   137.8521     7.6880     0.0226     0.1021     2.5104
  671.0000     9.1639     9.2007   140.8720     7.6749     0.0033     0.0933     2.5248
  671.5000     9.1735     9.1475   142.3971     7.6767     0.0110     0.0939     2.5236
  672.0000     9.1196     9.0946   143.6233     7.6631     0.0249     0.1079     2.5049
  672.5000     9.0661     9.1048   143.9462     7.6804     0.0191     0.1157     2.4856
  673.0000     9.0129     8.9278   144.8989     7.6971     0.0178     0.1214     2.4731
  673.5000     8.9600     8.8762   147.0166     7.7288     0.0165     0.1277     2.4658
  674.0000     8.9696     8.8248   151.8090     7.7452     0.0244     0.1316     2.4576
  674.5000     8.7337     8.8368   153.6331     7.7171     0.0442     0.1291     2.4607
  675.0000     8.7428     8.9059   152.1687     7.7040     0.0731     0.1245     2.4714
  675.5000     8.6311     8.9159   149.2095     7.6908     0.0869     0.1215     2.4775
  676.0000     8.6406     8.9258   148.0441     7.6628     0.0796     0.1202     2.4784
  676.5000     8.6496     8.9358   149.2703     7.6646     0.0558     0.1208     2.4770
  677.0000     8.6587     8.8229   150.1975     7.6664     0.0575     0.1201     2.4778
  677.5000     8.6056     8.7110   149.0321     7.6682     0.0689     0.1186     2.4810
  678.0000     8.5552     8.6009   144.8771     7.6701     0.0859     0.1170     2.4848
  678.5000     8.5664     8.4927   144.0030     7.6719     0.0817     0.1157     2.4880
  679.0000     8.4574     8.5022   146.4326     7.6737     0.0642     0.1155     2.4888
  679.5000     8.4078     8.2795   148.8546     7.6601     0.0528     0.1166     2.4852
  680.0000     8.3585     8.2316   150.7922     7.6624     0.0484     0.1184     2.4800
  680.5000     8.3672     8.1254   149.6829     7.6642     0.0489     0.1201     2.4771
  681.0000     8.3182     8.0784   142.8058     7.6810     0.0717     0.1213     2.4764
  681.5000     8.2672     8.0896   138.8041     7.7127     0.0959     0.1228     2.4756
  682.0000     8.1642     8.0987   142.7209     7.6996     0.0932     0.1233     2.4736
  682.5000     8.1727     8.1077   144.5450     7.6860     0.0754     0.1215     2.4754
  683.0000     8.1813     8.1168   147.8638     7.6707     0.0741     0.1184     2.4807
  683.5000     8.1898     8.1258   152.0796     7.6448     0.0729     0.1156     2.4852
  684.0000     8.1984     8.1349   153.0068     7.6466     0.0445     0.1144     2.4876
  684.5000     8.1482     8.1440   147.6560     7.6484     0.0352     0.1137     2.4862
  685.0000     8.1588     8.1531   142.3052     7.6652     0.0450     0.1119     2.4901
  685.5000     8.1089     8.1622   142.9335     7.6670     0.0513     0.1121     2.4924
  686.0000     8.0613     8.1150   146.8503     7.6689     0.0485     0.1154     2.4880
  686.5000     8.0141     8.1240   150.7671     7.6707     0.0549     0.1217     2.4753
  687.0000     8.0246     8.1313   152.8901     7.6571     0.0641     0.1174     2.4807
  687.5000     7.9754     8.0838   154.7142     7.6594     0.0689     0.1147     2.4876
  688.0000     7.8216     8.0300   155.9901     7.6762     0.0647     0.1161     2.4892
  688.5000     7.7633     7.8702   156.5620     7.6626     0.0514     0.1200     2.4803
  689.0000     7.4470     7.5657   157.5066     7.6649     0.0410     0.1230     2.4691
  689.5000     7.2034     7.2178   160.5082     7.6667     0.0459     0.1250     2.4692
  690.0000     6.9260     6.9819   161.4355     7.6685     0.0476     0.1280     2.4663
  690.5000     6.7917     6.7989   158.1774     7.6700     0.0493     0.1253     2.4694
  691.0000     6.6639     6.6667   156.7130     7.6717     0.0451     0.1225     2.4748
  691.5000     6.6248     6.6281   157.9392     7.6735     0.0408     0.1209     2.4773
  692.0000     6.5860     6.5443   161.5570     7.6753     0.0456     0.1230     2.4756
  692.5000     6.6848     6.5973   163.9714     7.6772     0.0595     0.1251     2.4705
  693.0000     6.7851     6.6505   163.1125     7.6790     0.0733     0.1241     2.4699
  693.5000     6.8869     6.8447   162.5450     7.6808     0.0841     0.1209     2.4760
  694.0000     7.0878     6.9477   162.2688     7.6672     0.0783     0.1179     2.4799
  694.5000     7.0952     7.0523   161.1110     7.6541     0.0740     0.1155     2.4838
  695.0000     7.2017     7.1092   153.3685     7.6410     0.0727     0.1134     2.4877
  695.5000     7.2092     7.1665   145.9251     7.6432     0.0700     0.1125     2.4915
  696.0000     7.2167     7.2243   143.1030     7.6451     0.0717     0.1121     2.4901
  696.5000     7.2243     7.2826   140.5971     7.6618     0.0672     0.1157     2.4827
  697.0000     7.1819     7.2404   140.6278     7.6637     0.0615     0.1181     2.4813
  697.5000     7.1379     7.1986   141.2557     7.6655     0.0527     0.1177     2.4829
  698.0000     7.1473     7.1570   143.3788     7.6673     0.0438     0.1201     2.4800
  698.5000     7.0563     7.1136   143.7500     7.6688     0.0339     0.1236     2.4718
  699.0000     7.0131     7.0725   141.9448     7.6706     0.0555     0.1239     2.4742
  699.5000     6.9720     6.9831   139.8825     7.6723     0.0751     0.1190     2.4833
  700.0000     6.9870     6.9916   142.0057     7.6592     0.0798     0.1157     2.4894
  700.5000     7.0332     6.9993   143.8325     7.6605     0.0650     0.1183     2.4835
  701.0000     7.0795     7.0565   142.9687     7.6621     0.0471     0.1171     2.4798
  701.5000     7.1257     7.1628   141.1997     7.6784     0.0503     0.1155     2.4883
  702.0000     7.2989     7.3211   143.6326     7.6798     0.0746     0.1143     2.4906
  702.5000     7.4607     7.5348   146.3562     7.6811     0.0823     0.1155     2.4824
  703.0000     7.6261     7.6483   147.2861     7.6672     0.0711     0.1184     2.4765
  703.5000     7.6878     7.7635   147.6181     7.6536     0.0518     0.1226     2.4713
  704.0000     7.8583     7.8804   147.0532     7.6550     0.0622     0.1227     2.4767
  704.5000     7.9218     7.9991   146.4883     7.6564     0.0556     0.1189     2.4768
  705.0000     7.9859     8.0080   142.6349     7.6577     0.0425     0.1219     2.4731
  705.5000     7.9949     8.0152   141.4639     7.6590     0.0322     0.1242     2.4755
  706.0000     7.9463     7.9607   142.4020     7.6604     0.0249     0.1224     2.4809
  706.5000     7.8456     7.7544   145.1256     7.6916     0.0328     0.1199     2.4832
