~VERSION INFORMATION
 VERS.                2.0:   CWLS LOG ASCII STANDARD - VERSION 2.0
 WRAP.                 NO:   ONE LINE PER DEPTH STEP
~WELL INFORMATION
#MNEM.UNIT      DATA TYPE    INFORMATION
#----------   ------------   ------------------------------
 STRT.F           36.0000:   START DEPTH
 STOP.F          518.0000:   STOP DEPTH
 STEP.F            0.5000:   STEP LENGTH
 NULL.          -999.2500:   NO VALUE
 COMP.    FENIX & SCISSON:   COMPANY
 WELL.        NPR #57S-10:   WELL
 FLD .             TEAPOT:   FIELD
 LOC .      S10 T38N R78W:   LOCATION
 CNTY.            NATRONA:   COUNTY
 STAT.            WYOMING:   STATE
 CTRY. UNITED STATES OF AMERICA:   COUNTRY
 SRVC.              Welex:   SERVICE COMPANY
 DATE.        11-MAR-1977:   LOGDATE
 API .       490251029100:   API NUMBER
~CURVE INFORMATION
#MNEM.UNIT       API CODE    CURVE DESCRIPTION
#----------   ------------   ------------------------------
 DEPT.F                  :   
 SPR .MV     07 010 01 00:   SPONTANEOUS POTENTIAL
 ILD .OHMM   07 120 46 00:   INDUCTION LOG DEEP
 ILM .OHMM   07 120 44 00:   INDUCTION LOG MEDIUM
 SGUR.OHMM   07 220 01 00:   SHORT GUARD RESISITIVITY
 CORR.G/C3   45 356 01 00:   DENSITY CORRECTION
 CALD.IN     45 280 60 00:   CALIPER
 GRD .GAPI   45 310 01 00:   GAMMA RAY FROM DENSITY LOG
 RHOB.G/C3   45 350 01 00:   BULK DENSITY
 DPOR.DEC    45 890 12 00:   DENSITY POROSITY SANDSTONE
~PARAMETER INFORMATION
#MNEM.UNIT          VALUE    DESCRIPTION
#----------   ------------   ------------------------------
 PD  .                 GL:   PERMANENT DATUM
 EPD .F              5244:   ELEVATION PERMANENT DATUM
 LMF .                 GL:   LOG MEASURED FROM
 DMF .                 GL:   DRILLING MEASURED FROM
 EGL .F              5244:   GROUND LEVEL
 DATE.          3-11-1977:   RUN DATE
 RUN .                  1:   RUN NUMBER
 DD  .F               530:   DEPTH DRILLER
 DL  .F               522:   DEPTH LOGGER
 BLI .F               520:   BOTTOM LOG INTERVAL
 TLI .F                35:   TOP LOG INTERVAL
 CS  .IN            8.625:   CASING SIZE
 CBD .F                40:   CASING BOTTOM DRILLER
 CBL .F                44:   CASING BOTTOM LOGGER
 BS  .IN            7.875:   BIT SIZE
 BSD .F               530:   BIT SIZE AT DEPTH
 DFT .            KCL MUD:   DRILLING FLUID TYPE
 DFD .                8.8:   DRILLING FLUID DENSITY
 DFV .                  8:   DRILLING FLUID VISCOSITY
 DFPH.                 10:   DRILLING FLUID PH
 DFL .               12.4:   DRILLING FLUID LOSS
 MSS .           FLOWLINE:   MUD SAMPLE SOURCE
 RMS .OHMM           .398:   RESISTIVITY MUD SAMPLE
 MST .F                50:   MUD SAMPLE TEMPERATURE
 RMF .OHMM           .276:   RESISTIVITY MUD FILTRATE SAMPLE
 MFST.F                60:   MUD FILTRATE SAMPLE TEMPERATURE
 RMC .OHMM            .42:   RESISTIVITY MUD CAKE
 MCST.F                60:   MUD CAKE SAMPLE TEMPERATURE
 MFSS.           MEASURED:   MUD FILTRATE SAMPLE SOURCE
 RMB .OHMM            .31:   RESISTIVITY MUD AT BHT
 BHT .F                64:   BOTTOM HOLE TEMPERATURE
 TCS .HRS             2.5:   TIME CURCULATED STOPPED
 MRT .F                64:   MAXIMUM RECORDED TEMPERATURE
 LUN .               8611:   LOGGING UNIT NUMBER
 LUL .           GILLETTE:   LOGGING UNIT LOCATION
 ENGI.               DOAK:   RECORDING ENGINEER
 WITN.         STUEBINGER:   WITNESSED BY
 CLNT.            A2DTECH:   CLIENT CODE
 ORIG.      2" & 5" PRINT:   ORIGIN OF DATA
 UWI .       490251029100:   UNIQUE WELL ID
 DICO. A2D Technologies, Inc.:   DIGITIZING COMPANY
~OTHER INFORMATION
~A   DEPT      SPR        ILD        ILM       SGUR        CORR        CALD      GRD       RHOB       DPOR   
# ...
  182.0000   -28.9918     7.9449     9.6709    11.5040     0.0327     8.0772   120.4354     2.4400     0.1194
  182.5000   -28.8887     7.9055     9.5728    11.3034     0.0343     8.0942   119.0067     2.4391     0.1199
  183.0000   -28.7856     7.8965     9.4756    11.3036     0.0359     8.0925   117.1814     2.4380     0.1204
  183.5000   -28.6822     7.8965     9.3794    11.3052     0.0382     8.0772   115.3382     2.4366     0.1201
  184.0000   -28.5779     7.8965     9.3188    11.3052     0.0406     8.0617   113.4753     2.4402     0.1193
  184.5000   -28.4783     7.7337     9.3415    11.2348     0.0429     8.0462   112.1333     2.4436     0.1179
  185.0000   -28.5712     7.5684     9.3609    11.0429     0.0453     8.0306   111.6322     2.4470     0.1161
  185.5000   -28.6764     7.4066     9.3806    10.8552     0.0476     8.0151   111.6464     2.4504     0.1134
  186.0000   -28.7809     7.3049     9.4002    10.6992     0.0500     8.0015   111.8421     2.4537     0.1101
  186.5000   -28.8851     7.2492     9.4198    10.9593     0.0523     8.0020   113.4006     2.4618     0.1049
  187.0000   -28.9894     7.1869     9.4395    11.2016     0.0547     8.0020   115.0284     2.4710     0.0996
  187.5000   -29.0936     7.0860     9.4592    11.0268     0.0571     8.0020   116.6533     2.4802     0.0954
  188.0000   -29.1970     6.9866     9.4790    10.8460     0.0594     8.0020   118.0112     2.4799     0.0938
  188.5000   -29.2862     6.8863     9.4919    10.6682     0.0618     8.0020   117.2819     2.4748     0.0976
  189.0000   -29.3426     6.7854     9.3209    10.4933     0.0597     8.0020   116.5279     2.4698     0.1030
  189.5000   -29.3999     6.6860     9.1958    10.3124     0.0572     8.0020   115.7820     2.4649     0.1053
  190.0000   -29.4570     6.5880     9.0651    10.0779     0.0548     8.0020   115.4656     2.4599     0.1076
  190.5000   -29.5142     6.4915     8.8276     9.8363     0.0524     8.0020   115.5503     2.4548     0.1100
  191.0000   -29.5713     6.3904     8.5816     9.6014     0.0500     8.0020   115.6721     2.4536     0.1126
  191.5000   -29.6284     6.3366     8.3229     9.2077     0.0512     8.0020   114.1088     2.4536     0.1125
  192.0000   -29.6855     6.2643     8.0340     8.6976     0.0527     8.0020   112.0457     2.4536     0.1109
  192.5000   -29.7427     6.1594     7.6833     8.1925     0.0541     8.0020   111.4922     2.4536     0.1077
  193.0000   -29.8003     6.1844     7.9458     8.7375     0.0556     8.0020   113.9188     2.4538     0.1066
  193.5000   -29.8583     6.2825     8.3415     9.8478     0.0570     8.0020   115.7694     2.4529     0.1091
  194.0000   -29.8545     6.4895     8.3762     9.9530     0.0585     8.0020   117.0417     2.4506     0.1120
  194.5000   -29.8464     6.7033     8.4064    10.0307     0.0599     8.0020   115.7119     2.4482     0.1138
  195.0000   -29.8386     6.9421     8.4622     9.9754     0.0614     8.0020   114.2755     2.4476     0.1146
  195.5000   -29.8309     7.0062     8.5403     9.9388     0.0628     8.0020   112.8200     2.4474     0.1161
  196.0000   -29.8233     6.7775     8.5782    10.6980     0.0643     8.0020   111.3130     2.4369     0.1196
  196.5000   -29.8156     6.5367     8.3447    10.4860     0.0657     8.0020   110.3210     2.4261     0.1230
  197.0000   -29.8079     6.3044     7.9739    10.0865     0.0671     8.0020   109.8901     2.4258     0.1261
  197.5000   -29.8002     6.0804     7.5870     9.6734     0.0642     8.0020   110.5815     2.4180     0.1273
  198.0000   -29.7925     5.8643     7.2895     8.6533     0.0570     8.0003   111.9861     2.4074     0.1355
  198.5000   -29.7848     5.6559     7.0697     7.6614     0.0499     7.9984   113.3858     2.3967     0.1465
  199.0000   -29.7772     5.4639     6.8566     6.7818     0.0427     7.9965   114.6415     2.3861     0.1585
  199.5000   -29.7695     5.4640     6.6299     6.0037     0.0355     7.9946   114.6845     2.3789     0.1593
  200.0000   -29.7618     5.4647     6.8506     5.1870     0.0320     7.9927   111.2315     2.3920     0.1348
  200.5000   -29.7541     5.4650     7.1040    10.0171     0.0328     7.9908   109.9928     2.4160     0.1276
  201.0000   -29.7464     5.5219     7.3667     9.8291     0.0346     7.9889   112.3220     2.4257     0.1234
  201.5000   -29.7388     5.6170     7.6391     9.6970     0.0364     7.9870   114.6110     2.4336     0.1207
  202.0000   -29.7311     5.7885     7.9216     9.5916     0.0381     7.9851   116.2188     2.4404     0.1179
  202.5000   -29.7234     5.9653     8.2145     9.9986     0.0399     7.9833   114.8176     2.4461     0.1152
  203.0000   -29.7157     6.1475     8.5183    10.3963     0.0417     7.9814   113.8208     2.4518     0.1125
  203.5000   -29.7080     6.3352     8.8113    10.5805     0.0435     7.9795   114.0186     2.4575     0.1104
  204.0000   -29.7003     6.5187     9.0615    10.3114     0.0452     7.9776   114.8774     2.4618     0.1085
  204.5000   -29.6927     6.6165     9.3188    10.0491     0.0470     7.9757   116.4403     2.4646     0.1065
  205.0000   -29.6850     6.7157     9.5836    10.3425     0.0488     7.9738   117.9559     2.4673     0.1045
  205.5000   -29.6773     6.8164     9.8559    11.1806     0.0506     7.9719   119.4638     2.4700     0.1026
  206.0000   -29.6697     6.9186    10.0617    11.0493     0.0516     7.9700   120.9701     2.4707     0.1018
  206.5000   -29.6604     7.0224    10.2395    10.8324     0.0502     7.9681   122.4782     2.4693     0.1018
  207.0000   -29.6380     7.1277    10.4204    10.6209     0.0489     7.9662   123.5811     2.4638     0.1051
  207.5000   -29.6154     7.2355    10.6046    10.9117     0.0476     7.9644   123.6676     2.4583     0.1083
  208.0000   -29.5928     7.3474    10.7270    11.2994     0.0463     7.9625   122.2001     2.4529     0.1114
  208.5000   -29.5703     7.4609    10.7852    11.2533     0.0449     7.9607   121.4013     2.4475     0.1146
  209.0000   -29.5477     7.5762    10.8437    11.2074     0.0436     7.9591   123.1632     2.4468     0.1158
  209.5000   -29.5251     7.6934    10.8908    11.3155     0.0423     7.9574   124.2427     2.4543     0.1138
  210.0000   -29.5025     7.7675    10.6943    11.4054     0.0410     7.9557   123.9592     2.4620     0.1103
  210.5000   -29.4803     7.7973    10.5136    11.3617     0.0402     7.9540   121.4348     2.4697     0.1069
  211.0000   -29.4804     7.8272    10.3360    11.3095     0.0421     7.9523   119.2281     2.4746     0.1034
  211.5000   -29.5386     7.8572    10.1612    11.4518     0.0438     7.9507   119.0340     2.4799     0.1002
  212.0000   -29.5959     7.8874     9.9404    11.7111     0.0456     7.9490   118.2357     2.4851     0.0983
  212.5000   -29.6532     7.9177     9.9529    11.6038     0.0473     7.9473   115.0922     2.4902     0.0964
  213.0000   -29.7104     7.9482     9.9740    11.5152     0.0491     7.9456   111.9662     2.4954     0.0945
  213.5000   -29.7676     7.9672     9.9951    11.6411     0.0508     7.9439   108.9675     2.4971     0.0926
  214.0000   -29.8249     7.9379    10.0162    11.7194     0.0526     7.9422   108.6381     2.4950     0.0911
  214.5000   -29.8821     7.9137    10.0286    11.4682     0.0543     7.9406   109.0916     2.4961     0.0893
  215.0000   -29.9393     7.8627     9.9510    11.3208     0.0561     7.9389   111.0732     2.4987     0.0875
  215.5000   -29.9966     7.7503     9.8901    11.5099     0.0578     7.9372   113.1237     2.5013     0.0856
  216.0000   -30.0538     7.6396     9.7935    11.6056     0.0596     7.9355   115.1625     2.5039     0.0838
  216.5000   -30.1108     7.5328     9.6150    10.8217     0.0613     7.9338   115.7329     2.5042     0.0826
  217.0000   -30.1677     7.4466     9.4396    10.9721     0.0631     7.9322   113.9641     2.4952     0.0882
  217.5000   -30.2246     7.3615     9.2675    10.5875     0.0627     7.9305   112.3576     2.4864     0.0954
  218.0000   -30.2815     7.2773     9.0985    10.4158     0.0608     7.9288   112.2010     2.4776     0.0991
