~VERSION INFORMATION
 VERS.                2.0:   CWLS LOG ASCII STANDARD - VERSION 2.0
 WRAP.                 NO:   ONE LINE PER DEPTH STEP
~WELL INFORMATION
#MNEM.UNIT      DATA TYPE    INFORMATION
#----------   ------------   ------------------------------
 STRT.F            0.0000:   START DEPTH
 STOP.F          612.5000:   STOP DEPTH
 STEP.F            0.5000:   STEP LENGTH
 NULL.          -999.2500:   NO VALUE
 COMP.   FLUOR DANIEL INC:   COMPANY
 WELL. NAVAL PETROLEUM RESERVE 3 SX-3 82 #2-3:   WELL
 FLD .             TEAPOT:   FIELD
 LOC .       S3 T38N R78W:   LOCATION
 CNTY.            NATRONA:   COUNTY
 STAT.            WYOMING:   STATE
 CTRY. UNITED STATES OF AMERICA:   COUNTRY
 SRVC.      Western Atlas:   SERVICE COMPANY
 DATE.        28-JUL-1995:   LOGDATE
 API .       490252274000:   API NUMBER
~CURVE INFORMATION
#MNEM.UNIT       API CODE    CURVE DESCRIPTION
#----------   ------------   ------------------------------
 DEPT.F                  :   
 GRR .GAPI   07 310 01 00:   GAMMA RAY FROM RES. LOG.
 RILD.OHMM   07 120 46 00:   INDUCTION LOG DEEP RESISTIVITY
 RILM.OHMM   07 120 44 00:   INDUCTION LOG MEDIUM RESISTIVITY
~PARAMETER INFORMATION
#MNEM.UNIT          VALUE    DESCRIPTION
#----------   ------------   ------------------------------
 PD  .                 GL:   PERMANENT DATUM
 EPD .F              5123:   ELEVATION PERMANENT DATUM
 LMF .                 KB:   LOG MEASURED FROM
 DAPD.F                10:   FEET ABOVE PERMANENT DATUM
 DMF .                 KB:   DRILLING MEASURED FROM
 EKB .F              5133:   KELLING BUSHING
 EDF .F              5132:   DRILLING FLOOR
 EGL .F              5123:   GROUND LEVEL
 DATE.            7-28-95:   RUN DATE
 RUN .                  1:   RUN NUMBER
 DD  .F               620:   DEPTH DRILLER
 DL  .F               620:   DEPTH LOGGER
 BLI .F               612:   BOTTOM LOG INTERVAL
 TLI .F                54:   TOP LOG INTERVAL
 CS  .IN            9.625:   CASING SIZE
 CBD .F                53:   CASING BOTTOM DRILLER
 CBL .F                54:   CASING BOTTOM LOGGER
 BS  .IN             8.75:   BIT SIZE
 BSD .F               620:   BIT SIZE AT DEPTH
 DFT .                AIR:   DRILLING FLUID TYPE
 BHT .F                91:   BOTTOM HOLE TEMPERATURE
 MRT .F                91:   MAXIMUM RECORDED TEMPERATURE
 LUN .            HL 6530:   LOGGING UNIT NUMBER
 LUL .             CASPER:   LOGGING UNIT LOCATION
 ENGI.          RASMUSSEN:   RECORDING ENGINEER
 WITN.              HARDY:   WITNESSED BY
 CLNT.            A2DTECH:   CLIENT CODE
 ORIG.       2", 5" PRINT:   ORIGIN OF DATA
 UWI .       490252274000:   UNIQUE WELL ID
 DICO. A2D Technologies, Inc.:   DIGITIZING COMPANY
~OTHER INFORMATION
~A    DEPT      GRR      RILD       RILM   
# ...
  455.0000   101.3328    12.1144    12.5473
  455.5000    99.7768    12.1803    12.6658
  456.0000    99.5421    12.2466    12.6658
  456.5000    99.8360    12.3200    12.6658
  457.0000    97.8200    12.3213    12.6658
  457.5000    95.0750    12.1281    12.4701
  458.0000    93.9246    11.9816    12.3200
  458.5000    92.9612    11.7949    12.1274
  459.0000    92.5184    11.6285    11.9545
  459.5000    91.7075    11.4632    11.7850
  460.0000    94.1315    11.3002    11.6177
  460.5000    97.2724    11.1395    11.4529
  461.0000    99.5053    10.9748    11.2829
  461.5000    99.5344    10.7952    11.0982
  462.0000    99.1070    10.6181    10.9162
  462.5000    99.4611    10.5305    10.8261
  463.0000   100.9384    10.3713    10.6624
  463.5000   103.1363    10.2432    10.5307
  464.0000   105.5231    10.2882    10.5770
  464.5000   105.8165    10.3385    10.6292
  465.0000   105.6765    10.3888    10.6829
  465.5000   105.4285    10.4343    10.7309
  466.0000   105.0170    10.9776    11.3338
  466.5000   103.8936    11.5019    11.9102
  467.0000   102.6853    11.9890    12.8780
  467.5000   100.7736    13.2027    14.3331
  468.0000    95.7035    14.5388    15.9527
  468.5000    88.7146    15.9910    17.7552
  469.0000    81.6153    17.7651    19.7615
  469.5000    78.6110    19.7360    21.9336
  470.0000    79.3253    21.9255    24.2772
  470.5000    78.9835    24.6156    26.8723
  471.0000    74.7744    26.3797    28.5408
  471.5000    70.5595    27.2457    28.5406
  472.0000    68.7997    27.2457    28.1408
  472.5000    71.3441    26.1344    26.9989
  473.0000    74.3040    24.9565    25.7650
  473.5000    74.9017    23.3962    24.1661
  474.0000    76.2500    21.9909    22.6658
  474.5000    79.4760    21.1852    21.7886
  475.0000    83.9380    20.4084    20.9868
  475.5000    88.3719    19.6601    20.2146
  476.0000    89.9980    18.9226    19.4539
  476.5000    87.1746    18.4911    19.0102
  477.0000    84.7192    18.4911    19.0102
  477.5000    84.2848    18.5663    18.9299
  478.0000    85.1995    18.6350    18.8355
  478.5000    84.2340    18.7039    18.9134
  479.0000    82.4502    18.7731    19.0251
  479.5000    82.9666    18.8355    19.1375
  480.0000    84.7455    18.8355    19.2506
  480.5000    86.3805    18.9347    19.3643
  481.0000    87.6816    19.0253    19.4787
  481.5000    88.8513    19.1163    19.5938
  482.0000    90.3235    19.2078    19.7096
  482.5000    90.4594    19.2997    19.8260
  483.0000    87.4891    19.3643    19.9079
  483.5000    85.7726    19.3643    19.9079
  484.0000    86.1776    19.3643    19.9067
  484.5000    87.8660    19.1548    19.6913
  485.0000    89.5769    18.9664    19.4979
  485.5000    89.9700    18.8355    19.3636
  486.0000    89.6854    18.8355    19.1308
  486.5000    89.3680    18.5039    18.8754
  487.0000    89.8427    18.2074    18.6227
  487.5000    92.4334    17.9157    18.3727
  488.0000    95.0004    17.6572    18.1509
  488.5000    95.4732    17.4345    17.8617
  489.0000    92.9251    17.2346    17.6031
  489.5000    89.7915    17.0173    17.3479
  490.0000    89.0090    16.8609    17.0960
  490.5000    89.7269    16.5380    16.8476
  491.0000    90.6352    16.2499    16.6034
  491.5000    91.5436    15.9667    16.3628
  492.0000    92.4525    15.6609    16.1006
  492.5000    93.6487    15.6609    16.1006
  493.0000    94.8780    15.6609    15.9527
  493.5000    95.7599    15.6609    15.9527
  494.0000    95.5396    15.6609    16.0265
  494.5000    95.3488    15.6609    16.1006
  495.0000    95.1677    15.6608    16.1006
  495.5000    94.9433    15.6609    16.1006
  496.0000    93.7180    15.6609    16.1006
  496.5000    91.7458    15.6609    16.1006
  497.0000    90.6681    15.5068    15.9422
  497.5000    93.0885    15.2333    15.6609
  498.0000    96.6007    14.8893    15.3073
  498.5000   101.1082    14.5833    14.9927
  499.0000   101.4100    14.2836    14.6846
  499.5000    99.2453    14.0191    14.4102
  500.0000    95.0368    13.6683    14.0502
  500.5000    91.5429    13.3571    13.7309
  501.0000    90.9653    13.0529    13.4175
  501.5000    89.6480    12.7556    13.1109
  502.0000    85.0467    12.6100    12.9616
  502.5000    80.7968    12.4976    12.8474
  503.0000    81.1141    12.3862    12.7337
  503.5000    85.4991    12.2758    12.6204
  504.0000    89.8235    12.1664    12.5079
  504.5000    92.1514    12.0579    12.3964
  505.0000    92.3892    11.9504    12.2859
  505.5000    95.0055    11.8626    12.1956
  506.0000    97.1790    11.8236    12.1556
  506.5000    97.1833    11.7848    12.1156
  507.0000    96.3095    11.7461    12.0758
  507.5000    95.7028    11.7075    12.0362
  508.0000    95.4918    11.6691    11.9966
  508.5000    94.7482    11.6307    11.9572
  509.0000    93.3006    11.5926    11.9179
  509.5000    92.2441    11.5492    11.8736
  510.0000    92.8199    11.5799    11.9055
  510.5000    93.3568    11.6468    11.9756
  511.0000    93.9637    12.0873    12.4266
  511.5000    94.8615    12.0352    12.3731
  512.0000    95.9058    11.9661    12.3021
  512.5000    96.7082    11.8975    12.2315
  513.0000    96.9245    11.8292    12.1612
  513.5000    97.5103    11.7644    12.0946
  514.0000    98.4891    11.7060    12.0347
  514.5000    99.9920    11.6374    11.9641
  515.0000   101.0046    11.5692    11.8940
  515.5000   100.1209    11.5014    11.8243
  516.0000    97.3656    11.4340    11.7550
  516.5000    94.6821    11.3670    11.6861
  517.0000    96.1614    11.3003    11.6176
  517.5000   100.2481    11.2341    11.5495
  518.0000   104.0661    11.1682    11.4818
  518.5000   107.5359    11.1044    11.4150
  519.0000   108.3325    11.0434    11.3495
  519.5000   106.3380    10.9824    11.2844
  520.0000   105.1483    10.9220    11.2196
  520.5000   104.6439    10.8267    11.1334
  521.0000   105.2214    10.8366    11.1451
  521.5000   106.7839    10.8604    11.1684
  522.0000   108.2223    10.8842    11.1918
  522.5000   108.3285    10.9081    11.2153
  523.0000   103.9831    11.0284    11.3380
  523.5000    99.9447    11.0741    11.3850
  524.0000    99.1083    11.1307    11.4431
  524.5000   101.6981    11.0375    11.3553
  525.0000   106.1845    10.9454    11.2685
  525.5000   110.2487    10.8542    11.1823
  526.0000   111.0264    10.7637    11.1200
  526.5000   108.2983    10.6739    11.0930
  527.0000   104.8066    10.5849    11.0677
  527.5000   102.6388    10.5192    11.0291
  528.0000   102.4306    10.4573    11.1108
  528.5000   102.2973    10.3958    10.9713
  529.0000   102.6674    10.3346    10.8548
  529.5000   106.5625    10.2737    10.7407
  530.0000   108.9873    10.2133    10.6282
  530.5000   109.7971    10.1532    10.5169
  531.0000   110.6079    10.0936    10.4067
  531.5000   111.7378     9.9825    10.2623
  532.0000   113.3078     9.7821    10.0562
  532.5000   113.4080     9.5565     9.8248
  533.0000   112.4240     9.3304     9.5923
  533.5000   113.8449     9.1096     9.3654
  534.0000   117.5507     8.8941     9.1438
  534.5000   122.4406     8.6765     8.9193
  535.0000   122.3900     8.1644     8.7561
  535.5000   121.3125     7.7092     8.2145
  536.0000   119.5716     6.9332     7.6140
  536.5000   116.1910     6.2364     6.7083
  537.0000   115.5364     5.6096     5.9103
  537.5000   123.1405     5.1268     5.2073
  538.0000   132.4625     5.1156     4.6748
  538.5000   140.7217     5.1038     4.8480
  539.0000   142.3813     5.0921     5.2428
  539.5000   136.9004     5.0797     5.7074
  540.0000   126.6211     5.4605     6.2928
  540.5000   116.4229     5.8962     6.9381
  541.0000   110.7257     6.3979     7.6497
  541.5000   108.6137     7.0684     8.4342
  542.0000   108.6572     7.8627     9.0538
  542.5000   109.4585     8.7463     9.2115
  543.0000   111.9019     9.0854     9.4076
  543.5000   113.6081     9.1618     9.5359
  544.0000   114.6208     9.3084     9.6660
  544.5000   116.1599     9.4574     9.7978
  545.0000   118.1434     9.6088     9.9311
  545.5000   117.5023     9.7626    10.0654
