~VERSION INFORMATION
 VERS.                2.0:   CWLS LOG ASCII STANDARD - VERSION 2.0
 WRAP.                 NO:   ONE LINE PER DEPTH STEP
~WELL INFORMATION
#MNEM.UNIT      DATA TYPE    INFORMATION
#----------   ------------   ------------------------------
 STRT.F           28.0000:   START DEPTH
 STOP.F          659.0000:   STOP DEPTH
 STEP.F            0.5000:   STEP LENGTH
 NULL.          -999.2500:   NO VALUE
 COMP. FENIX & SCISSON INC:   COMPANY
 WELL.    NPR 3 #46-SX-34:   WELL
 FLD .             TEAPOT:   FIELD
 LOC .      S34 T39N R78W:   LOCATION
 CNTY.            NATRONA:   COUNTY
 STAT.            WYOMING:   STATE
 CTRY. UNITED STATES OF AMERICA:   COUNTRY
 SRVC.              Welex:   SERVICE COMPANY
 DATE.        01-MAY-1977:   LOGDATE
 API .       490251035600:   API NUMBER
~CURVE INFORMATION
#MNEM.UNIT       API CODE    CURVE DESCRIPTION
#----------   ------------   ------------------------------
 DEPT.F                  :   
 CALD.IN     45 280 60 00:   CALIPER FROM DENSITY
 GRD .GAPI   45 310 01 00:   GAMMA RAY FROM DENSITY LOG
 CORR.G/C3   45 356 01 00:   DENSITY CORRECTION
 DPHI.DEC    45 890 12 00:   DENSITY POROSITY SANDSTONE
 RHOB.G/C3   45 350 01 00:   BULK DENSITY
 SPR .MV     07 010 01 00:   SPONTANEOUS POTENTIAL
 ILD .OHMM   07 120 46 00:   INDUCTION LOG DEEP
 ILM .OHMM   07 120 44 00:   INDUCTION LOG MEDIUM
 SGRD.OHMM   07 221 05 00:   SHALLOW SHORT GUARD RESISTIVITY
~PARAMETER INFORMATION
#MNEM.UNIT          VALUE    DESCRIPTION
#----------   ------------   ------------------------------
 PD  .                 GL:   PERMANENT DATUM
 EPD .F              5120:   ELEVATION PERMANENT DATUM
 LMF .                 GL:   LOG MEASURED FROM
 DMF .                 GL:   DRILLING MEASURED FROM
 EGL .F              5120:   GROUND LEVEL
 DATE.        01-MAY-1977:   RUN DATE
 RUN .                  1:   RUN NUMBER
 DD  .F               660:   DEPTH DRILLER
 DL  .F               663:   DEPTH LOGGER
 BLI .F               661:   BOTTOM LOG INTERVAL
 TLI .F                28:   TOP LOG INTERVAL
 CS  .IN            8.625:   CASING SIZE
 BS  .IN               12:   BIT SIZE
 BSD .F               660:   BIT SIZE AT DEPTH
 DFT .            KCL MUD:   DRILLING FLUID TYPE
 DFD .                8.7:   DRILLING FLUID DENSITY
 TCS .HRS            0100:   TIME CURCULATED STOPPED
 MRT .F                71:   MAXIMUM RECORDED TEMPERATURE
 ENGI.          T. JOYNER:   RECORDING ENGINEER
 WITN.            R. LYON:   WITNESSED BY
 CLNT.            A2DTECH:   CLIENT CODE
 ORIG.           5" PRINT:   ORIGIN OF DATA
 UWI .       490251035600:   UNIQUE WELL ID
 DICO. A2D Technologies, Inc.:   DIGITIZING COMPANY
~OTHER INFORMATION
~A   DEPT     CALD        GRD        CORR      DPHI       RHOB        SPR        ILD        ILM       SGRD   
# ...
  393.0000     7.8108   125.4630     0.0172     0.1322     2.4567   -43.6220     4.7437     9.0689     9.6019
  393.5000     7.8254   120.5126     0.0172     0.1322     2.4545   -43.9182     4.4886     8.6993     9.4239
  394.0000     7.8240   119.7652     0.0172     0.1343     2.4515   -44.0655     4.2471     8.4005     9.0748
  394.5000     7.8095   124.8760     0.0172     0.1364     2.4493   -44.0640     4.0461     8.1055     8.2139
  395.0000     7.8090   129.0848     0.0172     0.1398     2.4455   -44.0625     3.8820     7.7884     6.8611
  395.5000     7.8086   125.9362     0.0142     0.1410     2.4410   -43.9119     3.8548     7.8410     6.0314
  396.0000     7.8081   125.0387     0.0127     0.1470     2.4365   -43.9105     3.8592     8.1710     5.9985
  396.5000     7.7926   125.0444     0.0128     0.1494     2.4327   -43.6114     3.9888     8.5149     6.5078
  397.0000     7.7922   123.5474     0.0113     0.1497     2.4282   -43.4611     4.2144     8.9965     7.4225
  397.5000     7.7917   121.3287     0.0067     0.1452     2.4319   -43.3109     4.4527     9.3752     9.0012
  398.0000     7.7913   116.6066     0.0022     0.1304     2.4455   -43.1606     4.7371     9.7027    10.0481
  398.5000     7.8060   117.3078     0.0007     0.1214     2.4673   -43.0103     5.1096     9.9726    10.9117
  399.0000     7.8205   119.1321     0.0098     0.1196     2.4778   -42.7113     5.3986    10.1799    10.9850
  399.5000     7.8200   121.7014     0.0189     0.1232     2.4658   -42.5610     5.8634    10.1782    11.0579
  400.0000     7.8182   126.2763     0.0129     0.1301     2.4567   -42.4107     6.2733    10.1882    11.0541
  400.5000     7.8098   127.2614     0.0129     0.1367     2.4515   -42.2327     6.4875    10.2555    11.0511
  401.0000     7.8015   128.2466     0.0144     0.1349     2.4515   -42.0548     6.7017    10.3228    11.0481
  401.5000     7.7931   128.9790     0.0159     0.1316     2.4522   -41.8768     6.8656    10.3834    11.0352
  402.0000     7.7882   130.4805     0.0159     0.1286     2.4612   -41.8274     6.9121    10.3807    11.0149
  402.5000     7.7879   132.7327     0.0160     0.1245     2.4725   -41.6815     6.9584    10.3786    10.9946
  403.0000     7.7726   130.9309     0.0145     0.1208     2.4740   -41.3869     7.0536    10.4488    10.9743
  403.5000     7.7873   129.7297     0.0145     0.1204     2.4740   -41.2410     7.1009    10.5189    10.9574
  404.0000     7.7870   128.5285     0.0145     0.1204     2.4740   -41.0814     7.0991    10.5162    10.9544
  404.5000     7.7867   127.1772     0.0145     0.1201     2.4758   -40.8005     7.1471    10.5140    10.9514
  405.0000     7.8015   126.5766     0.0145     0.1192     2.4788   -40.6546     7.0962    10.4396    10.9484
  405.5000     7.8011   127.9279     0.0130     0.1168     2.4811   -40.6583     7.0459    10.4375    11.0212
  406.0000     7.8009   129.8799     0.0115     0.1207     2.4773   -40.6612     6.9480    10.3636    11.0943
  406.5000     7.8006   131.8849     0.0115     0.1204     2.4781   -40.8130     6.8989    10.3615    11.1680
  407.0000     7.8153   134.6367     0.0131     0.1203     2.4781   -40.8159     6.8501    10.2882    11.1649
  407.5000     7.8150   139.3769     0.0131     0.1201     2.4774   -40.9677     6.8486    10.2861    11.0852
  408.0000     7.8147   138.4384     0.0146     0.1220     2.4750   -41.1194     6.8946    10.2840    10.9304
  408.5000     7.8144   136.0360     0.0131     0.1240     2.4713   -41.2711     6.8932    10.2819    10.9226
  409.0000     7.8141   134.9850     0.0146     0.1258     2.4677   -41.4229     6.8444    10.2091    10.8493
  409.5000     7.7837   134.2342     0.0147     0.1270     2.4685   -41.7234     6.7029    10.2070    10.7718
  410.0000     7.7834   133.0330     0.0132     0.1276     2.4692   -41.8752     6.4300    10.1348    10.6948
  410.5000     7.7831   132.7327     0.0132     0.1285     2.4625   -41.8781     6.0837     9.9940    10.6184
  411.0000     7.7828   134.9850     0.0117     0.1300     2.4633   -42.1787     5.7165     9.8551    10.5426
  411.5000     7.7825   137.1261     0.0117     0.1330     2.4633   -42.3304     5.4087     9.7182    10.4667
  412.0000     7.7822   139.4275     0.0117     0.1363     2.4535   -42.4822     5.1884     9.4519    10.3205
  412.5000     7.7819   141.3038     0.0102     0.1384     2.4475   -42.6339     5.0116     9.2565    10.1764
  413.0000     7.7967   141.7417     0.0102     0.1390     2.4430   -42.7936     4.9080     9.3186     9.9654
  413.5000     7.7964   141.8919     0.0102     0.1420     2.4393   -42.9375     4.8733     9.3812     9.8942
  414.0000     7.7961   142.1922     0.0087     0.1489     2.4303   -42.9405     4.7725     9.4441     9.9606
  414.5000     7.7958   142.4925     0.0057     0.1481     2.4288   -43.0928     4.6739     9.5075    10.0267
  415.0000     7.8105   142.7928     0.0088     0.1390     2.4429   -43.0958     4.6408     9.5055    10.1632
  415.5000     7.8102   143.6937     0.0148     0.1299     2.4644   -43.2475     4.5136     9.5693    10.0899
  416.0000     7.8250   144.2943     0.0224     0.1221     2.4695   -43.3993     4.4203     9.5621     9.9490
  416.5000     7.8246   140.0901     0.0179     0.1269     2.4658   -43.5510     4.3290     9.4277     9.6757
  417.0000     7.8243   137.6877     0.0164     0.1314     2.4613   -43.7028     4.2688     9.1679     9.1540
  417.5000     7.8391   136.3363     0.0147     0.1353     2.4545   -43.5569     4.2679     8.8449     7.9728
  418.0000     7.8538   140.3904     0.0132     0.1410     2.4493   -43.5598     4.2670     8.5509     6.8490
  418.5000     7.8535   139.9399     0.0119     0.1438     2.4433   -43.4132     4.2959     8.3837     6.2602
  419.0000     7.8382   139.0390     0.0119     0.1449     2.4335   -43.2673     4.3845     8.3820     6.4334
  419.5000     7.8378   137.8994     0.0119     0.1474     2.4343   -43.1215     4.5062     8.6146     7.5368
  420.0000     7.8375   135.4254     0.0120     0.1378     2.4479   -42.9756     4.6633     9.0386     9.2022
  420.5000     7.8222   136.6786     0.0120     0.1242     2.4690   -42.9793     4.8592     9.4836     9.9931
  421.0000     7.8220   138.1391     0.0105     0.1196     2.4795   -42.8333     5.0634     9.6803    10.1999
  421.5000     7.8217   138.7387     0.0105     0.1193     2.4795   -42.6875     5.3494     9.6778    10.1964
  422.0000     7.8214   140.0901     0.0105     0.1190     2.4795   -42.6905     5.6515     9.6758    10.1235
  422.5000     7.8211   140.9234     0.0120     0.1190     2.4788   -42.6935     5.8485     9.6738    10.0519
  423.0000     7.8207   136.2454     0.0120     0.1190     2.4773   -42.6964     5.9285     9.6718    10.1187
  423.5000     7.8204   131.4962     0.0121     0.1193     2.4759   -42.7252     5.7264     9.6698    10.1859
  424.0000     7.8201   125.9760     0.0121     0.1202     2.4736   -43.0006     5.2707     9.4049    10.3245
  424.5000     7.8198   124.4745     0.0106     0.1235     2.4669   -43.1523     4.8178     9.1472    10.1796
  425.0000     7.8195   125.5255     0.0076     0.1295     2.4541   -43.4529     4.4960     8.5951     9.6974
  425.5000     7.8343   128.3784     0.0046     0.1358     2.4466   -43.6046     4.1381     7.9658     7.9380
  426.0000     7.8339   131.0811     0.0031     0.1467     2.4399   -43.6076     3.9424     7.6414     6.1491
  426.5000     7.8488   137.3874     0.0016     0.1557     2.4308   -43.1641     3.9145     7.6927     5.4300
  427.0000     7.8635   140.5405     0.0001     0.1608     2.4196   -42.8694     3.9407     7.7979     5.5419
  427.5000     7.8631   142.9429     0.0001     0.1638     2.4023   -42.4259     4.0501     8.1256     6.3595
  428.0000     7.8628   142.4925    -0.0014     0.1671     2.3978   -41.9824     4.2494     8.4088     8.1487
  428.5000     7.8475   138.4384    -0.0029     0.1578     2.4067   -41.6877     4.4895     8.6421     9.4155
  429.0000     7.8472   135.7357    -0.0014     0.1437     2.4307   -41.2442     4.7759     9.0676    10.3696
