~VERSION INFORMATION
 VERS.                2.0:   CWLS LOG ASCII STANDARD - VERSION 2.0
 WRAP.                 NO:   ONE LINE PER DEPTH STEP
~WELL INFORMATION
#MNEM.UNIT      DATA TYPE    INFORMATION
#----------   ------------   ------------------------------
 STRT.F           10.0000:   START DEPTH
 STOP.F          570.0000:   STOP DEPTH
 STEP.F            0.5000:   STEP LENGTH
 NULL.          -999.2500:   NO VALUE
 COMP. BROWN JOHN E&C INC:   COMPANY
 WELL.   STX 10 #85-14-10:   WELL
 FLD .             TEAPOT:   FIELD
 LOC .      S10 T38N R78W:   LOCATION
 CNTY.            NATRONA:   COUNTY
 STAT.            WYOMING:   STATE
 CTRY. UNITED STATES OF AMERICA:   COUNTRY
 SRVC.           Gearhart:   SERVICE COMPANY
 DATE.        29-JUN-1986:   LOGDATE
 API .       490251108400:   API NUMBER
~CURVE INFORMATION
#MNEM.UNIT       API CODE    CURVE DESCRIPTION
#----------   ------------   ------------------------------
 DEPT.F                  :   
 LL  .OHMM   07 220 00 00:   LATEROLOG RES.
 RILD.OHMM   07 120 46 00:   INDUCTION LOG DEEP RESISTIVITY
 RILM.OHMM   07 120 44 00:   INDUCTION LOG MEDIUM RESISTIVITY
 SPR .MV     07 010 01 00:   SPONTANEOUS POTENTIAL
 GRR .GAPI   07 310 01 00:   GAMMA RAY FROM RES. LOG.
~PARAMETER INFORMATION
#MNEM.UNIT          VALUE    DESCRIPTION
#----------   ------------   ------------------------------
 PD  .                 GL:   PERMANENT DATUM
 EPD .F              5191:   ELEVATION PERMANENT DATUM
 LMF .                 KB:   LOG MEASURED FROM
 DAPD.F                 5:   FEET ABOVE PERMANENT DATUM
 DMF .                 KB:   DRILLING MEASURED FROM
 EKB .F              5196:   KELLING BUSHING
 EGL .F              5191:   GROUND LEVEL
 DATE.          6-29-1986:   RUN DATE
 RUN .                  1:   RUN NUMBER
 DD  .F               579:   DEPTH DRILLER
 DL  .F               572:   DEPTH LOGGER
 BLI .F               570:   BOTTOM LOG INTERVAL
 CS  .IN            8.625:   CASING SIZE
 CBD .F                47:   CASING BOTTOM DRILLER
 CBL .F                46:   CASING BOTTOM LOGGER
 BS  .IN            7.875:   BIT SIZE
 BSD .F               579:   BIT SIZE AT DEPTH
 DFT .                MUD:   DRILLING FLUID TYPE
 DFD .                8.9:   DRILLING FLUID DENSITY
 DFV .                 32:   DRILLING FLUID VISCOSITY
 DFPH.                  9:   DRILLING FLUID PH
 MSS .           FLOWLINE:   MUD SAMPLE SOURCE
 RMS .OHMM            1.3:   RESISTIVITY MUD SAMPLE
 MST .F                62:   MUD SAMPLE TEMPERATURE
 RMF .OHMM             .9:   RESISTIVITY MUD FILTRATE SAMPLE
 MFST.F                63:   MUD FILTRATE SAMPLE TEMPERATURE
 RMC .OHMM            1.5:   RESISTIVITY MUD CAKE
 MCST.F                63:   MUD CAKE SAMPLE TEMPERATURE
 MFSS.               MEAS:   MUD FILTRATE SAMPLE SOURCE
 MCSS.               MEAS:   MUD CAKE SAMPLE SOURCE
 RMB .OHMM            1.3:   RESISTIVITY MUD AT BHT
 BHT .F                64:   BOTTOM HOLE TEMPERATURE
 TCS .HRS            1300:   TIME CURCULATED STOPPED
 TLAB.HRS            1600:   TIME LOGGER AT BOTTOM
 MRT .F                64:   MAXIMUM RECORDED TEMPERATURE
 LUN .               7609:   LOGGING UNIT NUMBER
 LUL .           GILLETTE:   LOGGING UNIT LOCATION
 ENGI.             WAGNER:   RECORDING ENGINEER
 WITN.            JENNING:   WITNESSED BY
 CLNT.            A2DTECH:   CLIENT CODE
 ORIG.      2" & 5" PRINT:   ORIGIN OF DATA
 UWI .       490251108400:   UNIQUE WELL ID
 DICO. A2D Technologies, Inc.:   DIGITIZING COMPANY
~OTHER INFORMATION
~A   DEPT       LL       RILD       RILM        SPR         GRR  
# ...
   71.0000     8.4092     9.9367     9.0962  -110.0299   100.1133
   71.5000     8.4438    10.0821     9.1816  -110.1495    99.7981
   72.0000     8.4438    10.2297     9.2688  -110.2237    99.4615
   72.5000     9.1188    10.3794     9.7735  -110.1644    99.1247
   73.0000     9.7515    10.5313    10.0905  -109.8213    98.8012
   73.5000     9.9411    10.6856    10.3450  -109.4826    99.2282
   74.0000    10.1393    10.8425    10.6059  -109.1421   100.8964
   74.5000    10.3411    11.0005    10.6598  -109.0360   102.0259
   75.0000    10.4641    11.1685    10.6610  -109.1810   100.0308
   75.5000    10.3179    11.1685    10.6609  -109.3262    97.7093
   76.0000    10.1976    11.1185    10.4872  -109.4711    95.3565
   76.5000    10.0800    10.9968    10.3651  -109.6150    94.0667
   77.0000     9.9864    10.8756    10.2388  -109.7726    95.9969
   77.5000     9.7197    10.7558    10.0915  -110.5345    98.5099
   78.0000     9.5862    10.6375     9.9463  -111.1949   101.3245
   78.5000     9.4544    10.5205     9.8031  -110.8815   100.5919
   79.0000     9.3243    10.4048     9.6621  -110.8302    96.8864
   79.5000     9.1965    10.2697     9.5230  -110.8294    92.8034
   80.0000     9.0979    10.2838     9.4432  -110.8281    90.1545
   80.5000     9.1524    10.3067     9.5692  -110.7370    90.8391
   81.0000     9.1975    10.3297     9.6590  -110.5042    94.8894
   81.5000     9.2454    10.3526     9.7110  -110.6824    98.8412
   82.0000     9.2673    10.3658     9.6573  -111.0902   102.8070
   82.5000     8.7963    10.2918     9.6209  -111.0159   103.3610
   83.0000     8.4935    10.2320     9.5441  -110.6833   101.3175
   83.5000     8.2109    10.1724     9.4701  -110.4300   101.5713
   84.0000     8.2109    10.1131     9.3967  -110.7084   103.2978
   84.5000     8.2878    10.0542     9.3238  -110.9880   104.5926
   85.0000     8.3748     9.9955     9.2515  -111.2621   102.0495
   85.5000     8.4797     9.9864     9.1798  -111.5581    99.6091
   86.0000     8.5860    10.0206     9.0976  -110.6762    97.7848
   86.5000     8.6646    10.0481     9.1489  -109.2396    99.1247
   87.0000     8.7390    10.0758     9.2102  -107.8884   100.4334
   87.5000     8.8350    10.1035     9.2716  -106.1979   101.2821
   88.0000     8.9459    10.1312     9.3593  -104.4949   100.5153
   88.5000     9.0585    10.1592     9.2653  -102.7868    99.7877
   89.0000     9.1828    10.1744     9.3342  -101.1842    99.0620
   89.5000     9.1527    10.2697     9.3967   -99.9236    98.3420
   90.0000     9.0368    10.2455     9.4432   -99.7931    97.5824
   90.5000     8.9225    10.2251     9.2492   -97.9546    98.8185
   91.0000     8.8095    10.2042     9.0980   -96.6567   100.9463
   91.5000     8.6832    10.1833     8.9295   -95.8881   103.0969
   92.0000     8.8249    10.0741     9.0514   -94.8275   104.2347
   92.5000     8.9913     9.7760     9.1943   -94.0241   103.0110
   93.0000     9.0131     9.5350     9.2687   -92.9939   100.3298
   93.5000     8.7540     9.2981     9.0976   -92.1013    97.7158
   94.0000     8.3825     9.0672     8.7304   -91.2443    96.5096
   94.5000     8.0267     8.8420     8.4018   -90.3894    98.4866
   95.0000     7.6857     8.6311     8.0854   -89.5344   101.3134
   95.5000     7.3593     8.4470     7.7808   -88.6793   104.0814
   96.0000     7.0732     8.2669     7.4877   -87.8242   106.9175
   96.5000     7.0732     8.1303     7.3413   -86.9692   110.5284
   97.0000     7.0732     8.0983     7.3419   -86.1135   112.5468
   97.5000     7.1749     8.0628     7.3419   -85.2566   113.9975
   98.0000     7.2698     8.0282     7.4580   -84.4141   113.6823
   98.5000     7.3659     7.9857     7.5675   -84.0445   111.7995
   99.0000     7.4633     8.1128     7.6780   -83.7504   107.3791
   99.5000     7.5619     8.3062     7.7901   -83.4423   102.1229
  100.0000     7.6619     8.5022     7.9042   -82.9523    96.8138
  100.5000     7.7449     8.7028     8.0034   -81.6894    95.0633
  101.0000     7.8514     8.9079     8.0696   -81.6813    96.9446
  101.5000     7.9597     9.0976     8.1353   -81.6539    98.8708
  102.0000     8.0597     9.0661     8.2017   -80.6337    97.6267
  102.5000     8.0934     9.0310     8.2688   -79.6712    95.1847
  103.0000     8.1249     8.9961     8.3364   -78.7228    92.9074
  103.5000     8.1489     8.9613     8.4045   -78.0396    94.5624
  104.0000     8.1781     8.9266     8.4732   -77.8531    96.2312
  104.5000     8.2074     8.8921     8.5223   -77.6413    96.8576
  105.0000     8.2109     8.8577     8.3919   -77.5554    96.3027
  105.5000     7.9844     8.8469     8.2915   -77.4705    96.6727
  106.0000     7.8259     8.9099     8.1919   -77.6026    97.4087
  106.5000     7.6816     8.9695     8.0938   -76.7003    98.1581
  107.0000     7.5472     9.0126     7.9844   -75.8163    98.9090
  107.5000     7.6992     9.0508     8.0760   -74.9770    99.6499
  108.0000     7.9329     9.1084     8.2593   -74.2410   100.2394
  108.5000     8.1715     9.1658     8.4335   -73.5283    98.6947
  109.0000     8.4175     9.2236     8.6143   -72.8174    96.4877
  109.5000     8.6306     9.2818     8.7984   -72.1058    94.9805
  110.0000     8.7385     9.3404     9.0131   -71.3936    93.9296
  110.5000     8.8475     9.3992     8.9074   -70.8002    93.3812
  111.0000     9.0131     9.4432     8.8225   -70.9911    93.7438
  111.5000     9.0131     9.3953     8.7384   -71.2205    94.0887
  112.0000     8.9295     9.3574     8.6551   -71.0325    93.8427
  112.5000     8.8132     9.3196     8.5726   -70.3375    93.5238
  113.0000     8.5611     9.2820     8.4908   -69.9100    94.2197
  113.5000     8.3171     9.2445     8.4100   -69.4967    96.2642
  114.0000     8.0541     9.2072     8.3654   -69.0832    97.9634
  114.5000     8.0836     9.1700     8.4302   -68.6709    98.4783
  115.0000     8.1317     9.1330     8.4825   -68.2324    95.8342
  115.5000     8.1823     9.0975     8.5242   -67.7855    94.7656
  116.0000     8.2109     9.0717     8.4280   -67.3366    94.6200
  116.5000     8.1170     9.0470     8.3172   -66.8875    95.0917
  117.0000     8.0418     9.0222     8.2109   -66.4387    95.6043
  117.5000     7.9844     9.0033     8.3021   -65.9897    96.0977
  118.0000     8.1101     8.9879     8.4132   -65.5390    94.9508
  118.5000     8.2109     8.9724     8.5229   -65.0620    93.7609
  119.0000     8.2109     8.9569     8.3114   -64.5417    92.8036
  119.5000     7.8777     8.9415     8.1104   -64.0227    92.6971
  120.0000     7.6520     8.9261     7.9142   -63.5032    93.0938
  120.5000     7.4801     8.9108     7.7642   -62.9836    94.0040
  121.0000     7.5936     8.8954     7.8530   -62.4641    93.1032
  121.5000     7.7068     8.8801     7.9412   -61.9447    93.2154
  122.0000     7.8218     8.8647     8.0303   -61.4653    95.1855
  122.5000     7.9384     8.8497     8.1205   -61.0450    98.5454
  123.0000     7.9844     8.8164     8.2106   -60.6239    98.6587
  123.5000     7.9636     8.7792     8.1688   -60.2037    96.8615
  124.0000     7.8632     8.7422     8.1262   -59.7795    96.1704
  124.5000     7.7640     8.7053     8.0842   -59.6194    96.6229
  125.0000     7.6662     8.6685     8.0425   -59.5574    99.7137
  125.5000     7.5501     8.6320     8.0011   -59.4851   102.5043
  126.0000     7.5979     8.5955     7.9598   -59.4128   105.3914
  126.5000     7.6787     8.5591     7.9098   -59.2651   104.5044
  127.0000     7.7603     8.5227     7.9105   -58.8741   102.8110
  127.5000     7.8428     8.5591     7.9469   -58.9431   101.4845
  128.0000     7.9104     8.6052     7.9840   -59.1735   102.1121
  128.5000     7.9104     8.6515     8.0212   -59.3539   102.7094
  129.0000     7.9104     8.6981     8.0592   -58.9131   103.3001
  129.5000     8.0320     8.7449     8.1968   -58.4821   103.8695
  130.0000     8.2449     8.8294     8.3757   -58.0653   103.2494
  130.5000     8.4635     8.9421     8.5586   -58.0377   100.2194
  131.0000     8.6027     9.0563     8.7454   -58.7302    95.9519
  131.5000     8.5682     9.1719     8.9364   -58.6113    93.0232
