~VERSION INFORMATION
 VERS.                2.0:   CWLS LOG ASCII STANDARD - VERSION 2.0
 WRAP.                 NO:   ONE LINE PER DEPTH STEP
~WELL INFORMATION
#MNEM.UNIT      DATA TYPE    INFORMATION
#----------   ------------   ------------------------------
 STRT.F           41.0000:   START DEPTH
 STOP.F          473.5000:   STOP DEPTH
 STEP.F            0.5000:   STEP LENGTH
 NULL.          -999.2500:   NO VALUE
 COMP. BROWN JOHN E&C INC:   COMPANY
 WELL. SX 10 #54-43-10-10:   WELL
 FLD .             TEAPOT:   FIELD
 LOC .      S10 T38N R78W:   LOCATION
 CNTY.            NATRONA:   COUNTY
 STAT.            WYOMING:   STATE
 CTRY. UNITED STATES OF AMERICA:   COUNTRY
 SRVC.       Schlumberger:   SERVICE COMPANY
 DATE.        13-SEP-1990:   LOGDATE
 API .       490251131600:   API NUMBER
~CURVE INFORMATION
#MNEM.UNIT       API CODE    CURVE DESCRIPTION
#----------   ------------   ------------------------------
 DEPT.F                  :   
 GRR .GAPI   07 310 01 00:   GAMMA RAY
 ILD .OHMM   07 120 46 00:   INDUCTION LOG DEEP
 ILM .OHMM   07 120 44 00:   INDUCTION LOG MEDIUM
~PARAMETER INFORMATION
#MNEM.UNIT          VALUE    DESCRIPTION
#----------   ------------   ------------------------------
 PD  .                 GL:   PERMANENT DATUM
 EPD .F            5193.0:   ELEVATION PERMANENT DATUM
 LMF .                 KB:   LOG MEASURED FROM
 DAPD.F              10.0:   FEET ABOVE PERMANENT DATUM
 DMF .                 KB:   DRILLING MEASURED FROM
 EKB .F            5203.0:   KELLING BUSHING
 EDF .F            5202.0:   DRILLING FLOOR
 EGL .F            5193.0:   GROUND LEVEL
 DATE.        13-SEP-1990:   RUN DATE
 RUN .                  1:   RUN NUMBER
 DD  .F               480:   DEPTH DRILLER
 DL  .F               479:   DEPTH LOGGER
 BLI .F               473:   BOTTOM LOG INTERVAL
 TLI .F                47:   TOP LOG INTERVAL
 CS  .IN            8.625:   CASING SIZE
 CBD .F                50:   CASING BOTTOM DRILLER
 CBL .F                47:   CASING BOTTOM LOGGER
 BS  .IN            7.875:   BIT SIZE
 BSD .F               480:   BIT SIZE AT DEPTH
 DFT .          AIR/ FOAM:   DRILLING FLUID TYPE
 MSS .           MUD TANK:   MUD SAMPLE SOURCE
 MFSS.               MEAS:   MUD FILTRATE SAMPLE SOURCE
 MCSS.               CALC:   MUD CAKE SAMPLE SOURCE
 TCS .HRS            0700:   TIME CURCULATED STOPPED
 TLAB.HRS            0730:   TIME LOGGER AT BOTTOM
 LUN .               8168:   LOGGING UNIT NUMBER
 LUL .           GILLETTE:   LOGGING UNIT LOCATION
 ENGI.          M. FISHER:   RECORDING ENGINEER
 WITN.          G. STRONG:   WITNESSED BY
 CLNT.            A2DTECH:   CLIENT CODE
 ORIG.           5" PRINT:   ORIGIN OF DATA
 UWI .       490251131600:   UNIQUE WELL ID
 DICO. A2D Technologies, Inc.:   DIGITIZING COMPANY
~OTHER INFORMATION
~A   DEPT       GRR       ILD        ILM   
# ...
  223.0000   152.6878     5.5814     5.1170
  223.5000   151.1674     5.6184     5.2597
  224.0000   154.1700     5.6551     5.4810
  224.5000   159.5883     5.8120     5.7120
  225.0000   161.6912     6.0148     5.9113
  225.5000   158.6602     6.2682     6.0757
  226.0000   156.2353     6.7145     6.3318
  226.5000   155.9220     7.1440     6.7372
  227.0000   157.1142     7.3938     7.1686
  227.5000   156.8010     7.4427     7.4716
  228.0000   155.8844     7.3373     7.5729
  228.5000   154.3645     7.1333     7.5181
  229.0000   152.5430     6.7006     7.3616
  229.5000   151.9276     6.2502     6.7728
  230.0000   154.0252     5.8706     5.9362
  230.5000   155.5219     5.6298     5.2338
  231.0000   154.3037     5.5505     4.9551
  231.5000   153.0855     5.4724     5.0929
  232.0000   155.4872     5.4701     5.2710
  232.5000   159.2961     5.5831     5.4931
  233.0000   166.3208     5.6988     5.6851
  233.5000   167.5159     5.9794     5.9730
  234.0000   166.2977     6.5860     6.8499
  234.5000   157.5380     7.3142     7.2885
  235.0000   149.6833     7.7710     7.6485
  235.5000   143.4872     8.0421     7.8612
  236.0000   140.6103     8.2082     8.0798
  236.5000   148.4390     8.3784     8.2517
  237.0000   154.1589     8.5508     8.4176
  237.5000   153.8457     8.6073     8.5333
  238.0000   151.7225     8.6037     8.5903
  238.5000   151.1071     8.6614     8.5875
  239.0000   150.4898     8.6578     8.5852
  239.5000   148.6682     8.6549     8.6425
  240.0000   146.8496     8.7122     8.7003
  240.5000   151.6617     8.7092     8.6974
  241.0000   155.2700     8.7669     8.8169
  241.5000   154.7551     8.8241     8.8753
  242.0000   148.3058     8.8212     8.9967
  242.5000   141.9593     8.8183     8.9249
  243.0000   139.5345     8.8153     8.8064
  243.5000   138.3163     8.8123     8.8041
  244.0000   138.3047     8.8700     8.8635
  244.5000   140.9070     9.0532     9.0465
  245.0000   145.8201     9.1764     9.1703
  245.5000   147.0180     9.3659     9.3045
  246.0000   143.6853     9.0441     9.6869
  246.5000   142.7190     8.7853    10.0951
  247.0000   144.2655     8.3167     9.8850
  247.5000   145.4605     7.6510     8.9073
  248.0000   144.8427     7.0875     7.8071
  248.5000   147.2444     6.7968     7.0197
  249.0000   154.4726     6.7945     6.1656
  249.5000   158.6843     6.8394     6.0372
  250.0000   158.6727     6.8323     6.3307
  250.5000   145.9794     6.8427     7.4523
  251.0000   136.6077     7.3737     8.0671
  251.5000   131.7608     7.8458     8.5238
  252.0000   132.0422     8.8850     9.3237
  252.5000   131.3172    10.2022    10.1283
  253.0000   129.5833    10.7061    10.7016
  253.5000   128.6581    10.8525    10.9227
  254.0000   131.9561    10.8489    10.9181
  254.5000   135.8574    10.8460    10.9145
  255.0000   139.4570    10.8431    10.9109
  255.5000   141.5978    10.8402    11.0593
  256.0000   142.4331    11.3756    11.5247
  256.5000   137.5812    12.2294    12.4114
  257.0000   126.0979    13.8974    14.3729
  257.5000   114.6145    15.6295    16.6172
  258.0000    98.6063    17.4562    18.9477
  258.5000    84.0556    19.3618    24.1366
  259.0000    66.2832    21.3273    26.5850
  259.5000    58.7214    23.1820    29.1213
  260.0000    55.9862    26.4186    30.5139
  260.5000    59.2842    28.5021    30.2908
  261.0000    69.2187    29.2968    29.4534
  261.5000    81.9677    29.2870    28.4416
  262.0000    89.0826    28.8765    28.0410
  262.5000    91.4807    28.4717    28.2265
  263.0000    91.4553    27.6557    27.8267
  263.5000    90.5301    26.9211    27.4348
  264.0000    89.9065    26.9139    28.3919
  264.5000    88.9301    27.6625    29.7922
  265.0000    85.6376    28.4319    30.8316
  265.5000    82.2991    29.2227    31.7009
  266.0000    80.1672    29.2147    30.8085
  266.5000    78.9403    29.2052    29.1385
  267.0000    79.5234    29.1974    28.9277
  267.5000    84.3287    29.1897    29.1215
  268.0000    92.7508    29.1819    29.3120
  268.5000    95.7471    29.3770    29.7194
  269.0000    94.2185    29.7950    30.5324
  269.5000    87.8634    30.1859    34.0986
  270.0000    80.6033    30.8093    35.5364
  270.5000    76.5099    31.4498    34.7913
  271.0000    75.1329    32.3224    34.3013
  271.5000    79.0291    32.9921    33.5849
  272.0000    83.5338    33.6849    33.8070
  272.5000    86.2284    34.3735    34.0278
  273.0000    86.8115    34.6031    35.4596
  273.5000    87.3945    34.1158    36.6967
  274.0000    82.5426    33.8736    36.7257
  274.5000    75.2825    34.8135    35.9183
  275.0000    73.7590    36.0304    35.9474
  275.5000    76.1470    37.0732    38.4650
  276.0000    75.8250    37.5417    40.6426
  276.5000    74.5470    36.4656    41.7703
  277.0000    73.9695    35.2489    39.5060
  277.5000    76.3625    34.2767    38.1488
  278.0000    80.5654    33.5630    34.1013
  278.5000    83.8634    33.3225    33.1898
  279.0000    88.0664    33.0838    32.2723
  279.5000    90.8607    31.9256    31.5983
  280.0000    93.1490    30.6388    30.5128
  280.5000    93.1287    29.3840    29.2612
  281.0000    94.3151    27.7930    28.2064
  281.5000    96.4064    26.2881    26.7220
  282.0000    99.1011    25.0375    25.4491
  282.5000   100.2874    24.1568    24.5748
  283.0000   100.2621    23.1872    23.8955
  283.5000   100.5435    22.7044    22.9153
  284.0000   101.1265    22.2317    22.2652
  284.5000   101.1062    21.9200    21.9662
  285.0000   101.0860    21.4636    21.6569
  285.5000   100.7129    21.3058    21.3519
  286.0000    98.6271    21.1557    21.3448
  286.5000   102.2267    21.2985    21.3377
  287.0000   106.1280    21.5883    21.4788
  287.5000   110.0293    21.8850    21.9206
  288.0000   108.1991    21.8777    22.2208
  288.5000   103.4520    21.7190    21.6047
  289.0000   101.8237    22.0402    21.9006
  289.5000   106.6249    22.4743    22.5063
  290.0000   109.6212    23.0978    23.1414
  290.5000   106.2827    23.7403    24.2696
  291.0000    97.8160    24.2338    26.7315
  291.5000    93.4712    24.3942    28.4411
  292.0000    89.3239    24.3874    28.8306
  292.5000    87.7953    24.2112    28.0312
  293.0000    89.2834    24.0377    26.2867
  293.5000    91.0731    23.8655    23.7212
  294.0000    93.7677    23.3685    23.5497
  294.5000    98.7742    22.5672    22.8987
  295.0000   103.0735    21.9347    22.1120
  295.5000   104.2599    20.8995    21.3524
  296.0000   101.5247    20.6065    20.4727
  296.5000    99.9961    20.3177    20.1865
  297.0000    98.1659    20.0329    20.1798
  297.5000    94.1227    19.8893    20.0338
  298.0000    91.4838    19.6105    19.8890
  298.5000    92.9718    19.6040    19.7451
  299.0000    96.8731    19.5988    19.7386
  299.5000    99.5678    19.7297    19.8675
  300.0000   100.1508    19.8172    20.0006
  300.5000   101.3372    20.4140    20.1328
  301.0000   102.5265    20.6932    20.5513
  301.5000   104.9225    20.1212    20.4027
  302.0000   107.3424    19.9770    20.1111
  302.5000   107.9044    20.2516    20.2512
  303.0000   106.0728    20.3869    20.3851
  303.5000   105.4521    20.3802    20.3797
  304.0000   108.4514    19.9557    19.9554
  304.5000   113.8639    19.5390    19.4051
  305.0000   117.4665    19.1322    19.1330
  305.5000   116.2382    18.8641    18.8636
  306.0000   113.8076    18.5997    18.7285
  306.5000   111.0753    18.5947    18.7235
  307.0000   108.9464    18.4613    18.4611
  307.5000   108.3257    18.3280    18.3288
  308.0000   108.3077    18.0711    18.3036
  308.5000   108.2867    17.8178    17.8174
  309.0000   107.6661    17.5681    17.6898
  309.5000   104.6321    17.3191    17.3215
  310.0000   101.2966    16.9601    17.0787
  310.5000    99.1674    16.8386    16.8393
  311.0000    99.4476    16.6026    16.7176
  311.5000   100.6369    16.4836    16.5978
  312.0000   102.4295    16.4792    16.3651
  312.5000   107.8420    16.5894    16.3608
  313.0000   111.7463    16.5839    16.3565
  313.5000   108.4103    16.5795    16.4658
