~VERSION INFORMATION
 VERS.                2.0:   CWLS LOG ASCII STANDARD - VERSION 2.0
 WRAP.                 NO:   ONE LINE PER DEPTH STEP
~WELL INFORMATION
#MNEM.UNIT      DATA TYPE    INFORMATION
#----------   ------------   ------------------------------
 STRT.F           34.5000:   START DEPTH
 STOP.F          880.5000:   STOP DEPTH
 STEP.F            0.5000:   STEP LENGTH
 NULL.          -999.2500:   NO VALUE
 COMP. FENIX & SCISSON INC:   COMPANY
 WELL. NAVAL PETROLEUM RESERVE 3 S-14 #35-14:   WELL
 FLD .             TEAPOT:   FIELD
 LOC .      S14 T38N R78W:   LOCATION
 CNTY.            NATRONA:   COUNTY
 STAT.            WYOMING:   STATE
 CTRY. UNITED STATES OF AMERICA:   COUNTRY
 SRVC.            Unknown:   SERVICE COMPANY
 DATE.        24-APR-1978:   LOGDATE
 API .       490251062000:   API NUMBER
~CURVE INFORMATION
#MNEM.UNIT       API CODE    CURVE DESCRIPTION
#----------   ------------   ------------------------------
 DEPT.F                  :   
 RHOB.G/C3   45 350 01 00:   BULK DENSITY
 DPHI.DEC    45 890 12 00:   DENSITY POROSITY SANDSTONE
 CORR.G/C3   45 356 01 00:   DENSITY CORRECTION
 GRD .GAPI   45 310 01 00:   GAMMA RAY FROM DENSITY LOG
 CALD.IN     45 280 60 00:   CALIPER FROM DENSITY LOG
 SPR .MV     05 010 01 00:   SPONTANEOUS POTENTIAL FROM RES.
 SN  .OHMM   05 040 16 00:   SHORT NORMAL 16"
 ILD .OHMM   05 120 46 00:   INDUCTION LOG DEEP
~PARAMETER INFORMATION
#MNEM.UNIT          VALUE    DESCRIPTION
#----------   ------------   ------------------------------
 PD  .                 GL:   PERMANENT DATUM
 EPD .F              5246:   ELEVATION PERMANENT DATUM
 LMF .                 KB:   LOG MEASURED FROM
 DMF .                 KB:   DRILLING MEASURED FROM
 EKB .F              5250:   KELLING BUSHING
 EGL .F              5246:   GROUND LEVEL
 DATE.          4-24-1978:   RUN DATE
 RUN .                  1:   RUN NUMBER
 DD  .F               880:   DEPTH DRILLER
 DL  .F               880:   DEPTH LOGGER
 BLI .F               884:   BOTTOM LOG INTERVAL
 TLI .F                50:   TOP LOG INTERVAL
 CS  .IN            8.625:   CASING SIZE
 CBD .F                40:   CASING BOTTOM DRILLER
 CBL .F                50:   CASING BOTTOM LOGGER
 BS  .IN            7.875:   BIT SIZE
 BSD .F               880:   BIT SIZE AT DEPTH
 DFT .                KCL:   DRILLING FLUID TYPE
 DFD .                8.6:   DRILLING FLUID DENSITY
 DFV .                 32:   DRILLING FLUID VISCOSITY
 DFPH.                 10:   DRILLING FLUID PH
 DFL .               12.8:   DRILLING FLUID LOSS
 MSS .            MUD PIT:   MUD SAMPLE SOURCE
 RMS .OHMM            .34:   RESISTIVITY MUD SAMPLE
 MST .F                62:   MUD SAMPLE TEMPERATURE
 RMF .OHMM             .3:   RESISTIVITY MUD FILTRATE SAMPLE
 MFST.F                70:   MUD FILTRATE SAMPLE TEMPERATURE
 RMC .OHMM            .58:   RESISTIVITY MUD CAKE
 MCST.F                70:   MUD CAKE SAMPLE TEMPERATURE
 MFSS.           MEASURED:   MUD FILTRATE SAMPLE SOURCE
 RMB .OHMM            .28:   RESISTIVITY MUD AT BHT
 BHT .F                74:   BOTTOM HOLE TEMPERATURE
 TCS .HRS               4:   TIME CURCULATED STOPPED
 MRT .F                74:   MAXIMUM RECORDED TEMPERATURE
 LUN .               2958:   LOGGING UNIT NUMBER
 LUL .              CASP.:   LOGGING UNIT LOCATION
 ENGI.             MILLER:   RECORDING ENGINEER
 WITN.           MCGINLEY:   WITNESSED BY
 CLNT.            A2DTECH:   CLIENT CODE
 ORIG.       2", 5" PRINT:   ORIGIN OF DATA
 UWI .       490251062000:   UNIQUE WELL ID
 DICO. A2D Technologies, Inc.:   DIGITIZING COMPANY
~OTHER INFORMATION
~A   DEPT     RHOB       DPHI       CORR         GRD      CALD        SPR         SN        ILD   
# ...
  237.0000     2.4476     0.1143     0.0545    88.4317     8.4840   -36.3142     6.2817     5.9573
  237.5000     2.4517     0.1122     0.0563    85.4298     8.4817   -36.2938     6.3240     5.9095
  238.0000     2.4585     0.1064     0.0564    85.8538     8.4793   -36.2735     6.2475     5.8621
  238.5000     2.4653     0.1014     0.0554    86.4592     8.4771   -36.2533     6.1720     5.8151
  239.0000     2.4686     0.1044     0.0493    88.1483     8.4657   -36.2330     6.0974     5.7686
  239.5000     2.4642     0.1075     0.0420    89.6929     8.4490   -36.2126     6.0237     5.7224
  240.0000     2.4584     0.1106     0.0431    90.1171     8.4415   -36.1918     5.9509     5.6629
  240.5000     2.4542     0.1108     0.0457    90.4687     8.4688   -36.1716     5.9139     5.7166
  241.0000     2.4553     0.1105     0.0489    89.6567     8.4519   -36.1927     5.8835     5.7154
  241.5000     2.4563     0.1102     0.0555    87.8759     8.4181   -36.4344     5.8456     5.6465
  242.0000     2.4564     0.1113     0.0626    86.9768     8.4269   -36.6730     5.7523     5.4978
  242.5000     2.4544     0.1125     0.0698    87.7675     8.4389   -36.9037     5.3591     5.1592
  243.0000     2.4524     0.1137     0.0767    87.9688     8.4507   -37.3744     4.9949     4.8473
  243.5000     2.4505     0.1196     0.0756    87.7738     8.4625   -37.8814     4.6556     4.2153
  244.0000     2.4391     0.1286     0.0740    86.8330     8.4742   -38.3512     4.2604     3.3371
  244.5000     2.4236     0.1377     0.0725    84.3537     8.4860   -38.5414     3.6953     2.6394
  245.0000     2.4087     0.1467     0.0709    82.4026     8.4977   -38.7203     3.2052     2.3561
  245.5000     2.3939     0.1566     0.0692    82.0459     8.5095   -38.9112     2.7801     2.1374
  246.0000     2.3755     0.1695     0.0763    81.8118     8.5212   -38.6559     2.4114     1.9719
  246.5000     2.3543     0.1838     0.0865    82.5399     8.5334   -38.2671     2.0916     1.8609
  247.0000     2.3120     0.2132     0.0965    87.0129     8.5314   -37.7666     1.8757     1.9392
  247.5000     2.2674     0.2404     0.0904    94.6104     8.5254   -36.7490     1.9866     2.0467
  248.0000     2.2230     0.2654     0.0779   100.9014     8.5194   -35.7440     2.2436     2.1602
  248.5000     2.1784     0.2904     0.0655   101.1029     8.5134   -35.1489     2.5325     2.2799
  249.0000     2.1369     0.3042     0.0563   100.5791     8.5074   -34.1010     2.8436     2.7133
  249.5000     2.1369     0.2995     0.0446    97.6550     8.5014   -33.3502     3.3846     2.9746
  250.0000     2.1444     0.2946     0.0174    91.9404     8.4954   -33.3654     3.9980     3.8868
  250.5000     2.1880     0.2570    -0.0036    86.4297     8.4894   -33.3724     4.7197     4.9809
  251.0000     2.2645     0.1734     0.0131    82.0795     8.4834   -33.3943     5.5778     6.3828
  251.5000     2.3402     0.1531     0.0372    81.0428     8.4774   -33.4155     6.3669     7.1455
  252.0000     2.4007     0.1318     0.0471    80.4638     8.4714   -33.4367     6.8446     7.7478
  252.5000     2.4350     0.1238     0.0546    79.9159     8.4654   -33.4578     7.2595     7.7474
  253.0000     2.4272     0.1313     0.0465    79.3545     8.4594   -33.4790     7.2610     7.7505
  253.5000     2.4142     0.1366     0.0381    78.4285     8.4543   -33.5002     7.2028     7.6714
  254.0000     2.4114     0.1394     0.0469    76.1327     8.4502   -33.5206     7.0697     6.8393
  254.5000     2.4335     0.1199     0.0619    73.7298     8.4462   -33.5382     6.9381     6.1149
  255.0000     2.4389     0.1186     0.0656    71.0335     8.4421   -33.5717     6.8094     5.4673
  255.5000     2.4415     0.1186     0.0702    68.7275     8.4381   -34.4815     6.4352     4.8882
  256.0000     2.4396     0.1218     0.0777    69.8662     8.4095   -35.3908     5.8463     4.6257
  256.5000     2.4329     0.1273     0.0848    73.8818     8.3642   -35.4341     5.3113     4.7209
  257.0000     2.4266     0.1365     0.0841    77.8589     8.3601   -35.4976     4.8252     4.7950
  257.5000     2.4073     0.1478     0.0830    81.8390     8.3709   -35.5466     4.6257     4.8700
  258.0000     2.3859     0.1562     0.0886    85.8087     8.3818   -35.2789     5.1036     4.9475
  258.5000     2.3623     0.1838     0.0908    89.7991     8.3948   -34.2906     5.5945     5.2720
  259.0000     2.3230     0.2080     0.0702    91.8045     8.3475   -32.9295     6.1326     5.8038
  259.5000     2.2801     0.2150     0.0500    87.1919     8.3073   -31.5566     6.7224     6.3892
  260.0000     2.2952     0.1952     0.0586    83.4163     8.2883   -30.1279     7.3690     7.0336
  260.5000     2.3353     0.1692     0.0689    82.0936     8.2858   -29.5911     7.6148     8.1103
  261.0000     2.3748     0.1476     0.0742    79.8484     8.3097   -29.3163     7.7955     9.4229
  261.5000     2.3951     0.1436     0.0721    76.2600     8.3332   -29.0605     7.9805     9.6186
  262.0000     2.4049     0.1423     0.0701    73.9635     8.3568   -28.0847     8.2180     9.6745
  262.5000     2.4053     0.1418     0.0680    74.0080     8.3801   -26.9169     8.5751     9.7294
  263.0000     2.4020     0.1433     0.0670    75.5800     8.3985   -25.9712     8.9461     9.9402
  263.5000     2.3987     0.1441     0.0677    78.1919     8.4042   -25.9345     9.3332    10.2068
  264.0000     2.3960     0.1434     0.0729    79.3619     8.4101   -25.8777     9.6850    10.4807
  264.5000     2.3968     0.1456     0.0742    79.7025     8.4160   -25.8197     9.8373    10.7617
  265.0000     2.3975     0.1470     0.0728    78.5761     8.4219   -25.7613     9.9920    11.0006
  265.5000     2.3976     0.1470     0.0715    78.5260     8.4278   -25.7029    10.1492    11.0817
  266.0000     2.3952     0.1477     0.0678    76.7978     8.4338   -25.6445    10.3088    11.1634
  266.5000     2.3928     0.1488     0.0630    73.3399     8.4397   -25.5862    10.3919    11.2456
  267.0000     2.3904     0.1499     0.0583    72.3715     8.4456   -25.5278    10.3919    11.3285
  267.5000     2.3881     0.1517     0.0547    72.4243     8.4515   -25.4694    10.3919    11.4120
  268.0000     2.3860     0.1538     0.0540    73.4471     8.4574   -25.4110    10.3919    11.4962
  268.5000     2.3861     0.1506     0.0533    76.0135     8.4633   -25.3526    10.3919    11.5808
  269.0000     2.3861     0.1523     0.0473    77.6671     8.4693   -25.2942    10.4673    11.6663
  269.5000     2.3861     0.1539     0.0400    77.9136     8.4758   -25.2358    10.6697    11.7522
  270.0000     2.3876     0.1502     0.0406    79.0149     8.4562   -25.1775    10.8760    11.8715
  270.5000     2.3979     0.1458     0.0424    80.7257     8.4324   -25.1196    11.0863    12.1121
  271.0000     2.4081     0.1387     0.0462    80.7997     8.4085   -25.0634    11.2888    12.3575
  271.5000     2.4184     0.1322     0.0509    80.8472     8.3847   -24.9907    11.3420    12.6080
  272.0000     2.4295     0.1266     0.0593    80.8973     8.3606   -24.4598    11.3927    12.8635
  272.5000     2.4219     0.1342     0.0647    80.8480     8.3380   -23.9687    11.4436    13.1242
  273.0000     2.4099     0.1408     0.0636    79.8388     8.3624   -23.8394    11.4948    13.3902
  273.5000     2.3980     0.1461     0.0626    78.0243     8.3893   -23.7035    11.5461    13.6616
  274.0000     2.3918     0.1497     0.0615    77.6421     8.4160   -23.5669    11.5977    13.9484
  274.5000     2.3867     0.1533     0.0586    77.7852     8.4426   -23.4301    11.6496    13.9701
  275.0000     2.3821     0.1566     0.0535    78.8806     8.4562   -23.2934    11.7016    13.9927
  275.5000     2.3755     0.1583     0.0510    78.3757     8.4562   -23.1566    11.7539    14.0153
  276.0000     2.3741     0.1598     0.0510    75.8461     8.4562   -23.0198    11.8064    14.0379
  276.5000     2.3738     0.1593     0.0510    73.6154     8.4562   -22.8827    11.8592    14.0716
  277.0000     2.3757     0.1581     0.0510    73.5562     8.4562   -22.7442    11.9122    14.0704
