~VERSION INFORMATION
 VERS.                2.0:   CWLS LOG ASCII STANDARD - VERSION 2.0
 WRAP.                 NO:   ONE LINE PER DEPTH STEP
~WELL INFORMATION
#MNEM.UNIT      DATA TYPE    INFORMATION
#----------   ------------   ------------------------------
 STRT.F           70.0000:   START DEPTH
 STOP.F          990.0000:   STOP DEPTH
 STEP.F            0.5000:   STEP LENGTH
 NULL.          -999.2500:   NO VALUE
 COMP. U S NAVY/INTEX OIL CO:   COMPANY
 WELL.      NPR 3 #55 S-2:   WELL
 FLD .            WILDCAT:   FIELD
 LOC .       S2 T38N R78W:   LOCATION
 CNTY.            NATRONA:   COUNTY
 STAT.            WYOMING:   STATE
 CTRY. UNITED STATES OF AMERICA:   COUNTRY
 SRVC.         Lane Wells:   SERVICE COMPANY
 DATE.        23-MAR-1960:   LOGDATE
 API .       490250968000:   API NUMBER
~CURVE INFORMATION
#MNEM.UNIT       API CODE    CURVE DESCRIPTION
#----------   ------------   ------------------------------
 DEPT.F                  :   
 SPR .MV     05 010 01 00:   SPONTANEOUS POTENTIAL FROM RES.
 ASN .OHMM   05 041 16 00:   AMPLIFIED SHORT NORMAL 16"
 ILD .OHMM   05 120 46 00:   INDUCTION LOG DEEP
 CILD.MMHO   05 110 46 00:   CONDUCTIVITY INDUCTION LOG DEEP
~PARAMETER INFORMATION
#MNEM.UNIT          VALUE    DESCRIPTION
#----------   ------------   ------------------------------
 PD  .                 GL:   PERMANENT DATUM
 EPD .F              5163:   ELEVATION PERMANENT DATUM
 LMF .                 KB:   LOG MEASURED FROM
 DAPD.F                 5:   FEET ABOVE PERMANENT DATUM
 DMF .                 KB:   DRILLING MEASURED FROM
 EKB .F              5168:   KELLING BUSHING
 EGL .F              5163:   GROUND LEVEL
 DATE.        23-MAR-1960:   RUN DATE
 RUN .                  1:   RUN NUMBER
 DD  .F              1010:   DEPTH DRILLER
 DL  .F               992:   DEPTH LOGGER
 BLI .F               990:   BOTTOM LOG INTERVAL
 TLI .F                70:   TOP LOG INTERVAL
 CS  .IN            8.625:   CASING SIZE
 CBD .F                12:   CASING BOTTOM DRILLER
 BS  .IN            7.875:   BIT SIZE
 BSD .F              1010:   BIT SIZE AT DEPTH
 DFT .   GEL-OIL EMULSION:   DRILLING FLUID TYPE
 DFD .                9.5:   DRILLING FLUID DENSITY
 DFV .                 40:   DRILLING FLUID VISCOSITY
 MSS .           FLOWLINE:   MUD SAMPLE SOURCE
 RMS .OHMM            2.8:   RESISTIVITY MUD SAMPLE
 MST .F                74:   MUD SAMPLE TEMPERATURE
 RMF .OHMM            2.0:   RESISTIVITY MUD FILTRATE SAMPLE
 MFST.F                74:   MUD FILTRATE SAMPLE TEMPERATURE
 RMC .OHMM            3.9:   RESISTIVITY MUD CAKE
 MCST.F                74:   MUD CAKE SAMPLE TEMPERATURE
 MFSS.          MUD PRESS:   MUD FILTRATE SAMPLE SOURCE
 MCSS.          MUD PRESS:   MUD CAKE SAMPLE SOURCE
 RMB .OHMM            2.8:   RESISTIVITY MUD AT BHT
 BHT .F                74:   BOTTOM HOLE TEMPERATURE
 MRT .F                74:   MAXIMUM RECORDED TEMPERATURE
 LUN .             L-4474:   LOGGING UNIT NUMBER
 LUL .             CASPER:   LOGGING UNIT LOCATION
 ENGI.             NELSON:   RECORDING ENGINEER
 WITN.          JORGENSEN:   WITNESSED BY
 CLNT.            A2DTECH:   CLIENT CODE
 ORIG.       2", 5" PRINT:   ORIGIN OF DATA
 UWI .       490250968000:   UNIQUE WELL ID
 DICO. A2D Technologies, Inc.:   DIGITIZING COMPANY
~OTHER INFORMATION
~A   DEPT      SPR          ASN        ILD      CILD  
# ...
  435.0000   -44.8247     6.5075     4.5101   258.6532
  435.5000   -45.3144     7.3410     4.7813   232.1302
  436.0000   -46.1637     8.1954     5.1891   204.0494
  436.5000   -46.7948     8.6897     5.6134   172.0720
  437.0000   -47.3917     9.0548     6.0642   162.3765
  437.5000   -47.5239     9.3911     6.6156   156.9364
  438.0000   -47.4263     9.3244     6.7107   154.7710
  438.5000   -46.8365     9.0648     6.6113   155.7761
  439.0000   -46.0423     8.4792     6.3909   159.6410
  439.5000   -45.2981     7.7593     6.0853   166.4408
  440.0000   -44.4170     6.1660     5.7278   181.5934
  440.5000   -43.9221     5.5796     5.3241   201.9998
  441.0000   -43.9575     5.4582     4.9036   213.4572
  441.5000   -44.2960     5.5397     4.8414   214.5193
  442.0000   -44.6502     5.7040     4.9533   211.1631
  442.5000   -45.0440     6.2197     5.1802   206.0219
  443.0000   -45.5819     6.8931     5.6032   197.1701
  443.5000   -46.2697     7.4551     6.1898   187.9652
  444.0000   -46.7595     8.2193     6.7428   174.6142
  444.5000   -47.3973     8.5774     7.1510   164.4707
  445.0000   -48.0393     9.0198     7.6316   151.8086
  445.5000   -48.7309     9.3924     8.1802   131.9892
  446.0000   -49.4016     9.7341     8.6272   121.6752
  446.5000   -50.3388    10.1136     8.9843   111.3592
  447.0000   -51.2236    11.1437     9.2527   103.7228
  447.5000   -51.8542    11.3697     9.5459    98.6269
  448.0000   -51.7432    11.7666     9.8665    94.8328
  448.5000   -51.1628    12.0500    10.1357    91.6049
  449.0000   -50.1977    12.1331    10.4095    89.3128
  449.5000   -49.1586    12.2994    10.6575    85.7852
  450.0000   -48.5654    12.4354    10.9070    83.7912
  450.5000   -48.1697    12.5789    11.0877    82.4020
  451.0000   -48.0150    12.7072    11.2501    81.0165
  451.5000   -48.1030    12.7979    11.3593    79.6290
  452.0000   -48.3206    12.9110    11.4685    78.7912
  452.5000   -48.5552    13.0169    11.5776    78.2280
  453.0000   -48.8219    13.1264    11.6286    78.2128
  453.5000   -49.1102    13.1827    11.7280    76.8269
  454.0000   -49.5051    13.2773    11.8372    76.7675
  454.5000   -49.8188    13.4546    11.8986    75.4259
  455.0000   -50.0477    13.4964    11.9875    74.0385
  455.5000   -50.3975    13.6059    12.1013    72.6498
  456.0000   -50.9180    13.7262    12.2059    72.6374
  456.5000   -51.6807    13.7569    12.3261    71.1471
  457.0000   -52.4577    13.7983    12.5754    69.8600
  457.5000   -52.6332    13.9537    12.7376    68.4753
  458.0000   -52.4172    14.0368    12.9837    68.1412
  458.5000   -52.0997    14.2698    13.2703    67.0728
  459.0000   -50.5776    14.4071    13.5896    67.0604
  459.5000   -50.0590    14.5581    14.0006    65.6731
  460.0000   -50.1639    14.8136    14.3311    64.7434
  460.5000   -51.1535    14.9519    14.7810    62.5205
  461.0000   -52.4641    15.2215    15.6992    60.1364
  461.5000   -53.4363    15.5414    16.7738    58.0747
  462.0000   -53.8260    15.8702    17.7387    54.4779
  462.5000   -54.1211    16.2415    18.8237    50.4782
  463.0000   -54.2500    16.5958    19.8528    48.6586
  463.5000   -54.0761    16.9246    20.5938    46.3318
  464.0000   -53.8359    17.2533    20.8499    44.2125
  464.5000   -53.7623    17.6145    21.1370    42.1840
  465.0000   -54.0141    18.2136    21.5079    40.7946
  465.5000   -54.6492    18.5118    22.0462    40.2908
  466.0000   -54.6475    18.8256    22.4952    39.3954
  466.5000   -54.5088    18.4853    22.3637    39.3819
  467.0000   -54.1631    18.1047    22.0753    39.1162
  467.5000   -53.9585    17.8048    21.8128    37.9790
  468.0000   -54.5024    17.4618    21.7025    37.9670
  468.5000   -55.0972    17.8493    21.5394    37.9534
  469.0000   -55.8647    18.0939    21.3297    39.3132
  469.5000   -56.5014    17.7757    21.0887    39.2995
  470.0000   -56.6805    17.3279    20.5849    40.6580
  470.5000   -56.1315    17.0737    20.2084    42.0192
  471.0000   -55.8042    16.8385    19.7673    43.3796
  471.5000   -55.5813    16.7152    19.3281    43.3653
  472.0000   -55.0875    16.7151    18.9714    43.7179
  472.5000   -54.8372    16.7150    18.6088    44.7115
  473.0000   -54.3454    16.7148    18.2798    44.6978
  473.5000   -53.9543    16.6978    18.0486    46.0584
  474.0000   -53.5173    16.5785    17.6543    46.0414
  474.5000   -53.2079    16.4424    17.3676    47.8275
  475.0000   -52.8005    16.2948    16.9047    48.7637
  475.5000   -52.4226    15.9658    16.5915    50.1237
  476.0000   -52.1566    15.7670    16.1732    51.8495
  476.5000   -51.7151    15.2173    15.4060    55.5884
  477.0000   -51.1868    14.3845    14.8179    59.2856
  477.5000   -50.6557    13.2432    14.0442    66.5518
  478.0000   -49.6802    12.3629    13.3465    76.7039
  478.5000   -48.5093    10.5228    12.0712    90.6663
  479.0000   -46.9530    10.1395    10.5932   115.9596
  479.5000   -45.3022     9.6110     9.0074   134.8247
  480.0000   -44.2988     8.7891     7.7416   147.5274
  480.5000   -43.7957     7.9130     6.6211   155.5147
  481.0000   -43.5820     7.2705     6.2238   162.1298
  481.5000   -43.5184     6.9639     5.9949   168.0892
  482.0000   -43.5161     6.7124     5.8748   171.4193
  482.5000   -43.5143     6.6634     5.7738   173.6147
  483.0000   -43.5123     6.7206     5.7313   174.9176
  483.5000   -43.5102     6.9296     5.6686   176.2796
  484.0000   -43.6451     7.0092     5.6463   176.2626
  484.5000   -43.6425     7.0387     5.5993   176.2500
  485.0000   -43.7774     7.0429     5.5987   176.2363
  485.5000   -43.9119     7.0001     5.5979   176.2198
  486.0000   -43.9963     6.9290     5.5972   177.5850
  486.5000   -44.0447     6.8080     5.5966   178.9416
  487.0000   -44.0422     6.6649     5.5959   178.9286
  487.5000   -43.9037     6.5884     5.5953   179.0864
  488.0000   -43.7650     6.6378     5.5946   180.2747
  488.5000   -43.7630     6.7106     5.5938   180.2611
  489.0000   -43.6243     6.8018     5.6252   178.8732
  489.5000   -43.4855     6.9135     5.6663   178.8599
  490.0000   -43.4153     7.0367     5.7279   177.4726
  490.5000   -43.3302     7.0774     5.7954   176.0832
  491.0000   -43.2059     7.0501     5.7945   176.0715
  491.5000   -43.2043     6.9900     5.7568   174.6840
  492.0000   -43.3387     6.9265     5.6571   174.6704
  492.5000   -43.4107     6.8184     5.6564   174.6566
  493.0000   -43.6489     6.7656     5.5877   176.0150
  493.5000   -44.0154     6.7067     5.5871   176.0027
  494.0000   -44.0638     6.6187     5.5864   177.4083
  494.5000   -44.2848     6.5482     5.5857   179.6039
  495.0000   -44.3625     6.4775     5.5850   181.7993
  495.5000   -44.4435     6.4435     5.5843   185.5620
  496.0000   -44.5519     6.4530     5.5837   185.5494
  496.5000   -44.5499     6.5179     5.5829   185.4329
  497.0000   -44.5478     6.5721     5.6505   182.7720
  497.5000   -44.6824     6.6537     5.7177   181.3873
  498.0000   -44.6803     6.7246     5.7537   179.9992
  498.5000   -44.6781     6.8121     5.7844   177.9146
  499.0000   -44.6762     6.9254     5.8516   175.8516
  499.5000   -44.6742     7.0417     5.8510   173.0884
  500.0000   -44.6724     7.1293     5.9184   171.3633
  500.5000   -44.6708     7.1700     6.0582   169.7087
  501.0000   -44.6693     7.2619     6.1891   168.0541
  501.5000   -44.6015     7.3850     6.3227   166.2300
  502.0000   -44.5173     7.4965     6.4045   163.6355
  502.5000   -44.3918     7.5851     6.5272   159.2949
  503.0000   -44.2541     7.6461     6.5265   157.0879
  503.5000   -44.2527     7.6813     6.5258   155.2666
  504.0000   -44.3224     7.7168     6.5252   155.2752
  504.5000   -44.3867     7.7140     6.4564   155.2816
  505.0000   -44.5216     7.6945     6.3876   156.8224
  505.5000   -44.5205     7.6445     6.3871   158.0438
  506.0000   -44.5191     7.5788     6.3183   159.4230
  506.5000   -44.5933     7.4960     6.2497   159.4302
  507.0000   -44.6748     7.4009     6.1809   161.5843
  507.5000   -44.7883     7.3408     6.1121   162.4313
