~VERSION INFORMATION
 VERS.                2.0:   CWLS LOG ASCII STANDARD - VERSION 2.0
 WRAP.                 NO:   ONE LINE PER DEPTH STEP
~WELL INFORMATION
#MNEM.UNIT      DATA TYPE    INFORMATION
#----------   ------------   ------------------------------
 STRT.F           32.0000:   START DEPTH
 STOP.F          662.0000:   STOP DEPTH
 STEP.F            0.5000:   STEP LENGTH
 NULL.          -999.2500:   NO VALUE
 COMP.    FENIX & SCISSON:   COMPANY
 WELL.   NPR 67SX34 #3-34:   WELL
 FLD .             TEAPOT:   FIELD
 LOC .      S34 T39N R78W:   LOCATION
 CNTY.            NATRONA:   COUNTY
 STAT.            WYOMING:   STATE
 CTRY. UNITED STATES OF AMERICA:   COUNTRY
 SRVC.            Unknown:   SERVICE COMPANY
 DATE.        03-SEP-1978:   LOGDATE
 API .       490251070500:   API NUMBER
~CURVE INFORMATION
#MNEM.UNIT       API CODE    CURVE DESCRIPTION
#----------   ------------   ------------------------------
 DEPT.F                  :   
 ILD .OHMM   05 120 46 00:   INDUCTION LOG DEEP
 SN  .OHMM   05 040 00 00:   SHORT NORMAL
 SPR .MV     05 010 01 00:   SPONTANEOUS POTENTIAL FROM RES.
 CALD.IN     45 280 60 00:   CALIPER FROM DENSITY LOG
 DEN .G/C3   45 350 01 00:   COMPENSATED BULK DENSTIY
 DPHI.DEC    45 890 12 00:   DENSITY POROSITY SANDSTONE
 DRHO.G/C3   45 356 01 00:   DENSITY CORRECTION
 GRD .GAPI   45 310 01 00:   GAMMA RAY FROM DENSITY LOG
~PARAMETER INFORMATION
#MNEM.UNIT          VALUE    DESCRIPTION
#----------   ------------   ------------------------------
 PD  .                 GL:   PERMANENT DATUM
 EPD .F              5076:   ELEVATION PERMANENT DATUM
 LMF .                 KB:   LOG MEASURED FROM
 DAPD.F                 4:   FEET ABOVE PERMANENT DATUM
 DMF .                 KB:   DRILLING MEASURED FROM
 EKB .F              5080:   KELLING BUSHING
 EGL .F              5076:   GROUND LEVEL
 DATE.        03-SEP-1978:   RUN DATE
 RUN .                  1:   RUN NUMBER
 DD  .F               660:   DEPTH DRILLER
 DL  .F               662:   DEPTH LOGGER
 BLI .F               662:   BOTTOM LOG INTERVAL
 TLI .F                40:   TOP LOG INTERVAL
 CS  .IN            8.625:   CASING SIZE
 CBD .F                40:   CASING BOTTOM DRILLER
 BS  .IN            7.875:   BIT SIZE
 BSD .F               660:   BIT SIZE AT DEPTH
 DFT .                KCL:   DRILLING FLUID TYPE
 DFD .                9.0:   DRILLING FLUID DENSITY
 DFV .                 34:   DRILLING FLUID VISCOSITY
 MSS .           FLOWLINE:   MUD SAMPLE SOURCE
 RMS .OHMM            1.4:   RESISTIVITY MUD SAMPLE
 MST .F                65:   MUD SAMPLE TEMPERATURE
 RMF .OHMM            3.2:   RESISTIVITY MUD FILTRATE SAMPLE
 MFST.F                77:   MUD FILTRATE SAMPLE TEMPERATURE
 RMC .OHMM            2.1:   RESISTIVITY MUD CAKE
 MCST.F                78:   MUD CAKE SAMPLE TEMPERATURE
 MFSS.               MEAS:   MUD FILTRATE SAMPLE SOURCE
 TCS .HRS               1:   TIME CURCULATED STOPPED
 LUN .               3006:   LOGGING UNIT NUMBER
 LUL .               CASP:   LOGGING UNIT LOCATION
 ENGI.             MILLER:   RECORDING ENGINEER
 WITN.           MCGINLEY:   WITNESSED BY
 CLNT.            A2DTECH:   CLIENT CODE
 ORIG.        2" 5" PRINT:   ORIGIN OF DATA
 UWI .       490251070500:   UNIQUE WELL ID
 DICO. A2D Technologies, Inc.:   DIGITIZING COMPANY
~OTHER INFORMATION
~A   DEPT      ILD         SN        SPR       CALD        DEN       DPHI       DRHO         GRD  
# ...
  356.0000     4.6856     4.7805   -17.7081     8.1696     2.4152     0.1775    -0.0032    79.0343
  356.5000     4.3427     4.5557   -17.7053     8.1700     2.4137     0.1820     0.0000    81.6073
  357.0000     3.7820     4.2818   -18.3032     8.1705     2.4069     0.1892     0.0043    90.3061
  357.5000     3.1600     3.9419   -19.2034     8.1710     2.3949     0.2147     0.0028    91.5573
  358.0000     2.9085     3.5675   -17.6961     8.1863     2.3709     0.2220    -0.0017    81.5740
  358.5000     2.7144     3.2276   -17.2421     8.1868     2.3191     0.2123    -0.0018    81.4260
  359.0000     2.6043     2.9919   -17.0882     8.1872     2.2913     0.1847    -0.0018    82.1730
  359.5000     2.4473     2.8908   -16.6342     8.2175     2.2620     0.2027     0.0012    83.2177
  360.0000     2.4306     2.8928   -16.0298     8.1721     2.2357     0.2060     0.0176    84.8584
  360.5000     2.4477     2.9122   -15.2751     8.1289     2.2380     0.2042     0.0372    83.2564
  361.0000     2.4991     2.9330   -14.2195     8.1592     2.2267     0.2099     0.0282    77.5592
  361.5000     2.6496     2.9950   -14.5168     8.1596     2.2252     0.2087     0.0207    76.3684
  362.0000     3.1619     3.1664   -14.8155     8.1302     2.2560     0.1979     0.0147    72.6440
  362.5000     3.7589     3.5368   -14.9630     8.0983     2.2808     0.1712     0.0342    73.2417
  363.0000     4.3466     3.9784   -14.8090     7.9371     2.4024     0.1550     0.0206    77.8631
  363.5000     4.8612     4.4751   -14.5048     7.8480     2.3896     0.1553     0.0086    87.7006
  364.0000     5.4239     4.9992   -14.6530     7.8185     2.4429     0.1514     0.0071    85.7647
  364.5000     5.7327     5.4327   -15.1006     7.8339     2.4520     0.1472     0.0041    85.6167
  365.0000     5.9348     5.7426   -15.6992     7.8194     2.4580     0.1442     0.0041    86.2146
  365.5000     5.9763     5.9047   -16.1468     7.8199     2.4602     0.1454     0.0040    88.9434
  366.0000     5.9768     5.9880   -16.1440     7.8203     2.4580     0.1484     0.0040    94.3130
  366.5000     6.0187     6.0725   -16.1411     7.8208     2.4550     0.1430     0.0070    94.8632
  367.0000     6.0191     6.0322   -16.1383     7.8362     2.4640     0.1418     0.0100    94.2685
  367.5000     5.9780     6.0333   -16.1347     7.8366     2.4677     0.1414     0.0162    93.2267
  368.0000     5.7753     5.9930   -16.4334     7.8220     2.4700     0.1391     0.0175    87.4159
  368.5000     5.6181     5.9942   -16.5809     7.8075     2.4700     0.1414     0.0160    87.7154
  369.0000     5.4652     5.9540   -16.7278     7.7931     2.4700     0.1426     0.0174    89.3562
  369.5000     5.3165     5.9142   -16.7248     7.7787     2.4685     0.1399     0.0204    91.1877
  370.0000     5.0914     5.7943   -16.7213     7.7642     2.4685     0.1429     0.0219    93.5323
  370.5000     4.8602     5.6765   -16.7185     7.7647     2.4670     0.1471     0.0234    93.8318
  371.0000     4.6629     5.5231   -16.5653     7.7651     2.4617     0.1570     0.0234    93.8333
  371.5000     4.5675     5.2271   -16.2566     7.7505     2.4527     0.1720     0.0234    94.2818
  372.0000     4.4716     5.0159   -15.9574     7.7809     2.4324     0.1858     0.0249    90.4084
  372.5000     4.3523     4.8131   -15.6538     7.7814     2.4062     0.1969     0.0264    89.3667
  373.0000     4.3526     4.7809   -15.3502     7.7967     2.3864     0.1963     0.0459    90.1133
  373.5000     4.3529     4.8152   -15.0466     7.7822     2.3836     0.1825     0.0819    94.4350
  374.0000     4.3834     4.8832   -14.8927     7.7828     2.4244     0.1531     0.0952    98.4619
  374.5000     4.4756     4.9521   -14.8898     7.7832     2.4264     0.1540     0.0548    94.8870
  375.0000     4.5383     5.1274   -14.8870     7.8880     2.4444     0.1471     0.0566    94.1433
  375.5000     4.7308     5.3087   -15.0346     7.7840     2.4489     0.1369     0.0623    89.8228
  376.0000     5.0002     5.4964   -14.8813     7.7696     2.4647     0.1294     0.0638    84.4591
  376.5000     5.2850     5.7699   -15.0288     7.7700     2.4827     0.1345     0.0563    83.8644
  377.0000     5.5093     6.0618   -14.8749     7.7704     2.4828     0.1381     0.0517    84.1669
  377.5000     5.7829     6.3587   -14.8721     7.7710     2.4775     0.1366     0.0472    85.7451
  378.0000     6.0701     6.6292   -14.7188     7.7714     2.4752     0.1300     0.0457    89.3833
  378.5000     6.3277     6.6764   -14.8664     7.7719     2.4805     0.1288     0.0442    88.9376
  379.0000     6.5056     6.7241   -14.8628     7.7723     2.4872     0.1284     0.0427    88.3429
  379.5000     6.5966     6.7257   -15.0111     7.7727     2.4857     0.1234     0.0442    87.7483
  380.0000     6.6889     6.7270   -15.1579     7.7731     2.4895     0.1165     0.0501    87.6003
  380.5000     6.6894     6.7283   -15.1543     7.7885     2.4985     0.1114     0.0546    87.4531
  381.0000     6.7363     6.7296   -15.3026     7.8039     2.5113     0.1141     0.0546    87.6215
  381.5000     6.6903     6.6389   -15.4501     7.8044     2.5081     0.1192     0.0486    89.0957
  382.0000     6.5534     6.5945   -15.1458     7.8048     2.4992     0.1270     0.0378    89.9913
  382.5000     6.4171     6.5049   -14.9919     7.8053     2.4880     0.1327     0.0215    90.2908
  383.0000     6.2879     6.3730   -14.9890     7.8057     2.4790     0.1357     0.0155    91.0374
  383.5000     6.1593     6.2438   -14.9862     7.8061     2.4737     0.1389     0.0170    92.2311
  384.0000     5.9917     6.1169   -15.1338     7.7916     2.4685     0.1357     0.0200    92.3279
  384.5000     5.7884     5.9926   -15.4317     7.7772     2.4722     0.1336     0.0230    91.0417
  385.0000     5.5922     5.8708   -15.8792     7.7627     2.4820     0.1429     0.0200    91.2221
  385.5000     5.3283     5.7066   -16.1778     7.7781     2.4723     0.1416     0.0154    92.3863
  386.0000     5.1476     5.4813   -16.0239     7.7786     2.4602     0.1473     0.0124    93.1329
  386.5000     4.9047     5.3329   -15.5649     7.7939     2.4580     0.1632     0.0109    93.4324
  387.0000     4.8376     5.1886   -14.9649     7.8093     2.4467     0.1773     0.0079    94.1790
  387.5000     4.8380     5.1154   -14.8117     7.8246     2.4107     0.1878     0.0064    95.2236
  388.0000     4.8719     5.0841   -14.8088     7.8101     2.3941     0.2049     0.0049    95.2251
  388.5000     4.9744     5.1919   -14.6556     7.8107     2.3739     0.1851     0.0094    95.2265
  389.0000     5.1588     5.3016   -14.3513     7.7961     2.3748     0.1548     0.0259    95.2280
  389.5000     5.4808     5.5283   -14.0477     7.7966     2.4159     0.1653     0.0784    95.0804
  390.0000     5.7929     5.8832   -13.5937     7.7971     2.4572     0.1410     0.0619    94.6351
  390.5000     6.1228     6.1759   -13.4405     7.7825     2.4369     0.1389     0.0047    93.7423
  391.0000     6.4780     6.5735   -13.4376     7.7681     2.4610     0.1353     0.0003    92.9986
  391.5000     6.7929     6.9006   -13.5845     7.7685     2.4685     0.1380     0.0003    90.7646
  392.0000     6.8405     7.0957   -13.5817     7.7839     2.4717     0.1428     0.0002    90.4680
  392.5000     6.7937     7.1463   -13.8803     7.7844     2.4670     0.1404     0.0002    90.4769
  393.0000     6.7942     7.1477   -13.8767     7.7998     2.4647     0.1404    -0.0028    91.5145
  393.5000     6.7014     7.0998   -14.0243     7.8151     2.4677     0.1413    -0.0013    94.7946
  394.0000     6.6556     7.0523   -14.0207     7.8006     2.4692     0.1410    -0.0014    95.3918
  394.5000     6.6562     6.9569   -14.0179     7.7712     2.4677     0.1389    -0.0028    94.3504
  395.0000     6.6566     6.9104   -13.8647     7.7716     2.4677     0.1317    -0.0014    92.5634
  395.5000     6.7033     6.8644   -13.5604     7.7721     2.4752     0.1272     0.0046    90.7765
  396.0000     6.7038     6.8658   -14.6101     7.7875     2.4857     0.1293     0.0016    90.0328
