~VERSION INFORMATION
 VERS.                2.0:   CWLS LOG ASCII STANDARD - VERSION 2.0
 WRAP.                 NO:   ONE LINE PER DEPTH STEP
~WELL INFORMATION
#MNEM.UNIT      DATA TYPE    INFORMATION
#----------   ------------   ------------------------------
 STRT.F           70.0000:   START DEPTH
 STOP.F         1236.0000:   STOP DEPTH
 STEP.F            0.5000:   STEP LENGTH
 NULL.          -999.2500:   NO VALUE
 COMP. U S NAVY/INTEX OIL CO:   COMPANY
 WELL. NAVAL PETROLEUM TE ##3 75S-11:   WELL
 FLD .             TEAPOT:   FIELD
 LOC .      S11 T38N R78W:   LOCATION
 CNTY.            NATRONA:   COUNTY
 STAT.            WYOMING:   STATE
 CTRY. UNITED STATES OF AMERICA:   COUNTRY
 SRVC.         Lane Wells:   SERVICE COMPANY
 DATE.        04-MAR-1960:   LOGDATE
 API .       490250633900:   API NUMBER
~CURVE INFORMATION
#MNEM.UNIT       API CODE    CURVE DESCRIPTION
#----------   ------------   ------------------------------
 DEPT.F                  :   
 GR  .GAPI   30 310 01 00:   GAMMA RAY
 SPR .MV     05 010 01 00:   SPONTANEOUS POTENTIAL FROM RES.
 ILD .OHMM   05 120 46 00:   INDUCTION LOG DEEP
 CILD.MMHO   05 110 46 00:   CONDUCTIVITY INDUCTION LOG DEEP
 ASN .OHMM   05 041 18 00:   AMPLIFIED SHORT NORMAL 18"
~PARAMETER INFORMATION
#MNEM.UNIT          VALUE    DESCRIPTION
#----------   ------------   ------------------------------
 PD  .                 GL:   PERMANENT DATUM
 EPD .F              5252:   ELEVATION PERMANENT DATUM
 LMF .                 KB:   LOG MEASURED FROM
 DAPD.F                 5:   FEET ABOVE PERMANENT DATUM
 DMF .                 KB:   DRILLING MEASURED FROM
 EKB .F              5257:   KELLING BUSHING
 EGL .F              5252:   GROUND LEVEL
 DATE.             3-4-60:   RUN DATE
 RUN .                  1:   RUN NUMBER
 DD  .F              1239:   DEPTH DRILLER
 DL  .F              1238:   DEPTH LOGGER
 BLI .F              1236:   BOTTOM LOG INTERVAL
 TLI .F                70:   TOP LOG INTERVAL
 CS  .IN            8.625:   CASING SIZE
 CBD .F                12:   CASING BOTTOM DRILLER
 BS  .IN            7.875:   BIT SIZE
 BSD .F              1239:   BIT SIZE AT DEPTH
 DFT .                GEL:   DRILLING FLUID TYPE
 DFD .                9.2:   DRILLING FLUID DENSITY
 DFV .                 34:   DRILLING FLUID VISCOSITY
 DFPH.                7.5:   DRILLING FLUID PH
 DFL .                8.5:   DRILLING FLUID LOSS
 MSS .                PIT:   MUD SAMPLE SOURCE
 RMS .OHMM              3:   RESISTIVITY MUD SAMPLE
 MST .F                52:   MUD SAMPLE TEMPERATURE
 RMF .OHMM            2.8:   RESISTIVITY MUD FILTRATE SAMPLE
 MFST.F                55:   MUD FILTRATE SAMPLE TEMPERATURE
 RMC .OHMM            3.3:   RESISTIVITY MUD CAKE
 MCST.F                55:   MUD CAKE SAMPLE TEMPERATURE
 MFSS.                MUD:   MUD FILTRATE SAMPLE SOURCE
 MCSS.              PRESS:   MUD CAKE SAMPLE SOURCE
 RMB .OHMM            2.2:   RESISTIVITY MUD AT BHT
 BHT .F                77:   BOTTOM HOLE TEMPERATURE
 TCS .HRS              .5:   TIME CURCULATED STOPPED
 MRT .F                77:   MAXIMUM RECORDED TEMPERATURE
 LUN .               4474:   LOGGING UNIT NUMBER
 LUL .             CASPER:   LOGGING UNIT LOCATION
 ENGI.      GRIGGS/NELSON:   RECORDING ENGINEER
 WITN.  JORGENSEN/HOLLAND:   WITNESSED BY
 CLNT.            A2DTECH:   CLIENT CODE
 ORIG.       2", 5" PRINT:   ORIGIN OF DATA
 UWI .       490250633900:   UNIQUE WELL ID
 DICO. A2D Technologies, Inc.:   DIGITIZING COMPANY
~OTHER INFORMATION
~A   DEPT       GR        SPR          ILD      CILD         ASN 
# ...
  802.0000  -999.2500   -35.0488     6.4102   165.7887     7.3487
  802.5000  -999.2500   -34.9562     6.4521   164.7671     7.4091
  803.0000  -999.2500   -34.8636     6.4939   163.7418     7.4694
  803.5000  -999.2500   -34.7710     6.5358   162.7170     7.5297
  804.0000  -999.2500   -34.6783     6.5777   161.6931     7.5900
  804.5000  -999.2500   -34.5850     6.6196   160.6693     7.6503
  805.0000  -999.2500   -34.4901     6.6615   159.6454     7.7106
  805.5000  -999.2500   -34.5784     6.7037   158.6216     7.7709
  806.0000  -999.2500   -34.6897     6.7453   157.5977     7.8330
  806.5000  -999.2500   -34.8013     6.7472   157.1825     7.9139
  807.0000  -999.2500   -34.9125     6.7470   157.4555     7.9942
  807.5000  -999.2500   -35.0236     6.7469   157.7285     7.9762
  808.0000  -999.2500   -35.1348     6.7373   158.0016     7.9340
  808.5000  -999.2500   -35.2459     6.7189   158.2746     7.8921
  809.0000  -999.2500   -35.3573     6.7005   158.5476     7.8503
  809.5000  -999.2500   -35.4697     6.6820   158.8206     7.8085
  810.0000  -999.2500   -35.5728     6.6636   159.0937     7.7666
  810.5000  -999.2500   -35.4638     6.6452   159.3667     7.7249
  811.0000  -999.2500   -35.3456     6.6267   159.6397     7.6877
  811.5000  -999.2500   -35.2283     6.6083   159.9128     7.6828
  812.0000  -999.2500   -35.1114     6.5898   160.1858     7.6708
  812.5000  -999.2500   -34.9944     6.5709   160.4588     7.6795
  813.0000  -999.2500   -34.8774     6.5658   160.2770     7.7335
  813.5000  -999.2500   -34.7602     6.5881   158.2923     7.7869
  814.0000  -999.2500   -34.6438     6.7066   156.3076     7.8400
  814.5000  -999.2500   -34.5231     6.8225   154.3228     7.8928
  815.0000  -999.2500   -34.6751     6.9382   152.3381     7.9973
  815.5000  -999.2500   -34.9805     7.0540   150.3534     8.1161
  816.0000  -999.2500   -35.2919     7.1697   148.3687     8.2784
  816.5000  -999.2500   -35.4420     7.2854   146.2495     8.4504
  817.0000  -999.2500   -35.5134     7.4011   144.0997     8.6225
  817.5000  -999.2500   -35.5838     7.5168   141.9494     8.7945
  818.0000  -999.2500   -35.6542     7.6326   139.7992     8.9664
  818.5000  -999.2500   -35.7247     7.7483   137.6491     9.1384
  819.0000  -999.2500   -35.7953     7.8640   135.4990     9.3117
  819.5000  -999.2500   -35.8658     7.9797   133.3489     9.5358
  820.0000  -999.2500   -35.9365     8.0954   131.1988     9.8366
  820.5000  -999.2500   -36.0074     8.2112   129.0487    10.0591
  821.0000  -999.2500   -36.0773     8.3269   126.8986    10.4459
  821.5000  -999.2500   -36.1111     8.4426   124.7485    10.7376
  822.0000  -999.2500   -36.0331     8.5583   122.5984    10.9989
  822.5000  -999.2500   -35.9589     8.6741   120.4482    11.1233
  823.0000  -999.2500   -35.8848     8.7898   118.2981    11.2405
  823.5000  -999.2500   -35.8107     8.9042   116.1480    11.3575
  824.0000  -999.2500   -35.7365     9.0205   113.9979    11.4749
  824.5000  -999.2500   -35.6622     9.0991   111.8478    11.5921
  825.0000  -999.2500   -35.5885     9.1134   110.0751    11.6957
  825.5000  -999.2500   -35.5929     9.2052   110.9965    11.6525
  826.0000  -999.2500   -35.6303     9.2723   111.9180    11.5368
  826.5000  -999.2500   -35.6673     9.1848   112.8395    11.4194
  827.0000  -999.2500   -35.7044     9.0992   113.7610    11.3019
  827.5000  -999.2500   -35.7431     9.0141   114.6824    11.1847
  828.0000  -999.2500   -35.8603     8.9290   115.6039    11.0756
  828.5000  -999.2500   -36.0836     8.8439   116.5254    10.9950
  829.0000  -999.2500   -36.3055     8.7571   117.4469    10.9144
  829.5000  -999.2500   -36.5272     8.7142   118.3683    10.8338
  830.0000  -999.2500   -36.7501     8.6816   119.0753    10.7532
  830.5000  -999.2500   -36.8580     8.6492   119.2693    10.6725
  831.0000  -999.2500   -36.8613     8.6167   119.4638    10.5918
  831.5000  -999.2500   -36.8536     8.5842   119.6573    10.5119
  832.0000  -999.2500   -36.6731     8.5516   119.8513    10.4617
  832.5000  -999.2500   -36.4656     8.5191   120.0453    10.4707
  833.0000  -999.2500   -36.2627     8.4867   120.2393    10.4951
  833.5000  -999.2500   -36.0606     8.4611   120.4321     9.9535
  834.0000  -999.2500   -35.8587     8.4459   120.6230     9.9494
  834.5000  -999.2500   -35.6550     8.4305   120.8294     9.8867
  835.0000  -999.2500   -35.5803     8.4152   122.3650     9.7819
  835.5000  -999.2500   -35.5790     8.3998   123.9676     9.6769
  836.0000  -999.2500   -35.5791     8.3846   125.5701     9.5718
  836.5000  -999.2500   -35.5793     8.3174   127.1727     9.4609
  837.0000  -999.2500   -35.5793     8.2022   128.7752     9.3502
  837.5000  -999.2500   -35.5793     8.0870   130.3778     9.2397
  838.0000  -999.2500   -35.5793     7.9718   131.9803     9.1286
  838.5000  -999.2500   -35.5792     7.8566   133.5829     9.0624
  839.0000  -999.2500   -35.5791     7.7413   135.1859     9.0250
  839.5000  -999.2500   -35.5793     7.6262   136.7883     8.9805
  840.0000  -999.2500   -35.5937     7.5101   138.3952     8.8919
  840.5000  -999.2500   -35.6632     7.4535   139.4998     8.8020
  841.0000  -999.2500   -35.7306     7.4255   140.3504     8.7124
  841.5000  -999.2500   -35.7980     7.3979   141.2010     8.6351
  842.0000  -999.2500   -35.8659     7.3703   142.0516     8.5642
  842.5000  -999.2500   -35.9375     7.3427   142.9022     8.4928
  843.0000  -999.2500   -35.8062     7.3151   143.7528     8.4214
  843.5000  -999.2500   -35.6355     7.2874   144.4853     8.3500
  844.0000  -999.2500   -35.4640     7.2597   144.8948     8.2785
  844.5000  -999.2500   -35.2928     7.2321   145.3044     8.2069
  845.0000  -999.2500   -35.1216     7.2049   145.7139     8.1341
  845.5000  -999.2500   -34.9514     7.1692   146.1234     8.1470
  846.0000  -999.2500   -34.8469     7.1324   146.5330     8.1756
  846.5000  -999.2500   -34.9686     7.0955   146.9425     8.2046
  847.0000  -999.2500   -35.1033     7.0586   147.3521     8.2331
  847.5000  -999.2500   -35.2385     7.0218   147.7616     8.2501
  848.0000  -999.2500   -35.3732     6.9849   148.4774     8.2326
  848.5000  -999.2500   -35.5066     6.9480   149.6115     8.1904
  849.0000  -999.2500   -35.5218     6.9113   150.7456     8.1489
  849.5000  -999.2500   -35.3979     6.8747   151.8797     8.1029
  850.0000  -999.2500   -35.2745     6.8359   153.0114     7.9508
  850.5000  -999.2500   -35.2145     6.7457   154.1335     7.7923
  851.0000  -999.2500   -35.2133     6.6532   155.2574     7.6342
  851.5000  -999.2500   -35.2133     6.5610   159.0558     7.4762
  852.0000  -999.2500   -35.2135     6.4689   162.7417     7.3179
  852.5000  -999.2500   -35.2133     6.3764   166.4276     7.1596
  853.0000  -999.2500   -35.2145     6.2843   170.1134     7.0001
  853.5000  -999.2500   -35.1050     6.2008   173.3556     6.8876
  854.0000  -999.2500   -34.9211     6.2267   173.3556     6.9435
  854.5000  -999.2500   -34.7338     6.2635   172.4895     7.0251
  855.0000  -999.2500   -34.6975     6.3004   171.1492     7.1072
  855.5000  -999.2500   -34.7469     6.3373   169.8088     7.1891
  856.0000  -999.2500   -34.7982     6.3741   168.4685     7.2596
  856.5000  -999.2500   -34.8494     6.4110   167.1282     7.2796
  857.0000  -999.2500   -34.9006     6.4479   165.7879     7.3005
  857.5000  -999.2500   -34.9516     6.4847   164.4475     7.3212
  858.0000  -999.2500   -35.0027     6.5216   163.1072     7.3689
  858.5000  -999.2500   -35.0538     6.5585   161.7669     7.4242
  859.0000  -999.2500   -35.1049     6.5954   160.4256     7.4801
  859.5000  -999.2500   -35.1560     6.6318   159.0807     7.4982
  860.0000  -999.2500   -35.2071     6.6567   158.6843     7.5087
  860.5000  -999.2500   -35.2583     6.6562   158.4663     7.5195
  861.0000  -999.2500   -35.3096     6.6560   158.2505     7.5514
  861.5000  -999.2500   -35.3602     6.6672   158.0340     7.6210
  862.0000  -999.2500   -35.3854     6.6795   157.8172     7.6901
  862.5000  -999.2500   -35.3365     6.6918   157.6003     7.7597
