~VERSION INFORMATION
 VERS.                2.0:   CWLS LOG ASCII STANDARD - VERSION 2.0
 WRAP.                 NO:   ONE LINE PER DEPTH STEP
~WELL INFORMATION
#MNEM.UNIT      DATA TYPE    INFORMATION
#----------   ------------   ------------------------------
 STRT.F          160.0000:   START DEPTH
 STOP.F         1181.5000:   STOP DEPTH
 STEP.F            0.5000:   STEP LENGTH
 NULL.          -999.2500:   NO VALUE
 COMP.            US NAVY:   COMPANY
 WELL. RES 3 TEAPOT DOM #71-SX-14:   WELL
 FLD .             TEAPOT:   FIELD
 LOC .      S14 T38N R78W:   LOCATION
 CNTY.            NATRONA:   COUNTY
 STAT.            WYOMING:   STATE
 CTRY. UNITED STATES OF AMERICA:   COUNTRY
 SRVC.       Schlumberger:   SERVICE COMPANY
 DATE.        23-AUG-1959:   LOGDATE
 API .       490250632200:   API NUMBER
~CURVE INFORMATION
#MNEM.UNIT       API CODE    CURVE DESCRIPTION
#----------   ------------   ------------------------------
 DEPT.F                  :   
 SPR .MV     05 010 01 00:   SPONTANEOUS POTENTIAL FROM RES.
 IL  .OHMM   05 120 00 00:   INDUCTION LOG
 ASN .OHMM   05 041 16 00:   AMPLIFIED SHORT NORMAL 16"
 CIL .MMHO   05 110 00 00:   CONDUCTIVITY INDUCTION LOG
~PARAMETER INFORMATION
#MNEM.UNIT          VALUE    DESCRIPTION
#----------   ------------   ------------------------------
 PD  .                 GL:   PERMANENT DATUM
 EPD .F              5259:   ELEVATION PERMANENT DATUM
 LMF .                 KB:   LOG MEASURED FROM
 DAPD.F                 4:   FEET ABOVE PERMANENT DATUM
 DMF .                 KB:   DRILLING MEASURED FROM
 EKB .F              5263:   KELLING BUSHING
 EGL .F              5259:   GROUND LEVEL
 DATE.            8-23-59:   RUN DATE
 RUN .                  1:   RUN NUMBER
 DD  .F              1190:   DEPTH DRILLER
 DL  .F              1186:   DEPTH LOGGER
 BLI .F              1180:   BOTTOM LOG INTERVAL
 TLI .F               150:   TOP LOG INTERVAL
 CBD .F                17:   CASING BOTTOM DRILLER
 BS  .IN             6.75:   BIT SIZE
 BSD .F              1190:   BIT SIZE AT DEPTH
 DFT .                GEL:   DRILLING FLUID TYPE
 DFD .                9.5:   DRILLING FLUID DENSITY
 DFV .                 52:   DRILLING FLUID VISCOSITY
 MSS .           FLOWLINE:   MUD SAMPLE SOURCE
 RMS .OHMM            2.6:   RESISTIVITY MUD SAMPLE
 MST .F                62:   MUD SAMPLE TEMPERATURE
 MFSS.                  M:   MUD FILTRATE SAMPLE SOURCE
 MCSS.                  M:   MUD CAKE SAMPLE SOURCE
 RMB .OHMM            2.2:   RESISTIVITY MUD AT BHT
 BHT .F                80:   BOTTOM HOLE TEMPERATURE
 TCS .HRS               1:   TIME CURCULATED STOPPED
 MRT .F                80:   MAXIMUM RECORDED TEMPERATURE
 LUN .               2523:   LOGGING UNIT NUMBER
 LUL .               CSPR:   LOGGING UNIT LOCATION
 ENGI.             ATWOOD:   RECORDING ENGINEER
 WITN.             MARTIN:   WITNESSED BY
 CLNT.            A2DTECH:   CLIENT CODE
 ORIG.     1", 2.5" PRINT:   ORIGIN OF DATA
 UWI .       490250632200:   UNIQUE WELL ID
 DICO. A2D Technologies, Inc.:   DIGITIZING COMPANY
~OTHER INFORMATION
~A   DEPT      SPR           IL        ASN      CIL   
# ...
  525.0000   -48.5312     3.6266     3.7326   351.8379
  525.5000   -48.6118     3.6363     3.7671   368.3933
  526.0000   -48.6908     3.5056     3.8849   381.6632
  526.5000   -48.7711     3.6250     4.0323   367.7539
  527.0000   -48.8507     3.8594     4.1793   339.9475
  527.5000   -48.9317     4.0913     4.3249   312.1305
  528.0000   -49.0092     4.3176     4.4720   284.2381
  528.5000   -49.0886     4.5502     4.6182   256.4344
  529.0000   -49.0528     4.7757     4.7633   247.1665
  529.5000   -48.9797     5.0037     4.9132   242.9432
  530.0000   -48.9069     5.0562     5.0537   238.7198
  530.5000   -48.8360     5.0559     5.2163   234.4965
  531.0000   -48.7635     5.0517     5.2256   229.4747
  531.5000   -48.6918     5.0516     5.0621   230.9017
  532.0000   -48.6204     4.9259     4.8446   232.6615
  532.5000   -48.5467     4.7667     4.6259   234.7276
  533.0000   -48.4782     4.6071     4.4216   248.5341
  533.5000   -48.3987     4.4489     4.1830   265.2515
  534.0000   -48.3935     4.2902     4.1128   281.9689
  534.5000   -48.3915     4.1328     4.0391   301.2646
  535.0000   -48.3933     3.9706     3.9758   307.9621
  535.5000   -48.3926     3.8188     3.9064   317.0233
  536.0000   -48.3927     3.6471     3.8387   326.5603
  536.5000   -48.3931     3.6363     3.7717   337.7053
  537.0000   -48.3930     3.6318     3.7041   350.2918
  537.5000   -48.3927     3.6368     3.6347   355.3988
  538.0000   -48.3942     3.6333     3.5711   361.2646
  538.5000   -48.3919     3.6314     3.4968   367.8016
  539.0000   -48.3893     3.5450     3.4899   363.1265
  539.5000   -48.2867     3.4433     3.3860   357.2957
  540.0000   -48.1677     3.3403     3.2693   377.2568
  540.5000   -48.0466     3.2398     3.1492   399.5467
  541.0000   -47.9274     3.1352     3.0290   421.8366
  541.5000   -47.8073     3.0366     2.9127   444.1265
  542.0000   -47.6882     2.9327     2.7920   466.4164
  542.5000   -47.5669     2.9234     2.7884   490.3697
  543.0000   -47.4486     2.9261     2.8809   491.1838
  543.5000   -47.3302     2.9350     2.9878   492.1206
  544.0000   -47.3287     3.1487     3.0974   492.1206
  544.5000   -47.4698     3.3831     3.2123   492.1206
  545.0000   -47.6297     3.6220     3.4589   492.1206
  545.5000   -47.7905     3.8666     3.7137   491.2845
  546.0000   -47.9493     4.0905     3.9813   490.3697
  546.5000   -48.1099     4.3258     4.1074   387.2986
  547.0000   -48.2677     4.1729     4.2317   276.7510
  547.5000   -48.4309     4.1695     4.2298   276.7510
  548.0000   -48.5890     4.0673     4.1116   282.7568
  548.5000   -48.7349     3.9779     3.9810   288.9159
  549.0000   -48.7585     3.8775     3.8487   295.0749
  549.5000   -48.7661     3.7802     3.7186   301.2646
  550.0000   -49.0844     3.6834     3.5872   322.0261
  550.5000   -48.9639     3.5856     3.4571   342.8915
  551.0000   -48.8463     3.4880     3.3245   363.7568
  551.5000   -48.7005     3.3911     3.1952   384.6289
  552.0000   -48.5690     3.2940     3.0734   405.4705
  552.5000   -48.4355     3.1941     3.0715   426.2998
  553.0000   -48.2974     3.1091     3.1408   446.4790
  553.5000   -48.1654     3.1172     3.2066   454.2136
  554.0000   -48.0420     3.3502     3.2859   461.6961
  554.5000   -48.0347     3.5829     3.3692   468.8513
  555.0000   -48.0351     3.8245     3.7269   452.8113
  555.5000   -48.0442     4.0606     4.0766   437.8405
  556.0000   -48.1793     4.2985     4.4378   378.4475
  556.5000   -48.3099     4.5366     4.7645   322.1362
  557.0000   -48.4476     4.7741     4.9258   269.7471
  557.5000   -48.5815     5.0118     5.0774   242.4538
  558.0000   -48.7156     5.2494     5.2254   218.9689
  558.5000   -48.8523     5.4870     5.3698   216.6891
  559.0000   -48.9849     5.7248     5.5251   214.5774
  559.5000   -49.1043     5.9623     5.6734   212.4658
  560.0000   -49.1053     6.2001     6.0122   210.3541
  560.5000   -49.1024     6.4382     6.3251   208.4630
  561.0000   -49.0061     6.6745     6.6492   199.3930
  561.5000   -48.9202     6.9146     6.9713   191.1809
  562.0000   -48.8285     7.1514     7.2923   182.9689
  562.5000   -48.7391     7.3520     7.5616   174.7568
  563.0000   -48.6494     7.3560     7.5628   166.5448
  563.5000   -48.5593     7.3618     7.4925   159.4358
  564.0000   -48.4695     7.3574     7.4193   159.4358
  564.5000   -48.3796     7.3540     7.3573   161.1543
  565.0000   -48.2901     7.2893     7.3237   162.6626
  565.5000   -48.1993     7.2320     7.3242   164.1709
  566.0000   -48.1107     7.1712     7.3219   165.6793
  566.5000   -48.0352     7.1121     7.3185   167.1876
  567.0000   -48.0374     7.0525     7.2609   168.6959
  567.5000   -48.0448     6.9933     7.2115   169.9416
  568.0000   -48.1794     6.9335     7.1584   169.9416
  568.5000   -48.2932     6.8737     7.1068   169.9416
  569.0000   -48.4160     6.8271     7.0551   169.9416
  569.5000   -48.5350     6.8267     7.0031   171.3366
  570.0000   -48.6549     6.8257     6.9510   172.5097
  570.5000   -48.7744     6.8264     6.8996   173.6936
  571.0000   -48.8946     6.8262     6.8472   174.8622
  571.5000   -49.0159     6.8260     6.7945   176.0323
  572.0000   -49.1059     6.8270     6.7654   176.9474
  572.5000   -49.1068     6.8254     6.8062   176.9445
  573.0000   -49.1101     6.8273     6.8452   176.9418
  573.5000   -49.0785     6.8292     6.8885   176.9385
  574.0000   -48.9588     6.7795     6.9266   176.9351
  574.5000   -48.8411     6.6490     6.9691   176.9455
  575.0000   -48.7204     6.6546     7.0170   176.9455
  575.5000   -48.6008     6.6066     6.9235   176.9455
  576.0000   -48.4811     6.4466     6.4702   178.2462
  576.5000   -48.3611     6.2889     6.0296   183.2740
  577.0000   -48.2414     6.1264     5.5775   188.3018
  577.5000   -48.1214     5.9657     5.1187   193.3296
  578.0000   -48.0014     5.8068     4.7821   198.3574
  578.5000   -47.8826     5.6413     4.7459   203.3852
  579.0000   -47.7601     5.4867     4.7501   208.4130
  579.5000   -47.6729     5.3253     4.9574   212.9980
  580.0000   -47.7450     5.1351     5.6158   216.5175
  580.5000   -47.9709     5.2550     6.2795   220.0370
  581.0000   -48.1931     5.9916     7.0058   216.6809
  581.5000   -48.4178     6.6893     7.7731   197.9105
  582.0000   -48.6445     7.4113     8.5812   179.1401
  582.5000   -48.8670     8.1208     9.2458   160.3696
  583.0000   -49.0899     8.8268     9.6660   141.5992
  583.5000   -49.3324     9.5984    10.3082   122.8288
  584.0000   -49.4834    10.0745    10.6865   110.4086
  584.5000   -49.3956     9.8439    10.5473   112.5229
  585.0000   -49.1956     9.3458     9.9473   118.6819
  585.5000   -48.9992     8.8561     9.3709   124.8410
  586.0000   -48.7969     8.3488     8.6610   131.0939
  586.5000   -48.5992     7.8502     7.6443   142.1514
  587.0000   -48.3961     7.3543     6.5995   159.6429
  587.5000   -48.1998     6.8444     5.9670   173.7788
  588.0000   -48.0020     6.3545     6.0013   187.8986
  588.5000   -47.7771     5.8610     6.2657   201.9999
  589.0000   -47.7867     5.2953     6.9122   224.0132
  589.5000   -48.1361     5.3667     7.5564   217.2385
  590.0000   -48.4560     6.3620     8.1987   198.2374
  590.5000   -48.7815     7.2649     8.8827   179.5842
  591.0000   -49.1110     8.1848     9.3588   160.9311
  591.5000   -49.4362     9.1733     9.5806   142.2780
  592.0000   -49.7622     9.7782     9.7780   127.7432
  592.5000   -50.0912     9.9065    10.4179   118.9445
  593.0000   -50.4148    10.0956    10.3996   113.0635
  593.5000   -50.7399    10.2771    10.6003   111.0838
  594.0000   -51.0840    10.4485    10.8000   108.9911
  594.5000   -51.2659    10.6359    10.9898   107.0580
  595.0000   -51.2491    10.7804    11.1586   105.1053
  595.5000   -51.2375    10.8815    11.3406   103.1382
  596.0000   -51.4042    10.9887    11.5174   101.1587
  596.5000   -51.7770    11.0954    11.7007    99.1788
  597.0000   -52.1351    11.2075    11.8399    98.1249
  597.5000   -52.4858    11.2638    11.9283    98.1295
