~VERSION INFORMATION
 VERS.                2.0:   CWLS LOG ASCII STANDARD - VERSION 2.0
 WRAP.                 NO:   ONE LINE PER DEPTH STEP
~WELL INFORMATION
#MNEM.UNIT      DATA TYPE    INFORMATION
#----------   ------------   ------------------------------
 STRT.F           32.0000:   START DEPTH
 STOP.F          757.0000:   STOP DEPTH
 STEP.F            0.5000:   STEP LENGTH
 NULL.          -999.2500:   NO VALUE
 COMP. FENIX & SCISSON INC:   COMPANY
 WELL.     88 S 34 #88-34:   WELL
 FLD .             NPR #3:   FIELD
 LOC .      S34 T39N R78W:   LOCATION
 CNTY.            NATRONA:   COUNTY
 STAT.            WYOMING:   STATE
 CTRY. UNITED STATES OF AMERICA:   COUNTRY
 SRVC.              Welex:   SERVICE COMPANY
 DATE.        10-MAY-1977:   LOGDATE
 API .       490251035800:   API NUMBER
~CURVE INFORMATION
#MNEM.UNIT       API CODE    CURVE DESCRIPTION
#----------   ------------   ------------------------------
 DEPT.F                  :   
 GURD.OHMM   07 220 05 00:   SHALLOW GUARD RESISTIVITY
 ILD .OHMM   07 120 46 00:   INDUCTION LOG DEEP
 ILM .OHMM   07 120 44 00:   INDUCTION LOG MEDIUM
 SPR .MV     07 010 01 00:   SPONTANEOUS POTENTIAL FROM RES.
 CALD.IN     45 280 60 00:   CALIPER FROM DENSITY LOG
 CORR.G/C3   45 356 01 00:   DENSITY CORRECTION
 DPHI.DEC    45 890 12 00:   DENSITY POROSITY SANDSTONE
 GRD .GAPI   45 310 01 00:   GAMMA RAY FROM DENSITY LOG
 RHOB.G/C3   45 350 01 00:   BULK DENSITY
~PARAMETER INFORMATION
#MNEM.UNIT          VALUE    DESCRIPTION
#----------   ------------   ------------------------------
 PD  .                 GL:   PERMANENT DATUM
 EPD .F              5094:   ELEVATION PERMANENT DATUM
 LMF .                 GL:   LOG MEASURED FROM
 DMF .                 GL:   DRILLING MEASURED FROM
 EGL .F              5094:   GROUND LEVEL
 DATE.        10-MAY-1977:   RUN DATE
 RUN .                  1:   RUN NUMBER
 DD  .F               760:   DEPTH DRILLER
 DL  .F               759:   DEPTH LOGGER
 BLI .F               757:   BOTTOM LOG INTERVAL
 TLI .F                30:   TOP LOG INTERVAL
 CS  .IN            8.625:   CASING SIZE
 CBD .F                40:   CASING BOTTOM DRILLER
 CBL .F                45:   CASING BOTTOM LOGGER
 BS  .IN            7.875:   BIT SIZE
 BSD .F               760:   BIT SIZE AT DEPTH
 DFT .            KCL MUD:   DRILLING FLUID TYPE
 DFD .                9.0:   DRILLING FLUID DENSITY
 DFV .                 33:   DRILLING FLUID VISCOSITY
 DFPH.                7.5:   DRILLING FLUID PH
 DFL .                7.4:   DRILLING FLUID LOSS
 MSS .           FLOWLINE:   MUD SAMPLE SOURCE
 RMS .OHMM           0.33:   RESISTIVITY MUD SAMPLE
 MST .F                70:   MUD SAMPLE TEMPERATURE
 RMF .OHMM           0.28:   RESISTIVITY MUD FILTRATE SAMPLE
 MFST.F                70:   MUD FILTRATE SAMPLE TEMPERATURE
 RMC .OHMM           0.40:   RESISTIVITY MUD CAKE
 MCST.F                70:   MUD CAKE SAMPLE TEMPERATURE
 MFSS.           FANN KIT:   MUD FILTRATE SAMPLE SOURCE
 MCSS.           FANN KIT:   MUD CAKE SAMPLE SOURCE
 RMB .OHMM           0.26:   RESISTIVITY MUD AT BHT
 BHT .F                86:   BOTTOM HOLE TEMPERATURE
 TCS .HRS             1.5:   TIME CURCULATED STOPPED
 MRT .F                86:   MAXIMUM RECORDED TEMPERATURE
 LUN .               8611:   LOGGING UNIT NUMBER
 LUL .             CASPER:   LOGGING UNIT LOCATION
 ENGI.            C. DOAK:   RECORDING ENGINEER
 WITN.         D. RHOADES:   WITNESSED BY
 CLNT.            A2DTECH:   CLIENT CODE
 ORIG.           5" PRINT:   ORIGIN OF DATA
 UWI .       490251035800:   UNIQUE WELL ID
 DICO. A2D Technologies, Inc.:   DIGITIZING COMPANY
~OTHER INFORMATION
~A   DEPT     GURD        ILD        ILM        SPR         CALD      CORR      DPHI         GRD        RHOB 
# ...
  506.5000     7.9106     5.8016     5.7314   -33.5130     7.7691     0.0069     0.1261   144.0137     2.4674
  507.0000     7.8030     5.6061     5.6147   -33.8092     7.7241     0.0115     0.1200   142.2133     2.4771
  507.5000     7.6970     5.4425     5.6544   -34.1059     7.6942     0.0160     0.1142   139.9625     2.4869
  508.0000     7.5923     5.1991     5.6614   -34.5512     7.6792     0.0192     0.1112   138.1622     2.4967
  508.5000     7.4378     5.0676     5.4637   -34.6991     7.7091     0.0205     0.1139   137.7132     2.4900
  509.0000     7.3323     4.8885     5.2368   -35.1444     7.7541     0.0235     0.1147   137.7147     2.4870
  509.5000     6.9914     4.7896     4.9955   -35.2924     7.7991     0.0235     0.1135   138.3171     2.4931
  510.0000     6.1746     4.6928     4.8264   -35.2906     7.8291     0.0235     0.1105   139.2194     2.4961
  510.5000     5.5291     4.5979     4.7279   -35.3035     7.8291     0.0206     0.1225   139.5212     2.4849
  511.0000     4.4329     4.5681     4.6636   -35.5858     7.8441     0.0176     0.1366   139.5226     2.4661
  511.5000     4.8952     4.6438     4.6966   -35.7334     7.8441     0.0070     0.1471   139.5241     2.4464
  512.0000     7.8141     4.7649     4.8720   -35.8806     7.8591     0.0026     0.1420   138.9250     2.4332
  512.5000     8.3165     4.8610     5.3576   -35.7302     7.8591     0.0146     0.1318   138.0255     2.4655
  513.0000     8.6100     4.9874     5.7023   -35.6834     7.8591     0.0221     0.1207   138.3634     2.4808
  513.5000     8.9756     5.1473     6.0275   -35.5782     7.8591     0.0236     0.1147   137.5784     2.4881
  514.0000     9.2284     5.2570     6.3272   -35.5765     7.8741     0.0207     0.1144   136.2281     2.4918
  514.5000     9.2299     5.4063     6.5507   -35.5750     7.8791     0.0147     0.1160   138.0317     2.4904
  515.0000     8.5555     5.5985     6.6889   -35.3825     7.8891     0.0072     0.1216   140.1353     2.4739
  515.5000     8.1524     5.7576     6.7832   -35.2741     7.8891     0.0025     0.1273   142.3890     2.4677
  516.0000     8.5578     5.9622     6.8785   -34.9746     7.8891    -0.0003     0.1330   144.0421     2.4559
  516.5000     8.9212     6.1747     6.9272   -34.9732     7.8891     0.0012     0.1381   142.6922     2.4469
  517.0000     9.1093     6.3501     6.9762   -34.8224     7.8741     0.0013     0.1405   140.4955     2.4462
  517.5000     8.9857     6.4408     6.9771   -34.9703     7.8741    -0.0002     0.1401   141.9447     2.4493
  518.0000     8.8025     6.5327     6.9780   -34.9687     7.8741    -0.0017     0.1356   142.5468     2.4515
  518.5000     8.7428     6.5802     6.9790   -34.9671     7.8591    -0.0047     0.1350   142.3977     2.4531
  519.0000     8.9893     6.5824     6.9801   -34.9657     7.8591    -0.0078     0.1368   142.2491     2.4523
  519.5000     9.3115     6.5393     6.9811   -34.9642     7.8591    -0.0092     0.1386   141.8004     2.4494
  520.0000     8.9919     6.4520     6.9820   -34.9625     7.8581    -0.0061     0.1395   141.3514     2.4441
  520.5000     8.6279     6.3654     6.9829   -34.8120     7.8441     0.0014     0.1320   140.6021     2.4517
  521.0000     8.3358     6.3231     6.9838   -34.9596     7.8291     0.0059     0.1245   139.8469     2.4720
  521.5000     8.9336     6.2388     6.9848   -34.8091     7.8441     0.0104     0.1227   139.9024     2.4743
  522.0000     9.1219     6.1978     6.9378   -34.6587     7.8441     0.0044     0.1273   140.6069     2.4533
  522.5000     9.0606     6.1576     6.9387   -34.6572     7.8291    -0.0061     0.1482   140.7585     2.4345
  523.0000     8.6339     6.1167     6.8916   -34.6554     7.8291    -0.0151     0.1536   140.4596     2.4262
  523.5000     8.3997     6.0765     6.8927   -34.4796     7.8291    -0.0180     0.1530   138.3590     2.4226
  524.0000     8.3426     6.0366     6.8461   -34.2055     7.8291    -0.0150     0.1494   139.4115     2.4264
  524.5000     8.5188     5.9557     6.7994   -34.0550     7.8291    -0.0105     0.1446   142.2658     2.4369
  525.0000     8.5202     5.8966     6.6536   -33.9046     7.8291    -0.0075     0.1407   142.5676     2.4459
  525.5000     8.5213     5.7579     6.3915   -33.7541     7.8291    -0.0060     0.1416   143.5778     2.4512
  526.0000     8.5224     5.6415     6.0903   -34.0984     7.8291    -0.0090     0.1503   144.9729     2.4370
  526.5000     8.3487     5.5274     5.7633   -34.6451     7.8291    -0.0105     0.1553   144.3737     2.4190
  527.0000     8.0663     5.3783     5.4539   -34.7927     7.7841    -0.0149     0.1571   144.3756     2.4175
  527.5000     6.0658     5.2695     5.2693   -34.9404     7.6792    -0.0164     0.1592   144.6773     2.4146
  528.0000     4.3025     5.1630     5.2739   -35.0882     7.6492    -0.0179     0.1619   144.3781     2.4078
  528.5000     7.9590     5.0241     5.3813   -35.2355     7.6642    -0.0224     0.1625   143.6292     2.4056
  529.0000     8.1831     4.9567     5.4570   -35.2340     7.7091    -0.0224     0.1619   140.6276     2.4056
  529.5000     7.6378     4.9238     5.5337   -35.2322     7.7691    -0.0209     0.1583   137.1277     2.4117
  530.0000     7.5862     4.8914     5.5729   -35.2308     7.7991    -0.0178     0.1521   136.4263     2.4215
  530.5000     7.9634     4.8593     5.5736   -35.2294     7.8291    -0.0146     0.1484   139.7315     2.4291
  531.0000     8.1877     4.7945     5.4582   -35.2279     7.8291    -0.0088     0.1469   142.8861     2.4328
  531.5000     8.3027     4.7630     5.2389   -35.2265     7.8291    -0.0058     0.1457   144.0887     2.4351
  532.0000     8.1334     4.7318     5.0267   -35.2250     7.8291    -0.0013     0.1472   143.7896     2.4359
  532.5000     7.2282     4.6683     4.7898   -35.2233     7.8291     0.0017     0.1541   144.6923     2.4254
  533.0000     4.1623     4.6376     4.5957   -35.2219     7.8291     0.0062     0.1559   146.0451     2.4194
  533.5000     3.9661     4.6395     4.6927   -35.0714     7.8291     0.0093     0.1562   145.8601     2.4202
  534.0000     7.7004     4.6733     4.8921   -34.9209     7.8291     0.0123     0.1527   141.6758     2.4256
  534.5000     8.0271     4.8065     5.1509   -34.9195     7.8291     0.0123     0.1456   136.8903     2.4443
  535.0000     7.9183     4.9089     5.7770   -34.6647     7.8291     0.0063     0.1351   140.0453     2.4586
  535.5000     7.9108     5.0484     6.0225   -34.6182     7.8291     0.0018     0.1312   143.0497     2.4616
  536.0000     7.8658     5.1918     6.0649   -34.4678     7.8291     0.0003     0.1384   144.2524     2.4496
  536.5000     7.8671     5.3393     5.8598   -34.6157     7.8291     0.0003     0.1366   143.8034     2.4526
  537.0000     7.9227     5.4531     5.7007   -34.6139     7.8291     0.0004     0.1318   140.6517     2.4594
  537.5000     7.9787     5.5758     5.7443   -34.4635     7.8291     0.0004     0.1291   139.3018     2.4647
  538.0000     7.9798     5.6103     5.9030   -34.2593     7.8291     0.0004     0.1279   140.3544     2.4662
  538.5000     8.0921     5.4969     5.9860   -34.0131     7.8291     0.0004     0.1285   139.9057     2.4648
  539.0000     8.2058     5.3853     5.9455   -33.8627     7.8291     0.0004     0.1318   133.6008     2.4588
  539.5000     8.3211     5.2043     5.7442   -33.7122     7.8291     0.0004     0.1351   135.7044     2.4536
  540.0000     7.9842     5.0639     5.4736   -33.4127     7.8441     0.0005     0.1387   137.5077     2.4521
  540.5000     6.8731     4.9273     5.1780   -33.4113     7.8441     0.0005     0.1423   138.1097     2.4446
  541.0000     4.6591     4.8277     4.8680   -33.4098     7.8441    -0.0010     0.1450   139.1622     2.4379
  541.5000     3.6841     4.7629     4.6066   -33.4081     7.8591    -0.0025     0.1439   141.8664     2.4364
  542.0000     3.8406     4.6990     4.5753   -33.7051     7.8591     0.0005     0.1372   142.6186     2.4575
  542.5000     6.5390     4.7968     4.6720   -33.7033     7.8591     0.0035     0.1275   136.9147     2.4688
