~VERSION INFORMATION
 VERS.                2.0:   CWLS LOG ASCII STANDARD - VERSION 2.0
 WRAP.                 NO:   ONE LINE PER DEPTH STEP
~WELL INFORMATION
#MNEM.UNIT      DATA TYPE    INFORMATION
#----------   ------------   ------------------------------
 STRT.F            3.0000:   START DEPTH
 STOP.F         1011.0000:   STOP DEPTH
 STEP.F            0.5000:   STEP LENGTH
 NULL.          -999.2500:   NO VALUE
 COMP. BROWN JOHN E&C INC:   COMPANY
 WELL. NPR 3 SHX-38 #2-35:   WELL
 FLD .             TEAPOT:   FIELD
 LOC .      S35 T39N R78W:   LOCATION
 CNTY.            NATRONA:   COUNTY
 STAT.            WYOMING:   STATE
 CTRY. UNITED STATES OF AMERICA:   COUNTRY
 SRVC.     Atlas Wireline:   SERVICE COMPANY
 DATE.        15-NOV-1991:   LOGDATE
 API .       490252248100:   API NUMBER
~CURVE INFORMATION
#MNEM.UNIT       API CODE    CURVE DESCRIPTION
#----------   ------------   ------------------------------
 DEPT.F                  :   
 GRR .GAPI   07 310 01 00:   GAMMA RAY
 RILD.OHMM   07 120 46 00:   INDUCTION LOG DEEP RESISTIVITY
 RILM.OHMM   07 120 44 00:   INDUCTION LOG MEDIUM RESISTIVITY
~PARAMETER INFORMATION
#MNEM.UNIT          VALUE    DESCRIPTION
#----------   ------------   ------------------------------
 PD  .                 GL:   PERMANENT DATUM
 EPD .F              5119:   ELEVATION PERMANENT DATUM
 LMF .                 KB:   LOG MEASURED FROM
 DAPD.F                11:   FEET ABOVE PERMANENT DATUM
 DMF .                 KB:   DRILLING MEASURED FROM
 EKB .F              5120:   KELLING BUSHING
 EGL .F              5119:   GROUND LEVEL
 DATE.        15-NOV-1991:   RUN DATE
 RUN .                  1:   RUN NUMBER
 DD  .F              1015:   DEPTH DRILLER
 DL  .F              1017:   DEPTH LOGGER
 BLI .F              1015:   BOTTOM LOG INTERVAL
 CS  .IN            8.625:   CASING SIZE
 CBD .F                60:   CASING BOTTOM DRILLER
 CBL .F                60:   CASING BOTTOM LOGGER
 BS  .IN            7.875:   BIT SIZE
 BSD .F              1015:   BIT SIZE AT DEPTH
 DFT .                AIR:   DRILLING FLUID TYPE
 LUN .            HL-6272:   LOGGING UNIT NUMBER
 LUL .         CASPER, WY:   LOGGING UNIT LOCATION
 ENGI.             ZIFGER:   RECORDING ENGINEER
 WITN.         MR. STRONG:   WITNESSED BY
 CLNT.            A2DTECH:   CLIENT CODE
 ORIG.           5" PRINT:   ORIGIN OF DATA
 UWI .       490252248100:   UNIQUE WELL ID
 DICO. A2D Technologies, Inc.:   DIGITIZING COMPANY
~OTHER INFORMATION
~A    DEPT      GRR      RILD       RILM   
# ...
  549.0000   152.3740     7.0404     7.1680
  549.5000   157.5173     6.8949     7.0210
  550.0000   160.2428     6.8954     6.9733
  550.5000   161.1624     6.8959     6.9263
  551.0000   161.4750     6.9447     6.8799
  551.5000   161.1806     6.9939     6.8814
  552.0000   158.4584     7.0434     6.8828
  552.5000   154.2187     6.8544     6.9325
  553.0000   150.3854     7.0013     7.0575
  553.5000   147.8215     7.1013     7.2506
  554.0000   146.6106     7.2531     7.3865
  554.5000   144.7927     7.4082     7.5443
  555.0000   140.5468     7.4617     7.7055
  555.5000   138.7289     7.5319     7.8154
  556.0000   139.9458     7.5694     7.8718
  556.5000   142.9838     7.5183     7.8183
  557.0000   145.7182     7.4679     7.7659
  557.5000   147.8456     7.4694     7.7131
  558.0000   148.7591     7.4186     7.6611
  558.5000   137.8365     7.4205     7.6094
  559.0000   131.4662     7.4221     7.5580
  559.5000   129.6475     7.4976     7.4548
  560.0000   130.2583     7.5824     7.4568
  560.5000   134.5101     7.6906     7.5105
  561.0000   143.0109     7.7962     7.6710
  561.5000   144.8348     7.9117     7.8349
  562.0000   144.8378     8.0247     8.0023
  562.5000   148.1792     8.0826     8.0600
  563.0000   149.6997     7.9707     8.0617
  563.5000   149.7602     7.8603     8.0633
  564.0000   135.1382     7.7018     8.0075
  564.5000   129.0713     7.5966     7.8996
  565.0000   135.4477     7.5383     7.8463
  565.5000   141.2170     7.4943     7.7933
  566.0000   143.3687     7.5058     7.7408
  566.5000   141.5266     7.5504     7.6885
  567.0000   140.0121     7.6049     7.6367
  567.5000   140.3187     7.6598     7.5855
  568.0000   141.6082     7.6614     7.5871
  568.5000   143.9999     7.6627     7.6418
  569.0000   144.8801     7.6112     7.6432
  569.5000   144.8832     7.5594     7.6985
  570.0000   143.9756     7.5084     7.7001
  570.5000   143.0681     7.4577     7.7017
  571.0000   143.6788     7.3558     7.6497
  571.5000   144.8958     7.3061     7.5977
  572.0000   144.5954     7.2568     7.4940
  572.5000   143.3844     7.1580     7.3917
  573.0000   142.4762     7.1093     7.2911
  573.5000   141.8722     7.0613     7.2419
  574.0000   144.9109     6.9652     7.2434
  574.5000   149.7690     6.9178     7.1942
  575.0000   145.8274     6.9196     7.1961
  575.5000   146.4374     6.9210     7.1475
  576.0000   150.0823     6.9224     7.0992
  576.5000   151.9062     6.9239     7.0514
  577.0000   150.9980     6.9739     7.0528
  577.5000   152.2157     6.9754     7.1037
  578.0000   154.3432     6.9683     7.1052
  578.5000   155.2559     6.9297     7.1067
  579.0000   154.9554     6.9311     7.0587
  579.5000   154.3522     6.8843     6.9623
  580.0000   151.6238     6.8378     6.8676
  580.5000   151.3232     6.7917     6.8690
  581.0000   151.9333     6.8407     6.8705
  581.5000   151.0259     6.9384     6.9200
  582.0000   147.3870     6.9904     7.0187
  582.5000   144.9621     7.1379     7.1687
  583.0000   144.3581     7.1894     7.4247
  583.5000   144.3612     7.2474     7.5833
  584.0000   144.0485     7.3447     7.6380
  584.5000   141.7485     7.3977     7.6396
  585.0000   134.5374     7.5036     7.6947
  585.5000   131.6266     7.5578     7.6963
  586.0000   137.9908     7.6123     7.6979
  586.5000   145.0872     7.6673     7.6995
  587.0000   150.7563     7.6689     7.7011
  587.5000   151.3663     7.6704     7.6487
  588.0000   149.2449     7.6183     7.6507
  588.5000   144.3920     7.5668     7.6523
  589.0000   141.0566     7.5157     7.6539
  589.5000   141.3631     7.4130     7.5493
  590.0000   143.7941     7.3118     7.4984
  590.5000   146.2250     7.2122     7.3446
  591.0000   148.0490     7.1137     7.1937
  591.5000   149.2659     6.9677     7.0443
  592.0000   149.5724     6.8725     6.8981
  592.5000   149.5755     6.7786     6.8022
  593.0000   150.1855     6.7328     6.7617
  593.5000   150.4919     6.7342     6.7161
  594.0000   149.5845     6.7356     6.7178
  594.5000   146.5526     6.7370     6.7192
  595.0000   144.7347     6.7384     6.7206
  595.5000   146.5586     6.7398     6.7220
  596.0000   149.5965     6.7412     6.7234
  596.5000   147.7786     6.7426     6.7719
  597.0000   144.1397     6.7913     6.7733
  597.5000   142.2762     6.7927     6.8221
  598.0000   145.0562     6.8417     6.9194
  598.5000   148.0941     6.9394     6.9693
  599.0000   150.8286     6.9894     7.1182
  599.5000   152.3490     7.0892     7.2198
  600.0000   151.1381     7.1404     7.2718
  600.5000   145.3384     7.2423     7.3243
  601.0000   139.0361     7.2973     7.3258
  601.5000   139.6611     7.5619     7.3803
  602.0000   143.9281     7.6186     7.3845
  602.5000   144.8566     7.5684     7.3887
  603.0000   146.0886     7.5729     7.3926
  603.5000   148.2311     7.5014     7.3441
  604.0000   150.9806     7.4232     7.2454
  604.5000   154.9440     7.3750     7.1980
  605.0000   156.7830     7.2763     7.1509
  605.5000   151.6012     7.2292     7.1540
  606.0000   147.9979     7.1824     7.1569
  606.5000   148.0668     7.1859     7.1600
  607.0000   148.9651     7.1894     7.2131
  607.5000   148.6293     7.2433     7.2667
  608.0000   145.6667     7.2516     7.3459
  608.5000   142.0384     7.3524     7.4266
  609.0000   142.9715     7.4075     7.4817
  609.5000   142.3825     7.5154     7.5397
  610.0000   141.1866     7.6255     7.6464
  610.5000   140.8967     7.7365     7.7571
  611.0000   142.1332     7.8491     7.8205
  611.5000   143.0617     7.9080     7.9833
  612.0000   142.7763     8.0231     8.0989
  612.5000   140.9734     8.1969     8.2161
  613.0000   139.7730     8.4923     8.3351
  613.5000   140.7061     8.7371     8.5156
  614.0000   142.8485     8.8642     8.6389
  614.5000   142.2596     8.8685     8.7640
  615.0000   140.1533     8.8729     8.8908
  615.5000   138.9528     8.9394     9.1463
  616.0000   138.3639     9.1970     9.4091
  616.5000   138.3865     9.5952     9.6794
  617.0000   139.6185    10.0808    10.0272
  617.5000   140.5470    10.5172    10.3876
  618.0000   141.1721    10.8204    10.7608
  618.5000   139.9762    10.9015    10.9930
  619.0000   122.3918    10.9832    10.9976
  619.5000   116.0366    10.8361    10.8497
  620.0000   116.3581    10.6910    10.7776
  620.5000   116.3865    10.5479    10.6338
  621.0000   117.3050    10.4783    10.5632
  621.5000   119.2958    10.3098    10.4222
  622.0000   128.2471    10.2008    10.3530
  622.5000   132.9387    10.0642    10.2138
  623.0000   133.1584     9.9989    10.0775
  623.5000   129.5391     9.7965     9.9420
  624.0000   125.3083     9.7331     9.8759
  624.5000   124.1079     9.6028     9.7441
  625.0000   126.5584     9.5406     9.6131
  625.5000   123.8450     9.5452     9.5492
  626.0000   119.9177     9.5499     9.4868
  626.5000   120.2393     9.4880     9.4917
  627.0000   122.3818     9.4927     9.4957
  627.5000   125.4347     9.5639     9.5662
  628.0000   127.0054     9.6356     9.6372
  628.5000   128.8107     9.7079     9.6412
  629.0000   129.7393     9.7816     9.6452
  629.5000   123.6875     9.7171     9.5820
  630.0000   120.0637     9.7230     9.4531
  630.5000   119.4748     9.5928     9.3913
  631.0000   120.0998     9.4644     9.3299
  631.5000   121.0284     9.2082     9.2045
  632.0000   122.8674     9.0216     9.0808
  632.5000   125.3133     8.9009     8.9587
  633.0000   129.5803     8.8426     8.9001
  633.5000   133.2402     8.7849     8.7800
  634.0000   134.1687     8.6683     8.6623
  634.5000   136.3112     8.5512     8.5458
  635.0000   138.1457     8.3780     8.4861
  635.5000   134.8299     8.2658     8.3758
  636.0000   122.7083     8.1551     8.2571
  636.5000   121.2044     8.1023     8.2091
  637.0000   127.2968     8.0498     8.1554
  637.5000   130.3498     8.0547     8.1021
  638.0000   130.7514     8.0586     8.1056
  638.5000   125.8335     8.0055     8.1097
  639.0000   123.4237     8.0103     8.1131
  639.5000   122.2276     8.0702     8.1165
