~VERSION INFORMATION
 VERS.                2.0:   CWLS LOG ASCII STANDARD - VERSION 2.0
 WRAP.                 NO:   ONE LINE PER DEPTH STEP
~WELL INFORMATION
#MNEM.UNIT      DATA TYPE    INFORMATION
#----------   ------------   ------------------------------
 STRT.M         1049.9000:   START DEPTH
 STOP.M         2123.5000:   STOP DEPTH
 STEP.M            0.1000:   STEP LENGTH
 NULL.          -999.2500:   NO VALUE
 COMP. BROWN JOHN E&C INC:   COMPANY
 WELL. NAVAL PETROLEUM RESERVE 3 STX- #34-3:   WELL
 FLD .            WILDCAT:   FIELD
 LOC .       S3 T38N R78W:   LOCATION
 CNTY.            NATRONA:   COUNTY
 STAT.            WYOMING:   STATE
 CTRY. UNITED STATES OF AMERICA:   COUNTRY
 SRVC.            Unknown:   SERVICE COMPANY
 DATE.        04-SEP-1991:   LOGDATE
 API .       490251090400:   API NUMBER
~CURVE INFORMATION
#MNEM.UNIT       API CODE    CURVE DESCRIPTION
#----------   ------------   ------------------------------
 DEPT.M                  :   
 ROP .MIN/FT 91 810 01 00:   RAT OF DRILLING PENETRATION
 TGAS.UNITS  91 830 01 00:   TOTAL GAS FROM HOTWIRE
~PARAMETER INFORMATION
#MNEM.UNIT          VALUE    DESCRIPTION
#----------   ------------   ------------------------------
 EKB .F              5189:   KELLING BUSHING
 EGL .F              5179:   GROUND LEVEL
 DATE.             9-4-91:   RUN DATE
 DD  .F              2123:   DEPTH DRILLER
 CS  .IN            9.625:   CASING SIZE
 BS  .IN             8.75:   BIT SIZE
 BSD .F              2123:   BIT SIZE AT DEPTH
 ENGI.              TOWER:   RECORDING ENGINEER
 WITN.               HUSK:   WITNESSED BY
 CLNT.            A2DTECH:   CLIENT CODE
 ORIG.           5" PRINT:   ORIGIN OF DATA
 UWI .       490251090400:   UNIQUE WELL ID
 DICO. A2D Technologies, Inc.:   DIGITIZING COMPANY
~OTHER INFORMATION
~A  DEPT       ROP         TGAS 
 1049.9000  -999.2500     1.2844
 1050.0000  -999.2500     1.2857
 1050.1000  -999.2500     1.2541
 1050.2000  -999.2500     1.0740
 1050.3000     0.4941     1.0753
 1050.4000     0.4983     1.0766
 1050.5000     0.5024     0.9850
 1050.6000     0.5065     0.8649
 1050.7000     0.5113     0.8661
 1050.8000     0.5110     0.8676
 1050.9000     0.5106     0.8687
 1051.0000     0.5103     0.8700
 1051.1000     0.5099     0.8713
 1051.2000     0.5096     0.8726
 1051.3000     0.5092     0.8739
 1051.4000     0.5088     0.8751
 1051.5000     0.5085     0.8764
 1051.6000     0.5081     0.8777
 1051.7000     0.5059     0.8790
 1051.8000     0.4989     0.8803
 1051.9000     0.4918     0.8817
 1052.0000     0.4847     0.8829
 1052.1000     0.4776     0.8841
 1052.2000     0.4727     0.8854
 1052.3000     0.4701     0.8867
 1052.4000     0.4675     0.8880
 1052.5000     0.4649     0.8893
 1052.6000     0.4623     0.8906
 1052.7000     0.4581     0.8919
 1052.8000     0.4533     0.8931
 1052.9000     0.4484     0.8944
 1053.0000     0.4436     0.8958
 1053.1000     0.4384     0.8970
 1053.2000     0.4339     0.8983
 1053.3000     0.4290     0.8996
 1053.4000     0.4242     0.9009
 1053.5000     0.4194     0.9094
 1053.6000     0.4148     1.1179
 1053.7000     0.4122     1.1190
 1053.8000     0.4096     1.1203
 1053.9000     0.4070     1.1216
 1054.0000     0.4044     1.1229
 1054.1000     0.4010     1.1242
 1054.2000     0.3962     1.1254
 1054.3000     0.3913     1.1267
 1054.4000     0.3865     1.1280
 1054.5000     0.3816     1.1293
 1054.6000     0.3794     1.1306
 1054.7000     0.3790     1.1321
 1054.8000     0.3787     1.1331
 1054.9000     0.3783     1.1344
 1055.0000     0.3779     1.1357
 1055.1000     0.3758     1.1370
 1055.2000     0.3732     1.1383
 1055.3000     0.3706     1.1396
 1055.4000     0.3680     1.1409
 1055.5000     0.3654     1.1421
 1055.6000     0.3673     1.1434
 1055.7000     0.3692     1.1447
 1055.8000     0.3711     1.1462
 1055.9000     0.3730     1.1473
 1056.0000     0.3748     1.1486
 1056.1000     0.3767     1.2255
 1056.2000     0.3786     1.3654
 1056.3000     0.3805     1.3667
 1056.4000     0.3823     1.3680
 1056.5000     0.3852     1.3693
 1056.6000     0.3894     1.3706
 1056.7000     0.3935     1.3719
 1056.8000     0.3976     1.3731
 1056.9000     0.4017     1.3746
 1057.0000     0.4089     1.3757
 1057.1000     0.4174     1.3770
 1057.2000     0.4260     1.3783
 1057.3000     0.4346     1.3796
 1057.4000     0.4441     1.3809
 1057.5000     0.4498     1.3821
 1057.6000     0.4562     1.3834
 1057.7000     0.4625     1.3847
 1057.8000     0.4689     1.3860
 1057.9000     0.4750     1.4115
 1058.0000     0.4791     1.6030
 1058.1000     0.4832     1.6041
 1058.2000     0.4873     1.6054
 1058.3000     0.4914     1.6067
 1058.4000     0.4970     1.6080
 1058.5000     0.5056     1.6093
 1058.6000     0.5142     1.6108
 1058.7000     0.5228     1.6119
 1058.8000     0.5314     1.7189
 1058.9000     0.5388     1.8287
 1059.0000     0.5451     1.8300
 1059.1000     0.5515     1.8314
 1059.2000     0.5578     1.8326
 1059.3000     0.5642     1.8339
 1059.4000     0.5723     1.9237
 1059.5000     0.5809     2.0507
 1059.6000     0.5895     2.0520
 1059.7000     0.5981     2.0535
 1059.8000     0.6067     2.0546
 1059.9000     0.6152     2.0559
 1060.0000     0.6238     2.0571
 1060.1000     0.6324     2.0584
 1060.2000     0.6410     2.2740
 1060.3000     0.6506     2.2753
 1060.4000     0.6636     2.2766
 1060.5000     0.6767     2.2779
 1060.6000     0.6898     2.2791
 1060.7000     0.6988     2.2804
 1060.8000     0.6939     2.2819
 1060.9000     0.6891     2.2830
 1061.0000     0.6843     2.2843
 1061.1000     0.6794     2.2856
 1061.2000     0.6746     2.2869
 1061.3000     0.6697     2.2882
 1061.4000     0.6649     2.2894
 1061.5000     0.6600     2.2907
 1061.6000     0.6552     2.2920
 1061.7000     0.6489     2.2933
 1061.8000     0.6418     2.2946
 1061.9000     0.6347     2.2960
 1062.0000     0.6276     2.2971
 1062.1000     0.6197     2.2984
 1062.2000     0.6154     2.2997
 1062.3000     0.6106     2.3010
 1062.4000     0.6058     2.3023
 1062.5000     0.6009     2.3036
 1062.6000     0.5965     2.3049
 1062.7000     0.5962     2.3061
 1062.8000     0.5958     2.3074
 1062.9000     0.5954     2.3087
 1063.0000     0.5951     2.3101
 1063.1000     0.5947     2.3113
 1063.2000     0.5943     2.3126
 1063.3000     0.5940     2.3139
 1063.4000     0.5936     2.3151
 1063.5000     0.5933     2.3164
 1063.6000     0.5941     2.3179
 1063.7000     0.5960     2.3190
 1063.8000     0.5979     2.3203
 1063.9000     0.5997     2.3216
 1064.0000     0.6016     2.3229
 1064.1000     0.6018     2.3242
 1064.2000     0.6014     2.3254
 1064.3000     0.6010     2.3267
 1064.4000     0.6007     2.3280
 1064.5000     0.6003     2.3293
 1064.6000     0.6000     2.3306
 1064.7000     0.5996     2.3321
 1064.8000     0.5992     2.3331
 1064.9000     0.5989     2.3344
 1065.0000     0.5989     2.3357
 1065.1000     0.6008     2.3370
 1065.2000     0.6027     2.3383
 1065.3000     0.6046     2.3396
 1065.4000     0.6064     2.2095
 1065.5000     0.6065     2.1279
 1065.6000     0.6038     2.1291
 1065.7000     0.6012     2.1147
 1065.8000     0.5986     1.9176
 1065.9000     0.5960     1.9187
 1066.0000     0.5906     1.8057
 1066.1000     0.5835     1.7070
 1066.2000     0.5764     1.7083
 1066.3000     0.5693     1.7096
 1066.4000     0.5612     1.7109
 1066.5000     0.5552     1.7121
 1066.6000     0.5481     1.7134
 1066.7000     0.5410     1.7147
 1066.8000     0.5339     1.6959
 1066.9000     0.5272     1.5031
 1067.0000     0.5246     1.5043
 1067.1000     0.5220     1.5056
 1067.2000     0.5194     1.5069
 1067.3000     0.5168     1.5081
 1067.4000     0.5142     1.5094
 1067.5000     0.5116     1.5107
 1067.6000     0.5090     1.5120
 1067.7000     0.5063     1.5133
 1067.8000     0.5037     1.5146
 1067.9000     0.5023     1.5159
 1068.0000     0.5019     1.5172
 1068.1000     0.5016     1.5184
 1068.2000     0.5012     1.5197
 1068.3000     0.5008     1.5210
 1068.4000     0.5005     1.4766
 1068.5000     0.5001     1.3092
 1068.6000     0.4997     1.3108
 1068.7000     0.4994     1.3119
 1068.8000     0.4990     1.3131
 1068.9000     0.4987     1.3144
 1069.0000     0.4983     1.3157
 1069.1000     0.4979     1.3171
 1069.2000     0.4976     1.3183
 1069.3000     0.4973     1.3196
 1069.4000     0.4995     1.3209
 1069.5000     0.5013     1.3221
 1069.6000     0.5032     1.3234
 1069.7000     0.5051     1.3249
 1069.8000     0.5070     1.3260
 1069.9000     0.5088     1.3273
 1070.0000     0.5107     1.3286
 1070.1000     0.5126     1.3299
 1070.2000     0.5145     1.3312
 1070.3000     0.5150     1.3324
 1070.4000     0.5146     1.3337
 1070.5000     0.5142     1.3350
 1070.6000     0.5139     1.3363
 1070.7000     0.5134     1.3376
 1070.8000     0.5131     1.3390
 1070.9000     0.5128     1.3401
 1071.0000     0.5124     1.3414
 1071.1000     0.5121     1.3427
 1071.2000     0.5117     1.3440
 1071.3000     0.5113     1.3453
 1071.4000     0.5110     1.3466
 1071.5000     0.5106     1.3479
 1071.6000     0.5102     1.3491
 1071.7000     0.5105     1.3504
 1071.8000     0.5123     1.3517
 1071.9000     0.5142     1.3531
 1072.0000     0.5161     1.3543
 1072.1000     0.5180     1.3556
 1072.2000     0.5188     1.3569
 1072.3000     0.5184     1.3581
 1072.4000     0.5180     1.3594
 1072.5000     0.5177     1.3607
 1072.6000     0.5173     1.3620
 1072.7000     0.5169     1.3633
 1072.8000     0.5166     1.3646
 1072.9000     0.5162     1.3659
 1073.0000     0.5158     1.5815
 1073.1000     0.5155     1.5827
 1073.2000     0.5151     1.5840
 1073.3000     0.5148     1.5853
 1073.4000     0.5144     1.5866
 1073.5000     0.5140     1.5879
 1073.6000     0.5146     1.5894
 1073.7000     0.5210     1.5904
 1073.8000     0.5273     1.5917
 1073.9000     0.5337     1.5930
 1074.0000     0.5400     1.5943
 1074.1000     0.5448     1.5956
