~VERSION INFORMATION
 VERS.                2.0:   CWLS LOG ASCII STANDARD - VERSION 2.0
 WRAP.                 NO:   ONE LINE PER DEPTH STEP
~WELL INFORMATION
#MNEM.UNIT      DATA TYPE    INFORMATION
#----------   ------------   ------------------------------
 STRT.F            0.0000:   START DEPTH
 STOP.F          820.0000:   STOP DEPTH
 STEP.F            0.5000:   STEP LENGTH
 NULL.          -999.2500:   NO VALUE
 COMP. LAWRENCE/ALLISON INC:   COMPANY
 WELL.       44 SX #16-11:   WELL
 FLD .             TEAPOT:   FIELD
 LOC .      S11 T38N R78W:   LOCATION
 CNTY.            NATRONA:   COUNTY
 STAT.            WYOMING:   STATE
 CTRY. UNITED STATES OF AMERICA:   COUNTRY
 SRVC.           Gearhart:   SERVICE COMPANY
 DATE.        26-AUG-1988:   LOGDATE
 API .       490251124600:   API NUMBER
~CURVE INFORMATION
#MNEM.UNIT       API CODE    CURVE DESCRIPTION
#----------   ------------   ------------------------------
 DEPT.F                  :   
 GRR .GAPI   07 310 01 00:   GAMMA RAY FROM RES. LOG.
 RILD.OHMM   07 120 46 00:   INDUCTION LOG DEEP RESISTIVITY
 RILM.OHMM   07 120 44 00:   INDUCTION LOG MEDIUM RESISTIVITY
~PARAMETER INFORMATION
#MNEM.UNIT          VALUE    DESCRIPTION
#----------   ------------   ------------------------------
 PD  .                 GL:   PERMANENT DATUM
 EPD .F              5197:   ELEVATION PERMANENT DATUM
 LMF .                 KB:   LOG MEASURED FROM
 DAPD.F                10:   FEET ABOVE PERMANENT DATUM
 DMF .                 KB:   DRILLING MEASURED FROM
 EKB .F              5207:   KELLING BUSHING
 EDF .F              5206:   DRILLING FLOOR
 EGL .F              5197:   GROUND LEVEL
 DATE.            8-26-88:   RUN DATE
 RUN .                  1:   RUN NUMBER
 DD  .F               820:   DEPTH DRILLER
 DL  .F               819:   DEPTH LOGGER
 BLI .F               811:   BOTTOM LOG INTERVAL
 TLI .F                50:   TOP LOG INTERVAL
 CS  .IN            9.625:   CASING SIZE
 CBD .F                50:   CASING BOTTOM DRILLER
 CBL .F                50:   CASING BOTTOM LOGGER
 BS  .IN             8.75:   BIT SIZE
 BSD .F               820:   BIT SIZE AT DEPTH
 DFT .                AIR:   DRILLING FLUID TYPE
 BHT .F                70:   BOTTOM HOLE TEMPERATURE
 TCS .HRS            0200:   TIME CURCULATED STOPPED
 TLAB.HRS            0342:   TIME LOGGER AT BOTTOM
 MRT .F                70:   MAXIMUM RECORDED TEMPERATURE
 LUN .               7609:   LOGGING UNIT NUMBER
 LUL .           GILLETTE:   LOGGING UNIT LOCATION
 ENGI.           JOHNSTON:   RECORDING ENGINEER
 WITN.             STRONG:   WITNESSED BY
 CLNT.            A2DTECH:   CLIENT CODE
 ORIG.        2" 5" PRINT:   ORIGIN OF DATA
 UWI .       490251124600:   UNIQUE WELL ID
 DICO. A2D Technologies, Inc.:   DIGITIZING COMPANY
~OTHER INFORMATION
~A    DEPT      GRR      RILD       RILM   
# ...
  637.0000    97.7480    12.5313    12.7846
  637.5000    98.9189    12.4094    12.6598
  638.0000   101.4970    12.2986    12.5362
  638.5000   104.0262    12.2255    12.4138
  639.0000   105.1573    12.1529    12.2926
  639.5000   101.6774    12.0807    12.1726
  640.0000    98.2806    12.0089    12.0842
  640.5000    95.1219    11.9378    12.2191
  641.0000    95.0891    11.8602    12.2419
  641.5000    95.0741    11.9867    12.2652
  642.0000    93.9761    12.0828    12.2886
  642.5000    92.7526    11.9243    12.3139
  643.0000    92.2717    11.8031    12.1976
  643.5000    93.9999    11.6832    12.0726
  644.0000    95.9219    11.5645    11.9488
  644.5000    98.9210    11.4470    11.8264
  645.0000   100.8481    11.3810    11.7050
  645.5000    99.9334    11.3302    11.5848
  646.0000    98.4853    11.2797    11.4206
  646.5000    97.9190    11.2295    11.4352
  647.0000    99.5010    11.1794    11.4620
  647.5000   101.2917    11.1294    11.4881
  648.0000   103.0979    11.1021    11.5148
  648.5000   104.8945    11.1021    11.5279
  649.0000   106.5398    11.1021    11.4203
  649.5000   105.4178    11.1021    11.3838
  650.0000   104.0186    11.1021    11.3500
  650.5000   102.8595    11.1020    11.3132
  651.0000   102.7656    11.1027    11.3881
  651.5000   102.5865    11.0997    11.4721
  652.0000   102.8352    11.2489    11.5759
  652.5000   101.6120    11.4106    11.7239
  653.0000    99.9195    11.5752    11.8733
  653.5000    98.2377    11.7475    11.9709
  654.0000    97.1102    11.7095    11.9202
  654.5000    98.4019    11.6699    11.8822
  655.0000   100.5995    11.6304    11.8445
  655.5000   102.8646    11.5910    11.8071
  656.0000   102.5281    11.5518    11.7698
  656.5000   102.0486    11.5283    11.7475
  657.0000   103.4902    11.6702    11.8728
  657.5000   105.9867    11.7895    11.9635
  658.0000   108.4989    11.8986    12.0548
  658.5000   111.0173    11.9931    12.1454
  659.0000   113.5462    12.0883    12.3009
  659.5000   113.3744    12.1843    12.5367
  660.0000   110.9856    12.2811    12.7770
  660.5000   108.5663    12.6220    13.1646
  661.0000   106.1538    13.1016    13.7358
  661.5000   104.3656    13.5995    14.3317
  662.0000   103.0871    14.3399    14.9530
  662.5000    99.3243    15.1508    15.7059
  663.0000    95.6700    16.0093    16.5688
  663.5000    93.3695    16.9198    17.4835
  664.0000    93.0150    17.9404    18.4472
  664.5000    90.3262    18.4691    19.5346
  665.0000    88.9779    19.0420    19.9950
  665.5000    90.3715    19.6310    20.5008
  666.0000    92.9373    19.9815    21.0194
  666.5000    95.0165    20.1072    21.4637
  667.0000    94.0758    20.2380    21.4637
  667.5000    93.1806    20.3689    21.4637
  668.0000    92.2931    20.4765    21.4637
  668.5000    91.4312    20.2928    21.4638
  669.0000    92.0925    20.1393    21.4671
  669.5000    93.2020    19.9869    21.4637
  670.0000    93.4428    19.8357    21.0637
  670.5000    91.1747    19.6315    20.5823
  671.0000    88.9685    19.2470    20.1118
  671.5000    87.7358    18.8701    19.6521
  672.0000    88.8093    18.5006    19.2028
  672.5000    91.8237    18.1383    18.7637
  673.0000    94.7600    17.7831    18.3356
  673.5000    96.2219    17.4349    17.9451
  674.0000    95.7527    17.1216    17.6803
  674.5000    95.3051    16.8370    17.4346
  675.0000    95.1445    16.5784    17.1929
  675.5000    97.9597    16.3237    16.8871
  676.0000   101.4495    16.0730    16.5586
  676.5000   104.6175    15.8262    16.2366
  677.0000   103.1548    15.5831    15.9208
  677.5000   101.2824    15.3436    15.6112
  678.0000    99.4127    15.1081    15.2921
  678.5000    97.5647    14.8660    15.2375
  679.0000    96.3175    14.8250    15.1390
  679.5000    97.1719    14.7708    15.0414
  680.0000    99.5429    14.7171    14.9449
  680.5000   101.9067    14.6635    14.8660
  681.0000   102.3578    14.6100    14.9500
  681.5000   101.0930    14.5510    15.0067
  682.0000    99.8212    14.4883    14.7863
  682.5000   100.3272    14.3181    14.6055
  683.0000   101.8857    14.0018    14.4268
  683.5000   103.4702    13.6925    14.2500
  684.0000   102.0151    13.4031    14.0483
  684.5000    99.4656    13.4857    14.0481
  685.0000    96.8755    13.6143    14.3159
  685.5000    95.2007    13.7442    14.2513
  686.0000    95.8465    13.9177    14.1502
  686.5000    97.4665    13.8156    14.0509
  687.0000    97.3820    13.6665    13.9524
  687.5000    95.0122    13.5190    13.8547
  688.0000    93.4903    13.3731    13.7692
  688.5000    97.2055    13.2289    13.6021
  689.0000   100.9105    13.0864    13.4371
  689.5000   100.3793    12.9440    13.2741
  690.0000    98.9266    12.8007    13.1131
  690.5000    97.4762    12.6551    12.9540
  691.0000    96.6222    12.5118    12.7969
  691.5000    96.3906    12.3701    12.6444
  692.0000    96.1749    12.2300    12.5126
  692.5000    95.9705    12.0914    12.3811
  693.0000    95.0931    11.9545    12.2512
  693.5000    94.0512    11.8191    12.1227
  694.0000    94.4811    11.6852    11.9955
  694.5000    97.9340    11.5528    11.8696
  695.0000   101.3071    11.4761    11.7475
  695.5000   102.9166    11.4122    11.6688
  696.0000   101.0000    11.3486    11.5921
  696.5000    99.5480    11.2854    11.5160
  697.0000   100.0678    11.2225    11.4403
  697.5000    99.5235    11.1599    11.3651
  698.0000    97.5602    11.1024    11.2905
  698.5000    95.6102    11.0778    11.2072
  699.0000    93.6330    11.0505    11.2218
  699.5000    93.0764    11.0229    11.2383
  700.0000    94.3466    10.9954    11.2550
  700.5000    96.9887    10.9680    11.2717
  701.0000    99.6334    10.9407    11.2884
  701.5000   102.3489    10.9134    11.3051
  702.0000   101.3611    10.8950    11.3357
  702.5000    99.8100    11.0536    11.3786
  703.0000    98.2497    11.2072    11.4218
  703.5000    97.5151    11.1571    11.4655
  704.0000    99.6110    11.0895    11.5281
  704.5000   102.3534    11.0224    11.4816
  705.0000   101.6248    10.9557    11.3955
  705.5000   100.4790    10.8893    11.3105
  706.0000   101.9304    10.8234    11.2262
  706.5000   106.0601    10.7579    11.1425
  707.0000   110.1349    10.6917    11.0595
  707.5000   111.9799    10.6280    10.9771
  708.0000   111.8459    10.5636    10.8950
  708.5000   111.3083    10.4997    10.8437
  709.0000   110.7715    10.4361    10.7924
  709.5000   110.1657    10.3729    10.7415
  710.0000   107.9771    10.3101    10.6907
  710.5000   105.7209    10.2477    10.6402
  711.0000   104.9022    10.1995    10.5898
  711.5000   106.0718    10.1999    10.5398
  712.0000   107.8089    10.1999    10.4922
  712.5000   111.7807    10.1999    10.5442
  713.0000   116.0526    10.1999    10.5943
  713.5000   120.0667    10.1999    10.6446
  714.0000   119.2816    10.1999    10.6917
  714.5000   115.9487    10.1999    10.6364
  715.0000   112.6912    10.2001    10.5848
  715.5000   110.2980    10.2005    10.5335
  716.0000   110.5113    10.1522    10.4825
  716.5000   111.1435    10.0992    10.4317
  717.0000   111.7631    10.0461    10.3812
  717.5000   112.3733     9.9934    10.3308
  718.0000   112.0414     9.9409    10.2536
  718.5000   109.8006     9.8887    10.1185
  719.0000   109.4353     9.8228     9.9852
  719.5000   111.9901     9.8390     9.8536
  720.0000   114.8800     9.8613     9.7238
  720.5000   115.8469     9.8840     9.6082
  721.0000   115.6069     9.9156     9.5176
  721.5000   115.9357     9.7930     9.4278
  722.0000   117.0898     9.5729     9.2797
  722.5000   118.2740     9.3583     9.0319
  723.0000   116.1129     9.1485     8.7907
  723.5000   113.6136     8.9436     8.5559
  724.0000   111.0933     8.7433     8.3274
  724.5000   111.2590     8.5474     8.1050
  725.0000   114.9188     8.3560     7.8886
  725.5000   118.5510     8.1688     7.6285
  726.0000   121.9801     7.8680     7.3070
  726.5000   121.2650     7.4178     6.9411
  727.0000   119.1662     6.9934     6.3983
  727.5000   117.0913     6.5932     5.8980
