~VERSION INFORMATION
 VERS.                2.0:   CWLS LOG ASCII STANDARD - VERSION 2.0
 WRAP.                 NO:   ONE LINE PER DEPTH STEP
~WELL INFORMATION
#MNEM.UNIT      DATA TYPE    INFORMATION
#----------   ------------   ------------------------------
 STRT.F           30.0000:   START DEPTH
 STOP.F          580.0000:   STOP DEPTH
 STEP.F            0.5000:   STEP LENGTH
 NULL.          -999.2500:   NO VALUE
 COMP. FENIX & SCISSON INC:   COMPANY
 WELL.      87 SX 3 #87-3:   WELL
 FLD .             TEAPOT:   FIELD
 LOC .       S3 T38N R78W:   LOCATION
 CNTY.            NATRONA:   COUNTY
 STAT.            WYOMING:   STATE
 CTRY. UNITED STATES OF AMERICA:   COUNTRY
 SRVC.            Unknown:   SERVICE COMPANY
 DATE.        16-NOV-1978:   LOGDATE
 API .       490251074200:   API NUMBER
~CURVE INFORMATION
#MNEM.UNIT       API CODE    CURVE DESCRIPTION
#----------   ------------   ------------------------------
 DEPT.F                  :   
 CALD.IN     45 280 60 00:   CALIPER
 GRD .GAPI   45 310 01 00:   GAMMA RAY FROM DENSITY LOG
 RHOB.G/C3   45 350 01 00:   BULK DENSITY
 DPHI.DEC    45 890 12 00:   DENSITY POROSITY SANDSTONE
 CORR.G/C3   45 356 01 00:   DENSITY CORRECTION
 SFL .OHMM   05 221 01 00:   AMP. SHALLOW FOCUSED LOG RESISTIVITY
 ILD .OHMM   05 120 46 00:   INDUCTION LOG DEEP
 SPR .MV     05 010 01 00:   SPONTANEOUS POTENTIAL FROM RES.
~PARAMETER INFORMATION
#MNEM.UNIT          VALUE    DESCRIPTION
#----------   ------------   ------------------------------
 PD  .                 GL:   PERMANENT DATUM
 EPD .F              5120:   ELEVATION PERMANENT DATUM
 LMF .                 KB:   LOG MEASURED FROM
 DAPD.F                 4:   FEET ABOVE PERMANENT DATUM
 DMF .                 KB:   DRILLING MEASURED FROM
 EKB .F              5124:   KELLING BUSHING
 EGL .F              5120:   GROUND LEVEL
 DATE.           11-16-78:   RUN DATE
 RUN .                  1:   RUN NUMBER
 DD  .F               580:   DEPTH DRILLER
 DL  .F               574:   DEPTH LOGGER
 BLI .F               574:   BOTTOM LOG INTERVAL
 TLI .F                50:   TOP LOG INTERVAL
 CS  .IN            8.625:   CASING SIZE
 CBD .F                50:   CASING BOTTOM DRILLER
 CBL .F                50:   CASING BOTTOM LOGGER
 BS  .IN            7.875:   BIT SIZE
 BSD .F               580:   BIT SIZE AT DEPTH
 DFT .            SEA MUD:   DRILLING FLUID TYPE
 DFD .                8.7:   DRILLING FLUID DENSITY
 DFV .                 54:   DRILLING FLUID VISCOSITY
 DFPH.                9.8:   DRILLING FLUID PH
 MSS .           FLOWLINE:   MUD SAMPLE SOURCE
 RMS .OHMM            1.1:   RESISTIVITY MUD SAMPLE
 MST .F                56:   MUD SAMPLE TEMPERATURE
 RMF .OHMM             .9:   RESISTIVITY MUD FILTRATE SAMPLE
 MFST.F                60:   MUD FILTRATE SAMPLE TEMPERATURE
 RMC .OHMM            .95:   RESISTIVITY MUD CAKE
 MCST.F                60:   MUD CAKE SAMPLE TEMPERATURE
 MFSS.           MEASURED:   MUD FILTRATE SAMPLE SOURCE
 MCSS.           MEASURED:   MUD CAKE SAMPLE SOURCE
 RMB .OHMM            .93:   RESISTIVITY MUD AT BHT
 BHT .F                66:   BOTTOM HOLE TEMPERATURE
 TCS .HRS               1:   TIME CURCULATED STOPPED
 MRT .F                66:   MAXIMUM RECORDED TEMPERATURE
 LUN .               2958:   LOGGING UNIT NUMBER
 LUL .                CPR:   LOGGING UNIT LOCATION
 ENGI.             MILLER:   RECORDING ENGINEER
 WITN.           DINSMORE:   WITNESSED BY
 CLNT.            A2DTECH:   CLIENT CODE
 ORIG.       2", 5" PRINT:   ORIGIN OF DATA
 UWI .       490251074200:   UNIQUE WELL ID
 DICO. A2D Technologies, Inc.:   DIGITIZING COMPANY
~OTHER INFORMATION
~A   DEPT     CALD         GRD      RHOB       DPHI       CORR        SFL        ILD        SPR   
# ...
  354.0000     7.9604    75.9708     2.4002     0.1717     0.0015    18.2562    17.3548    -9.5039
  354.5000     7.9568    79.0893     2.3855     0.1817     0.0015    17.9582    17.0993    -9.5460
  355.0000     7.9532    78.8898     2.3763     0.1851     0.0015    17.6647    16.8476    -9.5892
  355.5000     7.9496    78.7275     2.3728     0.1867     0.0015    17.4588    16.5989    -9.6737
  356.0000     7.9460    79.3682     2.3693     0.1883     0.0017    17.3633    16.4985    -9.9468
  356.5000     7.9424    80.1886     2.3681     0.1883     0.0027    17.2684    16.4265   -10.2125
  357.0000     7.9388    81.0368     2.3705     0.1860     0.0036    17.1739    16.3551   -10.3480
  357.5000     7.9352    82.6217     2.3773     0.1823     0.0046    17.0800    16.2838    -9.9799
  358.0000     7.9316    87.4747     2.3848     0.1785     0.0056    16.9867    16.2128    -9.6248
  358.5000     7.9279    89.3371     2.3924     0.1747     0.0066    16.8938    16.1430    -9.2756
  359.0000     7.9243    86.4856     2.3983     0.1711     0.0074    16.8015    15.9552    -9.0501
  359.5000     7.9207    86.2788     2.3986     0.1738     0.0066    16.7097    15.6609    -8.8496
  360.0000     7.9171    85.2533     2.3989     0.1741     0.0058    16.6182    15.3713    -8.8900
  360.5000     7.9135    83.0850     2.4004     0.1730     0.0049    16.4696    15.0874    -8.9594
  361.0000     7.9100    81.0533     2.4031     0.1719     0.0041    16.2157    14.8087    -9.0291
  361.5000     7.9067    79.7669     2.4051     0.1708     0.0038    15.9658    14.6903    -9.0986
  362.0000     7.9033    78.5313     2.4048     0.1714     0.0052    15.8018    14.6903    -9.1676
  362.5000     7.9000    77.9273     2.4045     0.1723     0.0065    15.7711    14.6903    -9.2196
  363.0000     7.8967    79.3985     2.4043     0.1731     0.0078    15.7406    14.6903    -9.1589
  363.5000     7.8934    81.0485     2.4064     0.1702     0.0092    15.7100    14.6903    -9.0996
  364.0000     7.8900    82.7134     2.4140     0.1639     0.0084    15.6686    14.6903    -9.0406
  364.5000     7.8867    84.3912     2.4216     0.1581     0.0069    15.6920    14.6903    -8.9814
  365.0000     7.8834    84.4271     2.4283     0.1587     0.0054    15.7288    14.6903    -8.9225
  365.5000     7.8801    82.2742     2.4270     0.1594     0.0039    15.7653    14.6903    -8.8659
  366.0000     7.8768    80.2913     2.4250     0.1600     0.0025    15.8021    14.6903    -8.9440
  366.5000     7.8730    80.6348     2.4241     0.1603     0.0029    15.8389    14.6903    -9.2270
  367.0000     7.8417    80.8490     2.4241     0.1603     0.0070    15.8759    14.6903    -9.5072
  367.5000     7.7594    80.5404     2.4239     0.1603     0.0110    15.9129    14.6903    -9.7878
  368.0000     7.6915    80.3007     2.4226     0.1618     0.0135    15.9501    14.6903   -10.0670
  368.5000     7.6960    80.6015     2.4197     0.1638     0.0132    15.9873    14.6903   -10.1727
  369.0000     7.6995    80.8586     2.4169     0.1657     0.0130    16.0245    14.6903   -10.0711
  369.5000     7.7027    79.8160     2.4141     0.1676     0.0128    16.0619    14.6904    -9.9715
  370.0000     7.7059    77.2803     2.4113     0.1687     0.0126    16.1074    14.6913    -9.8710
  370.5000     7.7091    75.2833     2.4087     0.1685     0.0125    16.0709    14.6011    -9.7708
  371.0000     7.7120    75.4322     2.4072     0.1687     0.0123    16.0242    14.4883    -9.6706
  371.5000     7.7273    77.7977     2.4057     0.1701     0.0121    15.9775    14.3762    -9.5704
  372.0000     7.7446    80.1976     2.4042     0.1715     0.0119    15.8679    14.2649    -9.4702
  372.5000     7.7619    82.5931     2.4034     0.1723     0.0117    15.7206    14.1546    -9.3700
  373.0000     7.7792    84.5844     2.4049     0.1714     0.0115    15.5748    14.0450    -9.2698
  373.5000     7.7964    86.1190     2.4064     0.1703     0.0130    15.4303    13.9364    -9.1698
  374.0000     7.8137    87.2360     2.4116     0.1693     0.0147    15.2871    13.8284    -9.0687
  374.5000     7.8310    86.3679     2.4210     0.1649     0.0165    15.1018    13.7214    -9.0469
  375.0000     7.8483    84.5782     2.4305     0.1572     0.0182    15.1240    13.6467    -9.0773
  375.5000     7.8655    82.7691     2.4405     0.1488     0.0200    15.1561    13.6726    -9.1086
  376.0000     7.8828    83.0241     2.4430     0.1484     0.0211    15.1882    13.6925    -9.1400
  376.5000     7.8899    83.4420     2.4411     0.1489     0.0170    15.2204    13.7125    -9.1710
  377.0000     7.8865    83.4062     2.4354     0.1537     0.0130    15.2820    13.7317    -9.2027
  377.5000     7.8831    83.3320     2.4294     0.1584     0.0090    15.5615    13.7494    -9.2554
  378.0000     7.8797    83.0334     2.4232     0.1631     0.0062    15.8461    13.7634    -9.3917
  378.5000     7.8762    81.3654     2.4155     0.1678     0.0034    16.1357    14.6585    -9.5270
  379.0000     7.8729    79.6972     2.4046     0.1727     0.0015    16.6588    15.6286    -9.7275
  379.5000     7.8522    78.0333     2.3919     0.1811     0.0015    17.3801    16.6629   -10.1701
  380.0000     7.8192    76.3719     2.3748     0.1899     0.0015    18.6913    18.0530   -10.6014
  380.5000     7.7910    74.7193     2.3445     0.2163     0.0015    20.5263    19.6328   -10.7085
  381.0000     7.8238    72.3066     2.3143     0.2309     0.0024    22.4404    21.8103   -10.5119
  381.5000     7.8767    69.7077     2.2839     0.2457     0.0046    26.1601    24.3322   -10.3124
  382.0000     7.9304    67.0781     2.2549     0.2603     0.0069    30.3021    27.1457   -10.1105
  382.5000     7.9470    66.4566     2.2539     0.2603     0.0092    33.3099    30.2846   -10.0114
  383.0000     7.9372    66.2343     2.2753     0.2460     0.0087    34.5522    32.9572    -9.9916
  383.5000     7.8886    66.0688     2.2908     0.2362     0.0077    36.2268    33.7342    -9.9733
  384.0000     7.6970    66.7313     2.2926     0.2362     0.0067    36.1313    33.9649    -9.9553
  384.5000     7.6966    67.4038     2.2768     0.2468     0.0058    35.8947    33.9649    -9.9370
  385.0000     7.7029    67.3314     2.2640     0.2541     0.0048    35.9417    33.9649    -9.9188
  385.5000     7.7090    65.0653     2.2542     0.2615     0.0038    36.0062    33.7915    -9.9006
  386.0000     7.7302    62.7697     2.2462     0.2678     0.0042    36.0708    33.2978    -9.8824
  386.5000     7.8062    61.7658     2.2441     0.2652     0.0053    36.1387    32.8113    -9.8641
  387.0000     7.8791    61.0819     2.2492     0.2613     0.0063    36.2239    32.3320    -9.8461
  387.5000     7.9294    60.5145     2.2697     0.2503     0.0074    35.4913    31.6526    -9.8265
  388.0000     7.9190    61.3535     2.2899     0.2356     0.0069    34.2649    30.8494    -9.8848
  388.5000     7.9099    63.6473     2.3102     0.2259     0.0062    33.0880    30.0661    -9.9787
  389.0000     7.9008    65.8883     2.3124     0.2259     0.0055    31.9514    29.3024   -10.0745
  389.5000     7.8917    67.6326     2.3097     0.2272     0.0060    31.4241    28.5577   -10.1740
  390.0000     7.8826    67.7315     2.3062     0.2296     0.0065    31.2250    27.8342   -10.4305
  390.5000     7.8736    66.8239     2.3032     0.2303     0.0069    31.0272    27.4567   -10.8619
  391.0000     7.8645    65.9302     2.3039     0.2298     0.0076    30.8307    27.1400   -11.3035
  391.5000     7.8555    65.0384     2.3060     0.2284     0.0130    30.6353    26.8256   -11.5302
  392.0000     7.8464    65.2884     2.3092     0.2270     0.0180    30.4413    26.5149   -11.4532
  392.5000     7.8368    67.9364     2.3109     0.2256     0.0225    30.2484    26.2077   -11.1681
  393.0000     7.7976    70.5574     2.3100     0.2253     0.0281    30.0568    25.9047   -10.8819
  393.5000     7.7074    72.1754     2.3091     0.2258     0.0339    29.8559    25.6019   -10.5950
  394.0000     7.6546    72.0934     2.3083     0.2262     0.0375    29.3407    25.4079   -10.3076
