~VERSION INFORMATION
 VERS.                2.0:   CWLS LOG ASCII STANDARD - VERSION 2.0
 WRAP.                 NO:   ONE LINE PER DEPTH STEP
~WELL INFORMATION
#MNEM.UNIT      DATA TYPE    INFORMATION
#----------   ------------   ------------------------------
 STRT.M         1049.9000:   START DEPTH
 STOP.M         2123.5000:   STOP DEPTH
 STEP.M            0.1000:   STEP LENGTH
 NULL.          -999.2500:   NO VALUE
 COMP. BROWN JOHN E&C INC:   COMPANY
 WELL. NAVAL PETROLEUM RESERVE 3 STX- #34-3:   WELL
 FLD .            WILDCAT:   FIELD
 LOC .       S3 T38N R78W:   LOCATION
 CNTY.            NATRONA:   COUNTY
 STAT.            WYOMING:   STATE
 CTRY. UNITED STATES OF AMERICA:   COUNTRY
 SRVC.            Unknown:   SERVICE COMPANY
 DATE.        04-SEP-1991:   LOGDATE
 API .       490251090400:   API NUMBER
~CURVE INFORMATION
#MNEM.UNIT       API CODE    CURVE DESCRIPTION
#----------   ------------   ------------------------------
 DEPT.M                  :   
 ROP .MIN/FT 91 810 01 00:   RAT OF DRILLING PENETRATION
 TGAS.UNITS  91 830 01 00:   TOTAL GAS FROM HOTWIRE
~PARAMETER INFORMATION
#MNEM.UNIT          VALUE    DESCRIPTION
#----------   ------------   ------------------------------
 EKB .F              5189:   KELLING BUSHING
 EGL .F              5179:   GROUND LEVEL
 DATE.             9-4-91:   RUN DATE
 DD  .F              2123:   DEPTH DRILLER
 CS  .IN            9.625:   CASING SIZE
 BS  .IN             8.75:   BIT SIZE
 BSD .F              2123:   BIT SIZE AT DEPTH
 ENGI.              TOWER:   RECORDING ENGINEER
 WITN.               HUSK:   WITNESSED BY
 CLNT.            A2DTECH:   CLIENT CODE
 ORIG.           5" PRINT:   ORIGIN OF DATA
 UWI .       490251090400:   UNIQUE WELL ID
 DICO. A2D Technologies, Inc.:   DIGITIZING COMPANY
~OTHER INFORMATION
~A  DEPT       ROP         TGAS 
# ...
 1949.0000     0.5701    14.5200
 1949.1000     0.5788    14.5251
 1949.2000     0.5874    14.5303
 1949.3000     0.5961    14.5354
 1949.4000     0.6016    14.5406
 1949.5000     0.6037    14.5464
 1949.6000     0.6057    14.5509
 1949.7000     0.6077    14.5560
 1949.8000     0.6098    14.5611
 1949.9000     0.6132    14.5663
 1950.0000     0.6174    14.5714
 1950.1000     0.6217    14.6823
 1950.2000     0.6259    14.7933
 1950.3000     0.6301    14.9042
 1950.4000     0.6327    15.0151
 1950.5000     0.6347    15.1260
 1950.6000     0.6368    15.2369
 1950.7000     0.6388    15.3478
 1950.8000     0.6410    15.4776
 1950.9000     0.6409    15.4826
 1951.0000     0.6407    15.4886
 1951.1000     0.6405    15.4946
 1951.2000     0.6403    15.5545
 1951.3000     0.6402    15.9356
 1951.4000     0.6400    15.9411
 1951.5000     0.6398    15.9471
 1951.6000     0.6397    15.9531
 1951.7000     0.6395    15.9591
 1951.8000     0.6393    15.9651
 1951.9000     0.6391    15.9723
 1952.0000     0.6390    15.9771
 1952.1000     0.6388    15.9831
 1952.2000     0.6386    15.9891
 1952.3000     0.6385    15.9951
 1952.4000     0.6383    16.0018
 1952.5000     0.6381    16.0071
 1952.6000     0.6379    16.0131
 1952.7000     0.6378    16.0191
 1952.8000     0.6399    16.0251
 1952.9000     0.6441    16.0312
 1953.0000     0.6484    16.0371
 1953.1000     0.6526    16.0431
 1953.2000     0.6568    16.0491
 1953.3000     0.6611    16.0551
 1953.4000     0.6653    16.0611
 1953.5000     0.6696    16.0679
 1953.6000     0.6738    16.0731
 1953.7000     0.6789    16.3043
 1953.8000     0.6841    16.5137
 1953.9000     0.6906    16.5197
 1954.0000     0.6970    16.5259
 1954.1000     0.7035    16.5317
 1954.2000     0.7101    16.5377
 1954.3000     0.7121    16.5437
 1954.4000     0.7141    16.5497
 1954.5000     0.7162    16.5327
 1954.6000     0.7182    16.1341
 1954.7000     0.7201    16.1391
 1954.8000     0.7204    16.1451
 1954.9000     0.7208    16.1511
 1955.0000     0.7212    16.1571
 1955.1000     0.7216    16.1635
 1955.2000     0.7220    16.1691
 1955.3000     0.7224    16.1751
 1955.4000     0.7228    16.1811
 1955.5000     0.7231    16.1871
 1955.6000     0.7235    16.1931
 1955.7000     0.7239    16.2003
 1955.8000     0.7243    16.2051
 1955.9000     0.7247    16.0065
 1956.0000     0.7251    15.7886
 1956.1000     0.7254    15.7946
 1956.2000     0.7258    15.8011
 1956.3000     0.7262    15.8066
 1956.4000     0.7266    15.8126
 1956.5000     0.7270    15.8186
 1956.6000     0.7274    15.8246
 1956.7000     0.7277    15.8306
 1956.8000     0.7280    15.8366
 1956.9000     0.7277    15.8426
 1957.0000     0.7275    15.8486
 1957.1000     0.7272    15.8546
 1957.2000     0.7270    15.8241
 1957.3000     0.7267    15.4387
 1957.4000     0.7265    15.4440
 1957.5000     0.7262    15.4500
 1957.6000     0.7259    15.4560
 1957.7000     0.7257    15.4620
 1957.8000     0.7254    15.4681
 1957.9000     0.7252    15.4740
 1958.0000     0.7249    15.4800
 1958.1000     0.7247    15.4860
 1958.2000     0.7244    15.4920
 1958.3000     0.7241    15.4980
 1958.4000     0.7239    15.5049
 1958.5000     0.7236    15.5100
 1958.6000     0.7234    15.5160
 1958.7000     0.7231    15.5220
 1958.8000     0.7228    15.5280
 1958.9000     0.7226    15.5343
 1959.0000     0.7223    15.5400
 1959.1000     0.7221    15.5460
 1959.2000     0.7218    15.5520
 1959.3000     0.7216    15.5580
 1959.4000     0.7213    15.5640
 1959.5000     0.7210    15.5711
 1959.6000     0.7208    15.5760
 1959.7000     0.7205    15.5820
 1959.8000     0.7203    15.5880
 1959.9000     0.7200    15.5940
 1960.0000     0.7198    15.6005
 1960.1000     0.7195    15.6060
 1960.2000     0.7192    15.6120
 1960.3000     0.7190    15.6180
 1960.4000     0.7187    15.6240
 1960.5000     0.7185    15.6300
 1960.6000     0.7182    15.6360
 1960.7000     0.7180    15.6420
 1960.8000     0.7177    15.6480
 1960.9000     0.7174    15.6540
 1961.0000     0.7173    15.6600
 1961.1000     0.7173    15.6667
 1961.2000     0.7173    15.6720
 1961.3000     0.7173    15.6780
 1961.4000     0.7173    15.6840
 1961.5000     0.7173    15.6900
 1961.6000     0.7173    15.6961
 1961.7000     0.7173    15.7020
 1961.8000     0.7173    15.7080
 1961.9000     0.7173    15.7140
 1962.0000     0.7195    15.7200
 1962.1000     0.7217    15.7559
 1962.2000     0.7239    16.1614
 1962.3000     0.7261    15.8662
 1962.4000     0.7288    15.7440
 1962.5000     0.7354    15.7500
 1962.6000     0.7420    15.7560
 1962.7000     0.7487    15.7623
 1962.8000     0.7553    15.7680
 1962.9000     0.7614    15.7740
 1963.0000     0.7658    15.7800
 1963.1000     0.7702    15.8843
 1963.2000     0.7746    16.2206
 1963.3000     0.7790    16.2276
 1963.4000     0.7853    16.2326
 1963.5000     0.7942    16.2386
 1963.6000     0.8030    16.2446
 1963.7000     0.8119    16.2506
 1963.8000     0.8207    16.2570
 1963.9000     0.8321    16.2626
 1964.0000     0.8454    16.2686
 1964.1000     0.8587    16.2746
 1964.2000     0.8602    16.2806
 1964.3000     0.8403    16.2866
 1964.4000     0.8204    16.2938
 1964.5000     0.8005    16.2986
 1964.6000     0.7806    16.3046
 1964.7000     0.7664    16.3106
 1964.8000     0.7575    16.3166
 1964.9000     0.7487    16.3226
 1965.0000     0.7398    16.3286
 1965.1000     0.7310    16.3346
 1965.2000     0.7251    16.3406
 1965.3000     0.7207    16.3466
 1965.4000     0.7163    16.3526
 1965.5000     0.7118    16.3586
 1965.6000     0.7066    16.3646
 1965.7000     0.7048    16.3706
 1965.8000     0.7026    16.3766
 1965.9000     0.7004    16.3826
 1966.0000     0.6982    16.3894
 1966.1000     0.6959    16.3946
 1966.2000     0.6959    16.4006
 1966.3000     0.6959    16.4066
 1966.4000     0.6959    16.4126
 1966.5000     0.6959    16.4188
 1966.6000     0.6959    16.4246
 1966.7000     0.6959    16.4306
 1966.8000     0.6959    16.4366
 1966.9000     0.6959    16.4433
 1967.0000     0.6959    16.4712
 1967.1000     0.6966    16.8841
 1967.2000     0.6988    16.8891
 1967.3000     0.7010    16.8951
 1967.4000     0.7032    16.9011
 1967.5000     0.7054    16.9071
 1967.6000     0.7076    16.9135
 1967.7000     0.7099    16.9191
 1967.8000     0.7121    16.9251
 1967.9000     0.7143    16.9311
 1968.0000     0.7165    16.9371
 1968.1000     0.7187    16.9431
 1968.2000     0.7209    16.9503
 1968.3000     0.7231    16.9551
 1968.4000     0.7253    16.9611
 1968.5000     0.7275    16.9671
 1968.6000     0.7332    16.9731
 1968.7000     0.7398    16.9797
 1968.8000     0.7464    16.9851
 1968.9000     0.7531    16.9911
 1969.0000     0.7602    16.9971
 1969.1000     0.7684    17.0031
 1969.2000     0.7772    17.0091
 1969.3000     0.7861    17.0151
 1969.4000     0.7949    17.0211
 1969.5000     0.8036    17.0271
 1969.6000     0.8102    17.0331
 1969.7000     0.8168    17.0391
 1969.8000     0.8235    17.0459
 1969.9000     0.8301    17.0511
 1970.0000     0.8370    17.0571
 1970.1000     0.8450    17.0631
 1970.2000     0.8530    17.0691
 1970.3000     0.8609    17.0753
 1970.4000     0.8650    17.4229
 1970.5000     0.8539    17.5157
 1970.6000     0.8428    17.5217
 1970.7000     0.8318    17.5277
 1970.8000     0.8207    17.5337
 1970.9000     0.8105    17.5406
 1971.0000     0.8016    17.5457
 1971.1000     0.7928    17.5517
 1971.2000     0.7840    17.5577
 1971.3000     0.7751    17.5637
 1971.4000     0.7663    17.5700
 1971.5000     0.7574    17.5757
 1971.6000     0.7486    17.5817
 1971.7000     0.7397    17.5877
 1971.8000     0.7309    17.5937
 1971.9000     0.7251    17.5997
 1972.0000     0.7206    17.6068
 1972.1000     0.7162    17.6117
 1972.2000     0.7118    17.6177
 1972.3000     0.7066    17.4945
 1972.4000     0.7029    17.2003
 1972.5000     0.6985    17.2076
 1972.6000     0.6941    17.2131
 1972.7000     0.6897    17.2191
 1972.8000     0.6852    17.2251
 1972.9000     0.6808    17.2311
 1973.0000     0.6764    17.2371
 1973.1000     0.6720    17.2431
 1973.2000     0.6676    17.2491
