~VERSION INFORMATION
 VERS.                2.0:   CWLS LOG ASCII STANDARD - VERSION 2.0
 WRAP.                 NO:   ONE LINE PER DEPTH STEP
~WELL INFORMATION
#MNEM.UNIT      DATA TYPE    INFORMATION
#----------   ------------   ------------------------------
 STRT.F           30.0000:   START DEPTH
 STOP.F          570.0000:   STOP DEPTH
 STEP.F            0.5000:   STEP LENGTH
 NULL.          -999.2500:   NO VALUE
 COMP.    FENIX & SCISSON:   COMPANY
 WELL.  NPR #3 #13SX11-11:   WELL
 FLD .             TEAPOT:   FIELD
 LOC .      S11 T38N R78W:   LOCATION
 CNTY.            NATRONA:   COUNTY
 STAT.            WYOMING:   STATE
 CTRY. UNITED STATES OF AMERICA:   COUNTRY
 SRVC.       Schlumberger:   SERVICE COMPANY
 DATE.        27-FEB-1977:   LOGDATE
 API .       490251029400:   API NUMBER
~CURVE INFORMATION
#MNEM.UNIT       API CODE    CURVE DESCRIPTION
#----------   ------------   ------------------------------
 DEPT.F                  :   
 GRD .GAPI   45 310 01 00:   GAMMA RAY FROM DENSITY LOG
 CALD.IN     45 280 60 00:   CALIPER FROM DENSITY LOG
 CORR.G/C3   45 356 01 00:   DENSITY CORRECTION
 DPHI.DEC    45 890 12 00:   DENSITY POROSITY STANDSTONE
 RHOB.G/C3   45 350 01 00:   BULK DENSITY
 SPR .MV     07 010 01 00:   SPONTANEOUS POTENTIAL
 ILD .OHMM   07 120 46 00:   INDUCTION LOG DEEP
 ILM .OHMM   07 120 44 00:   INDUCTION LOG MEDIUM
 LL8 .OHMM   07 220 08 00:   LATEROLOG-8 RES.
~PARAMETER INFORMATION
#MNEM.UNIT          VALUE    DESCRIPTION
#----------   ------------   ------------------------------
 PD  .                 GL:   PERMANENT DATUM
 EPD .F              5180:   ELEVATION PERMANENT DATUM
 LMF .                 GL:   LOG MEASURED FROM
 DAPD.F                 0:   FEET ABOVE PERMANENT DATUM
 DMF .                 GL:   DRILLING MEASURED FROM
 EKB .F              5183:   KELLING BUSHING
 EGL .F              5180:   GROUND LEVEL
 DATE.        27-FEB-1977:   RUN DATE
 RUN .                  1:   RUN NUMBER
 DD  .F               585:   DEPTH DRILLER
 DL  .F               571:   DEPTH LOGGER
 BLI .F               570:   BOTTOM LOG INTERVAL
 TLI .F                44:   TOP LOG INTERVAL
 CS  .IN            8.625:   CASING SIZE
 CBD .F                40:   CASING BOTTOM DRILLER
 CBL .F                44:   CASING BOTTOM LOGGER
 BS  .IN            7.875:   BIT SIZE
 BSD .F               585:   BIT SIZE AT DEPTH
 DFT .                KCL:   DRILLING FLUID TYPE
 DFD .                8.7:   DRILLING FLUID DENSITY
 DFV .                 42:   DRILLING FLUID VISCOSITY
 DFPH.                  8:   DRILLING FLUID PH
 DFL .                9.2:   DRILLING FLUID LOSS
 MSS .                PIT:   MUD SAMPLE SOURCE
 RMS .OHMM           .806:   RESISTIVITY MUD SAMPLE
 MST .F                70:   MUD SAMPLE TEMPERATURE
 RMF .OHMM           .720:   RESISTIVITY MUD FILTRATE SAMPLE
 MFST.F                70:   MUD FILTRATE SAMPLE TEMPERATURE
 MFSS.               MEAS:   MUD FILTRATE SAMPLE SOURCE
 RMB .OHMM           .973:   RESISTIVITY MUD AT BHT
 BHT .F                58:   BOTTOM HOLE TEMPERATURE
 TCS .HRS            0230:   TIME CURCULATED STOPPED
 MRT .F                58:   MAXIMUM RECORDED TEMPERATURE
 LUN .               5642:   LOGGING UNIT NUMBER
 LUL .             CASPER:   LOGGING UNIT LOCATION
 ENGI.         JIM MARTIN:   RECORDING ENGINEER
 WITN.         STUEBINGER:   WITNESSED BY
 CLNT.            A2DTECH:   CLIENT CODE
 ORIG.           5" PRINT:   ORIGIN OF DATA
 UWI .       490251029400:   UNIQUE WELL ID
 DICO. A2D Technologies, Inc.:   DIGITIZING COMPANY
~OTHER INFORMATION
~A   DEPT      GRD       CALD       CORR       DPHI       RHOB        SPR        ILD        ILM        LL8   
# ...
  468.0000    72.7716     8.0157     0.0022     0.2453     2.2544   -26.7789    37.2837    38.5338    50.9289
  468.5000    73.4519     8.0004     0.0089     0.2279     2.2904   -26.4738    36.0090    36.4440    39.3714
  469.0000    74.6022     8.0003     0.0269     0.2060     2.3279   -25.8666    34.2999    34.4676    33.7816
  469.5000    73.3900     7.9700     0.0381     0.1841     2.3563   -25.4105    32.0007    31.7065    30.2199
  470.0000    70.3628     7.9537     0.0373     0.1605     2.3983   -24.9543    30.0629    29.1666    27.7960
  470.5000    68.6972     7.9244     0.0282     0.1451     2.4388   -24.9514    28.2424    27.1797    26.6553
  471.0000    69.1495     7.9723     0.0184     0.1282     2.4501   -25.2505    27.0887    26.0646    25.5614
  471.5000    72.1738     8.0297     0.0333     0.1184     2.4545   -25.5496    25.9822    25.3664    25.2035
  472.0000    74.4416     7.9541     0.0438     0.1340     2.4447   -26.0006    25.2681    24.8373    24.8507
  472.5000    76.2555     7.8635     0.0362     0.1733     2.3673   -26.4502    24.9162    24.6589    24.5028
  473.0000    77.7669     7.8482     0.0257     0.2142     2.2997   -27.0513    24.5691    24.6522    24.1597
  473.5000    78.3709     7.9084     0.0316     0.2109     2.2982   -27.3504    24.3951    24.3060    23.8215
  474.0000    78.3690     7.9686     0.0518     0.1999     2.3379   -27.4985    24.2156    23.9646    23.4880
  474.5000    78.6701     7.9986     0.0398     0.1875     2.3469   -27.4955    23.8848    23.7925    23.3207
  475.0000    80.0302     7.9985     0.0247     0.1836     2.3461   -27.4924    23.7156    23.7860    23.1546
  475.5000    80.7851     8.0285     0.0134     0.1911     2.3310   -27.4889    23.5467    23.6152    22.9897
  476.0000    81.6914     8.0283     0.0240     0.2023     2.3250   -27.3348    23.2188    23.2835    22.8260
  476.5000    82.2961     8.0282     0.0087     0.2038     2.3182   -27.3318    23.2144    23.1163    22.8215
  477.0000    82.2754     8.0431     0.0065     0.1990     2.3241   -27.3289    23.2101    22.9502    22.6590
  477.5000    81.0288     8.0430     0.0042     0.1966     2.3249   -27.3259    23.0457    22.9440    22.4975
  478.0000    79.3636     8.0428    -0.0041     0.2057     2.3117   -27.6258    22.8825    22.9376    22.3373
  478.5000    78.6578     8.0427     0.0146     0.2145     2.2997   -27.6221    22.7204    22.9312    22.3328
  479.0000    79.4127     8.0425     0.0161     0.2157     2.2969   -27.3170    22.7162    22.9236    22.3284
  479.5000    79.5629     8.0424     0.0168     0.2118     2.3037   -27.0119    22.5553    22.9174    22.3231
  480.0000    78.8046     8.0422     0.0032     0.2133     2.2983   -26.8579    22.5511    22.9111    22.3187
  480.5000    80.9211     8.0421     0.0122     0.2029     2.3156   -26.7038    22.5468    22.7466    22.1597
  481.0000    82.8864     8.0419     0.0204     0.1935     2.3328   -26.7009    22.5426    22.5832    22.1554
  481.5000    83.7929     8.0418     0.0121     0.1941     2.3312   -26.6979    22.5384    22.2660    22.1510
  482.0000    80.4628     8.0416     0.0135     0.2020     2.3192   -26.7030    22.3787    22.1061    21.9933
  482.5000    78.0407     8.0415    -0.0023     0.2116     2.3004   -26.9940    22.0669    21.9473    21.8366
  483.0000    76.2238     8.0413     0.0074     0.2131     2.2981   -26.8399    21.8834    21.9413    21.5309
  483.5000    75.0120     8.0412     0.0171     0.2037     2.3100   -26.8363    21.3076    21.4837    21.2295
  484.0000    75.0105     8.0410     0.0215     0.1950     2.3370   -26.9851    21.0108    21.1819    20.9323
  484.5000    75.9168     8.0409     0.0252     0.1870     2.3460   -26.9814    20.4334    20.7401    20.6392
  485.0000    77.4281     8.0407     0.0087     0.1865     2.3383   -26.9784    19.8719    20.1671    20.2093
  485.5000    79.5552     8.0406    -0.0026     0.1994     2.3261   -26.9755    19.1925    19.6009    19.6513
  486.0000    82.1634     8.0404    -0.0124     0.2103     2.3048   -26.8214    18.6650    19.0505    19.5113
  486.5000    84.2521     8.0403    -0.0108     0.2121     2.3023   -26.8185    18.4050    18.4121    19.1049
  487.0000    84.9861     8.0401    -0.0025     0.1997     2.3285   -26.8155    18.4016    18.1535    18.8374
  487.5000    85.1362     8.0400     0.0089     0.1839     2.3555   -26.6614    18.3981    18.5301    18.4450
  488.0000    85.4370     8.0398     0.0219     0.1709     2.3749   -26.6585    18.1419    18.2699    18.0608
  488.5000    86.6458     8.0397     0.0203     0.1679     2.3779   -26.5044    18.0134    17.8888    17.5621
  489.0000    87.7033     8.0395     0.0285     0.1676     2.3719   -26.3504    17.5183    17.5156    17.1951
  489.5000    88.9121     8.0394     0.0300     0.1721     2.3621   -26.3474    17.1552    17.2696    16.9555
  490.0000    89.8187     8.0241     0.0262     0.1785     2.3552   -26.3444    17.0337    17.1456    16.9521
  490.5000    81.9499     8.0240     0.0104     0.1831     2.3530   -26.5121    16.8978    17.0224    16.9488
  491.0000    80.7381     8.0238     0.0073     0.1858     2.3424   -26.7917    16.7925    17.0178    16.9454
  491.5000    82.0982     8.0237     0.0245     0.1891     2.3454   -26.9398    16.7894    17.1317    16.9414
  492.0000    83.9122     8.0235     0.0357     0.1831     2.3566   -26.9361    16.7862    17.0085    16.9380
  492.5000    85.2722     8.0083     0.0371     0.1738     2.3595   -27.3862    16.7831    17.0039    16.8174
  493.0000    85.8951     8.0081     0.0521     0.1593     2.3798   -27.8364    16.7799    16.9992    16.6976
  493.5000    84.0590     8.0231     0.0588     0.1518     2.3970   -28.1363    16.7768    16.9944    16.5787
  494.0000    83.1498     8.0229     0.0580     0.1642     2.3977   -28.2837    16.7737    16.8714    16.4606
  494.5000    83.1483     8.0228     0.0159     0.1612     2.3875   -28.2807    16.6549    16.6344    16.3434
  495.0000    83.3132     8.0377     0.0061     0.1600     2.3871   -28.2777    16.5369    16.5150    16.1146
  495.5000    82.9465     8.0375     0.0061     0.1679     2.3690   -28.1237    16.4198    16.3963    15.9998
  496.0000    83.5973     8.0525     0.0075     0.1745     2.3600   -27.6675    16.0794    16.1661    15.9967
  496.5000    81.7804     8.0523     0.0112     0.1833     2.3509   -27.3625    15.9656    16.0500    15.8827
  497.0000    80.8712     8.0522     0.0127     0.1893     2.3433   -27.2084    15.7432    15.8246    15.8796
  497.5000    80.5675     8.0671     0.0104     0.1906     2.3411   -27.0544    15.6317    15.7109    15.6573
  498.0000    82.8349     8.0684     0.0036     0.1840     2.3502   -27.0514    15.5209    15.5981    15.5458
  498.5000    84.0437     8.0819     0.0155     0.1818     2.3507   -27.0700    15.4110    15.5938    15.2220
  499.0000    84.9499     8.0817     0.0125     0.1853     2.3484   -27.1965    15.1957    15.3748    15.1136
  499.5000    85.8561     8.0816     0.0012     0.1789     2.3552   -27.3446    15.1928    15.3706    15.0059
  500.0000    86.3523     8.0663    -0.0011     0.1759     2.3568   -27.4927    14.9789    15.2602    14.7958
  500.5000    86.4569     8.0648     0.0061     0.1717     2.3683   -27.3455    14.8450    14.8355    14.5887
  501.0000    80.5417     8.0630     0.0108     0.1669     2.3731   -28.1065    14.4291    14.5240    14.2810
  501.5000    79.4917     8.0613     0.0092     0.1699     2.3655   -28.1110    13.8383    14.1207    13.9794
  502.0000    79.4887     8.0595     0.0122     0.1705     2.3753   -28.1155    13.3609    13.7287    13.7795
  502.5000    79.9596     8.0577     0.0039     0.1660     2.3782   -28.2711    12.9894    13.2553    13.5040
  503.0000    81.1709     8.0559     0.0098     0.1630     2.3797   -28.2756    12.7248    12.9769    13.2222
  503.5000    82.6989     8.0541     0.0165     0.1621     2.3804   -28.1280    12.6219    12.6166    12.9468
  504.0000    84.3500     8.0523     0.0052     0.1624     2.3811   -27.8315    12.3676    12.3517    12.7655
