~VERSION INFORMATION
 VERS.                2.0:   CWLS LOG ASCII STANDARD - VERSION 2.0
 WRAP.                 NO:   ONE LINE PER DEPTH STEP
~WELL INFORMATION
#MNEM.UNIT      DATA TYPE    INFORMATION
#----------   ------------   ------------------------------
 STRT.F           80.0000:   START DEPTH
 STOP.F          814.0000:   STOP DEPTH
 STEP.F            0.5000:   STEP LENGTH
 NULL.          -999.2500:   NO VALUE
 COMP.          U.S. NAVY:   COMPANY
 WELL. RES 3 TEAPOT DOM #17-S-35:   WELL
 FLD .             TEAPOT:   FIELD
 LOC .      S35 T39N R78W:   LOCATION
 CNTY.            NATRONA:   COUNTY
 STAT.            WYOMING:   STATE
 CTRY. UNITED STATES OF AMERICA:   COUNTRY
 SRVC. Schlumberger Well Surveying Corp:   SERVICE COMPANY
 DATE.        20-JUL-1952:   LOGDATE
 API .       490250650200:   API NUMBER
~CURVE INFORMATION
#MNEM.UNIT       API CODE    CURVE DESCRIPTION
#----------   ------------   ------------------------------
 DEPT.F                  :   
 SPR .MV     05 010 01 00:   SPONTANEOUS POTENTIAL FROM RES.
 ILD .OHMM   05 120 46 00:   INDUCTION LOG DEEP
 ASN .OHMM   05 041 16 00:   AMPLIFIED SHORT NORMAL 16"
 CILD.MMHO   05 110 46 00:   CONDUCTIVITY INDUCTION LOG DEEP
 GR  .GAPI   30 310 01 00:   GAMMA RAY
~PARAMETER INFORMATION
#MNEM.UNIT          VALUE    DESCRIPTION
#----------   ------------   ------------------------------
 PD  .                 KB:   PERMANENT DATUM
 LMF .                 KB:   LOG MEASURED FROM
 DMF .                 KB:   DRILLING MEASURED FROM
 EKB .F              5101:   KELLING BUSHING
 EGL .F              5096:   GROUND LEVEL
 DATE.        20-JUL-1962:   RUN DATE
 RUN .                  1:   RUN NUMBER
 DD  .F               815:   DEPTH DRILLER
 DL  .F               815:   DEPTH LOGGER
 BLI .F               814:   BOTTOM LOG INTERVAL
 TLI .F                80:   TOP LOG INTERVAL
 BS  .IN             6.75:   BIT SIZE
 BSD .F               815:   BIT SIZE AT DEPTH
 DFT .       OIL EMULSION:   DRILLING FLUID TYPE
 DFD .               10.0:   DRILLING FLUID DENSITY
 DFV .                 45:   DRILLING FLUID VISCOSITY
 DFL .                2.7:   DRILLING FLUID LOSS
 RMS .OHMM           3.64:   RESISTIVITY MUD SAMPLE
 MST .F                89:   MUD SAMPLE TEMPERATURE
 RMF .OHMM           3.01:   RESISTIVITY MUD FILTRATE SAMPLE
 MFST.F                89:   MUD FILTRATE SAMPLE TEMPERATURE
 RMC .OHMM           3.41:   RESISTIVITY MUD CAKE
 MCST.F                89:   MUD CAKE SAMPLE TEMPERATURE
 RMB .OHMM           3.41:   RESISTIVITY MUD AT BHT
 BHT .F                89:   BOTTOM HOLE TEMPERATURE
 TCS .HRS              .5:   TIME CURCULATED STOPPED
 LUN .               2503:   LOGGING UNIT NUMBER
 LUL .               CSPR:   LOGGING UNIT LOCATION
 ENGI.             DANNER:   RECORDING ENGINEER
 WITN.          JORGENSEN:   WITNESSED BY
 CLNT.            A2DTECH:   CLIENT CODE
 ORIG.           5" PRINT:   ORIGIN OF DATA
 UWI .       490250650200:   UNIQUE WELL ID
 DICO. A2D Technologies, Inc.:   DIGITIZING COMPANY
~OTHER INFORMATION
~A   DEPT      SPR          ILD        ASN      CILD        GR   
# ...
  690.0000   -64.7105    31.3518    35.6415    29.3603    35.5658
  690.5000   -62.6760    31.5066    35.4836    29.3839    39.2347
  691.0000   -62.2098    30.3234    34.6968    30.1925    49.1174
  691.5000   -64.4155    30.1638    34.4603    31.7860    34.9259
  692.0000   -66.1486    31.4177    35.0100    32.5946    34.7777
  692.5000   -65.5270    32.2794    36.0314    30.2635    31.1938
  693.0000   -63.0215    33.0624    36.5026    27.9323    30.0060
  693.5000   -62.7123    33.4531    35.7158    24.8162    31.0924
  694.0000   -64.9180    32.7416    36.0296    23.8935    26.6626
  694.5000   -67.4361    30.8516    35.8716    24.2177    28.0197
  695.0000   -68.7597    29.7478    33.9842    28.0220    36.0490
  695.5000   -70.3014    27.4648    31.5465    31.4204    28.9578
  696.0000   -69.6830    25.8804    27.8509    35.2380    35.4454
  696.5000   -66.2732    23.7783    23.9980    39.1728    41.6244
  697.0000   -66.2102    21.8758    21.3244    42.2449    54.5935
  697.5000   -65.2278    19.4574    21.0880    43.9681    57.5317
  698.0000   -61.9088    17.8364    20.6942    47.8391    54.4514
  698.5000   -59.6367    16.7380    19.2785    51.7736    44.2708
  699.0000   -58.2302    15.9580    18.0986    56.4941    58.3216
  699.5000   -57.7640    15.3315    17.7049    61.2139    57.4018
  700.0000   -58.8926    15.1730    17.5376    62.6076    52.0067
  700.5000   -59.1921    15.2615    17.4228    61.8874    42.1111
  701.0000   -57.9440    15.3501    17.3080    60.5208    37.1944
  701.5000   -57.6359    15.4386    17.1260    59.7651    44.4490
  702.0000   -57.3316    15.5272    17.0435    59.0191    47.6916
  702.5000   -56.8685    15.5426    16.8824    57.4980    48.1557
  703.0000   -55.7773    15.5368    16.4854    55.9655    50.7811
  703.5000   -54.2153    15.6119    16.5611    56.0061    60.6592
  704.0000   -52.1822    15.5274    16.8707    56.8301    63.5924
  704.5000   -52.9749    15.4441    16.9464    56.8690    58.6556
  705.0000   -54.5526    15.2036    16.3912    57.6930    64.2127
  705.5000   -55.5130    14.9631    15.7584    59.3018    57.2702
  706.0000   -56.4731    14.7226    15.4410    60.1257    62.6725
  706.5000   -57.4176    14.6393    15.9864    61.7347    49.4028
  707.0000   -57.7237    14.5560    16.1407    62.5898    41.9969
  707.5000   -57.8885    14.6311    15.9000    63.4348    47.8627
  708.0000   -57.7390    14.7050    15.7389    64.9921    55.8783
  708.5000   -57.5898    14.8576    15.6563    64.9372    55.3651
  709.0000   -56.9716    15.0223    15.8097    63.3859    62.9910
  709.5000   -56.5084    15.2482    15.9630    61.0495    72.4061
  710.0000   -56.2003    15.4741    16.1950    59.6527    69.6299
  710.5000   -56.0511    15.6250    16.1911    56.5617    69.6314
  711.0000   -55.9019    15.6192    16.1085    51.8911    67.7811
  711.5000   -55.5957    15.6931    16.1046    49.5656    63.9242
  712.0000   -54.9775    15.6884    16.1007    51.1842    69.1730
  712.5000   -54.5143    15.6838    16.0836    52.0081    70.5630
  713.0000   -54.8361    15.6005    15.7775    54.4018    67.0155
  713.5000   -55.3148    15.4386    15.5378    56.0107    61.1529
  714.0000   -55.6366    15.2767    15.2194    57.6195    54.0556
  714.5000   -55.9583    15.0361    14.9010    59.2284    74.5818
  715.0000   -56.1231    14.8742    14.5827    60.0523    81.2191
  715.5000   -55.9720    14.5524    14.4216    60.8762    72.9807
  716.0000   -55.0398    14.2306    14.1032    63.2700    57.3538
  716.5000   -54.2607    13.9088    13.7848    64.0939    60.8537
  717.0000   -54.7414    13.7443    13.6237    66.4877    57.7684
  717.5000   -54.9061    13.5797    13.4626    68.0965    67.4925
  718.0000   -54.5999    13.3513    13.3014    69.7054    71.6603
  718.5000   -54.4505    13.2680    13.1403    71.3142    60.7054
  719.0000   -54.9295    13.2633    13.1364    72.9231    57.3115
  719.5000   -55.5652    13.3384    13.1325    73.7470    54.2270
  720.0000   -55.2590    13.4123    13.1286    73.7860    57.3149
  720.5000   -54.4716    13.4065    13.2043    73.8249    59.4766
  721.0000   -53.8513    13.4804    13.3567    73.0693    61.6390
  721.5000   -53.3831    13.4758    13.3528    72.3331    63.2042
  722.0000   -52.9354    13.5497    13.3489    72.3720    70.2840
  722.5000   -52.9697    13.5450    13.4238    71.6261    68.5880
  723.0000   -53.4239    13.5403    13.4197    71.6651    73.4351
  723.5000   -54.0596    13.6143    13.4945    71.7041    75.8648
  724.0000   -54.5383    13.6096    13.4905    71.7431    69.9818
  724.5000   -53.9182    13.3691    13.3294    71.7821    77.0821
  725.0000   -53.2980    13.1285    13.0896    71.8210    72.2993
  725.5000   -53.3058    13.0452    13.0830    71.8603    69.8316
  726.0000   -53.3136    13.0406    13.0817    72.6844    72.9196
  726.5000   -53.3214    13.1145    13.0857    72.7237    68.9088
  727.0000   -53.1722    13.2671    13.2416    72.7629    73.2313
  727.5000   -53.0230    13.5768    13.4761    71.2310    68.4488
  728.0000   -52.8737    13.8868    13.8514    70.3616    59.8089
  728.5000   -52.5676    14.1178    14.0057    68.1693    58.3388
  729.0000   -52.1044    14.1131    14.0804    65.8632    43.9170
  729.5000   -51.3272    14.0298    13.9970    64.3226    65.6777
  730.0000   -50.3931    13.7893    13.8358    63.5767    61.8212
  730.5000   -49.4590    13.4675    13.5961    64.4103    59.1989
  731.0000   -48.8388    13.1457    13.2777    65.2343    78.0280
  731.5000   -49.3176    12.8239    12.8807    68.4130    76.0233
  732.0000   -51.5232    12.5021    12.5624    71.5917    73.7100
  732.5000   -52.4729    12.2589    12.3226    74.7704    61.6745
  733.0000   -52.7946    11.8733    12.0829    78.7340    53.6513
  733.5000   -52.4884    11.7114    11.9217    81.1278    49.3315
  734.0000   -52.0252    11.5495    11.7606    81.1668    60.8459
  734.5000   -51.2481    11.4662    11.6781    81.2057    71.8658
  735.0000   -50.6279    11.3829    11.5956    81.2447    81.1265
  735.5000   -50.1595    11.3782    11.5917    81.2837    83.7926
  736.0000   -49.7016    11.5307    11.5878    81.3227    77.7959
  736.5000   -49.3799    11.6047    11.5839    81.3617    66.4710
  737.0000   -49.0686    11.6000    11.5800    81.4007    65.0836
  737.5000   -48.7830    11.7526    11.6549    81.4397    57.5234
  738.0000   -48.6338    11.8277    11.7294    81.4787    59.0677
  738.5000   -48.6436    12.0577    11.8828    81.5176    62.6190
  739.0000   -48.8083    12.3675    12.1933    80.7620    67.5588
  739.5000   -48.9731    12.6772    12.8184    80.0160    59.3813
  740.0000   -49.2949    13.0656    13.2075    78.4949    51.9754
  740.5000   -49.6166    13.2980    13.4421    77.7472    59.6930
  741.0000   -49.4674    13.1349    13.5142    75.4331    62.7806
  741.5000   -48.6903    12.8158    13.1014    74.6860    53.2146
  742.0000   -47.7561    12.4966    12.5524    75.5111    63.5967
  742.5000   -47.1360    12.2561    12.1659    76.3350    68.4954
  743.0000   -46.5158    12.0156    11.9253    77.9439    68.6512
  743.5000   -46.0507    11.8537    11.7642    79.5527    65.2265
  744.0000   -46.0604    11.6917    11.6817    82.7416    62.6357
  744.5000   -46.5392    11.5298    11.6778    85.1256    65.2607
  745.0000   -47.1749    11.4465    11.5953    86.7346    62.3301
  745.5000   -47.6517    11.4419    11.5914    87.5589    72.6715
  746.0000   -47.0335    11.4371    11.5875    86.8120    81.4693
  746.5000   -46.0994    11.4325    11.5836    86.0661    93.9709
  747.0000   -45.4773    11.5064    11.5797    85.3201    96.4415
  747.5000   -45.0157    11.5804    11.5758    83.7893    87.6467
  748.0000   -44.5528    11.5745    11.5719    83.0531    71.2902
  748.5000   -44.4034    11.6496    11.5680    83.0920    76.3843
  749.0000   -44.5684    11.6438    11.6437    82.3364    75.4599
  749.5000   -44.8902    11.7189    11.6388    82.3851    78.7022
  750.0000   -45.3689    11.7609    11.7145    81.1035    74.3020
  750.5000   -45.7910    11.6606    11.6259    80.3296    68.6699
