~VERSION INFORMATION
 VERS.                2.0:   CWLS LOG ASCII STANDARD - VERSION 2.0
 WRAP.                 NO:   ONE LINE PER DEPTH STEP
~WELL INFORMATION
#MNEM.UNIT      DATA TYPE    INFORMATION
#----------   ------------   ------------------------------
 STRT.F           80.0000:   START DEPTH
 STOP.F          718.0000:   STOP DEPTH
 STEP.F            0.5000:   STEP LENGTH
 NULL.          -999.2500:   NO VALUE
 COMP. U S NAVY-INTEX OIL:   COMPANY
 WELL. RES 3 TEAPOT DOM #11SX-2:   WELL
 FLD .             TEAPOT:   FIELD
 LOC .       S2 T38N R78W:   LOCATION
 CNTY.            NATRONA:   COUNTY
 STAT.            WYOMING:   STATE
 CTRY. UNITED STATES OF AMERICA:   COUNTRY
 SRVC.       Schlumberger:   SERVICE COMPANY
 DATE.        05-AUG-1961:   LOGDATE
 API .       490250647900:   API NUMBER
~CURVE INFORMATION
#MNEM.UNIT       API CODE    CURVE DESCRIPTION
#----------   ------------   ------------------------------
 DEPT.F                  :   
 ILD .OHMM   05 120 46 00:   INDUCTION LOG DEEP
 ASN .OHMM   05 041 16 00:   AMPLIFIED SHORT NORMAL 16"
 SPR .MV     05 010 01 00:   SPONTANEOUS POTENTIAL FROM RES.
 CILD.MMHO   05 110 46 00:   CONDUCTIVITY INDUCTION LOG DEEP
 GR  .GAPI   30 310 01 00:   GAMMA RAY
~PARAMETER INFORMATION
#MNEM.UNIT          VALUE    DESCRIPTION
#----------   ------------   ------------------------------
 LMF .                 KB:   LOG MEASURED FROM
 DMF .                 KB:   DRILLING MEASURED FROM
 EKB .F              5105:   KELLING BUSHING
 EGL .F              5100:   GROUND LEVEL
 DATE.           8-5-1961:   RUN DATE
 RUN .                  1:   RUN NUMBER
 DD  .F               715:   DEPTH DRILLER
 DL  .F               719:   DEPTH LOGGER
 BLI .F               718:   BOTTOM LOG INTERVAL
 TLI .F               120:   TOP LOG INTERVAL
 BS  .IN             6.75:   BIT SIZE
 BSD .F               715:   BIT SIZE AT DEPTH
 DFT .       OIL EMULSION:   DRILLING FLUID TYPE
 DFV .                 40:   DRILLING FLUID VISCOSITY
 RMS .OHMM           1.11:   RESISTIVITY MUD SAMPLE
 MST .F                68:   MUD SAMPLE TEMPERATURE
 TCS .HRS               2:   TIME CURCULATED STOPPED
 LUN .               2544:   LOGGING UNIT NUMBER
 LUL .                 NC:   LOGGING UNIT LOCATION
 ENGI.            EARNEST:   RECORDING ENGINEER
 WITN.          JORGENSEN:   WITNESSED BY
 CLNT.            A2DTECH:   CLIENT CODE
 ORIG.      2" & 5" PRINT:   ORIGIN OF DATA
 UWI .       490250647900:   UNIQUE WELL ID
 DICO. A2D Technologies, Inc.:   DIGITIZING COMPANY
~OTHER INFORMATION
~A   DEPT        ILD        ASN      SPR        CILD        GR   
# ...
  568.0000    10.0222    25.5672   -50.2264    47.1134    26.0257
  568.5000    10.1054    25.7539   -50.4130    45.7478    28.0578
  569.0000    10.8755    26.3142   -50.5876    44.3823    28.7388
  569.5000    11.5677    26.9699   -50.4351    43.0167    26.3379
  570.0000    11.7966    27.6955   -50.2689    41.6512    27.5549
  570.5000    12.0431    28.7324   -50.1041    40.2856    24.7647
  571.0000    12.2890    29.7799   -49.9394    38.9258    26.0849
  571.5000    12.5937    30.8320   -49.7732    37.5758    29.2292
  572.0000    12.9487    31.5474   -49.6101    36.2257    32.4005
  572.5000    13.3794    31.8936   -49.7133    34.8757    35.2423
  573.0000    13.8085    31.9130   -49.8337    33.4331    30.5503
  573.5000    14.1305    31.9432   -49.9532    33.0978    28.8590
  574.0000    14.0364    31.9765   -50.0722    32.7378    27.9964
  574.5000    13.9345    32.2029   -50.1912    32.3778    26.3291
  575.0000    13.8512    33.0118   -50.3102    32.0178    24.6682
  575.5000    14.2522    33.7915   -50.4292    31.6578    22.9900
  576.0000    14.7024    34.5674   -50.5482    31.2978    21.1022
  576.5000    15.1516    35.0287   -50.6675    30.9378    23.1237
  577.0000    15.2958    35.1470   -50.7870    30.5777    25.7620
  577.5000    15.0920    34.9990   -50.9042    30.2178    28.4324
  578.0000    14.8871    34.6105   -50.9572    29.8577    28.7279
  578.5000    14.7115    34.2182   -50.7810    29.4977    28.1092
  579.0000    15.0612    34.0515   -50.6106    29.0835    30.0204
  579.5000    15.4171    33.9985   -50.4407    28.6593    31.8614
  580.0000    15.7443    34.0757   -50.2712    28.2350    32.6683
  580.5000    15.9437    34.2210   -50.1030    27.8107    29.3101
  581.0000    16.1486    34.6129   -49.9908    27.3864    27.8856
  581.5000    16.3527    35.1544   -49.9659    26.9621    28.6027
  582.0000    16.5537    35.4561   -49.9405    26.5378    29.1171
  582.5000    16.3162    34.5496   -49.9159    27.2740    25.8761
  583.0000    15.4635    33.5638   -49.8913    29.0402    29.0693
  583.5000    14.0899    31.4561   -49.8667    32.4837    31.9577
  584.0000    12.5806    29.2677   -49.8421    35.9273    29.3142
  584.5000    11.0391    27.0792   -49.8172    39.3708    30.6799
  585.0000    10.3680    25.0386   -49.7912    42.8144    31.7630
  585.5000     9.7035    23.8965   -49.7584    46.2363    30.7077
  586.0000     9.1274    22.7564   -49.7266    49.6395    32.0048
  586.5000     8.7049    21.6173   -49.6949    53.0427    33.6918
  587.0000     8.2748    20.4783   -49.6632    55.5852    34.7748
  587.5000     8.1511    19.7897   -49.6319    57.3945    35.3874
  588.0000     8.0404    19.5261   -49.5992    59.1901    35.9949
  588.5000     7.9571    19.2680   -49.5134    59.2705    36.6615
  589.0000     7.9591    19.0113   -49.4298    59.1430    38.7700
  589.5000     7.9585    18.7525   -49.2890    59.0143    41.0257
  590.0000     7.9914    18.5197   -49.1190    58.8873    43.7034
  590.5000     8.0394    18.5913   -48.9491    58.7604    39.9699
  591.0000     8.0878    18.6678   -48.7790    58.6335    36.8657
  591.5000     8.1361    18.6261   -48.6087    58.5066    39.8282
  592.0000     8.1844    18.4292   -48.4394    58.3797    43.8112
  592.5000     8.2327    18.2847   -48.3641    58.2527    46.3193
  593.0000     8.2810    18.2134   -48.3089    58.1258    47.5617
  593.5000     8.3290    18.1418   -48.2536    57.9989    48.9093
  594.0000     8.3485    18.0712   -48.2137    57.8719    50.3100
  594.5000     8.3224    18.0002   -48.3881    57.7450    51.4656
  595.0000     8.2969    17.9296   -48.5684    57.6181    48.3523
  595.5000     8.2713    17.8606   -48.7478    57.4912    44.8937
  596.0000     8.2458    17.9087   -48.9278    57.4156    40.8768
  596.5000     8.2197    18.1791   -49.0366    57.5992    42.3487
  597.0000     8.1847    18.4815   -49.0917    57.7828    44.6119
  597.5000     8.1130    18.3880   -49.1463    57.9664    44.2304
  598.0000     8.0423    18.2257   -49.2017    58.1500    46.1096
  598.5000     7.9716    18.0597   -49.0794    58.3336    47.6564
  599.0000     7.9047    17.8941   -48.8450    58.5173    42.3192
  599.5000     7.8657    17.7289   -48.6104    58.7009    37.7535
  600.0000     7.8270    17.5637   -48.3766    58.8845    40.0916
  600.5000     7.7882    17.3985   -48.2073    59.0681    42.1744
  601.0000     7.7493    17.2263   -48.2097    59.2517    40.2487
  601.5000     7.7105    17.0470   -48.0829    59.7113    39.9233
  602.0000     7.6719    16.8677   -48.0222    60.8318    40.4651
  602.5000     7.5926    16.6884   -48.2508    61.9524    39.1359
  603.0000     7.4959    16.5091   -48.4725    63.0726    40.8922
  603.5000     7.3991    16.3299   -48.6927    64.1934    42.6232
  604.0000     7.3022    16.1505   -48.8435    65.3148    44.3506
  604.5000     7.2052    15.9711   -48.9206    66.4376    42.2574
  605.0000     7.1088    15.7924   -48.9966    67.5549    45.8150
  605.5000     7.0125    15.6139   -48.9683    68.2832    49.2791
  606.0000     6.9805    15.5172   -48.9251    67.9959    51.7799
  606.5000     7.0199    15.5064   -48.8818    67.7086    52.0038
  607.0000     7.0591    15.4956   -48.8386    67.4217    54.2234
  607.5000     7.0988    15.4856   -48.7955    67.1340    57.6190
  608.0000     7.1384    15.4755   -48.7523    66.8467    59.7021
  608.5000     7.1781    15.4653   -48.7093    66.5594    60.4956
  609.0000     7.2178    15.4552   -48.6662    66.2721    61.0636
  609.5000     7.2575    15.4451   -48.6202    65.9848    60.0239
  610.0000     7.2966    15.4353   -48.6687    65.6974    62.3779
  610.5000     7.2697    15.4242   -48.7579    65.4101    59.7686
  611.0000     7.1917    15.3834   -48.8482    66.2487    54.2859
  611.5000     7.1136    15.2267   -48.9385    67.2740    48.7988
  612.0000     7.0349    15.0733   -49.0287    68.2993    43.3195
  612.5000     6.9559    14.9202   -49.1190    69.3246    39.4447
  613.0000     6.8769    14.7669   -49.2091    70.3499    40.5630
  613.5000     6.7980    14.6136   -49.2996    71.3752    41.6433
  614.0000     6.7191    14.4608   -49.3918    72.3553    39.3582
  614.5000     6.6390    14.3085   -49.3511    71.9951    35.3713
  615.0000     6.6271    14.1945   -49.2897    71.5683    37.0266
  615.5000     6.6500    14.1308   -49.2274    71.1414    39.3533
  616.0000     6.6733    14.0671   -49.1653    70.7146    41.7679
  616.5000     6.6968    14.0039   -49.1033    70.2877    42.4778
  617.0000     6.7204    13.9407   -49.0413    69.8608    44.0872
  617.5000     6.7432    13.8775   -48.9355    69.4340    46.1218
  618.0000     6.7462    13.8142   -48.7694    70.2467    47.8018
  618.5000     6.6691    13.7510   -48.6040    71.3138    44.9450
  619.0000     6.5937    13.6878   -48.4384    72.3810    41.1239
  619.5000     6.5185    13.6245   -48.2738    73.4481    37.4847
  620.0000     6.4432    13.5613   -48.1103    74.5153    40.3795
  620.5000     6.3679    13.4979   -48.0322    75.5824    44.2137
  621.0000     6.2926    13.4352   -48.0796    76.6496    47.7844
  621.5000     6.2173    13.3951   -48.1262    77.7167    44.5155
  622.0000     6.1415    13.3608   -48.1732    78.3433    40.7034
  622.5000     6.1181    13.3264   -48.2120    78.3433    41.5195
  623.0000     6.1439    13.2921   -48.2108    78.3433    40.1821
  623.5000     6.1697    13.2579   -48.2107    78.3433    36.5185
  624.0000     6.1955    13.2230   -48.2108    78.3433    34.6614
  624.5000     6.2212    13.1692   -48.2108    78.3433    38.5797
  625.0000     6.2467    13.1147   -48.2109    78.3433    41.6039
  625.5000     6.2460    13.0604   -48.2100    78.3433    43.4708
  626.0000     6.2033    13.0060   -48.2098    78.3433    37.1451
  626.5000     6.1611    12.9517   -48.0811    78.6447    34.3435
  627.0000     6.1188    12.8974   -47.8710    79.1512    36.9385
  627.5000     6.0765    12.8430   -47.6635    79.6576    38.7411
  628.0000     6.0342    12.7887   -47.3959    80.1641    33.0519
  628.5000     5.9919    12.7343   -47.1202    80.6705    35.7685
