~VERSION INFORMATION
 VERS.                2.0:   CWLS LOG ASCII STANDARD - VERSION 2.0
 WRAP.                 NO:   ONE LINE PER DEPTH STEP
~WELL INFORMATION
#MNEM.UNIT      DATA TYPE    INFORMATION
#----------   ------------   ------------------------------
 STRT.F           20.0000:   START DEPTH
 STOP.F          546.0000:   STOP DEPTH
 STEP.F            0.5000:   STEP LENGTH
 NULL.          -999.2500:   NO VALUE
 COMP. LAWRENCE/ALLISON INC:   COMPANY
 WELL.   83-61 STX #10-10:   WELL
 FLD .             TEAPOT:   FIELD
 LOC .      S10 T38N R78W:   LOCATION
 CNTY.            NATRONA:   COUNTY
 STAT.            WYOMING:   STATE
 CTRY. UNITED STATES OF AMERICA:   COUNTRY
 SRVC.           Gearhart:   SERVICE COMPANY
 DATE.        09-JUN-1987:   LOGDATE
 API .       490251113100:   API NUMBER
~CURVE INFORMATION
#MNEM.UNIT       API CODE    CURVE DESCRIPTION
#----------   ------------   ------------------------------
 DEPT.F                  :   
 GRR .GAPI   07 310 01 00:   GAMMA RAY FROM RES. LOG.
 RILD.OHMM   07 120 46 00:   INDUCTION LOG DEEP RESISTIVITY
 RILM.OHMM   07 120 44 00:   INDUCTION LOG MEDIUM RESISTIVITY
 RLL .OHMM   07 220 00 00:   LATEROLOG RESISTIVITY
~PARAMETER INFORMATION
#MNEM.UNIT          VALUE    DESCRIPTION
#----------   ------------   ------------------------------
 PD  .                 GL:   PERMANENT DATUM
 EPD .F              5163:   ELEVATION PERMANENT DATUM
 LMF .                 KB:   LOG MEASURED FROM
 DAPD.F                 8:   FEET ABOVE PERMANENT DATUM
 DMF .                 KB:   DRILLING MEASURED FROM
 EKB .F              5171:   KELLING BUSHING
 EDF .F              5169:   DRILLING FLOOR
 EGL .F              5163:   GROUND LEVEL
 DATE.             6-9-87:   RUN DATE
 RUN .                  1:   RUN NUMBER
 DD  .F             552.5:   DEPTH DRILLER
 DL  .F               549:   DEPTH LOGGER
 BLI .F               546:   BOTTOM LOG INTERVAL
 TLI .F                49:   TOP LOG INTERVAL
 CS  .IN             8.62:   CASING SIZE
 CBD .F                50:   CASING BOTTOM DRILLER
 CBL .F                46:   CASING BOTTOM LOGGER
 BS  .IN             7.87:   BIT SIZE
 BSD .F             552.5:   BIT SIZE AT DEPTH
 DFT .                MUD:   DRILLING FLUID TYPE
 TCS .HRS            0300:   TIME CURCULATED STOPPED
 TLAB.HRS            0400:   TIME LOGGER AT BOTTOM
 LUN .               7597:   LOGGING UNIT NUMBER
 LUL .           GILLETTE:   LOGGING UNIT LOCATION
 ENGI.           JOHNSTON:   RECORDING ENGINEER
 WITN.             STRONG:   WITNESSED BY
 CLNT.            A2DTECH:   CLIENT CODE
 ORIG.       2", 5" PRINT:   ORIGIN OF DATA
 UWI .       490251113100:   UNIQUE WELL ID
 DICO. A2D Technologies, Inc.:   DIGITIZING COMPANY
~OTHER INFORMATION
~A   DEPT       GRR      RILD       RILM        RLL   
# ...
  166.0000    81.6358    13.1502    12.3081    12.0976
  166.5000    82.5535    13.1009    12.3293    11.9838
  167.0000    84.1285    13.0518    12.1926    11.8468
  167.5000    85.6989    13.0028    12.0971    11.7114
  168.0000    86.3412    12.9541    12.0026    11.5776
  168.5000    84.2275    12.8993    11.9089    11.4452
  169.0000    82.1772    12.8377    11.8159    11.3144
  169.5000    81.2331    12.7763    11.7236    11.1851
  170.0000    82.8829    12.7153    11.6321    11.0572
  170.5000    83.7359    12.6545    11.5413    10.9308
  171.0000    82.9672    12.5940    11.4512    10.7961
  171.5000    80.8543    12.5338    11.3618    10.7961
  172.0000    78.8060    12.4740    11.3204    10.7961
  172.5000    78.5040    12.4143    11.3204    10.7961
  173.0000    80.3918    12.3550    11.3204    10.7960
  173.5000    82.2620    12.2960    11.3203    10.7961
  174.0000    84.1124    12.2372    11.3207    10.7955
  174.5000    84.9609    12.1788    11.3217    10.7969
  175.0000    82.8198    12.1206    11.2105    10.6647
  175.5000    81.8366    12.0734    11.1189    10.5711
  176.0000    83.6421    12.0336    11.0279    10.4782
  176.5000    85.4528    11.9940    10.9377    10.3862
  177.0000    85.6457    11.9544    10.8481    10.2949
  177.5000    83.9885    11.9150    10.7595    10.2045
  178.0000    82.3128    11.8748    10.6942    10.1025
  178.5000    80.6452    11.7822    10.7156    11.0206
  179.0000    78.9741    11.6479    10.7327    12.4065
  179.5000    77.2843    11.5163    10.7499    13.1772
  180.0000    75.7399    11.3861    10.7672    12.9356
  180.5000    78.4024    11.2574    10.7848    12.8061
  181.0000    81.2944    11.1302    10.7961    10.6941
  181.5000    84.1318    11.0044    10.5853    10.2092
  182.0000    84.8168    10.8800    10.4281     9.8907
  182.5000    82.1541    10.7571    10.2731     9.7341
  183.0000    79.9273    10.6355    10.1205     9.5799
  183.5000    81.5759    10.5153     9.9701     9.5436
  184.0000    83.7665    10.3941     9.8191     9.5384
  184.5000    84.7205    10.4080     9.8191     9.5245
  185.0000    81.0697    10.4223     9.8191     9.5107
  185.5000    78.2479    10.4366     9.8191     9.4969
  186.0000    77.7815    10.4509     9.8191     9.4830
  186.5000    80.2309    10.4651     9.8191     9.4694
  187.0000    82.6568    10.4800     9.8191     9.4557
  187.5000    85.0786    10.4928     9.8191     9.3587
  188.0000    86.6986    10.4061     9.8192     9.2473
  188.5000    87.5304    10.3230     9.8191     9.1015
  189.0000    87.4978    10.2408     9.8191     9.1368
  189.5000    86.5604    10.1596     9.6876     9.1895
  190.0000    83.9312    10.0794     9.4984     9.2425
  190.5000    80.7234     9.9701     9.3129     9.2957
  191.0000    79.7858     9.6369     9.1310     9.3643
  191.5000    80.5801     9.3148     8.9527     9.2706
  192.0000    81.4190     9.0035     8.7778     9.1426
  192.5000    82.2134     8.7025     8.6064     9.0163
  193.0000    83.4702     8.4117     8.4383     8.8918
  193.5000    84.7080     8.1223     8.2735     8.7690
  194.0000    85.9474     7.8945     8.0457     8.6479
  194.5000    87.1898     7.8199     8.0876     8.5168
  195.0000    88.4865     7.8199     8.1599     8.5168
  195.5000    89.8770     7.8715     8.2329     8.5168
  196.0000    91.1224     7.9234     8.3065     8.5980
  196.5000    90.1251     7.9757     8.3807     8.6546
  197.0000    88.8108     8.0283     8.4557     8.7240
  197.5000    87.1465     8.0813     8.5312     8.7939
  198.0000    85.5089     8.1346     8.6075     8.8644
  198.5000    85.1147     8.1882     8.6845     8.9305
  199.0000    87.2569     8.2422     8.7621     9.0053
  199.5000    89.3798     8.2966     8.8404     9.0758
  200.0000    88.1169     8.3513     8.9195     9.1469
  200.5000    85.7949     8.4663     8.9992     9.2185
  201.0000    86.0289     8.5896     9.0797     9.2907
  201.5000    87.5466     8.7147     9.1608     9.3634
  202.0000    89.0586     8.8416     9.2428     9.4367
  202.5000    88.2983     8.9704     9.3251     9.5107
  203.0000    87.3669     9.1010     9.3652     9.5857
  203.5000    86.4542     9.1883     9.3161     9.6346
  204.0000    85.9177     9.0748     9.2801     9.5751
  204.5000    86.3663     8.9910     9.2443     9.5233
  205.0000    86.8009     8.9079     9.2086     9.4719
  205.5000    87.2332     8.8257     9.1730     9.4206
  206.0000    87.5029     8.7442     9.1376     9.3697
  206.5000    87.4973     8.6634     9.1023     9.3190
  207.0000    87.5002     8.5939     9.0672     9.2687
  207.5000    87.6669     8.5716     9.0322     9.2185
  208.0000    88.5541     8.5493     8.9973     9.1883
  208.5000    89.4528     8.5271     8.9625     9.2496
  209.0000    88.3130     8.5049     8.9279     9.2938
  209.5000    86.8249     8.4828     8.8935     9.3383
  210.0000    85.5446     8.4608     8.8591     9.3829
  210.5000    87.1826     8.4388     8.8249     9.4278
  211.0000    88.8579     8.4168     8.7908     9.4535
  211.5000    90.3898     8.3950     8.7569     9.3201
  212.0000    90.7036     8.3731     8.7231     9.2279
  212.5000    89.1661     8.3491     8.6894     9.1367
  213.0000    87.6609     8.3163     8.6559     9.0156
  213.5000    86.1606     8.2839     8.6224     9.0414
  214.0000    85.6307     8.2517     8.5843     9.0807
  214.5000    86.9924     8.2196     8.5333     9.1201
  215.0000    88.3694     8.1877     8.4826     9.1598
  215.5000    89.7596     8.1559     8.4321     9.1883
  216.0000    89.9133     8.1242     8.3820     8.9582
  216.5000    89.1227     8.0926     8.3321     8.7831
  217.0000    88.3140     8.0611     8.2777     8.6114
  217.5000    87.5338     7.9659     8.2786     8.4431
  218.0000    87.7044     7.8109     8.0643     8.2780
  218.5000    87.8706     7.6590     7.9423     8.1997
  219.0000    86.7868     7.4990     7.7199     8.2429
  219.5000    85.6420     7.2686     7.5037     8.2779
  220.0000    84.4954     7.0454     7.2936     7.9551
  220.5000    83.3945     6.8290     7.0894     7.5364
  221.0000    84.5711     6.6192     6.8909     7.1397
  221.5000    85.9957     6.4076     6.6980     7.0451
  222.0000    87.4413     6.3471     6.5104     6.9084
  222.5000    87.8646     6.4076     6.2846     6.8475
  223.0000    86.9609     6.6399     6.3526     7.1530
  223.5000    86.0375     6.8881     6.5283     7.4251
  224.0000    85.0847     7.1456     6.7106     7.7076
  224.5000    87.0637     7.4127     6.8977     8.0008
  225.0000    89.3639     7.6898     7.0898     8.1242
  225.5000    91.6322     7.7848     7.2873     8.1236
  226.0000    92.9558     7.8334     7.5288     8.1260
  226.5000    91.8734     7.8823     7.5123     8.1437
  227.0000    90.8414     7.9315     7.4920     8.1614
  227.5000    89.9540     7.9697     7.4718     8.1791
  228.0000    91.1565     7.8922     7.4517     8.1968
  228.5000    92.0236     7.8199     7.4316     8.2146
  229.0000    91.7682     7.8531     7.4115     8.2325
  229.5000    89.5886     7.8927     7.3915     8.2503
  230.0000    86.2883     7.9324     7.3716     8.2684
  230.5000    83.0677     7.9697     7.3520     8.2782
  231.0000    82.6391     7.8690     7.3312     8.2817
  231.5000    85.0900     7.7605     7.2686     8.0776
  232.0000    88.9070     7.5485     7.0852     7.8540
  232.5000    90.6345     7.3432     6.9078     7.6367
  233.0000    91.1295     7.1462     6.7410     7.4556
  233.5000    90.8496     6.8767     6.3463     7.3628
  234.0000    90.4350     6.5598     5.9551     7.3191
  234.5000    90.0230     6.2507     5.5881     6.6337
  235.0000    89.6252     6.0500     5.1475     6.0712
  235.5000    88.6772     6.0177     5.0528     5.6642
  236.0000    86.4454     5.9796     5.0531     5.6642
  236.5000    83.6696     5.9393     5.3362     6.0259
  237.0000    86.2800     6.1527     5.6578     6.4395
  237.5000    90.5265     6.4533     5.9975     6.8814
  238.0000    92.5460     6.7687     6.3144     7.3572
  238.5000    91.1674     7.0388     6.5664     7.7434
