~VERSION INFORMATION
 VERS.                2.0:   CWLS LOG ASCII STANDARD - VERSION 2.0
 WRAP.                 NO:   ONE LINE PER DEPTH STEP
~WELL INFORMATION
#MNEM.UNIT      DATA TYPE    INFORMATION
#----------   ------------   ------------------------------
 STRT.F            0.0000:   START DEPTH
 STOP.F          489.0000:   STOP DEPTH
 STEP.F            0.5000:   STEP LENGTH
 NULL.          -999.2500:   NO VALUE
 COMP.   FLUOR DANIEL INC:   COMPANY
 WELL. NAVAL PETROLEUM RES 3 SX-3 44 #1-3:   WELL
 FLD .             TEAPOT:   FIELD
 LOC .       S3 T38N R78W:   LOCATION
 CNTY.            NATRONA:   COUNTY
 STAT.            WYOMING:   STATE
 CTRY. UNITED STATES OF AMERICA:   COUNTRY
 SRVC.      Western Atlas:   SERVICE COMPANY
 DATE.        10-JUL-1995:   LOGDATE
 API .       490252273800:   API NUMBER
~CURVE INFORMATION
#MNEM.UNIT       API CODE    CURVE DESCRIPTION
#----------   ------------   ------------------------------
 DEPT.F                  :   
 RILD.OHMM   07 120 46 00:   INDUCTION LOG DEEP RESISTIVITY
 RILM.OHMM   07 120 44 00:   INDUCTION LOG MEDIUM RESISTIVITY
 GRR .GAPI   07 310 01 00:   GAMMA RAY FROM RES. LOG.
~PARAMETER INFORMATION
#MNEM.UNIT          VALUE    DESCRIPTION
#----------   ------------   ------------------------------
 PD  .                 GL:   PERMANENT DATUM
 EPD .F              5164:   ELEVATION PERMANENT DATUM
 LMF .                 KB:   LOG MEASURED FROM
 DAPD.F                10:   FEET ABOVE PERMANENT DATUM
 DMF .                 KB:   DRILLING MEASURED FROM
 EKB .F              5174:   KELLING BUSHING
 EDF .F              5173:   DRILLING FLOOR
 EGL .F              5164:   GROUND LEVEL
 DATE.            7-10-95:   RUN DATE
 RUN .                  1:   RUN NUMBER
 DD  .F               500:   DEPTH DRILLER
 DL  .F               500:   DEPTH LOGGER
 BLI .F               494:   BOTTOM LOG INTERVAL
 TLI .F                53:   TOP LOG INTERVAL
 CS  .IN            9.625:   CASING SIZE
 CBD .F                53:   CASING BOTTOM DRILLER
 CBL .F                53:   CASING BOTTOM LOGGER
 BS  .IN             8.75:   BIT SIZE
 BSD .F               500:   BIT SIZE AT DEPTH
 DFT .                AIR:   DRILLING FLUID TYPE
 BHT .F                92:   BOTTOM HOLE TEMPERATURE
 MRT .F                92:   MAXIMUM RECORDED TEMPERATURE
 LUN .            HL 6530:   LOGGING UNIT NUMBER
 LUL .             CASPER:   LOGGING UNIT LOCATION
 ENGI.          RASMUSEEN:   RECORDING ENGINEER
 WITN.             STRONG:   WITNESSED BY
 CLNT.            A2DTECH:   CLIENT CODE
 ORIG.       2", 5" PRINT:   ORIGIN OF DATA
 UWI .       490252273800:   UNIQUE WELL ID
 DICO. A2D Technologies, Inc.:   DIGITIZING COMPANY
~OTHER INFORMATION
~A    DEPT    RILD       RILM          GRR 
# ...
   91.0000     7.9844     8.2084   117.1778
   91.5000     7.8908     8.1149   118.9476
   92.0000     7.8215     8.0334   119.8530
   92.5000     7.7528     7.9527   118.2467
   93.0000     7.6847     7.8729   116.3431
   93.5000     7.6171     7.7939   117.1623
   94.0000     7.5541     7.6878   118.8076
   94.5000     7.4235     7.5681   118.6455
   95.0000     7.3021     7.4503   116.5522
   95.5000     7.1833     7.3343   115.9631
   96.0000     7.0804     7.2135   118.0529
   96.5000     7.0815     7.2135   119.2976
   97.0000     7.0815     7.2135   118.3548
   97.5000     7.0815     7.2134   117.0326
   98.0000     7.0815     7.2136   117.8195
   98.5000     7.0805     7.2123   119.1058
   99.0000     7.1366     7.2590   120.6893
   99.5000     7.1899     7.3133   119.3335
  100.0000     7.2437     7.3680   115.7750
  100.5000     7.2979     7.4231   112.1762
  101.0000     7.3524     7.4787   111.8517
  101.5000     7.4074     7.5347   114.2592
  102.0000     7.4670     7.6613   116.1600
  102.5000     7.5459     7.7421   117.3571
  103.0000     7.6254     7.8237   117.0402
  103.5000     7.7057     7.9063   114.7536
  104.0000     7.7662     7.9842   111.9154
  104.5000     7.7995     8.0123   108.9022
  105.0000     7.8310     8.0446   107.7821
  105.5000     7.8625     8.0770   108.8742
  106.0000     7.8942     8.1096   110.2146
  106.5000     7.9260     8.1423   111.4880
  107.0000     7.9580     8.1751   112.5211
  107.5000     7.9901     8.2080   113.5231
  108.0000     8.0223     8.2411   114.1569
  108.5000     8.0546     8.2746   111.1922
  109.0000     8.0769     8.3049   107.9649
  109.5000     8.0980     8.3349   107.5205
  110.0000     8.1192     8.3648   108.4991
  110.5000     8.1404     8.3948   109.8265
  111.0000     8.1616     8.4244   111.2520
  111.5000     8.1828     8.4388   114.0420
  112.0000     8.2043     8.3613   117.4336
  112.5000     8.3709     8.6871   117.4852
  113.0000     8.5754     8.9301   111.7960
  113.5000     8.7864     9.1798   106.8464
  114.0000     8.9516     9.4365   109.0308
  114.5000     9.1467     9.6921   111.7155
  115.0000     9.3430     9.8430   111.6750
  115.5000     9.5441     9.9914   109.5216
  116.0000     9.7495    10.1421   109.6802
  116.5000     9.9584    10.2952   111.5489
  117.0000    10.1763    10.4506   112.2003
  117.5000    10.5193    10.7358   111.0947
  118.0000    10.9456    11.1683   109.0232
  118.5000    11.2863    11.5712   106.4608
  119.0000    11.5620    11.9112   103.8605
  119.5000    11.8445    12.2612   101.2669
  120.0000    12.1338    12.6215    99.1154
  120.5000    12.4342    12.8746    97.0042
  121.0000    12.5171    13.1256    95.9989
  121.5000    12.7832    13.2640    95.6630
  122.0000    12.7548    13.0968    95.3400
  122.5000    12.7139    13.0068    95.0223
  123.0000    12.6744    12.9183    94.6790
  123.5000    12.5039    12.7579    95.8478
  124.0000    12.3112    12.5863    97.8077
  124.5000    12.1210    12.4165    99.7622
  125.0000    11.9337    12.2490   100.5437
  125.5000    11.7493    12.0839    99.2550
  126.0000    11.5678    11.9210    98.2016
  126.5000    11.5112    11.8450    97.9334
  127.0000    11.4576    11.7898    98.3686
  127.5000    11.4042    11.7348    98.8068
  128.0000    11.3511    11.6801    99.2460
  128.5000    11.2982    11.6257    99.7003
  129.0000    11.2339    11.5715    99.7582
  129.5000    11.2952    11.5492    99.4952
  130.0000    11.4006    11.7125    97.6730
  130.5000    11.5069    11.8308    95.4949
  131.0000    11.6142    11.9504    95.3006
  131.5000    11.7225    12.0946    96.1969
  132.0000    11.7644    11.9754    96.9338
  132.5000    11.4847    11.7843    95.6423
  133.0000    11.2923    11.5962    93.0710
  133.5000    11.0284    11.4111    94.9243
  134.0000    11.1307    11.2290    98.1740
  134.5000    10.9058    11.0284   101.3939
  135.0000    10.7493    10.9103   103.0003
  135.5000    10.5945    10.8011   102.4132
  136.0000    10.4421    10.6930   101.0984
  136.5000    10.2918    10.5859   101.8543
  137.0000    10.2332    10.5245   102.5663
  137.5000    10.1978    10.4584   101.8447
  138.0000    10.1629    10.3928    99.4601
  138.5000    10.1280    10.3276    98.2135
  139.0000    10.0931    10.2628    99.6111
  139.5000    10.0562    10.1984   102.6999
  140.0000     9.9788    10.1344   102.1434
  140.5000     9.8969    10.0708    97.1721
  141.0000     9.8157    10.0075    92.6323
  141.5000     9.7352     9.9447    93.2766
  142.0000     9.6553     9.8823    96.3055
  142.5000     9.5760     9.8203    99.8120
  143.0000     9.4973     9.7587   101.6371
  143.5000     9.4269     9.6917   102.5798
  144.0000     9.4269     9.6027   100.9143
  144.5000     9.4272     9.6027    99.8274
  145.0000     9.4269     9.6027   100.1310
  145.5000     9.4266     9.6027   100.4061
  146.0000     9.4272     9.6027   100.2867
  146.5000     9.2954     9.6027    99.2080
  147.0000     9.1555     9.4526    97.7374
  147.5000     9.0188     9.3018    95.6683
  148.0000     8.8128     9.0854    96.8650
  148.5000     8.5947     8.8063    99.6935
  149.0000     8.3820     8.5171   101.1597
  149.5000     8.1746     8.3130   102.6835
  150.0000     7.9723     8.1161   103.1911
  150.5000     7.8328     7.9235   103.3621
  151.0000     7.7914     7.8382   102.8392
  151.5000     7.7662     7.9842   102.3805
  152.0000     7.8297     8.0995    98.9182
  152.5000     7.8833     8.2163    95.3939
  153.0000     7.9331     8.3348    95.9743
  153.5000     8.0092     8.4388   100.4235
  154.0000     8.0860     8.4388   104.6608
  154.5000     8.1635     8.4391   107.5453
  155.0000     8.2387     8.4382   104.3055
  155.5000     8.3105     8.5291   100.4465
  156.0000     8.3910     8.6073   100.3537
  156.5000     8.4917     8.7100   103.4021
  157.0000     8.5936     8.8145   107.6724
  157.5000     8.6968     8.9203   109.4863
  158.0000     8.8012     9.0273   109.2336
  158.5000     8.9067     9.1356   109.0300
  159.0000     9.0020     9.2547   108.6246
  159.5000     9.0330     9.2780   105.9612
  160.0000     9.0854     9.3224   102.5539
  160.5000     9.0584     9.3405   100.8920
  161.0000     9.0130     9.2750   101.3842
  161.5000     8.9678     9.2285   103.7851
  162.0000     8.9229     9.1823   105.8732
  162.5000     8.8782     9.1363   107.0792
  163.0000     8.8337     9.0905   109.2155
  163.5000     8.7899     9.0450   111.0318
  164.0000     8.7555     9.0020   112.5821
  164.5000     8.6688     8.9686   111.1430
  165.0000     8.5865     8.9297   107.6829
  165.5000     8.5170     8.8911   105.7217
  166.0000     8.5270     8.8529   104.8435
  166.5000     8.5402     8.8371   104.0086
  167.0000     8.5533     8.8374   103.5683
  167.5000     8.5665     8.8373   104.1486
  168.0000     8.5797     8.8372   104.9686
  168.5000     8.5958     8.8373   107.4614
  169.0000     8.5711     8.8125   110.6004
  169.5000     8.5272     8.7477   110.5593
  170.0000     8.4837     8.6831   108.0857
  170.5000     8.4404     8.6190   105.5750
  171.0000     8.3974     8.5554   104.6889
  171.5000     8.3488     8.4923   104.2543
  172.0000     8.2695     8.4296   103.7085
  172.5000     8.1910     8.3675   105.5864
  173.0000     8.1132     8.3057   108.6335
  173.5000     8.0363     8.2445   107.2370
  174.0000     7.9598     8.1837   105.3587
  174.5000     7.8113     8.0864   104.2247
  175.0000     7.5367     7.8021   103.2512
  175.5000     7.2719     7.5279   101.9880
  176.0000     7.0160     7.2632   101.8826
  176.5000     6.7681     7.0079   103.3703
  177.0000     6.5171     6.7616   103.0458
  177.5000     6.5171     6.7001   102.6604
  178.0000     6.5171     6.7355   103.6511
  178.5000     6.5171     6.7610   105.4412
  179.0000     6.5171     6.8262   107.5388
  179.5000     6.6400     7.1093   108.1673
  180.0000     6.8984     7.3859   106.8865
  180.5000     7.1668     7.6435   105.5930
  181.0000     7.4456     7.7594   105.8729
  181.5000     7.6252     7.8777   108.6864
