~VERSION INFORMATION
 VERS.                2.0:   CWLS LOG ASCII STANDARD - VERSION 2.0
 WRAP.                 NO:   ONE LINE PER DEPTH STEP
~WELL INFORMATION
#MNEM.UNIT      DATA TYPE    INFORMATION
#----------   ------------   ------------------------------
 STRT.F           29.0000:   START DEPTH
 STOP.F          462.0000:   STOP DEPTH
 STEP.F            0.5000:   STEP LENGTH
 NULL.          -999.2500:   NO VALUE
 COMP.    FENIX & SCISSON:   COMPANY
 WELL.      NPR #71-SX-10:   WELL
 FLD .             TEAPOT:   FIELD
 LOC .      S10 T38N R78W:   LOCATION
 CNTY.            NATRONA:   COUNTY
 STAT.            WYOMING:   STATE
 CTRY. UNITED STATES OF AMERICA:   COUNTRY
 SRVC.              Welex:   SERVICE COMPANY
 DATE.        01-APR-1977:   LOGDATE
 API .       490251032300:   API NUMBER
~CURVE INFORMATION
#MNEM.UNIT       API CODE    CURVE DESCRIPTION
#----------   ------------   ------------------------------
 DEPT.F                  :   
 SPR .MV     07 010 01 00:   SPONTANEOUS POTENTIAL
 ILD .OHMM   07 120 46 00:   INDUCTION LOG DEEP
 ILM .OHMM   07 120 44 00:   INDUCTION LOG MEDIUM
 SGRD.OHMM   07 221 05 00:   SHALLOW SHORT GUARD RESISTIVITY
 CALD.IN     45 280 60 00:   CALIPER FROM DENSITY LOG
 GRD .GAPI   45 310 01 00:   GAMMA RAY FROM DENSITY LOG
 CORR.G/C3   45 356 01 00:   DENSITY CORRECTION
 RHOB.G/C3   45 350 01 00:   BULK DENSITY
 DPHI.DEC    45 890 12 00:   DENSITY POROSITY SANDSTONE
~PARAMETER INFORMATION
#MNEM.UNIT          VALUE    DESCRIPTION
#----------   ------------   ------------------------------
 PD  .                 GL:   PERMANENT DATUM
 EPD .F              5157:   ELEVATION PERMANENT DATUM
 LMF .                 GL:   LOG MEASURED FROM
 DMF .                 GL:   DRILLING MEASURED FROM
 EGL .F              5157:   GROUND LEVEL
 DATE.        01-APR-1977:   RUN DATE
 RUN .                  1:   RUN NUMBER
 DD  .F               475:   DEPTH DRILLER
 DL  .F               466:   DEPTH LOGGER
 BLI .F               463:   BOTTOM LOG INTERVAL
 TLI .F                30:   TOP LOG INTERVAL
 CS  .IN            8.625:   CASING SIZE
 BS  .IN            7.875:   BIT SIZE
 BSD .F               475:   BIT SIZE AT DEPTH
 DFT .                KCL:   DRILLING FLUID TYPE
 DFD .                8.5:   DRILLING FLUID DENSITY
 TCS .HRS               3:   TIME CURCULATED STOPPED
 MRT .F                67:   MAXIMUM RECORDED TEMPERATURE
 ENGI.            C. DOAK:   RECORDING ENGINEER
 WITN.   R. B. HARRINGTON:   WITNESSED BY
 CLNT.            A2DTECH:   CLIENT CODE
 ORIG.           5" PRINT:   ORIGIN OF DATA
 UWI .       490251032300:   UNIQUE WELL ID
 DICO. A2D Technologies, Inc.:   DIGITIZING COMPANY
~OTHER INFORMATION
~A   DEPT      SPR        ILD        ILM       SGRD         CALD      GRD       CORR       RHOB       DPHI   
# ...
  175.0000   -40.7246     5.4080     6.1895     8.7431     8.4779   106.0457     0.0000     2.3954     0.1405
  175.5000   -40.5570     5.3740     6.1063     5.6939     8.4797   104.1279    -0.0029     2.3909     0.1381
  176.0000   -40.2411     5.3775     6.2809     5.0986     8.4666   103.8463    -0.0028     2.4188     0.1291
  176.5000   -39.6284     5.4183     6.5954     9.5146     8.4684   106.8595     0.0003     2.4451     0.1221
  177.0000   -39.0157     5.5738     6.8779    10.2726     8.4850   109.1209     0.0050     2.4475     0.1215
  177.5000   -38.4030     5.7736     7.1230    10.1362     8.4868   111.8300     0.0066     2.4498     0.1200
  178.0000   -38.0871     6.0222     7.4280     9.8629     8.5034   113.1901     0.0067     2.4507     0.1185
  178.5000   -37.7712     6.2814     7.7999    10.7240     8.5052   110.8302     0.0053     2.4523     0.1203
  179.0000   -37.7519     6.5973     8.0221    11.0306     8.5070   108.9124     0.0023     2.4554     0.1178
  179.5000   -37.7327     6.8812     8.1373    11.2676     8.5088   108.1831    -0.0006     2.4569     0.1172
  180.0000   -37.7135     7.1279     8.1407    10.8143     8.5106   110.7485    -0.0035     2.4561     0.1187
  180.5000   -37.8475     7.3326     8.3149    10.4513     8.5124   112.2636    -0.0049     2.4531     0.1211
  181.0000   -37.8235     7.1853     8.3761    10.2401     8.5142   113.9279    -0.0063     2.4480     0.1238
  181.5000   -37.8043     7.1909     8.6148    12.0155     8.5308   115.7415    -0.0092     2.4422     0.1243
  182.0000   -37.7851     7.2453     8.8603    11.7727     8.5326   114.5699    -0.0076     2.4409     0.1231
  182.5000   -37.7659     7.4019     9.0499    11.6972     8.5344   114.7417    -0.0044     2.4441     0.1216
  183.0000   -37.7467     7.4580     8.9903    11.7042     8.5361   116.1075    -0.0013     2.4493     0.1198
  183.5000   -37.7274     7.5667     8.9949    11.4678     8.5379   118.0647     0.0018     2.4554     0.1164
  184.0000   -37.7082     7.7302     9.0611    11.3155     8.5395   115.9977     0.0049     2.4630     0.1143
  184.5000   -37.6890     7.7887     9.4492    11.8847     8.5415   118.7124     0.0081     2.4683     0.1134
  185.0000   -37.6698     7.8477     9.6514    12.3950     8.5433   119.0334     0.0112     2.4707     0.1143
  185.5000   -37.6506     7.8526     9.5878    12.1445     8.5451   118.7016     0.0143     2.4658     0.1132
  186.0000   -37.6314     7.8575     9.5257    11.8185     8.5469   118.1290     0.0145     2.4637     0.1112
  186.5000   -37.6122     7.8624     9.5968    11.8256     8.5487   117.5253     0.0146     2.4784     0.1120
  187.0000   -37.5930     7.8673     9.6675    11.8314     8.5504   116.6552     0.0128     2.4725     0.1165
  187.5000   -37.5738     7.8723     9.8744    12.0856     8.5522   114.5911     0.0087     2.4606     0.1184
  188.0000   -37.7029     7.8772    10.0857    12.9585     8.5540   112.2286     0.0058     2.4630     0.1169
  188.5000   -38.2772     7.8821    10.1139    12.0138     8.5558   111.7999     0.0012     2.4578     0.1186
  189.0000   -38.8515     7.8870    10.1544    12.1873     8.5576   112.8765    -0.0031     2.4549     0.1161
  189.5000   -39.2774     7.8919    10.1950    12.7988     8.5594   114.8423    -0.0030     2.4640     0.1103
  190.0000   -39.7033     7.8969    10.2356    13.1647     8.5612   116.9573    -0.0029     2.4783     0.1035
  190.5000   -39.6840     7.9567    10.1901    12.9003     8.5629   119.0724    -0.0013     2.4927     0.0951
  191.0000   -39.6647     7.9616    10.1224    12.5539     8.5647   119.5392     0.0019     2.5033     0.0869
  191.5000   -39.6454     7.9104    10.0561    12.3003     8.5665   118.6756     0.0005     2.5071     0.0878
  192.0000   -39.4777     7.9166     9.9902    12.2213     8.5680   117.5070    -0.0009     2.5012     0.1010
  192.5000   -39.3101     7.9216     9.9255    11.5697     8.5697   115.4429    -0.0023     2.4855     0.1153
  193.0000   -39.2908     7.8706     9.8605    11.6557     8.5715   112.7819    -0.0022     2.4706     0.1171
  193.5000   -39.2715     7.8768     9.8639    11.8240     8.5733   111.7562    -0.0006     2.4617     0.1168
  194.0000   -39.4012     7.8261     9.7991    11.6670     8.5751   113.5791     0.0025     2.4641     0.1155
  194.5000   -39.5304     7.7234     9.6678    11.3524     8.5769   117.6344     0.0057     2.4679     0.1137
  195.0000   -39.5112     7.5184     9.5382    11.5977     8.5637   118.2505     0.0118     2.4710     0.1119
  195.5000   -39.8150     7.2171     9.2789    11.2864     8.5656   117.5361     0.0149     2.4741     0.1098
  196.0000   -40.2098     6.9279     8.9562    10.8323     8.5664   116.0691     0.0166     2.4771     0.1214
  196.5000   -40.6357     6.6503     8.4183    10.1827     8.5646   111.6169     0.0151     2.4578     0.1253
  197.0000   -41.0616     6.0401     8.0194     9.4404     8.5629   112.8364     0.0137     2.4399     0.1288
  197.5000   -41.4875     5.4480     7.6393     8.9980     8.5611   114.8022     0.0123     2.4235     0.1369
  198.0000   -42.0618     5.0518     6.8099     8.4784     8.5602   112.5889     0.0140     2.4082     0.1437
  198.5000   -42.6360     4.7497     6.3129     8.0782     8.5470   107.9811     0.0141     2.3986     0.1494
  199.0000   -43.2103     4.4044     5.7718     7.5810     8.5486   108.9085     0.0142     2.3898     0.1577
  199.5000   -43.6362     4.0559     5.2045     7.0180     8.5651   110.1280     0.0143     2.3801     0.1654
  200.0000   -43.9185     3.7091     4.4403     6.3589     8.5519   111.3412     0.0114     2.3556     0.1821
  200.5000   -43.7564     3.3687     3.9216     5.6999     8.5536   109.2835     0.0063     2.3234     0.1988
  201.0000   -44.0398     3.1861     3.5607     5.2086     8.5404   108.7119     0.0003     2.2883     0.2153
  201.5000   -43.8748     3.0382     3.3469     3.8701     8.5420   109.4837    -0.0058     2.2658     0.2306
  202.0000   -43.7132     2.9387     3.1897     3.3051     8.5437   109.9505    -0.0107     2.2487     0.2396
  202.5000   -43.4032     2.9405     3.1037     3.4425     8.5453   105.5048    -0.0166     2.2600     0.2238
  203.0000   -43.0931     2.9423     3.4683     4.2819     8.5469   107.1720    -0.0119     2.2991     0.2036
  203.5000   -42.6347     2.9876     3.7699     7.6606     8.5486   111.5259    -0.0072     2.3645     0.1770
  204.0000   -42.1764     3.0766     4.0135     5.4225     8.5502   113.2776    -0.0071     2.3713     0.1611
  204.5000   -41.7180     3.2806     4.4233     3.7854     8.5519   114.8154    -0.0054     2.3804     0.1566
  205.0000   -40.9628     3.6429     4.7748     6.9101     8.5535   116.9204    -0.0038     2.4218     0.1307
  205.5000   -40.5045     4.0401     5.1900     9.8339     8.5552   119.0030     0.0009     2.4616     0.1145
  206.0000   -40.3428     4.3518     5.8399    10.4675     8.5568   121.6378     0.0056     2.4737     0.1100
  206.5000   -40.3295     5.1411     6.0895    10.2547     8.5584   126.2030     0.0088     2.4753     0.1123
  207.0000   -40.4679     5.5129     6.5734     9.9770     8.5749   125.8627     0.0059     2.4641     0.1162
  207.5000   -40.4513     5.9116     6.9020     9.7069     8.5766   124.9950     0.0030     2.4552     0.1195
  208.0000   -40.4380     6.1660     7.0982     9.5095     8.5782   124.2766     0.0002     2.4418     0.1242
  208.5000   -40.4247     6.2993     7.1499     9.2520     8.5646   124.4687    -0.0042     2.4299     0.1290
  209.0000   -40.5620     6.3469     7.1573     9.1264     8.5666   125.6955    -0.0071     2.4105     0.1332
  209.5000   -40.8433     6.3509     7.2142     9.4498     8.5683   127.3552    -0.0039     2.4095     0.1355
  210.0000   -40.9783     6.3548     7.2673     9.9894     8.5699   129.3134     0.0008     2.4204     0.1382
  210.5000   -41.2618     6.2714     7.2703    10.3429     8.5716   130.6822    -0.0006     2.4212     0.1421
  211.0000   -41.5452     6.1039     7.2224    10.6351     8.5580   132.3495    -0.0035     2.4071     0.1468
