~VERSION INFORMATION
 VERS.                2.0:   CWLS LOG ASCII STANDARD - VERSION 2.0
 WRAP.                 NO:   ONE LINE PER DEPTH STEP
~WELL INFORMATION
#MNEM.UNIT      DATA TYPE    INFORMATION
#----------   ------------   ------------------------------
 STRT.F           16.0000:   START DEPTH
 STOP.F          634.0000:   STOP DEPTH
 STEP.F            0.5000:   STEP LENGTH
 NULL.          -999.2500:   NO VALUE
 COMP. LAWRENCE/ALLISON INC:   COMPANY
 WELL.    14-15 SX #11-11:   WELL
 FLD .             TEAPOT:   FIELD
 LOC .      S11 T38N R78W:   LOCATION
 CNTY.            NATRONA:   COUNTY
 STAT.            WYOMING:   STATE
 CTRY. UNITED STATES OF AMERICA:   COUNTRY
 SRVC.      Dresser Atlas:   SERVICE COMPANY
 DATE.        06-JAN-1985:   LOGDATE
 API .       490251101700:   API NUMBER
~CURVE INFORMATION
#MNEM.UNIT       API CODE    CURVE DESCRIPTION
#----------   ------------   ------------------------------
 DEPT.F                  :   
 SPR .MV     11 010 01 00:   SPONTANEOUS POTENTIAL FROM RES.
 RD  .OHMM   11 220 10 00:   RESISTIVITY DEEP
 RS  .OHMM   11 220 09 00:   RESISTIVITY SHALLOW
 RMLL.OHMM   20 270 04 00:   RESISTIVITY MICROLATEROLOG
 AC  .US/F   60 520 00 00:   ACCOUSTIC SONIC
 CNC .DEC    42 890 03 00:   COMPENSATED NEUTRON POROSITY SANDSTONE
 PORD.DEC    45 890 12 00:   POROSITY DENSITY SANDSTONE
 GRD .GAPI   45 310 01 00:   GAMMA RAY FROM DENSITY LOG
 CALD.IN     45 280 60 00:   CALIPER FROM DENSITY
 CORR.G/C3   45 356 01 00:   DENSITY CORRECTION
 DEN .G/C3   45 350 01 00:   COMPENSATED BULK DENSTIY
~PARAMETER INFORMATION
#MNEM.UNIT          VALUE    DESCRIPTION
#----------   ------------   ------------------------------
 PD  .                 GL:   PERMANENT DATUM
 EPD .F            5196.8:   ELEVATION PERMANENT DATUM
 LMF .                 KB:   LOG MEASURED FROM
 DMF .                 KB:   DRILLING MEASURED FROM
 EKB .F            5196.8:   KELLING BUSHING
 EGL .F            5196.8:   GROUND LEVEL
 DATE.        06-JAN-1985:   RUN DATE
 RUN .                  1:   RUN NUMBER
 DD  .F               650:   DEPTH DRILLER
 DL  .F               636:   DEPTH LOGGER
 BLI .F               634:   BOTTOM LOG INTERVAL
 CS  .IN            8.625:   CASING SIZE
 CBD .F                20:   CASING BOTTOM DRILLER
 CBL .F                22:   CASING BOTTOM LOGGER
 BS  .IN             6.25:   BIT SIZE
 BSD .F               650:   BIT SIZE AT DEPTH
 DFT .        KCL POLYMER:   DRILLING FLUID TYPE
 RMS .OHMM           .105:   RESISTIVITY MUD SAMPLE
 MST .F                72:   MUD SAMPLE TEMPERATURE
 RMF .OHMM            .08:   RESISTIVITY MUD FILTRATE SAMPLE
 MFST.F                72:   MUD FILTRATE SAMPLE TEMPERATURE
 RMC .OHMM            .13:   RESISTIVITY MUD CAKE
 MCST.F                72:   MUD CAKE SAMPLE TEMPERATURE
 MFSS.               CALC:   MUD FILTRATE SAMPLE SOURCE
 MCSS.               CALC:   MUD CAKE SAMPLE SOURCE
 TCS .HRS               3:   TIME CURCULATED STOPPED
 LUN .               6307:   LOGGING UNIT NUMBER
 LUL .               GLTE:   LOGGING UNIT LOCATION
 ENGI.               MACK:   RECORDING ENGINEER
 WITN.               PAGE:   WITNESSED BY
 CLNT.            A2DTECH:   CLIENT CODE
 ORIG.           5" PRINT:   ORIGIN OF DATA
 UWI .       490251101700:   UNIQUE WELL ID
 DICO. A2D Technologies, Inc.:   DIGITIZING COMPANY
 R1  . POROSITY WITH SANDSTONE:   REMARKS 1
~OTHER INFORMATION
~A   DEPT      SPR         RD         RS       RMLL         AC        CNC       PORD        GRD       CALD       CORR        DEN   
# ...
  443.0000   -62.3867    19.3371    17.4266     4.9495    96.8025     0.2643     0.1707    94.3219     6.6399     0.1000     2.3938
  443.5000   -62.5378    19.3358    17.4254     5.1221    96.1140     0.2658     0.1701    95.5390     6.6387     0.0881     2.3953
  444.0000   -62.5378    19.0435    17.4241     5.3743    94.2615     0.2661     0.1641    88.2886     6.6375     0.1002     2.4029
  444.5000   -62.6888    18.6739    17.3022     5.5234    86.2779     0.2640     0.1533    89.2053     6.6363     0.1094     2.4151
  445.0000   -62.6888    18.4154    17.1815     5.7157    78.9847     0.2628     0.1485    91.7862     6.6351     0.1080     2.4265
  445.5000   -62.8399    18.4141    16.9436     5.8337    67.6113     0.2619     0.1437    94.5184     6.6339     0.1021     2.4356
  446.0000   -62.8399    18.2856    16.8254     5.5559    50.1553     0.2604     0.1383    95.4352     6.6327     0.0946     2.4478
  446.5000   -62.9909    18.0325    16.7079     5.1114    56.3707     0.2627     0.1387    94.3852     6.6923     0.0980     2.4524
  447.0000   -63.1420    17.9066    16.4767     4.9701    85.0997     0.2807     0.1445    93.1840     6.7370     0.1089     2.4464
  447.5000   -63.2931    17.9054    16.4755     5.1079    94.3501     0.2801     0.1534    90.7725     6.7051     0.1388     2.4298
  448.0000   -63.4441    17.7804    16.1352     5.3968    94.8029     0.2737     0.1711    88.3609     6.6735     0.1955     2.4071
  448.5000   -63.4441    17.7792    16.0225     5.6626    93.9780     0.2680     0.1740    88.2164     6.6571     0.2053     2.3874
  449.0000   -63.4441    17.6551    15.8007     5.8600    93.9809     0.2659     0.1725    90.1945     6.6407     0.1572     2.3898
  449.5000   -63.5952    17.4107    15.5820     5.8580    94.1335     0.2638     0.1683    91.5651     6.6395     0.1286     2.3966
  450.0000   -63.5952    17.3461    15.5502     5.6961    94.2855     0.2596     0.1647    90.9563     6.6383     0.0885     2.4031
  450.5000   -63.7544    16.9282    15.3621     5.6931    94.2113     0.2599     0.1623    86.5950     6.6372     0.0588     2.4081
  451.0000   -63.6090    16.6904    15.1463     5.6904    94.5128     0.2455     0.1605    86.7583     6.6362     0.0293     2.4111
  451.5000   -63.6184    16.4559    15.0375     5.8070    94.3631     0.2437     0.1596    90.8551     6.6351     0.0341     2.4150
  452.0000   -63.6260    16.4513    14.8262     5.8446    94.2777     0.2564     0.1545    94.4980     6.6340     0.0626     2.4233
  452.5000   -63.6335    16.4468    14.8221     5.8417    94.1253     0.2709     0.1527    94.3587     6.6328     0.0960     2.4272
  453.0000   -64.0942    16.4422    14.8180     5.8389    94.2152     0.2730     0.1581    92.2528     6.6317     0.0914     2.4227
  453.5000   -64.8571    16.4377    14.8139     5.8361    94.4413     0.2727     0.1620    90.7520     6.6307     0.0854     2.4099
  454.0000   -65.3178    16.4331    14.8098     5.8333    93.9911     0.2712     0.1633    89.7050     6.6296     0.0878     2.4107
  454.5000   -65.3253    16.4285    14.8057     5.8305    93.7663     0.2682     0.1590    89.2632     6.6286     0.0980     2.4137
  455.0000   -65.4839    16.4240    14.8016     5.8276    93.5415     0.2713     0.1575    88.3675     6.6275     0.1056     2.4168
  455.5000   -65.3386    16.4194    14.9005     5.8248    93.2415     0.2713     0.1563    86.1103     6.6419     0.0951     2.4206
  456.0000   -65.3480    16.4149    14.7934     5.8626    92.8663     0.2704     0.1555    84.9090     6.6561     0.0786     2.4214
  456.5000   -65.3555    16.2969    14.7848     5.9407    92.6414     0.2680     0.1571    86.8908     6.6547     0.0591     2.4176
  457.0000   -65.2120    15.9569    14.6782     6.0206    92.5668     0.2656     0.1589    87.3567     6.6537     0.0502     2.4155
  457.5000   -65.2196    15.7327    14.2772     6.1447    92.8685     0.2638     0.1573    86.1554     6.6374     0.0487     2.4171
  458.0000   -65.2271    15.4045    13.8827     6.2706    93.0196     0.2655     0.1498    86.7756     6.6364     0.0579     2.4300
  458.5000   -65.2347    15.0831    13.6824     6.1381    92.9452     0.2723     0.1459    91.1750     6.6353     0.0686     2.4368
  459.0000   -65.2422    14.9747    13.4954     6.1351    92.7204     0.2714     0.1480    94.2127     6.6497     0.0778     2.4376
  459.5000   -65.2498    14.9706    13.4916     6.2176    92.4204     0.2660     0.1510    93.4683     6.6484     0.0794     2.4308
  460.0000   -65.4084    14.9664    13.4879     6.3020    91.8948     0.2661     0.1610    88.1854     6.6628     0.0674     2.4135
  460.5000   -65.5670    14.9623    13.4842     6.4758    91.5946     0.2640     0.1613    85.6256     6.6615     0.0569     2.4112
  461.0000   -65.8766    15.0633    13.5743     6.3389    91.5955     0.2589     0.1574    83.3653     6.6605     0.0555     2.4174
  461.5000   -66.0352    14.9540    13.4767     6.2057    91.8218     0.2598     0.1462    84.4394     6.6442     0.0572     2.4318
  462.0000   -66.3449    14.6420    13.1882     6.2458    92.1233     0.2607     0.1411    86.4181     6.6432     0.0648     2.4386
  462.5000   -66.5035    14.5368    13.0101     6.3738    92.5000     0.2610     0.1405    89.0020     6.6421     0.0710     2.4478
  463.0000   -66.6621    14.4323    12.9166     6.4157    92.8015     0.2602     0.1418    91.1321     6.6404     0.0741     2.4463
  463.5000   -66.6696    14.4283    12.9131     6.2369    92.9526     0.2556     0.1436    92.8082     6.6248     0.0681     2.4441
  464.0000   -66.6772    14.5257    12.9994     6.1058    93.0286     0.2515     0.1460    94.1819     6.6237     0.0622     2.4388
  464.5000   -66.8358    14.7235    13.0863     6.0608    92.9494     0.2473     0.1481    94.1939     6.6226     0.0608     2.4328
  465.0000   -66.8433    15.0299    13.2746     6.0579    92.5714     0.2455     0.1484    94.0545     6.6214     0.0624     2.4321
  465.5000   -66.8509    15.4474    13.4565     6.0970    92.1832     0.2479     0.1475    96.0334     6.6203     0.0686     2.4359
  466.0000   -66.8584    15.7678    13.7258     6.2697    91.7403     0.2482     0.1439    97.4070     6.6193     0.0762     2.4428
  466.5000   -66.8660    15.9836    13.8279     6.5319    91.5287     0.2464     0.1379    95.4524     6.6182     0.0884     2.4519
  467.0000   -66.8735    16.3162    14.1041     6.6154    91.9054     0.2468     0.1340    90.7726     6.6172     0.0945     2.4588
  467.5000   -66.8811    16.5384    14.1984     6.5499    92.6580     0.2493     0.1331    90.9531     6.6161     0.0977     2.4603
  468.0000   -67.0397    16.5338    14.3927     6.1665    92.9595     0.2560     0.1328    92.0089     6.6150     0.0993     2.4604
  468.5000   -67.0472    16.4150    14.4888     5.9128    92.8851     0.2621     0.1332    87.9143     6.6295     0.1054     2.4604
  469.0000   -67.0548    16.2970    14.4847     6.0340    92.5099     0.2664     0.1350    84.7574     6.6281     0.1282     2.4567
  469.5000   -67.2134    16.0681    14.3677     6.0737    92.2099     0.2689     0.1356    85.3576     6.6271     0.1494     2.4560
  470.0000   -67.2209    15.6241    14.0548     6.1974    91.9099     0.2704     0.1350    93.3588     6.6260     0.1496     2.4598
  470.5000   -67.3795    14.9831    13.5712     6.2382    91.9106     0.2662     0.1328    98.1210     6.6250     0.1240     2.4637
  471.0000   -67.3871    14.5691    13.1172     6.2344    92.2121     0.2641     0.1260    97.2455     6.6239     0.0818     2.4721
  471.5000   -67.3946    14.0687    12.7544     6.2315    92.6640     0.2675     0.1227    93.8800     6.6229     0.0759     2.4791
  472.0000   -67.4022    13.7752    12.4880     6.2285    93.0407     0.2702     0.1197    94.5288     6.6218     0.1063     2.4867
  472.5000   -67.4097    13.6762    12.3251     6.1833    93.1166     0.2717     0.1170    96.8102     6.6362     0.1123     2.4896
  473.0000   -67.2659    13.5779    12.3217     6.2232    93.0422     0.2603     0.1197    98.7889     6.6349     0.1060     2.4858
