~VERSION INFORMATION
 VERS.                2.0:   CWLS LOG ASCII STANDARD - VERSION 2.0
 WRAP.                 NO:   ONE LINE PER DEPTH STEP
~WELL INFORMATION
#MNEM.UNIT      DATA TYPE    INFORMATION
#----------   ------------   ------------------------------
 STRT.F           64.0000:   START DEPTH
 STOP.F          795.0000:   STOP DEPTH
 STEP.F            0.5000:   STEP LENGTH
 NULL.          -999.2500:   NO VALUE
 COMP. LAWRENCE/ALLISON INC:   COMPANY
 WELL.      23-61 SX #2-2:   WELL
 FLD .             TEAPOT:   FIELD
 LOC .       S2 T38N R78W:   LOCATION
 CNTY.            NATRONA:   COUNTY
 STAT.            WYOMING:   STATE
 CTRY. UNITED STATES OF AMERICA:   COUNTRY
 SRVC.              Welex:   SERVICE COMPANY
 DATE.        14-AUG-1985:   LOGDATE
 API .       490251103800:   API NUMBER
~CURVE INFORMATION
#MNEM.UNIT       API CODE    CURVE DESCRIPTION
#----------   ------------   ------------------------------
 DEPT.F                  :   
 SPR .MV     07 010 01 00:   SPONTANEOUS POTENTIAL
 ILD .OHMM   07 120 46 00:   INDUCTION LOG DEEP
 ILM .OHMM   07 120 44 00:   INDUCTION LOG MEDIUM
 SGRD.OHMM   07 221 05 00:   SHALLOW SHORT GUARD RESISTIVITY
 DPHI.DEC    45 890 12 00:   DENSITY POROSITY SANDSTONE
 NPHI.DEC    42 890 03 00:   NEUTRON POROSITY SANDSTONE
 GRD .GAPI   45 310 01 00:   GAMMA RAY FROM DENSITY LOG
 CALD.IN     45 280 60 00:   CALIPER FROM DENSITY
 CORR.G/C3   45 356 01 00:   DENSITY CORRECTION
 RHOB.G/C3   45 350 01 00:   BULK DENSITY
~PARAMETER INFORMATION
#MNEM.UNIT          VALUE    DESCRIPTION
#----------   ------------   ------------------------------
 PD  .                 GL:   PERMANENT DATUM
 EPD .F              5112:   ELEVATION PERMANENT DATUM
 LMF .                 GL:   LOG MEASURED FROM
 DMF .                 GL:   DRILLING MEASURED FROM
 EGL .F              5112:   GROUND LEVEL
 DATE.        14-AUG-1985:   RUN DATE
 RUN .                  1:   RUN NUMBER
 DD  .F               800:   DEPTH DRILLER
 DL  .F               797:   DEPTH LOGGER
 BLI .F               795:   BOTTOM LOG INTERVAL
 TLI .F                76:   TOP LOG INTERVAL
 CS  .IN            8.625:   CASING SIZE
 CBD .F                76:   CASING BOTTOM DRILLER
 CBL .F                76:   CASING BOTTOM LOGGER
 BS  .IN            7.875:   BIT SIZE
 BSD .F               800:   BIT SIZE AT DEPTH
 DFT .                KCL:   DRILLING FLUID TYPE
 MSS .               TANK:   MUD SAMPLE SOURCE
 RMS .OHMM           0.22:   RESISTIVITY MUD SAMPLE
 MST .F                64:   MUD SAMPLE TEMPERATURE
 MFSS.               MEAS:   MUD FILTRATE SAMPLE SOURCE
 TCS .HRS            2230:   TIME CURCULATED STOPPED
 TLAB.HRS            0200:   TIME LOGGER AT BOTTOM
 LUN .               1892:   LOGGING UNIT NUMBER
 LUL .             CASPER:   LOGGING UNIT LOCATION
 ENGI.         T. QUINLAN:   RECORDING ENGINEER
 WITN.        N. JENNINGS:   WITNESSED BY
 CLNT.            A2DTECH:   CLIENT CODE
 ORIG.        2" 5" PRINT:   ORIGIN OF DATA
 UWI .       490251103800:   UNIQUE WELL ID
 DICO. A2D Technologies, Inc.:   DIGITIZING COMPANY
 R1  . POROSITY WITH SANDSTONE:   REMARKS 1
~OTHER INFORMATION
~A   DEPT      SPR        ILD        ILM       SGRD       DPHI       NPHI         GRD      CALD       CORR       RHOB   
# ...
  198.0000   -48.1438     6.3850     7.5978     8.2687     0.1555     0.3253   108.3802     7.9362     0.0527     2.4238
  198.5000   -49.4854     6.4257     7.8091     8.5107     0.1523     0.3259   109.8566     7.9209     0.0556     2.4245
  199.0000   -49.9309     6.5110     7.9705     8.9115     0.1545     0.3266   111.9282     7.9056     0.0593     2.4214
  199.5000   -50.5259     6.5535     8.0224     8.9702     0.1572     0.3278   112.8095     7.8903     0.0645     2.4160
  200.0000   -50.2701     6.5494     8.1466     8.9460     0.1604     0.3288   110.7143     7.8750     0.0735     2.4121
  200.5000   -49.6375     6.5908     8.2397     8.7127     0.1643     0.3276   105.9297     7.8743     0.0650     2.4051
  201.0000   -48.7265     6.5867     8.0079     8.5846     0.1673     0.3252   104.4186     7.8897     0.0589     2.4013
  201.5000   -49.3526     6.5825     7.9471     8.4593     0.1680     0.3237   103.5360     7.9174     0.0527     2.3974
  202.0000   -51.2845     6.5327     7.7704     8.2241     0.1595     0.3222   105.7383     7.9490     0.0496     2.4118
  202.5000   -51.7115     6.4381     7.5019     8.1004     0.1574     0.3210   108.4375     7.9755     0.0472     2.4155
  203.0000   -51.7101     6.2955     7.3462     7.9878     0.1571     0.3195   111.5334     7.9746     0.0464     2.4169
  203.5000   -51.8754     6.2470     7.2905     7.9827     0.1546     0.3168   111.8222     7.9738     0.0463     2.4206
  204.0000   -52.4943     6.2056     7.2859     7.9777     0.1510     0.3132   109.4265     7.9731     0.0492     2.4265
  204.5000   -51.9371     6.2017     7.2813     7.9727     0.1511     0.3111   105.5456     7.9575     0.0538     2.4295
  205.0000   -50.6577     6.2415     7.3279     7.9677     0.1533     0.3108   102.5577     7.9567     0.0483     2.4218
  205.5000   -50.5067     6.2366     7.3838     7.9627     0.1564     0.3112   101.3554     7.9560     0.0421     2.4156
  206.0000   -51.1032     6.2773     7.5259     7.9567     0.1588     0.3136   100.7484     7.9553     0.0382     2.4110
  206.5000   -51.1014     6.3615     7.5200     8.1199     0.1594     0.3170    99.8437     7.9545     0.0411     2.4133
  207.0000   -50.5020     6.4021     7.5153     8.4618     0.1574     0.3200    99.5343     7.9538     0.0448     2.4173
  207.5000   -49.4541     6.5334     7.5106     8.8798     0.1519     0.3228    98.9272     7.9531     0.0485     2.4259
  208.0000   -52.1432     6.5751     7.5059     8.9378     0.1465     0.3255    98.6178     7.9523     0.0508     2.4349
  208.5000   -52.8895     6.6623     7.5012     8.6246     0.1477     0.3252    98.0108     7.9516     0.0514     2.4340
  209.0000   -51.0939     6.7058     7.6019     8.3237     0.1477     0.3253    97.9990     7.9509     0.0458     2.4347
  209.5000   -51.3914     6.7485     7.7039     8.1462     0.1447     0.3269    98.2878     7.9501     0.0397     2.4377
  210.0000   -51.8383     6.7432     7.6991     8.7905     0.1405     0.3277    99.1659     7.9494     0.0389     2.4459
  210.5000   -52.5842     6.7873     7.9120     9.2248     0.1441     0.3253   100.3446     7.9486     0.0411     2.4397
  211.0000   -51.6859     6.8773     8.0182     9.3500     0.1466     0.3245   101.5232     7.9479     0.0349     2.4336
  211.5000   -51.8339     7.0184     8.1271     9.5418     0.1463     0.3245   102.7019     7.9472     0.0303     2.4365
  212.0000   -52.4303     7.1137     8.5272     9.3369     0.1454     0.3248   101.7973     7.9464     0.0264     2.4342
  212.5000   -51.3824     7.2091     8.8258     9.0111     0.1488     0.3242   100.8926     7.9308     0.0233     2.4265
  213.0000   -49.2883     7.3047     9.0700     9.0700     0.1528     0.3224    99.6903     7.9282     0.0194     2.4196
  213.5000   -46.4467     7.3002     9.2560     9.5831     0.1555     0.3209   101.4643     7.8996     0.0170     2.4157
  214.0000   -45.6979     7.2956     8.3297     9.9866     0.1589     0.3188   104.1388     7.8987     0.0192     2.4126
  214.5000   -46.8922     7.2910     7.7635     9.7736     0.1577     0.3168   104.4168     7.8979     0.0252     2.4163
  215.0000   -47.3391     7.2865     7.4405     9.2372     0.1556     0.3156   102.8273     7.8972     0.0319     2.4208
  215.5000   -48.6829     7.2819     7.4358     9.0402     0.1541     0.3153    98.8731     7.9262     0.0378     2.4169
  216.0000   -50.4752     7.2774     7.4312     8.8474     0.1577     0.3165    95.6467     7.9405     0.0393     2.4085
  216.5000   -51.3705     7.2223     7.4786     8.7804     0.1653     0.3184    95.1435     7.9547     0.0308     2.4000
  217.0000   -51.8175     7.0682     7.4739     8.5931     0.1723     0.3196    96.3192     7.9538     0.0247     2.3931
  217.5000   -52.4139     7.0147     7.3657     8.4688     0.1736     0.3211    97.2032     7.9530     0.0208     2.3892
  218.0000   -53.3093     6.8651     7.1585     8.2881     0.1715     0.3224    98.3819     7.9523     0.0192     2.4028
  218.5000   -53.9057     6.6720     6.9571     7.9990     0.1617     0.3227    99.5606     7.9516     0.0251     2.4245
  219.0000   -53.4558     6.6214     6.8087     7.8296     0.1493     0.3233    97.1649     7.9359     0.0417     2.4462
  219.5000   -51.6606     6.4802     6.7572    10.0575     0.1369     0.3224    93.5817     7.8906     0.0583     2.4679
  220.0000   -51.3605     6.4762     6.8013    12.3055     0.1245     0.3173    88.5103     7.8303     0.0726     2.4853
  220.5000   -52.1060     6.4721     6.9397    12.9154     0.1155     0.3128    84.6295     7.8593     0.0770     2.4837
  221.0000   -52.7024     6.6049     7.1816     9.6945     0.1204     0.3116    82.8320     7.8884     0.0701     2.4590
  221.5000   -54.6441     6.6472     7.3803     8.2519     0.1317     0.3132    86.6892     7.9471     0.0564     2.4377
  222.0000   -53.5963     6.6895     7.5856     7.8003     0.1429     0.3141    93.5227     7.9464     0.0479     2.4255
  222.5000   -52.9969     6.8266     7.7954     8.4749     0.1511     0.3144    99.4633     7.9457     0.0418     2.4232
  223.0000   -53.4442     6.8223     7.9553     8.8317     0.1541     0.3150   101.5348     7.9449     0.0386     2.4261
  223.5000   -53.7417     6.9140     7.7844     9.0760     0.1505     0.3166   102.1182     7.9442     0.0393     2.4374
  224.0000   -54.0392     6.9096     7.6184     9.1992     0.1436     0.3227   101.8088     7.9435     0.0422     2.4471
  224.5000   -54.0373     6.9053     7.5607     9.3215     0.1385     0.3263   101.7970     7.9427     0.0452     2.4531
  225.0000   -54.1854     6.9009     7.6622     9.1863     0.1361     0.3273   101.7852     7.9420     0.0473     2.4546
  225.5000   -54.0343     6.8966     7.7652     9.1167     0.1355     0.3249   101.1782     7.9411     0.0488     2.4438
  226.0000   -52.8370     6.9406     7.9800     8.9223     0.1474     0.3202    99.6783     7.9403     0.0502     2.4278
  226.5000   -49.9955     6.9362     8.2005     8.8547     0.1601     0.3167    96.6903     7.9396     0.0501     2.4096
  227.0000   -46.8550     6.9318     8.4273     8.8492     0.1613     0.3155    94.8928     7.8793     0.0564     2.4178
  227.5000   -45.0598     6.9761     8.6604     8.9056     0.1494     0.3147    97.5848     7.8042     0.0872     2.4435
  228.0000   -43.8625     6.9716     8.8381     9.1520     0.1268     0.3144   103.8770     7.7588     0.1110     2.4691
  228.5000   -44.1599     6.9672     8.8945     9.6712     0.1217     0.3135   106.1669     7.8178     0.1171     2.4766
  229.0000   -44.6069     7.0118     8.8889    10.0784     0.1193     0.3132   105.1488     7.8466     0.1140     2.4796
  229.5000   -46.3991     7.0652     8.8833    10.2136     0.1172     0.3132   102.3772     7.8757     0.1124     2.4833
  230.0000   -48.6398     7.1500     8.8160     9.9958     0.1218     0.3163   102.8548     7.9196     0.0986     2.4756
  230.5000   -51.0375     7.1456     8.6270     9.6459     0.1306     0.3215   105.2239     7.9339     0.0712     2.4581
  231.0000   -52.8271     7.0915     8.3833     9.2413     0.1367     0.3245   105.2121     7.9330     0.0552     2.4489
