~VERSION INFORMATION
 VERS.                2.0:   CWLS LOG ASCII STANDARD - VERSION 2.0
 WRAP.                 NO:   ONE LINE PER DEPTH STEP
~WELL INFORMATION
#MNEM.UNIT      DATA TYPE    INFORMATION
#----------   ------------   ------------------------------
 STRT.F          131.0000:   START DEPTH
 STOP.F         1085.0000:   STOP DEPTH
 STEP.F            0.5000:   STEP LENGTH
 NULL.          -999.2500:   NO VALUE
 COMP. U S NAVY-INTEX OIL:   COMPANY
 WELL.     UPR #3 #66-S-2:   WELL
 FLD .             TEAPOT:   FIELD
 LOC .       S2 T38N R78W:   LOCATION
 CNTY.            NATRONA:   COUNTY
 STAT.            WYOMING:   STATE
 CTRY. UNITED STATES OF AMERICA:   COUNTRY
 SRVC.       Schlumberger:   SERVICE COMPANY
 DATE.        18-JUL-1964:   LOGDATE
 API .       490250641300:   API NUMBER
~CURVE INFORMATION
#MNEM.UNIT       API CODE    CURVE DESCRIPTION
#----------   ------------   ------------------------------
 DEPT.F                  :   
 ASN .OHMM   05 041 16 00:   AMPLIFIED SHORT NORMAL 16"
 CILD.MMHO   05 110 46 00:   CONDUCTIVITY INDUCTION LOG DEEP
 ILD .OHMM   05 120 46 00:   INDUCTION LOG DEEP
 SPR .MV     05 010 01 00:   SPONTANEOUS POTENTIAL FROM RES.
 GR  .GAPI   30 310 01 00:   GAMMA RAY
 CALS.IN     60 280 50 00:   CALIPER FROM SONIC LOG
 DT  .US/F   60 520 33 00:   INTERVAL TRANSIT TIME
~PARAMETER INFORMATION
#MNEM.UNIT          VALUE    DESCRIPTION
#----------   ------------   ------------------------------
 PD  .                 GL:   PERMANENT DATUM
 EPD .F              5204:   ELEVATION PERMANENT DATUM
 LMF .                 KB:   LOG MEASURED FROM
 DAPD.F                 5:   FEET ABOVE PERMANENT DATUM
 DMF .                 KB:   DRILLING MEASURED FROM
 EKB .F              5209:   KELLING BUSHING
 EGL .F              5204:   GROUND LEVEL
 DATE.          7-18-1964:   RUN DATE
 RUN .                  1:   RUN NUMBER
 DD  .F              1085:   DEPTH DRILLER
 DL  .F              1086:   DEPTH LOGGER
 BLI .F              1085:   BOTTOM LOG INTERVAL
 TLI .F               131:   TOP LOG INTERVAL
 CS  .IN            8.625:   CASING SIZE
 CBD .F                10:   CASING BOTTOM DRILLER
 BS  .IN             6.75:   BIT SIZE
 BSD .F              5204:   BIT SIZE AT DEPTH
 DFT .                GEL:   DRILLING FLUID TYPE
 DFD .                9.5:   DRILLING FLUID DENSITY
 DFV .                 47:   DRILLING FLUID VISCOSITY
 DFL .                 10:   DRILLING FLUID LOSS
 MSS .           FLOWLINE:   MUD SAMPLE SOURCE
 RMS .OHMM           2.58:   RESISTIVITY MUD SAMPLE
 MST .F                93:   MUD SAMPLE TEMPERATURE
 RMF .OHMM           2.27:   RESISTIVITY MUD FILTRATE SAMPLE
 MFST.F                93:   MUD FILTRATE SAMPLE TEMPERATURE
 MFSS.                 FP:   MUD FILTRATE SAMPLE SOURCE
 TCS .HRS             1.5:   TIME CURCULATED STOPPED
 LUN .               3527:   LOGGING UNIT NUMBER
 LUL .              CSPR.:   LOGGING UNIT LOCATION
 ENGI.            WINKLER:   RECORDING ENGINEER
 WITN.          JORGENSEN:   WITNESSED BY
 CLNT.            A2DTECH:   CLIENT CODE
 ORIG.    1" , 2.5" PRINT:   ORIGIN OF DATA
 UWI .       490250641300:   UNIQUE WELL ID
 DICO. A2D Technologies, Inc.:   DIGITIZING COMPANY
~OTHER INFORMATION
~A   DEPT      ASN       CILD        ILD        SPR         GR       CALS         DT   
# ...
  267.5000     8.2125   137.0103     7.2433   -45.7831  -999.2500  -999.2500  -999.2500
  268.0000     8.1101   135.4781     7.2440   -45.7961  -999.2500  -999.2500  -999.2500
  268.5000     7.9400   134.3825     7.2448   -46.0756  -999.2500  -999.2500  -999.2500
  269.0000     7.9620   133.0622     7.2884   -46.2951  -999.2500  -999.2500  -999.2500
  269.5000     8.3163   131.7420     7.3951   -46.5446  -999.2500  -999.2500  -999.2500
  270.0000     8.6391   130.8735     7.3958   -46.6618  -999.2500  -999.2500  -999.2500
  270.5000     8.7399   130.6074     7.5455   -46.7495  -999.2500  -999.2500  -999.2500
  271.0000     8.7325   129.2871     7.5461   -46.9545  -999.2500  -999.2500  -999.2500
  271.5000     8.6814   127.7907     7.6251   -46.9537  -999.2500  -999.2500  -999.2500
  272.0000     8.6327   127.7711     7.7520   -46.9528  -999.2500  -999.2500  -999.2500
  272.5000     8.6228   127.7485     7.8788   -46.9522  -999.2500  -999.2500  -999.2500
  273.0000     8.6540   127.7259     8.0057   -46.7882  -999.2500  -999.2500  -999.2500
  273.5000     8.7045   127.7033     8.1452   -46.6566  -999.2500  -999.2500  -999.2500
  274.0000     8.7550   127.6807     8.1458   -46.5804  -999.2500  -999.2500  -999.2500
  274.5000     8.8015   127.6581     8.1466   -46.3610  -999.2500  -999.2500  -999.2500
  275.0000     8.8018   127.6334     8.2155   -46.3603  -999.2500  -999.2500  -999.2500
  275.5000     8.8021   127.6130     8.2969   -46.3596  -999.2500  -999.2500  -999.2500
  276.0000     8.8024   127.5904     8.2748   -46.3588  -999.2500  -999.2500  -999.2500
  276.5000     8.7890   127.5678     8.1496   -46.2078  -999.2500  -999.2500  -999.2500
  277.0000     8.7550   128.0924     8.1504   -46.0632  -999.2500  -999.2500  -999.2500
  277.5000     8.7098   129.0286     8.1510   -46.1250  -999.2500  -999.2500  -999.2500
  278.0000     8.6850   129.1365     8.1518   -46.3559  -999.2500  -999.2500  -999.2500
  278.5000     8.6560   130.4881     8.1525   -46.3551  -999.2500  -999.2500  -999.2500
  279.0000     8.6354   132.9066     8.1533   -46.1294  -999.2500  -999.2500  -999.2500
  279.5000     8.5943   134.4679     8.1412   -46.0596  -999.2500  -999.2500  -999.2500
  280.0000     8.5444   136.5462     8.0060   -45.9216  -999.2500  -999.2500  -999.2500
  280.5000     8.5018   138.5241     8.0067   -45.7640  -999.2500  -999.2500  -999.2500
  281.0000     8.4684   140.1857     8.0074   -45.7632  -999.2500  -999.2500  -999.2500
  281.5000     8.3619   142.7585     8.0082   -45.7569  -999.2500  -999.2500  -999.2500
  282.0000     8.2682   145.3911     7.9608   -45.4675  -999.2500  -999.2500  -999.2500
  282.5000     8.1492   145.3648     7.8609   -45.4669  -999.2500  -999.2500  -999.2500
  283.0000     8.0095   146.4056     7.8616   -45.4662  -999.2500  -999.2500  -999.2500
  283.5000     7.8592   148.5316     7.8625   -45.4654  -999.2500  -999.2500  -999.2500
  284.0000     7.7089   150.4618     7.8631   -45.5451  -999.2500  -999.2500  -999.2500
  284.5000     7.5607   151.3027     7.7804   -45.7582  -999.2500  -999.2500  -999.2500
  285.0000     7.4468   151.7319     7.6550   -45.4632  -999.2500  -999.2500  -999.2500
  285.5000     7.4037   154.2872     7.5677   -45.2196  -999.2500  -999.2500  -999.2500
  286.0000     7.3538   155.7497     7.5531   -45.1676  -999.2500  -999.2500  -999.2500
  286.5000     7.3166   156.8373     7.4204   -45.0118  -999.2500  -999.2500  -999.2500
  287.0000     7.3000   157.2139     7.3023   -44.7608  -999.2500  -999.2500  -999.2500
  287.5000     7.3114   158.5718     7.0809   -44.6446  -999.2500  -999.2500  -999.2500
  288.0000     7.3894   162.5904     6.9762   -44.8707  -999.2500  -999.2500  -999.2500
  288.5000     7.4626   170.4240     6.8755   -44.8698  -999.2500  -999.2500  -999.2500
  289.0000     7.3003   182.9870     6.6801   -44.8691  -999.2500  -999.2500  -999.2500
  289.5000     7.1054   188.7249     6.6755   -44.6824  -999.2500  -999.2500  -999.2500
  290.0000     6.9517   187.5502     6.5328   -44.5735  -999.2500  -999.2500  -999.2500
  290.5000     6.8074   186.2299     6.4247   -44.5728  -999.2500  -999.2500  -999.2500
  291.0000     6.5919   184.9096     6.3854   -44.5721  -999.2500  -999.2500  -999.2500
  291.5000     6.1488   183.0597     6.3228   -44.5608  -999.2500  -999.2500  -999.2500
  292.0000     5.7444   180.7631     6.2381   -44.2764  -999.2500  -999.2500  -999.2500
  292.5000     5.5089   179.4428     6.2388   -44.2757  -999.2500  -999.2500  -999.2500
  293.0000     5.9666   178.0255     6.2396   -44.1020  -999.2500  -999.2500  -999.2500
  293.5000     6.6750   175.5999     6.2403   -44.1093  -999.2500  -999.2500  -999.2500
  294.0000     6.8603   174.9699     6.3398   -44.2735  -999.2500  -999.2500  -999.2500
  294.5000     6.7718   174.1616     6.3906   -44.3142  -999.2500  -999.2500  -999.2500
  295.0000     6.7131   172.8414     6.4447   -44.5662  -999.2500  -999.2500  -999.2500
  295.5000     6.6720   171.5211     6.5409   -44.5653  -999.2500  -999.2500  -999.2500
  296.0000     6.6383   170.3615     6.5496   -44.7686  -999.2500  -999.2500  -999.2500
  296.5000     6.6251   170.3380     6.6913   -45.0181  -999.2500  -999.2500  -999.2500
  297.0000     6.6254   170.3118     6.6920   -45.1515  -999.2500  -999.2500  -999.2500
  297.5000     6.6257   171.3354     6.6927   -45.1507  -999.2500  -999.2500  -999.2500
  298.0000     6.6261   173.4438     6.6935   -45.1784  -999.2500  -999.2500  -999.2500
  298.5000     6.6263   175.3916     6.6509   -45.4433  -999.2500  -999.2500  -999.2500
  299.0000     6.6455   177.4999     6.5460   -45.4426  -999.2500  -999.2500  -999.2500
  299.5000     6.6852   180.9538     6.5469   -45.2510  -999.2500  -999.2500  -999.2500
  300.0000     6.7554   182.2289     6.3990   -45.1471  -999.2500  -999.2500  -999.2500
  300.5000     6.8292   185.2147     6.3996   -45.1463  -999.2500  -999.2500  -999.2500
  301.0000     6.7876   186.2851     6.4003   -45.0863  -999.2500  -999.2500  -999.2500
  301.5000     6.2139   187.5602     6.4010   -44.8353  -999.2500  -999.2500  -999.2500
  302.0000     6.1282   188.8354     6.3686   -44.5558  -999.2500  -999.2500  -999.2500
  302.5000     6.0281   188.7174     6.2537   -44.5551  -999.2500  -999.2500  -999.2500
  303.0000     5.9906   186.3555     6.2545   -44.5544  -999.2500  -999.2500  -999.2500
  303.5000     6.0482   184.9875     6.2552   -44.4196  -999.2500  -999.2500  -999.2500
  304.0000     6.1811   182.0454     6.2560   -44.2588  -999.2500  -999.2500  -999.2500
  304.5000     6.3636   180.8886     6.2567   -44.2581  -999.2500  -999.2500  -999.2500
  305.0000     6.6055   180.4970     6.3033   -44.2574  -999.2500  -999.2500  -999.2500
  305.5000     6.6404   180.4744     6.4070   -44.2565  -999.2500  -999.2500  -999.2500
  306.0000     6.5548   180.4518     6.4077   -44.2559  -999.2500  -999.2500  -999.2500
  306.5000     6.4510   180.4292     6.4086   -44.0902  -999.2500  -999.2500  -999.2500
  307.0000     6.3947   180.4639     6.4092   -43.9603  -999.2500  -999.2500  -999.2500
  307.5000     6.3967   179.0663     6.4100   -43.8824  -999.2500  -999.2500  -999.2500
  308.0000     6.4249   177.1285     6.4107   -43.6314  -999.2500  -999.2500  -999.2500
  308.5000     6.4475   175.8685     6.4115   -43.3698  -999.2500  -999.2500  -999.2500
  309.0000     6.5086   174.6084     6.4122   -43.3691  -999.2500  -999.2500  -999.2500
  309.5000     6.5708   173.1928     6.4130   -43.3684  -999.2500  -999.2500  -999.2500
  310.0000     6.6124   170.9839     6.4137   -43.3676  -999.2500  -999.2500  -999.2500
  310.5000     6.6334   169.3223     6.4144   -43.4750  -999.2500  -999.2500  -999.2500
  311.0000     6.6337   168.6747     6.4152   -43.6603  -999.2500  -999.2500  -999.2500
  311.5000     6.6045   168.6747     6.4644   -43.6799  -999.2500  -999.2500  -999.2500
  312.0000     6.5637   168.5542     6.5655   -43.9529  -999.2500  -999.2500  -999.2500
  312.5000     6.6580   167.1687     6.5662   -43.9522  -999.2500  -999.2500  -999.2500
