~VERSION INFORMATION
 VERS.                2.0:   CWLS LOG ASCII STANDARD - VERSION 2.0
 WRAP.                 NO:   ONE LINE PER DEPTH STEP
~WELL INFORMATION
#MNEM.UNIT      DATA TYPE    INFORMATION
#----------   ------------   ------------------------------
 STRT.F           33.0000:   START DEPTH
 STOP.F         1310.0000:   STOP DEPTH
 STEP.F            0.5000:   STEP LENGTH
 NULL.          -999.2500:   NO VALUE
 COMP. FENIX & SCISSON INC:   COMPANY
 WELL.    NPR-3 #76-14 SX:   WELL
 FLD .        TEAPOT DOME:   FIELD
 LOC .      S14 T38N R78W:   LOCATION
 CNTY.            NATRONA:   COUNTY
 STAT.            WYOMING:   STATE
 CTRY. UNITED STATES OF AMERICA:   COUNTRY
 SRVC.            Unknown:   SERVICE COMPANY
 DATE.        12-APR-1978:   LOGDATE
 API .       490251061200:   API NUMBER
~CURVE INFORMATION
#MNEM.UNIT       API CODE    CURVE DESCRIPTION
#----------   ------------   ------------------------------
 DEPT.F                  :   
 SPR .MV     05 010 01 00:   SPONTANEOUS POTENTIAL FROM RES.
 SN  .OHMM   05 040 16 00:   SHORT NORMAL 16"
 ILD .OHMM   05 120 46 00:   INDUCTION LOG DEEP
 CALD.IN     45 280 60 00:   CALIPER FROM DENSITY LOG
 GRD .GAPI   45 310 01 00:   GAMMA RAY FROM DENSITY LOG
 DPOR.DEC    45 890 12 00:   DENSITY POROSITY SANDSTONE
 CORR.G/C3   45 356 01 00:   DENSITY CORRECTION
 RHOB.G/C3   45 350 01 00:   BULK DENSITY
~PARAMETER INFORMATION
#MNEM.UNIT          VALUE    DESCRIPTION
#----------   ------------   ------------------------------
 PD  .                 GL:   PERMANENT DATUM
 EPD .F              5332:   ELEVATION PERMANENT DATUM
 LMF .                 KB:   LOG MEASURED FROM
 DMF .                 KB:   DRILLING MEASURED FROM
 EKB .F              5336:   KELLING BUSHING
 EGL .F              5332:   GROUND LEVEL
 DATE.          4-12-1978:   RUN DATE
 RUN .                  1:   RUN NUMBER
 DD  .F              1300:   DEPTH DRILLER
 DL  .F              1302:   DEPTH LOGGER
 BLI .F              1298:   BOTTOM LOG INTERVAL
 TLI .F                50:   TOP LOG INTERVAL
 CS  .IN            8.625:   CASING SIZE
 CBD .F                40:   CASING BOTTOM DRILLER
 CBL .F                46:   CASING BOTTOM LOGGER
 BS  .IN            7.875:   BIT SIZE
 BSD .F              1300:   BIT SIZE AT DEPTH
 DFT .                KCL:   DRILLING FLUID TYPE
 DFD .                8.5:   DRILLING FLUID DENSITY
 DFV .                 28:   DRILLING FLUID VISCOSITY
 MSS .            MUD PIT:   MUD SAMPLE SOURCE
 RMS .OHMM           1.45:   RESISTIVITY MUD SAMPLE
 MST .F                50:   MUD SAMPLE TEMPERATURE
 RMF .OHMM           1.25:   RESISTIVITY MUD FILTRATE SAMPLE
 MFST.F                62:   MUD FILTRATE SAMPLE TEMPERATURE
 RMC .OHMM           1.65:   RESISTIVITY MUD CAKE
 MCST.F                61:   MUD CAKE SAMPLE TEMPERATURE
 MFSS.           MEASURED:   MUD FILTRATE SAMPLE SOURCE
 MCSS.           MEASURED:   MUD CAKE SAMPLE SOURCE
 RMB .OHMM            .93:   RESISTIVITY MUD AT BHT
 BHT .F                78:   BOTTOM HOLE TEMPERATURE
 TCS .HRS               6:   TIME CURCULATED STOPPED
 MRT .F                78:   MAXIMUM RECORDED TEMPERATURE
 LUN .               2958:   LOGGING UNIT NUMBER
 LUL .                CAS:   LOGGING UNIT LOCATION
 ENGI.             MILLER:   RECORDING ENGINEER
 WITN.           MCGINLEY:   WITNESSED BY
 CLNT.            A2DTECH:   CLIENT CODE
 ORIG.      2" , 5" PRINT:   ORIGIN OF DATA
 UWI .       490251061200:   UNIQUE WELL ID
 DICO. A2D Technologies, Inc.:   DIGITIZING COMPANY
~OTHER INFORMATION
~A   DEPT      SPR         SN        ILD       CALD         GRD      DPOR       CORR       RHOB   
# ...
 1288.5000   -40.1599     8.4992     9.0367     7.5485    60.5638     0.0778     0.0498     2.5233
 1289.0000   -41.0086     8.3778     8.9418     7.5463    59.2471     0.0815     0.0499     2.5125
 1289.5000   -42.2531     8.3256     8.8489     7.5442    59.4682     0.0776     0.0499     2.5122
 1290.0000   -43.6515     8.2845     8.7656     7.5421    59.8236     0.0731     0.0499     2.5184
 1290.5000   -45.1617     8.2435     8.6859     7.5400    63.9834     0.0760     0.0499     2.5250
 1291.0000   -47.0447     8.2013     8.6065     7.5379    68.0968     0.0790     0.0499     2.5305
 1291.5000   -49.0018     8.1500     8.5278     7.5358    66.2325     0.0820     0.0499     2.5236
 1292.0000   -51.1618     8.0990     8.4498     7.5337    64.2435     0.0835     0.0512     2.5155
 1292.5000   -52.4463     8.0483     8.3726     7.5315    68.0964     0.0828     0.0579     2.5103
 1293.0000   -28.1004     7.9980     8.2960     7.5260    67.8030     0.0817     0.0643     2.5124
 1293.5000   -29.3496     7.9479     8.2202     7.5086    69.5539     0.0780     0.0708     2.5148
 1294.0000   -29.3324     7.9009     8.2002     7.4925    68.3381     0.0715     0.0742     2.5187
 1294.5000   -29.3245     7.8618     8.1906     7.4756    67.7820     0.0671     0.0748     2.5314
 1295.0000   -29.9678     7.8230     8.1810     7.3943    68.0088     0.0695     0.0753     2.5423
 1295.5000   -30.5960     7.7843     8.1713     6.9496    67.6312     0.0711     0.0759     2.5374
 1296.0000   -31.2160     7.7459     8.1617     6.3555    70.5974     0.0711     0.0733     2.5333
 1296.5000   -31.0994     7.7076     8.1521     6.0679    66.9192     0.0730     0.0686     2.5382
 1297.0000   -29.9329     7.6695     8.1426  -999.2500    58.3354     0.0749     0.0639     2.5349
 1297.5000   -29.8703     7.6316     8.1331  -999.2500    62.7195     0.0767     0.0592     2.5313
 1298.0000   -29.4498  -999.2500     8.1329  -999.2500    68.5558     0.0826     0.0545     2.5218
 1298.5000   -18.2968  -999.2500  -999.2500  -999.2500  -999.2500     0.0820     0.0519     2.5114
 1299.0000  -999.2500  -999.2500  -999.2500  -999.2500  -999.2500     0.0803     0.0519     2.5086
 1299.5000  -999.2500  -999.2500  -999.2500  -999.2500  -999.2500     0.0758     0.0519     2.5198
 1300.0000  -999.2500  -999.2500  -999.2500  -999.2500  -999.2500     0.0716     0.0519     2.5314
 1300.5000  -999.2500  -999.2500  -999.2500  -999.2500  -999.2500     0.0668     0.0501     2.5374
 1301.0000  -999.2500  -999.2500  -999.2500  -999.2500  -999.2500     0.0697     0.0464     2.5449
 1301.5000  -999.2500  -999.2500  -999.2500  -999.2500  -999.2500     0.0743     0.0429     2.5511
 1302.0000  -999.2500  -999.2500  -999.2500  -999.2500  -999.2500     0.0791     0.0413     2.5181
 1302.5000  -999.2500  -999.2500  -999.2500  -999.2500  -999.2500     0.0800     0.0419     2.5230
 1303.0000  -999.2500  -999.2500  -999.2500  -999.2500  -999.2500     0.0807     0.0419     2.5195
 1303.5000  -999.2500  -999.2500  -999.2500  -999.2500  -999.2500     0.0761     0.0419     2.5132
 1304.0000  -999.2500  -999.2500  -999.2500  -999.2500  -999.2500     0.0787     0.0418     2.5256
 1304.5000  -999.2500  -999.2500  -999.2500  -999.2500  -999.2500     0.0744     0.0446     2.5190
 1305.0000  -999.2500  -999.2500  -999.2500  -999.2500  -999.2500     0.0705     0.0477     2.5173
 1305.5000  -999.2500  -999.2500  -999.2500  -999.2500  -999.2500     0.0707     0.0508     2.5375
 1306.0000  -999.2500  -999.2500  -999.2500  -999.2500  -999.2500     0.0617     0.0539     2.5371
 1306.5000  -999.2500  -999.2500  -999.2500  -999.2500  -999.2500     0.0643     0.0559     2.5382
 1307.0000  -999.2500  -999.2500  -999.2500  -999.2500  -999.2500     0.0671     0.0559     2.5404
 1307.5000  -999.2500  -999.2500  -999.2500  -999.2500  -999.2500     0.0615     0.0559     2.5442
 1308.0000  -999.2500  -999.2500  -999.2500  -999.2500  -999.2500     0.0578     0.0558     2.5554
 1308.5000  -999.2500  -999.2500  -999.2500  -999.2500  -999.2500     0.0617     0.0520     2.5577
 1309.0000  -999.2500  -999.2500  -999.2500  -999.2500  -999.2500     0.0655     0.0482     2.5450
 1309.5000  -999.2500  -999.2500  -999.2500  -999.2500  -999.2500     0.0693     0.0445     2.5366
 1310.0000  -999.2500  -999.2500  -999.2500  -999.2500  -999.2500     0.0732     0.0363     2.5242
