~VERSION INFORMATION
 VERS.                2.0:   CWLS LOG ASCII STANDARD - VERSION 2.0
 WRAP.                 NO:   ONE LINE PER DEPTH STEP
~WELL INFORMATION
#MNEM.UNIT      DATA TYPE    INFORMATION
#----------   ------------   ------------------------------
 STRT.F           14.0000:   START DEPTH
 STOP.F          583.0000:   STOP DEPTH
 STEP.F            0.5000:   STEP LENGTH
 NULL.          -999.2500:   NO VALUE
 COMP. LAWRENCE/ALLISON INC:   COMPANY
 WELL.     NPR3 #34-66 SX:   WELL
 FLD .          MPR NO. 3:   FIELD
 LOC .      S10 T38N R78W:   LOCATION
 CNTY.            NATRONA:   COUNTY
 STAT.            WYOMING:   STATE
 CTRY. UNITED STATES OF AMERICA:   COUNTRY
 SRVC.           Gearhart:   SERVICE COMPANY
 DATE.        19-JUN-1986:   LOGDATE
 API .       490251109400:   API NUMBER
~CURVE INFORMATION
#MNEM.UNIT       API CODE    CURVE DESCRIPTION
#----------   ------------   ------------------------------
 DEPT.F                  :   
 GRR .GAPI   07 310 01 00:   GAMMA RAY
 RILD.OHMM   07 120 46 00:   INDUCTION LOG DEEP RESISTIVITY
 RILM.OHMM   07 120 44 00:   INDUCTION LOG MEDIUM RESISTIVITY
~PARAMETER INFORMATION
#MNEM.UNIT          VALUE    DESCRIPTION
#----------   ------------   ------------------------------
 PD  .                 GL:   PERMANENT DATUM
 EPD .F              5262:   ELEVATION PERMANENT DATUM
 LMF .                 KB:   LOG MEASURED FROM
 DAPD.F                 5:   FEET ABOVE PERMANENT DATUM
 DMF .                 KB:   DRILLING MEASURED FROM
 EKB .F              5267:   KELLING BUSHING
 EGL .F              5262:   GROUND LEVEL
 DATE.        19-JUN-1986:   RUN DATE
 RUN .                  1:   RUN NUMBER
 DD  .F               609:   DEPTH DRILLER
 DL  .F               602:   DEPTH LOGGER
 BLI .F               592:   BOTTOM LOG INTERVAL
 TLI .F                47:   TOP LOG INTERVAL
 CS  .IN            8.625:   CASING SIZE
 CBD .F                47:   CASING BOTTOM DRILLER
 CBL .F                46:   CASING BOTTOM LOGGER
 BS  .IN            7.875:   BIT SIZE
 BSD .F               609:   BIT SIZE AT DEPTH
 DFT .               FOAM:   DRILLING FLUID TYPE
 TCS .HRS            0130:   TIME CURCULATED STOPPED
 TLAB.HRS            0330:   TIME LOGGER AT BOTTOM
 MRT .F                65:   MAXIMUM RECORDED TEMPERATURE
 LUN .               7609:   LOGGING UNIT NUMBER
 LUL .           GILLETTE:   LOGGING UNIT LOCATION
 ENGI.         WEATHERMON:   RECORDING ENGINEER
 WITN.           JENNINGS:   WITNESSED BY
 CLNT.            A2DTECH:   CLIENT CODE
 ORIG.           5" PRINT:   ORIGIN OF DATA
 UWI .       490251109400:   UNIQUE WELL ID
 DICO. A2D Technologies, Inc.:   DIGITIZING COMPANY
~OTHER INFORMATION
~A   DEPT      GRR       RILD       RILM   
   14.0000  -999.2500  -999.2500  -999.2500
   14.5000    77.7880  -999.2500  -999.2500
   15.0000    78.1176  -999.2500  -999.2500
   15.5000    79.6005  -999.2500  -999.2500
   16.0000    79.2849  -999.2500  -999.2500
   16.5000    78.6633  -999.2500  -999.2500
   17.0000    80.4883  -999.2500  -999.2500
   17.5000    84.4539  -999.2500  -999.2500
   18.0000    88.1138  -999.2500  -999.2500
   18.5000    88.1039  -999.2500  -999.2500
   19.0000    86.8162  -999.2500  -999.2500
   19.5000    83.8003  -999.2500  -999.2500
   20.0000    81.9555  -999.2500  -999.2500
   20.5000    79.1934  -999.2500  -999.2500
   21.0000    77.3486  -999.2500  -999.2500
   21.5000    76.7271  -999.2500  -999.2500
   22.0000    75.4940  -999.2500  -999.2500
   22.5000    73.9550  -999.2500  -999.2500
   23.0000    73.3129  -999.2500  -999.2500
   23.5000    73.0153  -999.2500  -999.2500
   24.0000    73.0054  -999.2500  -999.2500
   24.5000    72.6897  -999.2500  -999.2500
   25.0000    72.0682  -999.2500  -999.2500
   25.5000    73.2816  -999.2500  -999.2500
   26.0000    74.8007  -999.2500  -999.2500
   26.5000    76.3199  -999.2500  -999.2500
   27.0000    78.4642  -999.2500  -999.2500
   27.5000    79.9698  -999.2500  -999.2500
   28.0000    77.8168  -999.2500  -999.2500
   28.5000    76.2778  -999.2500  -999.2500
   29.0000    75.6588  -999.2500  -999.2500
   29.5000    76.8697  -999.2500  -999.2500
   30.0000    78.6947  -999.2500  -999.2500
   30.5000    80.5196  -999.2500  -999.2500
   31.0000    79.2729  -999.2500  -999.2500
   31.5000    77.4414  -999.2500  -999.2500
   32.0000    76.2061  -999.2500  -999.2500
   32.5000    77.4195  -999.2500  -999.2500
   33.0000    79.2445  -999.2500  -999.2500
   33.5000    81.0694  -999.2500  -999.2500
   34.0000    81.9770  -999.2500  -999.2500
   34.5000    81.9671  -999.2500  -999.2500
   35.0000    81.9572  -999.2500  -999.2500
   35.5000    81.6412  -999.2500  -999.2500
   36.0000    80.4059  -999.2500  -999.2500
   36.5000    79.1727  -999.2500  -999.2500
   37.0000    77.6338  -999.2500  -999.2500
   37.5000    76.0949  -999.2500  -999.2500
   38.0000    74.8617  -999.2500  -999.2500
   38.5000    75.7693  -999.2500  -999.2500
   39.0000    78.5117  -999.2500  -999.2500
   39.5000    81.0398  -999.2500  -999.2500
   40.0000    82.7732  -999.2500  -999.2500
   40.5000    81.5376  -999.2500  -999.2500
   41.0000    80.9161  -999.2500  -999.2500
   41.5000    80.9062  -999.2500  -999.2500
   42.0000    78.7557  -999.2500  -999.2500
   42.5000    76.6051  -999.2500  -999.2500
   43.0000    75.3720  -999.2500  -999.2500
   43.5000    78.5151  -999.2500  -999.2500
   44.0000    84.5240  -999.2500  -999.2500
   44.5000    88.7955  -999.2500  -999.2500
   45.0000    93.3727  -999.2500  -999.2500
   45.5000    96.1151  -999.2500  -999.2500
   46.0000    99.1634  -999.2500  -999.2500
   46.5000   103.7406  -999.2500  -999.2500
   47.0000   107.4005  -999.2500  -999.2500
   47.5000   108.3080     5.4539     5.4794
   48.0000   103.7085     6.8286     4.8290
   48.5000   106.1451     7.4821     5.2186
   49.0000   109.8049     7.7504     6.7705
   49.5000   112.8531     7.8611     7.8494
   50.0000   113.4573     7.6445     7.8510
   50.5000   111.0028     7.2069     7.6277
   51.0000   109.1620     6.7866     7.3213
   51.5000   108.2385     6.7875     7.0203
   52.0000   108.5386     6.8362     6.7317
   52.5000   108.8385     6.8372     6.3648
   53.0000   105.7730     6.8381     6.1896
   53.5000   101.7916     6.8390     6.2345
   54.0000   100.5639     6.5875     6.4620
   54.5000   104.5321     6.4673     6.5983
   55.0000   106.6973     6.4684     6.5534
   55.5000   107.5783     6.4692     6.4629
   56.0000   107.5710     6.4249     6.4189
   56.5000   107.5651     6.4257     6.4205
   57.0000   107.5592     6.3816     6.4218
   57.5000   106.9416     6.3870     6.4685
   58.0000   105.1009     6.4286     6.4698
   58.5000   103.1967     6.4747     6.5171
   59.0000   101.1120     6.4756     6.6107
   59.5000    99.8829     6.6143     6.7530
   60.0000    99.2654     6.7088     6.8984
   60.5000    99.5667     6.8525     6.9975
   61.0000   100.1725     6.9017     6.9989
   61.5000    99.5535     7.0005     7.0531
   62.0000    99.5800     7.0507     7.1514
   62.5000   100.4576     7.0517     7.2033
   63.0000   101.3706     7.1023     7.2048
   63.5000   102.8923     7.1033     7.2063
   64.0000   104.4154     7.1543     7.2077
   64.5000   105.0226     7.1052     7.2092
   65.0000   101.9571     7.1064     7.2107
   65.5000   100.0826     7.1074     7.2122
   66.0000    99.4974     7.0584     7.1631
   66.5000   100.1046     7.0102     7.0649
   67.0000   100.4045     7.0112     7.0164
   67.5000   100.3971     6.9630     7.0182
   68.0000   100.3912     6.9134     7.0197
   68.5000   100.9969     6.8678     6.9231
   69.0000   104.7991     6.8207     6.8760
   69.5000   112.2986     6.8699     6.9751
   70.0000   116.8798     7.0171     7.0753
   70.5000   115.0391     7.1674     7.2276
   71.0000   110.4460     7.2698     7.3315
   71.5000   106.1588     7.4265     7.4893
   72.0000   102.4831     7.5400     7.7045
   72.5000   100.0306     7.7473     7.9258
   73.0000   105.2221     7.9133     8.0965
   73.5000   109.8034     8.0828     8.1556
   74.0000   111.3280     8.1982     8.2728
   74.5000   107.6509     8.1993     8.2165
   75.0000   103.0579     8.1430     8.1031
   75.5000   101.2100     8.0228     7.8804
   76.0000   102.8135     7.9197     7.7175
   76.5000   104.8735     7.7017     7.6614
   77.0000   104.2560     7.5954     7.4539
   77.5000   101.4978     7.4902     7.2998
   78.0000    99.3512     7.3353     7.1994
   78.5000    98.7337     7.1835     7.1003
   79.0000   105.1498     7.0347     7.1021
   79.5000   111.1049     7.0359     7.0969
   80.0000   113.7007     7.0865     7.1551
   80.5000   108.8003     7.1373     7.2580
   81.0000   104.8189     7.2902     7.4669
   81.5000   101.7549     7.3943     7.6276
   82.0000   105.1129     7.5527     7.7918
   82.5000   109.3884     7.7744     7.9595
   83.0000   104.4852     7.9915     8.1308
   83.5000    95.0020     8.2202     8.3058
   84.0000    90.7147     8.4554     8.4886
   84.5000    91.3204     8.6365     8.6677
   85.0000   100.4889     8.5173     8.6083
   85.5000   109.3515     8.3409     8.4308
   86.0000   112.0979     8.2257     8.3730
   86.5000   107.3853     8.1693     8.2582
   87.0000   104.7451     8.1133     8.1445
   87.5000   103.2101     8.0576     8.0891
   88.0000   102.8999     8.0023     8.0832
   88.5000   105.3390     7.9474     7.9239
   89.0000   106.8622     7.9488     7.8700
   89.5000   106.2446     7.8942     7.8716
   90.0000   102.7523     7.7852     7.8177
   90.5000   101.9515     7.7318     7.8196
   91.0000   104.3906     7.7331     7.7664
   91.5000   106.2195     7.7342     7.7136
   92.0000   107.1325     7.6274     7.6611
   92.5000   103.7613     7.5750     7.6090
   93.0000   101.6147     7.5231     7.5572
   93.5000   101.3030     7.5243     7.5592
   94.0000   104.0479     7.5254     7.5607
   94.5000   107.1001     7.5264     7.6156
   95.0000   109.8465     7.5804     7.6709
   95.5000   110.4536     7.6349     7.7267
   96.0000   106.7765     7.6897     7.7831
   96.5000   100.9602     7.7460     7.8949
   97.0000   100.0369     7.8094     7.9523
   97.5000   107.0632     7.9122     7.9539
   98.0000   114.3967     7.9690     8.0116
   98.5000   118.6721     8.0828     8.1268
   99.0000   119.2793     8.1982     8.1858
   99.5000   115.6022     8.2570     8.3038
  100.0000   112.8440     8.3749     8.4257
  100.5000   110.6534     8.3767     8.4637
  101.0000   110.3857     8.4414     8.5471
  101.5000   112.5190     8.6192     8.6704
  102.0000   113.7364     8.6817     8.7340
  102.5000   114.4752     8.7446     8.8606
  103.0000   112.9560     8.8700     8.9255
  103.5000   112.9599     8.8718     8.9909
  104.0000   112.6581     8.9365     9.1206
  104.5000   113.5743     9.0013     9.1298
