~VERSION INFORMATION
 VERS.                2.0:   CWLS LOG ASCII STANDARD - VERSION 2.0
 WRAP.                 NO:   ONE LINE PER DEPTH STEP
~WELL INFORMATION
#MNEM.UNIT      DATA TYPE    INFORMATION
#----------   ------------   ------------------------------
 STRT.F           50.0000:   START DEPTH
 STOP.F          854.0000:   STOP DEPTH
 STEP.F            0.5000:   STEP LENGTH
 NULL.          -999.2500:   NO VALUE
 COMP. FENIX & SCISSON INC:   COMPANY
 WELL.    45 SX 11 #45-11:   WELL
 FLD .             TEAPOT:   FIELD
 LOC .      S11 T38N R78W:   LOCATION
 CNTY.            NATRONA:   COUNTY
 STAT.            WYOMING:   STATE
 CTRY. UNITED STATES OF AMERICA:   COUNTRY
 SRVC.           BIRDWELL:   SERVICE COMPANY
 DATE.        01-MAR-1978:   LOGDATE
 API .       490251058600:   API NUMBER
~CURVE INFORMATION
#MNEM.UNIT       API CODE    CURVE DESCRIPTION
#----------   ------------   ------------------------------
 DEPT.F                  :   
 CALD.IN     45 280 60 00:   CALIPER
 CORR.G/C3   45 356 01 00:   DENSITY CORRECTION
 RHOB.G/C3   45 350 01 00:   BULK DENSITY
 DPOR.DEC    45 890 12 00:   DENSITY POROSITY SANDSTONE
 GRD .GAPI   45 310 01 00:   GAMMA RAY FROM DENSITY LOG
 SPR .MV     05 010 01 00:   SPONTANEOUS POTENTIAL FROM RES.
 SN  .OHMM   05 040 16 00:   SHORT NORMAL 16"
 ILD .OHMM   05 120 46 00:   INDUCTION LOG DEEP
~PARAMETER INFORMATION
#MNEM.UNIT          VALUE    DESCRIPTION
#----------   ------------   ------------------------------
 PD  .                 GL:   PERMANENT DATUM
 EPD .F              5186:   ELEVATION PERMANENT DATUM
 LMF .                 KB:   LOG MEASURED FROM
 DAPD.F                 4:   FEET ABOVE PERMANENT DATUM
 DMF .                 KB:   DRILLING MEASURED FROM
 EKB .F              5190:   KELLING BUSHING
 EGL .F              5186:   GROUND LEVEL
 DATE.           3-1-1978:   RUN DATE
 RUN .                  1:   RUN NUMBER
 DD  .F               848:   DEPTH DRILLER
 DL  .F               856:   DEPTH LOGGER
 BLI .F               851:   BOTTOM LOG INTERVAL
 TLI .F                50:   TOP LOG INTERVAL
 CS  .IN            8.625:   CASING SIZE
 CBD .F                40:   CASING BOTTOM DRILLER
 CBL .F                40:   CASING BOTTOM LOGGER
 BS  .IN            7.875:   BIT SIZE
 BSD .F               848:   BIT SIZE AT DEPTH
 DFT .          LIGNOSULF:   DRILLING FLUID TYPE
 DFD .                8.5:   DRILLING FLUID DENSITY
 DFV .                 30:   DRILLING FLUID VISCOSITY
 DFPH.               11.5:   DRILLING FLUID PH
 MSS .                PIT:   MUD SAMPLE SOURCE
 RMS .OHMM              2:   RESISTIVITY MUD SAMPLE
 MST .F                59:   MUD SAMPLE TEMPERATURE
 RMF .OHMM            1.8:   RESISTIVITY MUD FILTRATE SAMPLE
 MFST.F                60:   MUD FILTRATE SAMPLE TEMPERATURE
 RMC .OHMM            2.2:   RESISTIVITY MUD CAKE
 MCST.F                60:   MUD CAKE SAMPLE TEMPERATURE
 MFSS.               MEAS:   MUD FILTRATE SAMPLE SOURCE
 MCSS.               MEAS:   MUD CAKE SAMPLE SOURCE
 RMB .OHMM           1.69:   RESISTIVITY MUD AT BHT
 BHT .F                70:   BOTTOM HOLE TEMPERATURE
 TCS .HRS               3:   TIME CURCULATED STOPPED
 MRT .F                70:   MAXIMUM RECORDED TEMPERATURE
 LUN .               2959:   LOGGING UNIT NUMBER
 LUL .               CASP:   LOGGING UNIT LOCATION
 ENGI.            POINTER:   RECORDING ENGINEER
 WITN.         HARRINGTON:   WITNESSED BY
 CLNT.            A2DTECH:   CLIENT CODE
 ORIG.       2", 5" PRINT:   ORIGIN OF DATA
 UWI .       490251058600:   UNIQUE WELL ID
 DICO. A2D Technologies, Inc.:   DIGITIZING COMPANY
~OTHER INFORMATION
~A   DEPT       CALD      CORR      RHOB       DPOR        GRD        SPR         SN        ILD   
# ...
  212.0000     7.6741     0.0586     2.3348     0.1882    85.4082   -32.7399     7.0880     6.0996
  212.5000     7.6704     0.0545     2.3414     0.1912    83.9676   -32.5344     6.4045     5.5406
  213.0000     7.6667     0.0531     2.3381     0.2069    82.5517   -32.3296     5.7768     5.0328
  213.5000     7.6631     0.0712     2.3186     0.2221    83.4130   -32.1729     5.2106     4.5351
  214.0000     7.6594     0.0899     2.3017     0.2375    86.5873   -32.4197     4.6634     4.4931
  214.5000     7.6558     0.1011     2.2730     0.2529    89.9230   -32.6650     4.6634     4.4931
  215.0000     7.6521     0.0996     2.2370     0.2679    93.8889   -32.9101     4.8403     4.5551
  215.5000     7.6484     0.1180     2.2118     0.2683   101.1104   -33.1538     5.0707     4.6731
  216.0000     7.6447     0.1178     2.2092     0.2670   108.2785   -33.1673     5.6506     4.9617
  216.5000     7.6410     0.0906     2.2156     0.2348   112.4557   -33.2545     6.4308     5.6116
  217.0000     7.6663     0.0638     2.2694     0.2029   109.0928   -33.5125     7.3060     6.3454
  217.5000     7.6982     0.0388     2.3336     0.1601   101.7934   -33.7680     7.9252     7.1107
  218.0000     7.7304     0.0423     2.3433     0.1868    94.3356   -34.0209     8.1248     7.5936
  218.5000     7.7622     0.0463     2.3372     0.1993    85.3752   -34.1277     8.3875     8.1188
  219.0000     7.7419     0.0461     2.3211     0.2049    85.8034   -33.9880     8.6586     8.3757
  219.5000     7.7430     0.0590     2.3134     0.2038    87.2550   -33.8541     8.9385     8.5688
  220.0000     7.7420     0.0782     2.3162     0.2047    88.6310   -33.8320     9.2275     8.7658
  220.5000     7.6753     0.1037     2.3079     0.2130    88.1903   -33.9801     9.4910     8.9674
  221.0000     7.4929     0.1167     2.2956     0.2191    86.8136   -34.1261     9.6407     9.1736
  221.5000     7.3106     0.1051     2.2783     0.2191    85.5100   -34.2716     9.7925     9.3845
  222.0000     7.2380     0.1030     2.2954     0.2073    86.0726   -34.3694     9.9466     9.5459
  222.5000     7.2366     0.1206     2.3205     0.2077    87.5577   -34.2984    10.1033     9.6735
  223.0000     7.2364     0.1374     2.3108     0.2082    90.0096   -34.2314    10.2626     9.7964
  223.5000     7.2368     0.1496     2.3041     0.2082    92.7056   -34.1646    10.4244     9.9208
  224.0000     7.2603     0.1261     2.3091     0.2039    94.8218   -34.0980    10.5887    10.0469
  224.5000     7.3957     0.0865     2.3158     0.1886    93.9053   -34.0313    10.6736    10.1745
  225.0000     7.5299     0.0667     2.3544     0.1803    91.5462   -33.9646    10.6737    10.2077
  225.5000     7.6587     0.0651     2.3379     0.2076    89.1877   -33.8975    10.6734    10.2295
  226.0000     7.7039     0.0516     2.3129     0.2060    86.8498   -33.8307    10.6734    10.2513
  226.5000     7.7420     0.0374     2.3245     0.1905    85.0009   -33.7860    10.6734    10.2732
  227.0000     7.7277     0.0283     2.3360     0.1931    85.6660   -33.9098    10.7702    10.3454
  227.5000     7.7208     0.0301     2.3359     0.1961    86.6410   -34.0330    10.8760    10.4641
  228.0000     7.7173     0.0361     2.3302     0.1993    87.5722   -34.1547    10.9827    10.5843
  228.5000     7.7136     0.0422     2.3245     0.2060    89.8452   -34.2786    11.0905    10.7057
  229.0000     7.7099     0.0482     2.3184     0.2117    92.2360   -34.4930    11.1816    10.8284
  229.5000     7.7061     0.0483     2.3061     0.2095    92.6778   -35.1638    11.2394    10.9525
  230.0000     7.7024     0.0476     2.3007     0.2031    91.6123   -35.0870    11.3418    11.0785
  230.5000     7.6986     0.0469     2.3133     0.1977    90.5370   -34.9694    11.4452    11.2457
  231.0000     7.6948     0.0464     2.3262     0.1997    89.5210   -34.8578    11.5496    11.6040
  231.5000     7.6911     0.0490     2.3264     0.2026    89.4863   -34.9204    11.6549    11.9726
  232.0000     7.6874     0.0536     2.3184     0.2074    89.5050   -35.2644    11.7611    12.3528
  232.5000     7.6832     0.0578     2.3103     0.2074    88.1434   -35.6019    11.8235    12.7450
  233.0000     7.7080     0.0648     2.3093     0.2070    85.9893   -35.9589    11.8005    13.1497
  233.5000     7.7487     0.0604     2.3091     0.2062    83.8067   -36.3131    11.7813    13.2668
  234.0000     7.7673     0.0532     2.3155     0.1980    83.3044   -36.6674    11.7622    13.3235
  234.5000     7.7893     0.0525     2.3245     0.1904    84.5602   -37.0247    11.7432    13.3804
  235.0000     7.8104     0.0637     2.3353     0.2019    84.8524   -37.3948    11.7242    13.4397
  235.5000     7.8315     0.0730     2.3258     0.2049    83.9291   -36.7674    11.7052    13.4671
  236.0000     7.8526     0.0680     2.3119     0.2050    83.4226   -36.1435    11.6863    13.1403
  236.5000     7.8640     0.0613     2.3135     0.2058    83.9952   -35.9105    11.6675    12.9198
  237.0000     7.8628     0.0548     2.3077     0.2089    87.0164   -35.6786    11.6486    12.7036
  237.5000     7.8617     0.0567     2.3005     0.2173    89.8076   -35.4470    11.6297    12.4873
  238.0000     7.8606     0.0587     2.2958     0.2263    89.0181   -35.2008    11.6110    12.2676
  238.5000     7.8595     0.0564     2.2824     0.2220    89.6057   -34.6352    11.5375    12.2737
  239.0000     7.8584     0.0538     2.2882     0.2150    91.6310   -34.0179    11.4425    12.2719
  239.5000     7.8573     0.0511     2.2970     0.2120    93.6729   -33.3943    11.3482    12.2718
  240.0000     7.8562     0.0486     2.3013     0.2118    94.3355   -33.2833    11.2861    12.2718
  240.5000     7.8551     0.0505     2.2992     0.2107    94.3445   -33.2018    11.1816    11.8479
  241.0000     7.8541     0.0527     2.3056     0.2037    94.4593   -33.1186    10.9755    10.7010
  241.5000     7.8530     0.0542     2.3160     0.2025    94.6273   -33.0329    10.4801     9.6651
  242.0000     7.8519     0.0458     2.3112     0.2017    94.7268   -32.8555     9.4624     8.7295
  242.5000     7.8508     0.0371     2.3217     0.1906    94.2095   -32.1931     8.5435     7.8842
  243.0000     7.8497     0.0309     2.3278     0.1787    93.7055   -31.5402     7.7139     7.1207
  243.5000     7.8486     0.0336     2.3577     0.1678    93.1488   -31.1847     6.9648     6.4279
  244.0000     7.8475     0.0368     2.3716     0.1570    95.6663   -31.3309     6.2885     6.0496
  244.5000     7.8464     0.0400     2.3740     0.1654    99.3437   -31.4694     6.1077     6.0458
  245.0000     7.8453     0.0429     2.3841     0.1569   103.5218   -31.6112     6.1077     6.0420
  245.5000     7.8442     0.0467     2.3939     0.1553   106.8796   -31.7525     6.1648     6.0382
  246.0000     7.8431     0.0423     2.4002     0.1553   106.8773   -31.3218     6.1648     6.0344
  246.5000     7.8420     0.0376     2.3927     0.1543   106.8056   -30.8126     6.1648     6.0306
  247.0000     7.8409     0.0328     2.4028     0.1523   105.6674   -30.5397     6.1648     6.0267
  247.5000     7.8398     0.0327     2.4154     0.1502   105.4884   -30.5740     6.1648     6.0229
  248.0000     7.8387     0.0378     2.4186     0.1565   108.2393   -30.6053     6.1648     6.0191
  248.5000     7.8377     0.0429     2.4021     0.1646   110.1292   -30.6376     6.1648     6.0153
  249.0000     7.8366     0.0479     2.3886     0.1608   109.3974   -30.6697     6.1648     6.0115
  249.5000     7.8355     0.0482     2.3825     0.1569   107.0648   -30.7024     6.1648     6.0078
  250.0000     7.8344     0.0477     2.3930     0.1517   106.3903   -30.7244     6.1648     6.0040
  250.5000     7.8333     0.0473     2.4038     0.1480   105.7089   -30.6194     6.1648     6.0002
  251.0000     7.8322     0.0468     2.4050     0.1489   104.9912   -30.5279     6.1648     5.9964
  251.5000     7.8311     0.0467     2.4056     0.1460   104.9122   -30.5751     6.1648     5.9926
  252.0000     7.8300     0.0488     2.4155     0.1457   108.6273   -30.6722     6.1648     5.9888
