~VERSION INFORMATION
 VERS.                2.0:   CWLS LOG ASCII STANDARD - VERSION 2.0
 WRAP.                 NO:   ONE LINE PER DEPTH STEP
~WELL INFORMATION
#MNEM.UNIT      DATA TYPE    INFORMATION
#----------   ------------   ------------------------------
 STRT.F            8.5000:   START DEPTH
 STOP.F          509.0000:   STOP DEPTH
 STEP.F            0.5000:   STEP LENGTH
 NULL.          -999.2500:   NO VALUE
 COMP. LAWRENCE-ALLISON &AS:   COMPANY
 WELL. NPR 3 #68-26SX3LP2:   WELL
 FLD .             TEAPOT:   FIELD
 LOC .       S3 T38N R78W:   LOCATION
 CNTY.            NATRONA:   COUNTY
 STAT.            WYOMING:   STATE
 CTRY. UNITED STATES OF AMERICA:   COUNTRY
 SRVC.      Dresser Atlas:   SERVICE COMPANY
 DATE.        12-DEC-1984:   LOGDATE
 API .       490251099600:   API NUMBER
~CURVE INFORMATION
#MNEM.UNIT       API CODE    CURVE DESCRIPTION
#----------   ------------   ------------------------------
 DEPT.F                  :   
 CNC .DEC    42 890 03 00:   NEUTRON POROSITY SANDSTONE
 CALD.IN     45 280 60 00:   CALIPER FROM DENSITY LOG
 CORR.G/C3   45 356 01 00:   DENSITY CORRECTION
 GRD .GAPI   45 310 01 00:   GAMMA RAY FROM DENSITY LOG
 PORD.DEC    45 890 12 00:   POROSITY DENSITY SANDSTONE
 RHOB.G/C3   45 350 01 00:   BULK DENSITY
 DT  .US/F   60 520 00 00:   INTERVAL TRANSIT TIME
 SPR .MV     11 010 01 00:   SPONTANEOUS POTENTIAL FROM RES.
 RS  .OHMM   11 220 09 00:   RESISTIVITY SHALLOW
 RD  .OHMM   11 220 10 00:   RESISTIVITY DEEP
~PARAMETER INFORMATION
#MNEM.UNIT          VALUE    DESCRIPTION
#----------   ------------   ------------------------------
 PD  .                 GL:   PERMANENT DATUM
 EPD .F              5158:   ELEVATION PERMANENT DATUM
 LMF .                 GL:   LOG MEASURED FROM
 DMF .                 GL:   DRILLING MEASURED FROM
 EGL .F              5158:   GROUND LEVEL
 DATE.        12-DEC-1984:   RUN DATE
 RUN .                  1:   RUN NUMBER
 DD  .F               510:   DEPTH DRILLER
 DL  .F               510:   DEPTH LOGGER
 BLI .F               501:   BOTTOM LOG INTERVAL
 TLI .F                20:   TOP LOG INTERVAL
 CS  .IN            8.625:   CASING SIZE
 CBD .F                20:   CASING BOTTOM DRILLER
 CBL .F                20:   CASING BOTTOM LOGGER
 BS  .IN            7.875:   BIT SIZE
 BSD .F               510:   BIT SIZE AT DEPTH
 DFT .          KCL/WATER:   DRILLING FLUID TYPE
 MSS .            MUDTANK:   MUD SAMPLE SOURCE
 RMS .OHMM           0.21:   RESISTIVITY MUD SAMPLE
 MST .F                70:   MUD SAMPLE TEMPERATURE
 RMF .OHMM           0.16:   RESISTIVITY MUD FILTRATE SAMPLE
 MFST.F                70:   MUD FILTRATE SAMPLE TEMPERATURE
 RMC .OHMM           0.26:   RESISTIVITY MUD CAKE
 MCST.F                70:   MUD CAKE SAMPLE TEMPERATURE
 MFSS.               CALC:   MUD FILTRATE SAMPLE SOURCE
 MCSS.               CALC:   MUD CAKE SAMPLE SOURCE
 RMB .OHMM           0.17:   RESISTIVITY MUD AT BHT
 BHT .F                85:   BOTTOM HOLE TEMPERATURE
 TCS .HRS               6:   TIME CURCULATED STOPPED
 MRT .F               100:   MAXIMUM RECORDED TEMPERATURE
 LUN .               6270:   LOGGING UNIT NUMBER
 LUL .                 FM:   LOGGING UNIT LOCATION
 ENGI.           E.GOVETT:   RECORDING ENGINEER
 WITN.              LUERS:   WITNESSED BY
 CLNT.            A2DTECH:   CLIENT CODE
 ORIG.           5" PRINT:   ORIGIN OF DATA
 UWI .       490251099600:   UNIQUE WELL ID
 DICO. A2D Technologies, Inc.:   DIGITIZING COMPANY
~OTHER INFORMATION
~A    DEPT     CNC       CALD       CORR        GRD       PORD       RHOB          DT       SPR         RS         RD   
# ...
  243.0000     0.3430     7.7748     0.0492   115.1845     0.1750     2.3906   119.0315   -41.8109     5.6749     6.5521
  243.5000     0.3213     7.7910     0.0659   116.5329     0.2319     2.3006   119.7713   -41.7963     5.9616     6.9499
  244.0000     0.2980     7.8222     0.0631   113.8754     0.2373     2.2842   117.0472   -41.7816     6.8048     8.3540
  244.5000     0.2849     7.8533     0.0257   100.2759     0.2011     2.3261   108.9927   -41.9156     9.6958    10.6518
  245.0000     0.2731     7.8844     0.0048    95.9990     0.1505     2.4210   102.2155   -41.9010    12.8009    12.9390
  245.5000     0.2679     7.8859     0.0020    94.6268     0.1031     2.4955    99.1197   -42.1835    13.8234    15.2878
  246.0000     0.2643     7.8725     0.0038    97.1654     0.0968     2.5188    97.6016   -42.4666    14.2207    15.9438
  246.5000     0.2661     7.8740     0.0084   100.8877     0.0988     2.5136    98.0423   -42.7489    14.1290    15.7341
  247.0000     0.2690     7.8903     0.0086   103.5714     0.1031     2.5077    98.4062   -42.8826    13.9452    15.6351
  247.5000     0.2669     7.8917     0.0148   103.8779     0.1081     2.5018    98.6033   -43.0165    13.9538    15.5368
  248.0000     0.2735     7.9080     0.0346   102.8557     0.1054     2.4981    98.7381   -42.5280    14.0595    15.5487
  248.5000     0.2756     7.9095     0.0709   101.8302     0.0981     2.5087    99.0232   -41.7751    14.2644    15.6663
  249.0000     0.2692     7.8961     0.0861   101.5460     0.0890     2.5201    99.4586   -41.0372    14.3725    15.7849
  249.5000     0.2638     7.8827     0.0697   101.8564     0.0851     2.5307    99.9691   -40.5768    14.3813    16.0149
  250.0000     0.2653     7.8693     0.0444   101.5727     0.0830     2.5375   100.3332   -40.1164    15.0011    16.5893
  250.5000     0.2673     7.8860     0.0310    99.9293     0.0838     2.5391    99.6377   -39.6560    16.7918    18.2205
  251.0000     0.2616     7.9023     0.0315    90.3236     0.0926     2.5367    97.8191   -39.3442    18.6013    21.3885
  251.5000     0.2561     7.9186     0.0284    80.0033     0.0974     2.5281    96.9021   -39.0324    23.3640    24.1601
  252.0000     0.2512     7.9200     0.0286    60.5233     0.1245     2.4966    98.4193   -38.7206    27.2960    27.3842
  252.5000     0.2529     7.9215     0.0380    50.7427     0.1585     2.4269   104.5818   -38.2602    27.1242    29.3658
  253.0000     0.2651     7.8487     0.0500    46.0066     0.2016     2.3564   110.3756   -37.9484    26.7673    29.5881
  253.5000     0.2693     7.8056     0.0473    46.9085     0.1955     2.3422   111.4120   -37.0422    27.1575    29.6062
  254.0000     0.2714     7.8071     0.0339    50.0358     0.1904     2.3536   109.4432   -35.9874    28.1324    29.6244
  254.5000     0.2741     7.8238     0.0281    57.3175     0.2042     2.3582   108.0002   -35.0813    29.7544    29.6426
  255.0000     0.2765     7.8546     0.0283    67.5271     0.2120     2.3350   108.7027   -34.3237    31.0368    30.2834
  255.5000     0.2779     7.8561     0.0332    72.1543     0.2096     2.3199   109.7122   -33.4175    31.9288    31.3696
  256.0000     0.2789     7.8727     0.0437    74.2693     0.1984     2.3410   109.9844   -32.3467    33.0749    32.2705
  256.5000     0.2697     7.8890     0.0499    74.4294     0.1899     2.3568   110.2654   -31.5879    33.3203    33.4279
  257.0000     0.2500     7.9053     0.0231    73.4025     0.1924     2.3571   112.2783   -30.9698    32.1452    32.7607
  257.5000     0.2488     7.9216     0.0082    70.4468     0.2107     2.3495   116.1696   -30.3835    31.0689    31.6401
  258.0000     0.2642     7.9230     0.0234    67.0459     0.2366     2.3036   118.7085   -29.6259    30.0250    30.7844
  258.5000     0.2883     7.9245     0.0432    65.1259     0.2420     2.2787   119.2188   -29.0170    29.4177    29.7543
  259.0000     0.3106     7.8962     0.0509    64.9892     0.2441     2.2664   119.2032   -28.2594    30.0536    30.1857
  259.5000     0.3073     7.8825     0.0330    66.3391     0.2371     2.2875   117.5347   -27.7990    32.2256    32.3678
  260.0000     0.2964     7.8694     0.0077    68.8730     0.2129     2.3176   111.5837   -27.0414    34.7949    34.9653
  260.5000     0.2713     7.8561     0.0034    69.7748     0.2000     2.3417   107.9618   -26.2838    37.5832    36.2348
  261.0000     0.2673     7.8279     0.0062    69.0447     0.1954     2.3500   106.8192   -25.8234    39.1831    35.2348
  261.5000     0.2754     7.8145     0.0087    64.1012     0.1948     2.3516   107.4047   -25.2733    38.8848    34.0542
  262.0000     0.2875     7.8160     0.0111    57.9268     0.2014     2.3464   113.9255   -24.7417    36.8529    32.9131
  262.5000     0.2975     7.8326     0.0143    58.2740     0.2252     2.2962   123.9024   -24.2101    35.3687    33.6224
  263.0000     0.2966     7.8341     0.0205    61.3791     0.2411     2.2677   126.0657   -23.6786    35.6316    34.3469
  263.5000     0.2892     7.8355     0.0327    65.5450     0.2494     2.2580   126.0500   -23.0456    35.8965    35.3308
  264.0000     0.2880     7.8340     0.0570    66.8920     0.2457     2.2679   123.7215   -22.5896    37.1798    36.3430
  264.5000     0.2867     7.8322     0.0707    66.7553     0.2229     2.2882   118.0263   -22.1336    43.0248    36.8699
  265.0000     0.2858     7.8307     0.0618    66.7669     0.1970     2.3153   110.5760   -21.5290    44.2552    37.6644
  265.5000     0.2849     7.8170     0.0440    67.2237     0.1762     2.3634   105.3005   -21.0730    44.2763    37.4248
  266.0000     0.2643     7.8037     0.0080    66.4935     0.1725     2.3868   107.8858   -20.7656    43.0863    37.1863
  266.5000     0.2606     7.7897     0.0323    63.9829     0.2002     2.3683   110.5506   -20.3096    41.9282    36.9502
  267.0000     0.2624     7.7763     0.0445    63.5233     0.2141     2.3169   111.8874   -20.0022    41.6584    37.2518
  267.5000     0.2784     7.7775     0.0447    64.5997     0.2186     2.3119   111.4961   -19.8434    46.3743    39.4340
  268.0000     0.2747     7.7638     0.0433    65.3532     0.2167     2.3195   107.1229   -19.5360    50.9860    42.8099
  268.5000     0.2699     7.7650     0.0568    65.5132     0.2080     2.3271   105.9052   -19.3772    52.4379    46.2236
  269.0000     0.2726     7.7828     0.0738    63.6023     0.2061     2.3324   106.1902   -19.5156    51.0285    47.2196
  269.5000     0.2759     7.8269     0.0709    59.4564     0.2058     2.3220   107.9777   -19.5052    48.9793    46.9129
  270.0000     0.2523     7.8429     0.0516    59.6164     0.2238     2.2928   111.7938   -19.4948    47.0067    45.6623
  270.5000     0.2468     7.8589     0.0593    63.1889     0.2314     2.2951   111.3274   -19.4824    44.8021    43.5253
  271.0000     0.2483     7.8601     0.0670    68.8385     0.2199     2.3110   109.5087   -19.4721    42.9978    40.0763
  271.5000     0.2649     7.8761     0.0792    70.0371     0.1885     2.3306   107.0138   -19.4619    42.1281    37.6753
  272.0000     0.2636     7.8773     0.0643    70.0488     0.1824     2.3629   103.2416   -19.3031    41.5722    35.9121
  272.5000     0.2615     7.8933     0.0525    70.3572     0.1824     2.3690   100.5213   -19.1443    41.0198    35.9316
  273.0000     0.2664     7.8796     0.0572    70.9623     0.1827     2.3706    98.9279   -19.1341    40.1916    35.9512
  273.5000     0.2687     7.8659     0.0619    70.3805     0.1745     2.3759    96.8086   -19.1239    39.0651    35.4760
  274.0000     0.2584     7.8523     0.0560    67.4248     0.1691     2.3873    94.7645   -19.2648    36.6802    34.7592
  274.5000     0.2523     7.8386     0.0487    66.8319     0.1751     2.3933    96.0261   -19.6978    33.6195    33.5787
  275.0000     0.2499     7.8249     0.0491    68.0415     0.1859     2.3829    96.7618   -20.1333    32.7159    31.9191
  275.5000     0.2531     7.8261     0.0536    69.3996     0.1895     2.3635    96.8214   -20.5688    31.6167    30.1134
  276.0000     0.2634     7.8273     0.0658    70.8012     0.1865     2.3643    96.4087   -21.1530    30.9772    28.9035
