~VERSION INFORMATION
 VERS.                2.0:   CWLS LOG ASCII STANDARD - VERSION 2.0
 WRAP.                 NO:   ONE LINE PER DEPTH STEP
~WELL INFORMATION
#MNEM.UNIT      DATA TYPE    INFORMATION
#----------   ------------   ------------------------------
 STRT.F           80.0000:   START DEPTH
 STOP.F          808.0000:   STOP DEPTH
 STEP.F            0.5000:   STEP LENGTH
 NULL.          -999.2500:   NO VALUE
 COMP.           U S NAVY:   COMPANY
 WELL.     NRP #3 #38-S-2:   WELL
 FLD .             TEAPOT:   FIELD
 LOC .       S2 T38N R78W:   LOCATION
 CNTY.            NATRONA:   COUNTY
 STAT.            WYOMING:   STATE
 CTRY. UNITED STATES OF AMERICA:   COUNTRY
 SRVC.       Schlumberger:   SERVICE COMPANY
 DATE.        18-JUN-1962:   LOGDATE
 API .       490250639100:   API NUMBER
~CURVE INFORMATION
#MNEM.UNIT       API CODE    CURVE DESCRIPTION
#----------   ------------   ------------------------------
 DEPT.F                  :   
 GR  .GAPI   30 310 01 00:   GAMMA RAY
 SPR .MV     05 010 01 00:   SPONTANEOUS POTENTIAL FROM RES.
 ASN .OHMM   05 041 16 00:   AMPLIFIED SHORT NORMAL 16"
 ILD .OHMM   05 120 46 00:   INDUCTION LOG DEEP
 CILD.MMHO   05 110 46 00:   CONDUCTIVITY INDUCTION LOG DEEP
 CALM.IN     15 280 01 00:   CALIPER FROM MICRO LOG
~PARAMETER INFORMATION
#MNEM.UNIT          VALUE    DESCRIPTION
#----------   ------------   ------------------------------
 PD  .                 GL:   PERMANENT DATUM
 EPD .F              5146:   ELEVATION PERMANENT DATUM
 LMF .                 KB:   LOG MEASURED FROM
 DAPD.F                 5:   FEET ABOVE PERMANENT DATUM
 DMF .                 KB:   DRILLING MEASURED FROM
 EKB .F              5151:   KELLING BUSHING
 EGL .F              5146:   GROUND LEVEL
 DATE.          6-18-1962:   RUN DATE
 RUN .                  1:   RUN NUMBER
 DD  .F              1000:   DEPTH DRILLER
 DL  .F               808:   DEPTH LOGGER
 BLI .F               807:   BOTTOM LOG INTERVAL
 TLI .F                80:   TOP LOG INTERVAL
 BS  .IN             8.75:   BIT SIZE
 BSD .F              1000:   BIT SIZE AT DEPTH
 DFT .       OIL EMULSION:   DRILLING FLUID TYPE
 DFD .                8.7:   DRILLING FLUID DENSITY
 DFV .                 58:   DRILLING FLUID VISCOSITY
 DFL .                  4:   DRILLING FLUID LOSS
 RMS .OHMM           3.77:   RESISTIVITY MUD SAMPLE
 MST .F                79:   MUD SAMPLE TEMPERATURE
 RMF .OHMM           2.47:   RESISTIVITY MUD FILTRATE SAMPLE
 MFST.F                79:   MUD FILTRATE SAMPLE TEMPERATURE
 RMC .OHMM           3.29:   RESISTIVITY MUD CAKE
 MCST.F                79:   MUD CAKE SAMPLE TEMPERATURE
 TCS .HRS               1:   TIME CURCULATED STOPPED
 LUN .               2503:   LOGGING UNIT NUMBER
 LUL .               CSPR:   LOGGING UNIT LOCATION
 ENGI.             DANNER:   RECORDING ENGINEER
 WITN.          JORGENSEN:   WITNESSED BY
 CLNT.            A2DTECH:   CLIENT CODE
 ORIG.   1", 2", 5" PRINT:   ORIGIN OF DATA
 UWI .       490250639100:   UNIQUE WELL ID
 DICO. A2D Technologies, Inc.:   DIGITIZING COMPANY
~OTHER INFORMATION
~A   DEPT       GR        SPR          ASN        ILD      CILD      CALM   
# ...
  392.0000  -999.2500   -72.1212    10.0745     8.4407   116.2525  -999.2500
  392.5000  -999.2500   -72.2144    10.0238     8.3771   116.4193  -999.2500
  393.0000  -999.2500   -72.3078     9.9739     8.3137   116.5862  -999.2500
  393.5000  -999.2500   -72.4014     9.9240     8.2500   116.7530  -999.2500
  394.0000  -999.2500   -72.4977     9.8740     8.1854   116.9199  -999.2500
  394.5000  -999.2500   -72.4663     9.8240     8.1916   117.0867  -999.2500
  395.0000  -999.2500   -72.4049     9.7739     8.2123   117.0967  -999.2500
  395.5000  -999.2500   -72.3423     9.7244     8.2335   116.7434  -999.2500
  396.0000  -999.2500   -72.2799     9.6905     8.2546   116.3909  -999.2500
  396.5000  -999.2500   -72.2177     9.7015     8.2756   116.0369  -999.2500
  397.0000  -999.2500   -72.1554     9.7113     8.2966   115.6835  -999.2500
  397.5000  -999.2500   -72.0931     9.7221     8.3177   115.3297  -999.2500
  398.0000  -999.2500   -72.0309     9.7620     8.3386   114.9769  -999.2500
  398.5000  -999.2500   -71.9686     9.8990     8.3597   114.6236  -999.2500
  399.0000  -999.2500   -71.9064    10.0307     8.3795   114.2703  -999.2500
  399.5000  -999.2500   -71.8441    10.1053     8.2453   115.4022  -999.2500
  400.0000  -999.2500   -71.7819     9.9797     8.0760   117.0062  -999.2500
  400.5000  -999.2500   -71.7200     9.8596     7.9053   119.2991  -999.2500
  401.0000  -999.2500   -71.6434     9.7383     7.7348   123.6586  -999.2500
  401.5000  -999.2500   -71.5625     9.5758     7.5644   128.0181  -999.2500
  402.0000  -999.2500   -71.4816     9.2638     7.3941   132.3776  -999.2500
  402.5000  -999.2500   -71.4006     8.9558     7.2236   136.7371  -999.2500
  403.0000  -999.2500   -71.3196     8.6479     7.0534   141.0966  -999.2500
  403.5000  -999.2500   -71.2384     8.3354     6.8828   144.8692  -999.2500
  404.0000  -999.2500   -71.1581     8.1850     6.7078   146.1268  -999.2500
  404.5000  -999.2500   -71.0969     8.0801     6.7063   146.3783  -999.2500
  405.0000  -999.2500   -71.1160     8.0076     6.7525   146.3783  -999.2500
  405.5000  -999.2500   -71.1329     8.0465     6.8004   146.0661  -999.2500
  406.0000  -999.2500   -71.1497     8.0824     6.8482   144.8172  -999.2500
  406.5000  -999.2500   -71.1666     8.1180     6.8957   143.5683  -999.2500
  407.0000  -999.2500   -71.1835     8.1541     6.9432   142.3194  -999.2500
  407.5000  -999.2500   -71.2003     8.1745     6.9907   141.0706  -999.2500
  408.0000  -999.2500   -71.2172     8.1910     7.0382   139.8217  -999.2500
  408.5000  -999.2500   -71.2341     8.2163     7.0857   138.5728  -999.2500
  409.0000  -999.2500   -71.2509     8.2745     7.1332   137.3239  -999.2500
  409.5000  -999.2500   -71.2679     8.3319     7.1807   136.0751  -999.2500
  410.0000  -999.2500   -71.2846     8.3906     7.2283   134.8262  -999.2500
  410.5000  -999.2500   -71.2954     8.4034     7.2758   133.5773  -999.2500
  411.0000  -999.2500   -71.4396     8.4013     7.3233   132.3284  -999.2500
  411.5000  -999.2500   -71.6406     8.4884     7.3708   131.0796  -999.2500
  412.0000  -999.2500   -71.8504     8.6001     7.4183   129.8307  -999.2500
  412.5000  -999.2500   -71.9215     8.7127     7.4658   128.5818  -999.2500
  413.0000  -999.2500   -72.0141     8.8254     7.5134   127.8923  -999.2500
  413.5000  -999.2500   -72.1036     8.9405     7.5619   127.3893  -999.2500
  414.0000  -999.2500   -72.1932     8.9573     7.5732   126.8863  -999.2500
  414.5000  -999.2500   -72.2885     8.9471     7.5513   126.3833  -999.2500
  415.0000  -999.2500   -72.2201     8.9359     7.5227   127.2007  -999.2500
  415.5000  -999.2500   -72.0868     8.9250     7.4939   128.4556  -999.2500
  416.0000  -999.2500   -71.9515     8.9137     7.4652   129.7196  -999.2500
  416.5000  -999.2500   -71.8166     8.8901     7.4366   130.9811  -999.2500
  417.0000  -999.2500   -71.6818     8.8219     7.4079   131.2943  -999.2500
  417.5000  -999.2500   -71.5414     8.7550     7.3783   131.2909  -999.2500
  418.0000  -999.2500   -71.5019     8.6880     7.3823   131.2885  -999.2500
  418.5000  -999.2500   -71.5005     8.6185     7.3954   131.2877  -999.2500
  419.0000  -999.2500   -71.5009     8.6463     7.4089   131.2877  -999.2500
  419.5000  -999.2500   -71.4996     8.7007     7.4223   131.2877  -999.2500
  420.0000  -999.2500   -71.5805     8.7562     7.4357   131.2877  -999.2500
  420.5000  -999.2500   -71.7014     8.8136     7.4491   131.2877  -999.2500
  421.0000  -999.2500   -71.8228     8.7949     7.4623   131.2877  -999.2500
  421.5000  -999.2500   -71.9443     8.7553     7.4668   131.2877  -999.2500
  422.0000  -999.2500   -72.0657     8.7150     7.4397   131.2877  -999.2500
  422.5000  -999.2500   -72.1871     8.6773     7.4135   131.2877  -999.2500
  423.0000  -999.2500   -72.3086     8.6489     7.3874   131.2877  -999.2500
  423.5000  -999.2500   -72.4300     8.6202     7.3612   131.2877  -999.2500
  424.0000  -999.2500   -72.5513     8.5918     7.3351   131.4706  -999.2500
  424.5000  -999.2500   -72.6738     8.5542     7.3089   132.2023  -999.2500
  425.0000  -999.2500   -72.7176     8.5141     7.2827   132.9327  -999.2500
  425.5000  -999.2500   -72.7182     8.4739     7.2566   133.6640  -999.2500
  426.0000  -999.2500   -72.7185     8.4338     7.2304   134.3933  -999.2500
  426.5000  -999.2500   -72.7184     8.3938     7.2043   135.1226  -999.2500
  427.0000  -999.2500   -72.7004     8.3532     7.1804   136.6323  -999.2500
  427.5000  -999.2500   -72.5524     8.3002     7.0709   138.3929  -999.2500
  428.0000  -999.2500   -72.4028     8.2014     6.9379   140.1534  -999.2500
  428.5000  -999.2500   -72.2536     8.1039     6.8041   141.9140  -999.2500
  429.0000  -999.2500   -72.1045     8.0065     6.6698   146.0190  -999.2500
  429.5000  -999.2500   -71.9554     7.9114     6.5175   150.9054  -999.2500
  430.0000  -999.2500   -71.8063     7.7966     6.2997   155.7919  -999.2500
  430.5000  -999.2500   -71.6571     7.6071     6.0836   160.6784  -999.2500
  431.0000  -999.2500   -71.5084     7.4197     5.8675   165.5648  -999.2500
  431.5000  -999.2500   -71.3585     7.2322     5.6517   170.4513  -999.2500
  432.0000  -999.2500   -71.3314     7.0434     5.4354   175.3377  -999.2500
  432.5000  -999.2500   -71.3841     6.9076     5.2112   176.0563  -999.2500
  433.0000  -999.2500   -71.4377     6.7849     5.2791   175.3857  -999.2500
  433.5000  -999.2500   -71.4919     6.7113     5.4315   174.7150  -999.2500
  434.0000  -999.2500   -71.5459     6.7452     5.5021   172.0322  -999.2500
  434.5000  -999.2500   -71.5999     6.9617     5.6674   168.3434  -999.2500
  435.0000  -999.2500   -71.6536     7.1745     5.8277   163.6486  -999.2500
  435.5000  -999.2500   -71.7050     7.3888     5.9879   158.9537  -999.2500
  436.0000  -999.2500   -71.7538     7.5223     6.1485   154.2589  -999.2500
  436.5000  -999.2500   -71.8006     7.6345     6.3089   149.5641  -999.2500
  437.0000  -999.2500   -71.8473     7.7057     6.4695   147.7436  -999.2500
  437.5000  -999.2500   -71.8940     7.7663     6.6331   146.8813  -999.2500
  438.0000  -999.2500   -71.9407     7.8279     6.6821   146.0190  -999.2500
  438.5000  -999.2500   -71.9874     7.8326     6.6997   145.1566  -999.2500
  439.0000  -999.2500   -72.0341     7.8216     6.7161   144.2943  -999.2500
  439.5000  -999.2500   -72.0808     7.8098     6.7327   143.4320  -999.2500
  440.0000  -999.2500   -72.1275     8.2762    11.6667   146.2698  -999.2500
  440.5000  -999.2500   -71.7038     7.5333    11.6667   146.2698  -999.2500
  441.0000  -999.2500   -71.6727     8.1836    11.6223   147.6072  -999.2500
  441.5000  -999.2500   -71.5837     8.0626    11.5021   151.2335  -999.2500
  442.0000  -999.2500   -71.5171     7.9699    11.4124   153.9535  -999.2500
  442.5000  -999.2500   -71.4280     7.8522    11.2921   157.2195  -999.2500
  443.0000  -999.2500   -71.3391     7.7299    11.1701   162.9305  -999.2500
  443.5000  -999.2500   -71.2501     7.6083    10.9134   171.4107  -999.2500
