~VERSION INFORMATION
 VERS.                2.0:   CWLS LOG ASCII STANDARD - VERSION 2.0
 WRAP.                 NO:   ONE LINE PER DEPTH STEP
~WELL INFORMATION
#MNEM.UNIT      DATA TYPE    INFORMATION
#----------   ------------   ------------------------------
 STRT.F           16.0000:   START DEPTH
 STOP.F         2438.0000:   STOP DEPTH
 STEP.F            0.5000:   STEP LENGTH
 NULL.          -999.2500:   NO VALUE
 COMP. FENIX & SCISSON INC:   COMPANY
 WELL.      15 SHX #27-27:   WELL
 FLD .             TEAPOT:   FIELD
 LOC .      S27 T39N R78W:   LOCATION
 CNTY.            NATRONA:   COUNTY
 STAT.            WYOMING:   STATE
 CTRY. UNITED STATES OF AMERICA:   COUNTRY
 SRVC.            Unknown:   SERVICE COMPANY
 DATE.        09-JUN-1978:   LOGDATE
 API .       490251064100:   API NUMBER
~CURVE INFORMATION
#MNEM.UNIT       API CODE    CURVE DESCRIPTION
#----------   ------------   ------------------------------
 DEPT.F                  :   
 CALD.IN     45 280 60 00:   CALIPER FROM DENSITY LOG
 GRD .GAPI   45 310 01 00:   GAMMA RAY FROM DENSITY LOG
 CORR.G/C3   45 356 01 00:   DENSITY CORRECTION
 RHOB.G/C3   45 350 01 00:   BULK DENSITY
 DPHI.DEC    45 890 10 00:   DENSITY POROSITY LIMESTONE
~PARAMETER INFORMATION
#MNEM.UNIT          VALUE    DESCRIPTION
#----------   ------------   ------------------------------
 PD  .                 GL:   PERMANENT DATUM
 EPD .F              5062:   ELEVATION PERMANENT DATUM
 LMF .                 KB:   LOG MEASURED FROM
 DAPD.F                10:   FEET ABOVE PERMANENT DATUM
 DMF .                 KB:   DRILLING MEASURED FROM
 EKB .F              5072:   KELLING BUSHING
 EGL .F              5062:   GROUND LEVEL
 DATE.        09-JUN-1978:   RUN DATE
 RUN .                  1:   RUN NUMBER
 DD  .F              2450:   DEPTH DRILLER
 DL  .F              2445:   DEPTH LOGGER
 BLI .F              2438:   BOTTOM LOG INTERVAL
 TLI .F                10:   TOP LOG INTERVAL
 CS  .IN            9.625:   CASING SIZE
 CBD .F               688:   CASING BOTTOM DRILLER
 CBL .F               694:   CASING BOTTOM LOGGER
 BS  .IN             8.75:   BIT SIZE
 BSD .F              2450:   BIT SIZE AT DEPTH
 DFT .           AIR MIST:   DRILLING FLUID TYPE
 TCS .HRS               1:   TIME CURCULATED STOPPED
 LUN .               2958:   LOGGING UNIT NUMBER
 LUL .                CPR:   LOGGING UNIT LOCATION
 ENGI.             MILLER:   RECORDING ENGINEER
 WITN.           MCGINLEY:   WITNESSED BY
 CLNT.            A2DTECH:   CLIENT CODE
 ORIG.           5" PRINT:   ORIGIN OF DATA
 UWI .       490251064100:   UNIQUE WELL ID
 DICO. A2D Technologies, Inc.:   DIGITIZING COMPANY
~OTHER INFORMATION
~A   DEPT     CALD         GRD      CORR       RHOB       DPHI   
# ...
 1358.0000     9.9835    90.4218  -999.2500     2.5371     0.0065
 1358.5000    10.0006    90.2811  -999.2500     2.5417     0.0047
 1359.0000    10.0028    89.8187  -999.2500     2.5464     0.0009
 1359.5000     9.9739    85.2424  -999.2500     2.5573    -0.0038
 1360.0000     9.8836    77.5752  -999.2500     2.5481     0.0129
 1360.5000     9.7780    76.6635  -999.2500     2.5358     0.0129
 1361.0000     9.7644    78.2163  -999.2500     2.5359     0.0042
 1361.5000     9.7983    80.9946  -999.2500     2.5405    -0.0035
 1362.0000     9.9065    83.6193  -999.2500     2.5552    -0.0001
 1362.5000    10.0003    83.9398  -999.2500     2.5445     0.0075
 1363.0000    10.0174    80.2698  -999.2500     2.5361     0.0109
 1363.5000    10.0345    76.1357  -999.2500     2.5353     0.0118
 1364.0000     9.9902    81.6790  -999.2500     2.5346     0.0121
 1364.5000     9.9143    80.7706  -999.2500     2.5355     0.0121
 1365.0000     9.8557    77.8654  -999.2500     2.5347     0.0117
 1365.5000     9.9960    78.9540  -999.2500     2.5364     0.0086
 1366.0000    10.0438    80.9852  -999.2500     2.5456     0.0018
 1366.5000    10.0609    77.4479  -999.2500     2.5549    -0.0139
 1367.0000    10.0626    69.7807  -999.2500     2.5642    -0.0114
 1367.5000    10.0644    70.7157  -999.2500     2.5581    -0.0038
 1368.0000    10.0355    68.1176  -999.2500     2.5543     0.0027
 1368.5000    10.0070    66.7485  -999.2500     2.5534     0.0042
 1369.0000     9.9628    66.3010  -999.2500     2.5360     0.0137
 1369.5000     9.9185    70.0043  -999.2500     2.5167     0.0214
 1370.0000     9.8590    77.8517  -999.2500     2.5114     0.0173
 1370.5000     9.8143    81.5483  -999.2500     2.5269     0.0074
 1371.0000     9.7551    77.1103  -999.2500     2.5423     0.0053
 1371.5000     9.8647    72.9761  -999.2500     2.5397     0.0160
 1372.0000     9.9278    74.2184  -999.2500     2.5147     0.0246
 1372.5000     9.9449    82.2579  -999.2500     2.5117     0.0277
 1373.0000     9.9467    83.6185  -999.2500     2.5148     0.0154
 1373.5000     9.9638    82.8638  -999.2500     2.5241     0.0141
 1374.0000     9.9967    81.4946  -999.2500     2.5288     0.0187
 1374.5000    10.0138    80.5863  -999.2500     2.5296     0.0125
 1375.0000    10.0309    78.7563  -999.2500     2.5257     0.0297
 1375.5000    10.0327    76.6191  -999.2500     2.5066     0.0337
 1376.0000    10.0498    76.8481  -999.2500     2.4982     0.0087
 1376.5000    10.0515    78.7996  -999.2500     2.5275    -0.0098
 1377.0000    10.0534    82.4996  -999.2500     2.5607    -0.0075
 1377.5000    10.0555    82.9737  -999.2500     2.5616     0.0003
 1378.0000    10.0726    83.2943  -999.2500     2.5481     0.0046
 1378.5000    10.0744    85.9190  -999.2500     2.5385     0.0074
 1379.0000    10.0762    87.3200  -999.2500     2.5370     0.0104
 1379.5000    10.0933    86.8706  -999.2500     2.5402     0.0101
 1380.0000    10.0951    82.8901  -999.2500     2.5433     0.0011
 1380.5000    10.0815    76.9126  -999.2500     2.5434     0.0021
 1381.0000    10.0679    77.5404  -999.2500     2.5411     0.0063
 1381.5000    10.0543    80.4723  -999.2500     2.5412     0.0023
 1382.0000    10.0412    81.2537  -999.2500     2.5412     0.0038
 1382.5000    10.0429    81.2673  -999.2500     2.5436     0.0072
 1383.0000    10.0449    80.5156  -999.2500     2.5459     0.0001
 1383.5000    10.0313    79.3001  -999.2500     2.5475    -0.0006
 1384.0000    10.0024    77.6203  -999.2500     2.5484     0.0022
 1384.5000    10.0046    80.0948  -999.2500     2.5485    -0.0028
 1385.0000    10.0371    84.5628  -999.2500     2.5500     0.0046
 1385.5000    10.0388    84.8859  -999.2500     2.5493    -0.0007
 1386.0000    10.0406    79.3360  -999.2500     2.5447     0.0042
 1386.5000    10.0424    73.6998  -999.2500     2.5378     0.0119
 1387.0000    10.0442    71.8698  -999.2500     2.5348     0.0059
 1387.5000    10.0463    78.4883  -999.2500     2.5358     0.0035
 1388.0000    10.0481    77.1192  -999.2500     2.5411     0.0078
 1388.5000    10.0499    75.1356  -999.2500     2.5442     0.0066
 1389.0000    10.0205    74.6830  -999.2500     2.5474     0.0025
 1389.5000    10.0074    72.7078  -999.2500     2.5489    -0.0027
 1390.0000    10.0092    69.1881  -999.2500     2.5499    -0.0021
 1390.5000    10.0114    67.5117  -999.2500     2.5467     0.0028
 1391.0000     9.9974    64.7601  -999.2500     2.5391     0.0080
 1391.5000     9.9996    68.9208  -999.2500     2.5353     0.0101
 1392.0000    10.0014    77.6899  -999.2500     2.5323     0.0116
 1392.5000    10.0031    74.0040  -999.2500     2.5285     0.0125
 1393.0000     9.9889    74.6477  -999.2500     2.5254     0.0279
 1393.5000     9.9453    76.1971  -999.2500     2.5116     0.0350
 1394.0000     9.9011    79.1290  -999.2500     2.5001     0.0223
 1394.5000     9.8875    80.8321  -999.2500     2.5087     0.0174
 1395.0000     9.8897    81.9207  -999.2500     2.5249     0.0112
 1395.5000     9.9221    81.7804  -999.2500     2.5365     0.0081
 1396.0000     9.9703    77.7187  -999.2500     2.5404     0.0059
 1396.5000    10.0335    79.3526  -999.2500     2.5397     0.0136
 1397.0000    10.0813    83.2062  -999.2500     2.5366     0.0099
 1397.5000    10.0830    82.7587  -999.2500     2.5359     0.0120
 1398.0000    10.0235    84.6153  -999.2500     2.5368     0.0117
 1398.5000     9.9639    86.6256  -999.2500     2.5391     0.0076
 1399.0000     9.9350    84.9390  -999.2500     2.5426    -0.0118
 1399.5000     9.9525    84.6553  -999.2500     2.5485    -0.0183
 1400.0000    10.0012    84.8244  -999.2500     2.5555    -0.0072
 1400.5000    10.0321    84.3819  -999.2500     2.5628    -0.0087
 1401.0000    10.0483    82.0956  -999.2500     2.5703    -0.0181
 1401.5000     9.9884    82.2744  -999.2500     2.5726    -0.0132
 1402.0000     9.9436    83.2340  -999.2500     2.5658     0.0022
 1402.5000     9.9601    84.6114  -999.2500     2.5504     0.0034
 1403.0000    10.0262    85.3973  -999.2500     2.5389     0.0043
 1403.5000    10.1622    85.7224  -999.2500     2.5359     0.0080
 1404.0000    10.1020    84.9722  -999.2500     2.5384     0.0050
 1404.5000    10.0722    78.2313  -999.2500     2.5529    -0.0118
 1405.0000    10.1044    77.3068  -999.2500     2.5708    -0.0186
 1405.5000    10.1973    78.4302  -999.2500     2.5786    -0.0069
 1406.0000    10.1375    78.7502  -999.2500     2.5617     0.0014
 1406.5000    10.0773    80.7650  -999.2500     2.5541     0.0038
 1407.0000    10.0631    84.4695  -999.2500     2.5426     0.0078
 1407.5000    10.1413    84.7946  -999.2500     2.5319     0.0106
 1408.0000    10.2039    84.1980  -999.2500     2.5517    -0.0054
 1408.5000    10.3277    81.4509  -999.2500     2.5582    -0.0070
 1409.0000    10.4056    80.5469  -999.2500     2.5459     0.0012
 1409.5000    10.4375    80.5653  -999.2500     2.5422     0.0049
 1410.0000    10.3773    82.7378  -999.2500     2.5399     0.0083
 1410.5000    10.3315    87.3640  -999.2500     2.5392     0.0061
 1411.0000    10.3033    87.2238  -999.2500     2.5393     0.0061
 1411.5000    10.2892    88.4750  -999.2500     2.5332     0.0098
 1412.0000    10.2443    89.1028  -999.2500     2.5302     0.0125
 1412.5000    10.1995    84.9777  -999.2500     2.5303     0.0128
 1413.0000    10.1851    84.3686  -999.2500     2.5334     0.0091
 1413.5000    10.2172    85.7952  -999.2500     2.5312     0.0093
 1414.0000    10.2491    87.4935  -999.2500     2.5274     0.0139
 1414.5000    10.2656    88.4286  -999.2500     2.5251     0.0164
 1415.0000    10.3131    80.1560  -999.2500     2.5244     0.0191
 1415.5000    10.3143    78.1725  -999.2500     2.5183     0.0236
 1416.0000    10.3155    80.9598  -999.2500     2.5121     0.0280
 1416.5000    10.2860    81.2849  -999.2500     2.5115     0.0224
 1417.0000    10.1952    81.1490  -999.2500     2.5247     0.0101
 1417.5000    10.1350    83.3180  -999.2500     2.5363     0.0073
 1418.0000    10.1362    82.7254  -999.2500     2.5410     0.0057
 1418.5000    10.1396    81.5144  -999.2500     2.5442     0.0048
