~VERSION INFORMATION
 VERS.                2.0:   CWLS LOG ASCII STANDARD - VERSION 2.0
 WRAP.                 NO:   ONE LINE PER DEPTH STEP
~WELL INFORMATION
#MNEM.UNIT      DATA TYPE    INFORMATION
#----------   ------------   ------------------------------
 STRT.F            8.0000:   START DEPTH
 STOP.F         2320.0000:   STOP DEPTH
 STEP.F            0.5000:   STEP LENGTH
 NULL.          -999.2500:   NO VALUE
 COMP.    FENIX & SCISSON:   COMPANY
 WELL. N.P.R #3 #77-SHX-10:   WELL
 FLD .             TEAPOT:   FIELD
 LOC .      S10 T38N R78W:   LOCATION
 CNTY.            NATRONA:   COUNTY
 STAT.            WYOMING:   STATE
 CTRY. UNITED STATES OF AMERICA:   COUNTRY
 SRVC.              Welex:   SERVICE COMPANY
 DATE.        05-JUN-1980:   LOGDATE
 API .       490251064900:   API NUMBER
~CURVE INFORMATION
#MNEM.UNIT       API CODE    CURVE DESCRIPTION
#----------   ------------   ------------------------------
 DEPT.F                  :   
 GRD .GAPI   45 310 01 00:   GAMMA RAY FROM DENSITY LOG
 CALD.IN     45 280 60 00:   CALIPER FROM DENSITY LOG
 RHOB.G/C3   45 350 01 00:   BULK DENSITY
 DPHI.DEC    45 890 12 00:   DENSITY POROSITY SANDSTONE
 ILD .OHMM   05 120 46 00:   INDUCTION LOG DEEP
 CORR.G/C3   45 356 01 00:   DENSITY CORRECTION
~PARAMETER INFORMATION
#MNEM.UNIT          VALUE    DESCRIPTION
#----------   ------------   ------------------------------
 PD  .                 GL:   PERMANENT DATUM
 EPD .F              5210:   ELEVATION PERMANENT DATUM
 LMF .                 KB:   LOG MEASURED FROM
 DAPD.F                10:   FEET ABOVE PERMANENT DATUM
 DMF .                 KB:   DRILLING MEASURED FROM
 EKB .F              5220:   KELLING BUSHING
 EGL .F              5210:   GROUND LEVEL
 DATE.        05-JUN-1980:   RUN DATE
 RUN .                  1:   RUN NUMBER
 DD  .F              2358:   DEPTH DRILLER
 DL  .F              2322:   DEPTH LOGGER
 BLI .F              2320:   BOTTOM LOG INTERVAL
 TLI .F               900:   TOP LOG INTERVAL
 CS  .IN                7:   CASING SIZE
 BS  .IN             6.25:   BIT SIZE
 BSD .F              2358:   BIT SIZE AT DEPTH
 DFT .        AIR DRILLED:   DRILLING FLUID TYPE
 MRT .F               107:   MAXIMUM RECORDED TEMPERATURE
 ENGI.               REIN:   RECORDING ENGINEER
 WITN.              AMEND:   WITNESSED BY
 CLNT.            A2DTECH:   CLIENT CODE
 ORIG.           5" PRINT:   ORIGIN OF DATA
 UWI .       490251064900:   UNIQUE WELL ID
 DICO. A2D Technologies, Inc.:   DIGITIZING COMPANY
~OTHER INFORMATION
~A    DEPT      GRD      CALD       RHOB       DPHI        ILD       CORR   
# ...
 1880.0000   106.7755     6.8255     2.4604     0.0610  -999.2500     0.1577
 1880.5000   108.5580     6.7650     2.4510     0.0622  -999.2500     0.1606
 1881.0000   108.5493     6.7194     2.4532     0.0616  -999.2500     0.1621
 1881.5000   108.5387     6.7186     2.4547     0.0628  -999.2500     0.1620
 1882.0000   108.5301     6.7028     2.4103     0.0847  -999.2500     0.1507
 1882.5000   109.1207     6.7019     2.4027     0.0958  -999.2500     0.1270
 1883.0000   110.0055     6.7160     2.4139     0.0980  -999.2500     0.1496
 1883.5000   110.5861     6.7149     2.4214     0.0917  -999.2500     0.1661
 1884.0000   111.1824     6.7588     2.4131     0.0869  -999.2500     0.1751
 1884.5000   111.4723     6.8325     2.3980     0.0920  -999.2500     0.1765
 1885.0000   111.4615     6.9379     2.3920     0.0996  -999.2500     0.1563
 1885.5000   110.8559     7.0988     2.4197     0.0695  -999.2500     0.1763
 1886.0000   109.6533     7.1725     2.4579     0.0578  -999.2500     0.1883
 1886.5000   110.2418     7.1867     2.4691     0.0558  -999.2500     0.1988
 1887.0000   110.8537     7.1857     2.4878     0.0456  -999.2500     0.2048
 1887.5000   111.2694     7.1848     2.4810     0.0414  -999.2500     0.2092
 1888.0000   111.2586     7.1837     2.4434     0.0657  -999.2500     0.1819
 1888.5000   110.8023     7.1829     2.4471     0.0699  -999.2500     0.1652
 1889.0000   110.3460     7.1671     2.4554     0.0588  -999.2500     0.1863
 1889.5000   109.7364     7.1514     2.4606     0.0555  -999.2500     0.1937
 1890.0000   109.2819     7.1505     2.4650     0.0519  -999.2500     0.1967
 1890.5000   109.8703     7.1496     2.4717     0.0497  -999.2500     0.1981
 1891.0000   110.4587     7.1486     2.4793     0.0469  -999.2500     0.1935
 1891.5000   110.7508     7.1478     2.4806     0.0511  -999.2500     0.1586
 1892.0000   110.7401     7.1419     2.4445     0.0757  -999.2500     0.1268
 1892.5000   110.7215     7.1162     2.4144     0.0956  -999.2500     0.1056
 1893.0000   110.1237     7.1154     2.3964     0.1023  -999.2500     0.0843
 1893.5000   109.5181     7.0845     2.4061     0.0992  -999.2500     0.0876
 1894.0000   109.8081     7.0538     2.4090     0.0941  -999.2500     0.1053
 1894.5000   110.5458     6.9337     2.3932     0.1073  -999.2500     0.1022
 1895.0000   111.1342     6.9927     2.3751     0.1131  -999.2500     0.0900
 1895.5000   111.1096     7.0513     2.3961     0.1104  -999.2500     0.0718
 1896.0000   110.6478     7.0502     2.4051     0.0951  -999.2500     0.1004
 1896.5000   110.0615     7.0493     2.4118     0.0909  -999.2500     0.1143
 1897.0000   109.7544     7.0485     2.4050     0.0969  -999.2500     0.1199
 1897.5000   109.7458     7.0476     2.3734     0.1029  -999.2500     0.1152
 1898.0000   110.4835     7.0468     2.3583     0.1129  -999.2500     0.1016
 1898.5000   111.0936     7.0459     2.3755     0.1174  -999.2500     0.1151
 1899.0000   111.2126     6.9852     2.4198     0.0904  -999.2500     0.1512
 1899.5000   110.9034     6.8503     2.4433     0.0820  -999.2500     0.2012
 1900.0000   110.2978     6.7302     2.4414     0.0736  -999.2500     0.2356
 1900.5000   109.8414     6.6548     2.4294     0.0766  -999.2500     0.2431
 1901.0000   109.3851     6.6086     2.4128     0.0920  -999.2500     0.2461
 1901.5000   109.1678     6.5635     2.3865     0.1015  -999.2500     0.2369
 1902.0000   109.0687     6.5030     2.3969     0.1007  -999.2500     0.2399
 1902.5000   109.0587     6.4425     2.3894     0.1019  -999.2500     0.2382
 1903.0000   108.9009     6.3821     2.4036     0.1031  -999.2500     0.2336
 1903.5000   108.1460     6.3216     2.4193     0.0893  -999.2500     0.2516
 1904.0000   105.7493     6.3034     2.4313     0.0800  -999.2500     0.2636
 1904.5000   105.4433     6.4836     2.4402     0.0725  -999.2500     0.2817
 1905.0000   106.9252     6.6169     2.4448     0.0710  -999.2500     0.2719
 1905.5000   107.5117     6.6160     2.4469     0.0698  -999.2500     0.2150
 1906.0000   107.5032     6.6152     2.4310     0.0723  -999.2500     0.1907
 1906.5000   107.3454     6.8583     2.4137     0.0851  -999.2500     0.1801
 1907.0000   106.8892     6.9709     2.3987     0.0918  -999.2500     0.1709
 1907.5000   106.8807     6.9552     2.4138     0.0852  -999.2500     0.1705
 1908.0000   107.3413     6.9394     2.4301     0.0804  -999.2500     0.1817
 1908.5000   107.7572     6.8790     2.3933     0.0945  -999.2500     0.1933
 1909.0000   108.0478     6.8036     2.4052     0.0997  -999.2500     0.1494
 1909.5000   108.0387     6.8025     2.4112     0.0916  -999.2500     0.1509
 1910.0000   107.7296     6.8168     2.4126     0.0976  -999.2500     0.1477
 1910.5000   106.8256     6.8008     2.3863     0.0976  -999.2500     0.1325
 1911.0000   106.2223     6.7850     2.4052     0.0904  -999.2500     0.1615
 1911.5000   107.2565     6.7395     2.4213     0.0847  -999.2500     0.1735
 1912.0000   108.0099     6.7066     2.4040     0.0932  -999.2500     0.1750
 1912.5000   108.4314     6.6034     2.4197     0.0908  -999.2500     0.1884
 1913.0000   108.2737     6.4819     2.4106     0.0918  -999.2500     0.1974
 1913.5000   106.7727     6.5440     2.3895     0.1022  -999.2500     0.1808
 1914.0000   107.0647     6.5861     2.3925     0.1001  -999.2500     0.2018
 1914.5000   107.8358     6.5850     2.4104     0.0917  -999.2500     0.2108
 1915.0000   108.5362     6.6031     2.3939     0.0989  -999.2500     0.1820
 1915.5000   109.1247     6.6135     2.4136     0.0812  -999.2500     0.1472
 1916.0000   109.5640     6.6420     2.4305     0.0768  -999.2500     0.1260
 1916.5000   109.8757     6.6561     2.4252     0.0819  -999.2500     0.1168
 1917.0000   110.2318     6.6551     2.4041     0.0909  -999.2500     0.1047
 1917.5000   110.2849     6.6542     2.4056     0.0903  -999.2500     0.0986
 1918.0000   110.5728     6.6683     2.4277     0.0807  -999.2500     0.1136
 1918.5000   110.5642     6.6523     2.4159     0.0933  -999.2500     0.1347
 1919.0000   110.7051     6.8154     2.3949     0.1036  -999.2500     0.1253
 1919.5000   110.6945     6.9636     2.3828     0.1162  -999.2500     0.1149
 1920.0000   110.3875     7.0224     2.3745     0.1054  -999.2500     0.1073
 1920.5000   110.2298     7.0662     2.3977     0.1021  -999.2500     0.1419
 1921.0000   110.2192     7.0803     2.4179     0.0916  -999.2500     0.1571
 1921.5000   111.1062     7.0943     2.4456     0.0730  -999.2500     0.1720
 1922.0000   111.9416     7.1082     2.4428     0.0586  -999.2500     0.1840
 1922.5000   112.9252     7.1369     2.4695     0.0517  -999.2500     0.1915
 1923.0000   113.7952     7.1362     2.4679     0.0526  -999.2500     0.1763
 1923.5000   114.8015     7.1352     2.4619     0.0605  -999.2500     0.1520
 1924.0000   114.9444     7.1344     2.4438     0.0752  -999.2500     0.1323
 1924.5000   114.7846     7.1104     2.4250     0.0794  -999.2500     0.1111
 1925.0000   114.1791     7.1027     2.4227     0.0788  -999.2500     0.1020
 1925.5000   113.1237     7.1019     2.4324     0.0776  -999.2500     0.1186
 1926.0000   112.5182     7.1161     2.3970     0.0930  -999.2500     0.1063
 1926.5000   111.7635     7.1076     2.4045     0.0972  -999.2500     0.0881
 1927.0000   111.3073     7.0969     2.4278     0.0798  -999.2500     0.0911
 1927.5000   110.2140     7.0535     2.4546     0.0666  -999.2500     0.1091
 1928.0000   109.1986     7.0080     2.4448     0.0684  -999.2500     0.1181
 1928.5000   108.8917     6.9624     2.4523     0.0610  -999.2500     0.1120
 1929.0000   109.3309     6.9296     2.4635     0.0510  -999.2500     0.1270
 1929.5000   110.0747     6.8711     2.4749     0.0456  -999.2500     0.1421
 1930.0000   110.6552     6.8255     2.4836     0.0444  -999.2500     0.1543
 1930.5000   111.3183     6.7800     2.4686     0.0520  -999.2500     0.1479
 1931.0000   111.8344     6.7634     2.4445     0.0694  -999.2500     0.1313
 1931.5000   112.4209     6.6738     2.4489     0.0643  -999.2500     0.1146
