~VERSION INFORMATION
 VERS.                2.0:   CWLS LOG ASCII STANDARD - VERSION 2.0
 WRAP.                 NO:   ONE LINE PER DEPTH STEP
~WELL INFORMATION
#MNEM.UNIT      DATA TYPE    INFORMATION
#----------   ------------   ------------------------------
 STRT.F           40.0000:   START DEPTH
 STOP.F          596.0000:   STOP DEPTH
 STEP.F            0.5000:   STEP LENGTH
 NULL.          -999.2500:   NO VALUE
 COMP. FENIX & SCISSON INC:   COMPANY
 WELL. SX-15 N.O.R. #3 #51-15:   WELL
 FLD .             TEAPOT:   FIELD
 LOC .      S15 T38N R78W:   LOCATION
 CNTY.            NATRONA:   COUNTY
 STAT.            WYOMING:   STATE
 CTRY. UNITED STATES OF AMERICA:   COUNTRY
 SRVC.              Welex:   SERVICE COMPANY
 DATE.        12-MAR-1977:   LOGDATE
 API .       490251031100:   API NUMBER
~CURVE INFORMATION
#MNEM.UNIT       API CODE    CURVE DESCRIPTION
#----------   ------------   ------------------------------
 DEPT.F                  :   
 GRD .GAPI   45 310 01 00:   GAMMA RAY FROM DENSITY LOG
 CALD.IN     45 280 60 00:   CALIPER FROM DENSITY LOG
 CORR.G/C3   45 356 01 00:   DENSITY CORRECTION
 RHOB.G/C3   45 350 01 00:   BULK DENSITY
 DPOR.DEC    45 890 12 00:   DENSITY POROSITY SANDSTONE
 SGRD.OHMM   07 220 05 00:   SHALLOW GUARD RESISTIVITY
 ILD .OHMM   07 120 46 00:   INDUCTION LOG DEEP
 ILM .OHMM   07 120 44 00:   INDUCTION LOG MEDIUM
 SPR .MV     07 010 01 00:   SPONTANEOUS POTENTIAL
~PARAMETER INFORMATION
#MNEM.UNIT          VALUE    DESCRIPTION
#----------   ------------   ------------------------------
 PD  .                 GL:   PERMANENT DATUM
 EPD .F              5221:   ELEVATION PERMANENT DATUM
 LMF .                 GL:   LOG MEASURED FROM
 DMF .                 GL:   DRILLING MEASURED FROM
 EGL .F              5221:   GROUND LEVEL
 DATE.            3-12-77:   RUN DATE
 RUN .                  1:   RUN NUMBER
 DD  .F               600:   DEPTH DRILLER
 DL  .F               597:   DEPTH LOGGER
 BLI .F               596:   BOTTOM LOG INTERVAL
 TLI .F                45:   TOP LOG INTERVAL
 CS  .IN            8.625:   CASING SIZE
 CBD .F                46:   CASING BOTTOM DRILLER
 CBL .F                45:   CASING BOTTOM LOGGER
 BS  .IN            7.875:   BIT SIZE
 BSD .F               600:   BIT SIZE AT DEPTH
 DFT .            KCL-MUD:   DRILLING FLUID TYPE
 DFD .                8.9:   DRILLING FLUID DENSITY
 DFV .                 34:   DRILLING FLUID VISCOSITY
 MSS .            MUD PIT:   MUD SAMPLE SOURCE
 RMS .OHMM            .68:   RESISTIVITY MUD SAMPLE
 MST .F                40:   MUD SAMPLE TEMPERATURE
 RMF .OHMM            .57:   RESISTIVITY MUD FILTRATE SAMPLE
 MFST.F                40:   MUD FILTRATE SAMPLE TEMPERATURE
 RMC .OHMM            .78:   RESISTIVITY MUD CAKE
 MCST.F                40:   MUD CAKE SAMPLE TEMPERATURE
 MFSS.           MEASURED:   MUD FILTRATE SAMPLE SOURCE
 MCSS.           MEASURED:   MUD CAKE SAMPLE SOURCE
 RMB .OHMM            .41:   RESISTIVITY MUD AT BHT
 BHT .F                65:   BOTTOM HOLE TEMPERATURE
 TCS .HRS               3:   TIME CURCULATED STOPPED
 MRT .F                65:   MAXIMUM RECORDED TEMPERATURE
 LUN .                716:   LOGGING UNIT NUMBER
 LUL .             VERNAL:   LOGGING UNIT LOCATION
 ENGI.           CALLAHAN:   RECORDING ENGINEER
 WITN.         STUEBINGER:   WITNESSED BY
 CLNT.            A2DTECH:   CLIENT CODE
 ORIG.       2", 5" PRINT:   ORIGIN OF DATA
 UWI .       490251031100:   UNIQUE WELL ID
 DICO. A2D Technologies, Inc.:   DIGITIZING COMPANY
~OTHER INFORMATION
~A   DEPT       GRD        CALD     CORR       RHOB       DPOR       SGRD        ILD        ILM        SPR   
# ...
  551.0000   108.7323     7.7936     0.0277     2.4770     0.1001    17.3284    12.0009    11.3604   -34.3900
  551.5000   109.5522     7.7936     0.0239     2.4795     0.0989    16.9848    12.0764    12.1262   -34.2201
  552.0000   110.3730     7.7936     0.0317     2.4833     0.0977    16.6266    12.1566    12.5458   -34.0501
  552.5000   111.1974     7.7936     0.0404     2.4864     0.0972    16.6339    12.1566    12.6361   -33.8802
  553.0000   111.9839     7.7936     0.0346     2.4798     0.0984    17.2827    12.1567    12.7302   -33.7103
  553.5000   111.3892     7.7936     0.0290     2.4737     0.0995    17.8677    12.1573    12.9780   -33.5403
  554.0000   110.6438     7.7936     0.0327     2.4813     0.0989    18.2385    12.0775    13.4635   -33.3704
  554.5000   109.8929     7.7936     0.0382     2.4894     0.0958    18.0714    11.9766    14.1370   -33.2004
  555.0000   109.6021     7.7936     0.0421     2.4974     0.0928    17.9515    11.8766    14.8443   -33.0305
  555.5000   109.5671     7.7936     0.0345     2.5011     0.0905    17.6011    11.7774    15.5869   -32.8606
  556.0000   109.5352     7.7936     0.0272     2.4916     0.0942    17.1158    11.6790    16.0300   -32.6906
  556.5000   109.5031     7.7936     0.0198     2.4823     0.0988    16.4796    11.5815    14.8903   -32.5207
  557.0000   109.4696     7.7936     0.0124     2.4731     0.1035    16.7651    11.4847    15.4476   -32.3508
  557.5000   109.4454     7.7936     0.0154     2.4653     0.1082    17.2175    11.3888    16.4741   -32.1808
  558.0000   109.6424     7.7936     0.0192     2.4670     0.1093    17.7410    11.2937    16.0375   -32.0109
  558.5000   110.4821     7.7936     0.0229     2.4719     0.1077    17.2651    11.1994    15.5969   -31.8410
  559.0000   111.2943     7.7936     0.0265     2.4768     0.1060    17.0986    11.1596    16.0725   -31.6710
  559.5000   112.1095     7.7936     0.0303     2.4817     0.1043    17.1902    11.1263    16.5282   -31.5011
  560.0000   113.2136     7.7936     0.0366     2.4866     0.1027    17.2570    11.0997    16.9417   -31.3311
  560.5000   114.8730     7.7936     0.0429     2.4909     0.1002    16.7423    10.9171    15.6703   -31.1609
  561.0000   116.5225     7.7936     0.0492     2.4962     0.0953    16.4391    10.7996    14.7536   -30.9919
  561.5000   118.1713     7.7936     0.0556     2.5015     0.0904    16.3748    10.6795    14.9901   -30.8257
  562.0000   119.8349     7.7936     0.0621     2.5069     0.0856    16.1203    10.5609    15.1674   -30.6768
  562.5000   120.5860     7.7936     0.0585     2.5114     0.0841    15.5531    10.4437    14.4811   -30.5288
  563.0000   120.8326     7.7936     0.0541     2.5107     0.0855    14.8903    10.3278    13.9141   -30.3813
  563.5000   121.0666     7.7936     0.0496     2.5075     0.0874    14.9996    10.2132    13.5788   -30.2339
  564.0000   121.1154     7.7936     0.0453     2.5044     0.0893    15.1400    10.0999    13.9350   -30.0864
  564.5000   120.5551     7.7936     0.0409     2.5014     0.0912    15.3078     9.9879    14.0889   -29.9390
  565.0000   120.0129     7.7936     0.0390     2.4983     0.0931    14.9933     9.8770    13.3266   -29.7915
  565.5000   119.4708     7.7936     0.0433     2.4972     0.0931    14.6182     9.7675    12.8114   -29.6441
  566.0000   118.9276     7.7936     0.0507     2.5007     0.0879    14.7277     9.6591    12.7302   -29.4967
  566.5000   118.3945     7.7936     0.0560     2.5040     0.0841    14.8903     9.5519    12.7302   -29.3493
  567.0000   118.1937     7.7924     0.0513     2.5041     0.0867    14.4088     9.4459    12.5573   -29.2018
  567.5000   118.7553     7.7909     0.0378     2.4931     0.0923    13.9680     9.3783    11.9299   -29.0544
  568.0000   119.2870     7.7893     0.0350     2.4821     0.0979    13.7875     9.3528    11.5024   -28.9070
  568.5000   119.8186     7.7877     0.0364     2.4809     0.1001    13.7046     9.3273    11.9330   -28.7595
  569.0000   120.3515     7.7861     0.0379     2.4829     0.0993    13.7513     9.3018    11.6557   -28.6121
  569.5000   120.8840     7.7846     0.0366     2.4850     0.0984    13.8177     9.2763    10.8873   -28.4651
  570.0000   121.4164     7.7830     0.0344     2.4855     0.0982    13.8844     9.2509    11.0865   -28.3161
  570.5000   121.9489     7.7814     0.0325     2.4826     0.0992    13.9518     9.2256    11.5024   -28.1873
  571.0000   122.4813     7.7798     0.0413     2.4806     0.1002    14.0201     9.2003    11.1210   -28.0705
  571.5000   123.0137     7.7783     0.0500     2.4826     0.0988    14.0889     9.1752    10.7316   -27.9556
  572.0000   123.5462     7.7767     0.0400     2.4845     0.0960    13.8889     9.1504    10.3572   -27.8405
  572.5000   124.0787     7.7751     0.0299     2.4776     0.0989    13.6852     9.0937    10.1877   -27.7253
  573.0000   124.6110     7.7735     0.0239     2.4667     0.1017    13.4845     8.9887    10.1675   -27.6102
  573.5000   125.1448     7.7719     0.0241     2.4651     0.1045    13.2867     8.8841    10.1449   -27.4950
  574.0000   125.6807     7.7704     0.0242     2.4648     0.1094    13.0918     8.7718    10.1224   -27.3799
  574.5000   126.2078     7.7688     0.0241     2.4645     0.1102    12.8998     8.6238     9.9808   -27.2647
  575.0000   126.5060     7.7672     0.0241     2.4644     0.1102    12.7106     8.4789     9.6863   -27.1495
  575.5000   125.4554     7.7657     0.0240     2.4703     0.1094    12.5242     8.3365     9.4004   -27.0344
  576.0000   125.0797     7.7641     0.0282     2.4769     0.1060    12.4976     8.1964     9.3046   -26.9192
  576.5000   124.8899     7.7625     0.0335     2.4834     0.1025    12.4976     8.0587     9.3046   -26.8041
  577.0000   125.1727     7.7609     0.0389     2.4899     0.0989    12.4976     7.9233     9.3046   -26.6889
  577.5000   125.4567     7.7594     0.0442     2.4937     0.0953    12.2763     7.7901     9.1683   -26.5738
  578.0000   125.7413     7.7578     0.0479     2.4894     0.0926    12.0761     7.6592     8.8978   -26.4586
  578.5000   125.8458     7.7562     0.0450     2.4846     0.0970    11.8250     7.5570     8.5637   -26.3435
  579.0000   117.2534     7.7546     0.0423     2.4797     0.1006    11.8472     7.4808     8.5958   -26.2283
  579.5000    85.1816     7.7535     0.0396     2.4749     0.1042    11.8793     7.4054     8.6430   -26.1133
  580.0000    72.0811     7.7535     0.0382     2.4743     0.1074    11.9097     7.3308     8.2554   -25.9976
  580.5000  -999.2500  -999.2500  -999.2500  -999.2500  -999.2500    11.9371     7.2542     7.8628   -25.8798
  581.0000  -999.2500  -999.2500  -999.2500  -999.2500  -999.2500    10.5016     7.3797     7.4890   -25.7348
  581.5000  -999.2500  -999.2500  -999.2500  -999.2500  -999.2500     8.5331     7.5135     7.1329   -25.5767
  582.0000  -999.2500  -999.2500  -999.2500  -999.2500  -999.2500     6.9274     7.6800     6.9915   -25.4172
  582.5000  -999.2500  -999.2500  -999.2500  -999.2500  -999.2500    11.7165     7.8976     9.8144   -25.2575
  583.0000  -999.2500  -999.2500  -999.2500  -999.2500  -999.2500    12.5704     8.1216    12.5234   -25.0978
  583.5000  -999.2500  -999.2500  -999.2500  -999.2500  -999.2500    12.8386     8.3500    13.0872   -24.9381
  584.0000  -999.2500  -999.2500  -999.2500  -999.2500  -999.2500    12.9699     8.6696    15.2991   -24.7784
  584.5000  -999.2500  -999.2500  -999.2500  -999.2500  -999.2500    13.4079     9.1096    21.5309   -24.6188
  585.0000  -999.2500  -999.2500  -999.2500  -999.2500  -999.2500    13.8487     9.5720    12.2692   -24.4592
  585.5000  -999.2500  -999.2500  -999.2500  -999.2500  -999.2500    14.1503     9.9249    34.1399   -24.2904
  586.0000  -999.2500  -999.2500  -999.2500  -999.2500  -999.2500    14.2828     9.8799    11.8651   -24.3465
  586.5000  -999.2500  -999.2500  -999.2500  -999.2500  -999.2500    14.4166     9.8445     9.1346   -24.4746
  587.0000  -999.2500  -999.2500  -999.2500  -999.2500  -999.2500    14.5053     9.8338     9.7905   -24.6079
