~VERSION INFORMATION
 VERS.                2.0:   CWLS LOG ASCII STANDARD - VERSION 2.0
 WRAP.                 NO:   ONE LINE PER DEPTH STEP
~WELL INFORMATION
#MNEM.UNIT      DATA TYPE    INFORMATION
#----------   ------------   ------------------------------
 STRT.F            6.0000:   START DEPTH
 STOP.F          534.0000:   STOP DEPTH
 STEP.F            0.5000:   STEP LENGTH
 NULL.          -999.2500:   NO VALUE
 COMP. LAWRENCE/ALLISON INC:   COMPANY
 WELL.     NPR3 #33-66 SX:   WELL
 FLD .          MPR NO. 3:   FIELD
 LOC .      S10 T38N R78W:   LOCATION
 CNTY.            NATRONA:   COUNTY
 STAT.            WYOMING:   STATE
 CTRY. UNITED STATES OF AMERICA:   COUNTRY
 SRVC.           Gearhart:   SERVICE COMPANY
 DATE.        20-JUN-1986:   LOGDATE
 API .       490251109300:   API NUMBER
~CURVE INFORMATION
#MNEM.UNIT       API CODE    CURVE DESCRIPTION
#----------   ------------   ------------------------------
 DEPT.F                  :   
 GRR .GAPI   07 310 01 00:   GAMMA RAY
 RILD.OHMM   07 120 46 00:   INDUCTION LOG DEEP
 RILM.OHMM   07 120 44 00:   INDUCTION LOG MEDIUM
~PARAMETER INFORMATION
#MNEM.UNIT          VALUE    DESCRIPTION
#----------   ------------   ------------------------------
 PD  .                 GL:   PERMANENT DATUM
 EPD .F              5213:   ELEVATION PERMANENT DATUM
 LMF .                 KB:   LOG MEASURED FROM
 DMF .                 KB:   DRILLING MEASURED FROM
 EKB .F              5218:   KELLING BUSHING
 EGL .F              5213:   GROUND LEVEL
 DATE.        20-JUN-1986:   RUN DATE
 RUN .                  1:   RUN NUMBER
 DD  .F               555:   DEPTH DRILLER
 DL  .F               548:   DEPTH LOGGER
 BLI .F               539:   BOTTOM LOG INTERVAL
 CS  .IN            8.625:   CASING SIZE
 CBD .F                47:   CASING BOTTOM DRILLER
 CBL .F                39:   CASING BOTTOM LOGGER
 BS  .IN            7.875:   BIT SIZE
 BSD .F               555:   BIT SIZE AT DEPTH
 DFT .                AIR:   DRILLING FLUID TYPE
 TCS .HRS            0300:   TIME CURCULATED STOPPED
 TLAB.HRS            0500:   TIME LOGGER AT BOTTOM
 MRT .F                64:   MAXIMUM RECORDED TEMPERATURE
 LUN .               7609:   LOGGING UNIT NUMBER
 LUL .           GILLETTE:   LOGGING UNIT LOCATION
 ENGI.            WANGLER:   RECORDING ENGINEER
 WITN.              FIVAS:   WITNESSED BY
 CLNT.            A2DTECH:   CLIENT CODE
 ORIG.           5" PRINT:   ORIGIN OF DATA
 UWI .       490251109300:   UNIQUE WELL ID
 DICO. A2D Technologies, Inc.:   DIGITIZING COMPANY
~OTHER INFORMATION
~A    DEPT     GRR       RILD       RILM   
# ...
  370.0000    80.9741    17.7315    17.7423
  370.5000    83.7139    17.3594    17.4906
  371.0000    87.6609    16.9952    17.1221
  371.5000    88.5390    16.7555    16.8792
  372.0000    86.3115    16.5191    16.6398
  372.5000    81.6594    16.5157    16.5191
  373.0000    76.5906    16.5122    16.3992
  373.5000    75.6925    16.5088    16.2802
  374.0000    77.2806    16.3902    16.1621
  374.5000    80.0152    16.2725    16.0448
  375.0000    82.3446    16.1554    16.0403
  375.5000    80.4718    16.0396    15.9239
  376.0000    75.9178    15.9244    15.8083
  376.5000    75.6020    15.9122    15.6936
  377.0000    77.1052    15.7950    15.5797
  377.5000    78.0032    15.5692    15.4558
  378.0000    77.3793    15.2397    15.1408
  378.5000    76.4509    15.1274    15.0162
  379.0000    75.5225    14.8287    14.8011
  379.5000    74.5941    14.7222    14.6074
  380.0000    73.0568    14.6165    14.5006
  380.5000    75.1726    14.6134    14.3954
  381.0000    82.4634    14.5085    14.2909
  381.5000    89.4497    14.5055    14.2869
  382.0000    94.0008    14.5024    14.2830
  382.5000    94.2900    14.4994    14.2790
  383.0000    94.2749    14.5982    14.2750
  383.5000    93.0421    14.6984    14.3713
  384.0000    90.5916    15.0064    14.5700
  384.5000    86.9235    15.1094    14.7714
  385.0000    83.8642    15.3184    14.9767
  385.5000    82.3269    15.4236    15.1826
  386.0000    82.3118    15.5287    15.2851
  386.5000    82.2966    15.5246    15.3882
  387.0000    81.3682    15.5214    15.3839
  387.5000    79.8310    15.5182    15.3796
  388.0000    78.9026    15.2993    15.1615
  388.5000    78.2824    15.0835    15.0515
  389.0000    80.6988    14.7670    14.7344
  389.5000    83.1189    14.5587    14.4240
  390.0000    86.7567    14.3533    14.2194
  390.5000    88.8725    14.0522    13.9198
  391.0000    87.6396    13.8540    13.7224
  391.5000    85.7980    13.6585    13.5277
  392.0000    82.4343    13.4659    13.3358
  392.5000    82.7273    13.4631    13.1467
  393.0000    84.2305    13.4603    13.0513
  393.5000    90.6080    13.5520    13.1393
  394.0000    93.0282    14.0330    13.4146
  394.5000    94.6474    14.5324    13.8888
  395.0000    88.4316    15.0567    14.5827
  395.5000    80.1973    15.8049    15.3112
  396.0000    75.6159    16.4963    16.0761
  396.5000    73.7743    17.3096    17.1173
  397.0000    71.0194    18.4798    17.9725
  397.5000    68.2645    19.7419    18.6078
  398.0000    67.6205    20.7288    19.5375
  398.5000    69.4519    21.4626    20.3703
  399.0000    71.8720    21.7617    20.9433
  399.5000    72.1613    22.0639    21.6836
  400.0000    72.7549    22.2387    21.9834
  400.5000    72.7418    22.5352    22.1575
  401.0000    72.4252    22.8317    22.2873
  401.5000    70.2821    22.9856    22.5985
  402.0000    67.2258    23.1405    22.7541
  402.5000    65.0827    23.2965    22.9109
  403.0000    66.2882    23.6183    23.2308
  403.5000    67.4937    23.9445    23.3908
  404.0000    69.0036    24.1059    23.7175
  404.5000    70.2090    24.2685    23.8808
  405.0000    71.4145    24.4321    24.0453
  405.5000    69.8803    24.4252    24.2109
  406.0000    69.8681    24.4184    24.0386
  406.5000    70.7691    24.2413    24.0352
  407.0000    71.6733    24.0655    23.5321
  407.5000    72.2669    23.5589    23.3646
  408.0000    74.6900    23.2249    22.8756
  408.5000    76.5043    22.5774    22.7127
  409.0000    78.6230    22.4137    22.2374
  409.5000    76.1755    22.0960    22.0791
  410.0000    74.6413    21.9357    21.9219
  410.5000    72.4982    21.4739    21.6139
  411.0000    71.2684    21.3182    21.4601
  411.5000    69.4297    20.8694    21.1586
  412.0000    68.8118    20.7181    20.8613
  412.5000    71.5363    20.5678    20.5682
  413.0000    73.9594    20.4186    20.2793
  413.5000    76.3825    20.2706    20.2765
  414.0000    75.7615    20.1236    20.1321
  414.5000    74.8361    20.1179    20.1293
  415.0000    75.1284    20.1123    20.2679
  415.5000    75.4206    20.1067    20.2651
  416.0000    76.3217    20.2422    20.2623
  416.5000    78.1360    20.2365    20.4018
  417.0000    78.7357    20.5161    20.5423
  417.5000    78.1116    20.6544    20.6199
  418.0000    76.5774    20.7936    20.4892
  418.5000    73.5211    21.2289    20.2481
  419.0000    78.3795    21.2229    20.2452
  419.5000    80.8026    21.3660    20.2424
  420.0000    78.6596    21.3600    20.2396
  420.5000    74.6900    21.2051    20.3790
  421.0000    72.2435    21.1992    20.3211
  421.5000    72.2314    21.0454    20.2632
  422.0000    74.0457    20.6024    20.0868
  422.5000    76.1644    20.1687    19.8046
  423.0000    76.4566    19.8828    19.6636
  423.5000    75.8356    19.4642    19.1177
  424.0000    76.7367    18.9216    18.5869
  424.5000    79.1598    18.5232    18.0709
  425.0000    81.5830    18.2607    17.8170
  425.5000    84.6149    17.8762    17.5667
  426.0000    82.7763    17.4999    17.3199
  426.5000    79.4155    17.2518    17.0766
  427.0000    75.7504    16.8887    16.7192
  427.5000    73.3029    16.7662    16.6002
  428.0000    73.2907    16.4132    16.3670
  428.5000    75.7139    16.4086    16.2504
  429.0000    76.9193    16.1760    16.2482
  429.5000    78.1248    15.9467    16.1325
  430.0000    77.8082    15.9423    16.1302
  430.5000    77.1872    15.7163    16.0154
  431.0000    78.0883    15.6023    15.9014
  431.5000    78.3805    15.4891    15.7882
  432.0000    79.5860    15.4848    15.7860
  432.5000    80.4871    15.3725    15.7838
  433.0000    81.0837    15.1546    15.6714
  433.5000    80.7671    15.0447    15.5599
  434.0000    80.7550    15.0405    15.3413
  434.5000    78.9163    14.9314    15.2321
  435.0000    76.7732    14.9272    15.0181
  435.5000    76.1522    14.8189    14.9112
  436.0000    78.2709    14.8148    14.8050
  436.5000    84.3470    14.7074    14.5970
  437.0000    89.5099    14.6007    14.4931
  437.5000    87.9756    14.5966    14.4911
  438.0000    86.4414    14.5925    14.3879
  438.5000    85.2116    14.4867    14.3859
  439.0000    85.5038    14.4826    14.3839
  439.5000    85.7960    14.4786    14.3819
  440.0000    86.0883    14.4745    14.3799
  440.5000    84.2496    14.4705    14.3779
  441.0000    82.7154    14.4664    14.4769
  441.5000    80.8767    14.4624    14.4749
  442.0000    81.4734    14.4583    14.5751
  442.5000    80.8524    14.4543    14.4708
  443.0000    79.9269    14.4502    14.4688
  443.5000    80.5236    14.4462    14.4667
  444.0000    82.9467    14.4421    14.4647
  444.5000    85.3699    14.4381    14.4627
  445.0000    86.5753    14.4341    14.3596
  445.5000    88.3896    14.4300    14.3577
  446.0000    89.8995    14.3254    14.3556
  446.5000    89.2785    14.3214    14.2535
  447.0000    87.7443    14.2175    14.2515
  447.5000    86.5145    14.2135    14.2495
  448.0000    84.6758    14.1104    14.2475
  448.5000    84.6636    14.1065    14.1461
  449.0000    88.0000    14.1025    14.1441
  449.5000    92.5540    14.0003    14.0434
  450.0000    94.6728    13.8987    13.9164
  450.5000    95.2621    13.8096    13.7514
  451.0000    92.8003    13.7205    13.5863
  451.5000    88.2129    13.5925    13.5442
  452.0000    84.8431    13.5868    13.5394
  452.5000    85.1263    13.5811    13.5347
  453.0000    89.0624    13.5755    13.5299
  453.5000    90.8677    13.5698    13.5243
  454.0000    91.7650    13.6596    13.5196
  454.5000    92.0482    13.6537    13.5149
  455.0000    93.2394    13.6480    13.5102
  455.5000    93.8270    13.6423    13.5063
  456.0000    94.4199    13.6366    13.5016
  456.5000    95.0075    13.6309    13.4968
  457.0000    96.5030    13.5302    13.3976
  457.5000    97.0906    13.4239    13.2067
  458.0000    95.5473    13.2379    13.1099
  458.5000    87.9158    13.1401    13.1054
  459.0000    82.1107    13.1346    13.0094
  459.5000    82.0895    13.0375    13.0049
  460.0000    84.5036    13.0309    13.0004
  460.5000    88.1353    12.8444    12.9051
