~VERSION INFORMATION
 VERS.                2.0:   CWLS LOG ASCII STANDARD - VERSION 2.0
 WRAP.                 NO:   ONE LINE PER DEPTH STEP
~WELL INFORMATION
#MNEM.UNIT      DATA TYPE    INFORMATION
#----------   ------------   ------------------------------
 STRT.F           86.0000:   START DEPTH
 STOP.F          708.0000:   STOP DEPTH
 STEP.F            0.5000:   STEP LENGTH
 NULL.          -999.2500:   NO VALUE
 COMP. U S NAVY/INTEX OIL CO:   COMPANY
 WELL.      33 S-11 #3-11:   WELL
 FLD .             TEAPOT:   FIELD
 LOC .      S11 T38N R78W:   LOCATION
 CNTY.            NATRONA:   COUNTY
 STAT.            WYOMING:   STATE
 CTRY. UNITED STATES OF AMERICA:   COUNTRY
 SRVC.       Schlumberger:   SERVICE COMPANY
 DATE.        11-JUL-1962:   LOGDATE
 API .       490250636000:   API NUMBER
~CURVE INFORMATION
#MNEM.UNIT       API CODE    CURVE DESCRIPTION
#----------   ------------   ------------------------------
 DEPT.F                  :   
 SPR .MV     05 010 01 00:   SPONTANEOUS POTENTIAL FROM RES.
 CILD.MMHO   05 110 46 00:   CONDUCTIVITY INDUCTION LOG DEEP
 ILD .OHMM   05 120 46 00:   INDUCTION LOG DEEP
 ASN .OHMM   05 041 16 00:   AMPLIFIED SHORT NORMAL 16"
 GR  .GAPI   30 310 01 00:   GAMMA RAY
~PARAMETER INFORMATION
#MNEM.UNIT          VALUE    DESCRIPTION
#----------   ------------   ------------------------------
 PD  .                 GL:   PERMANENT DATUM
 EPD .F              5171:   ELEVATION PERMANENT DATUM
 LMF .                 KB:   LOG MEASURED FROM
 DAPD.F                 5:   FEET ABOVE PERMANENT DATUM
 DMF .                 KB:   DRILLING MEASURED FROM
 EKB .F              5176:   KELLING BUSHING
 EGL .F              5171:   GROUND LEVEL
 DATE.            7-11-62:   RUN DATE
 RUN .                  1:   RUN NUMBER
 DD  .F               710:   DEPTH DRILLER
 DL  .F               709:   DEPTH LOGGER
 BLI .F               708:   BOTTOM LOG INTERVAL
 TLI .F                86:   TOP LOG INTERVAL
 BS  .IN             6.75:   BIT SIZE
 BSD .F               710:   BIT SIZE AT DEPTH
 DFT .            GEL/OIL:   DRILLING FLUID TYPE
 DFD .               10.3:   DRILLING FLUID DENSITY
 DFV .                 50:   DRILLING FLUID VISCOSITY
 DFL .                3.7:   DRILLING FLUID LOSS
 RMS .OHMM           5.66:   RESISTIVITY MUD SAMPLE
 MST .F                77:   MUD SAMPLE TEMPERATURE
 RMF .OHMM           4.44:   RESISTIVITY MUD FILTRATE SAMPLE
 MFST.F                77:   MUD FILTRATE SAMPLE TEMPERATURE
 RMC .OHMM            5.9:   RESISTIVITY MUD CAKE
 MCST.F                77:   MUD CAKE SAMPLE TEMPERATURE
 TCS .HRS               1:   TIME CURCULATED STOPPED
 LUN .               2503:   LOGGING UNIT NUMBER
 LUL .               CSPR:   LOGGING UNIT LOCATION
 ENGI.             DANNER:   RECORDING ENGINEER
 WITN.          JORGENSEN:   WITNESSED BY
 CLNT.            A2DTECH:   CLIENT CODE
 ORIG.       2", 5" PRINT:   ORIGIN OF DATA
 UWI .       490250636000:   UNIQUE WELL ID
 DICO. A2D Technologies, Inc.:   DIGITIZING COMPANY
~OTHER INFORMATION
~A   DEPT      SPR        CILD         ILD        ASN       GR   
# ...
  452.0000   -58.1044   147.4269     6.5856     6.9108   109.8088
  452.5000   -57.9629   149.9958     6.4743     6.7539    97.3340
  453.0000   -57.8228   152.5581     6.3624     6.5968    98.4092
  453.5000   -57.7438   155.1515     6.2534     6.4399    95.1007
  454.0000   -57.5246   161.0606     6.0075     6.3135   106.2383
  454.5000   -57.3234   168.7879     5.6973     6.2567   103.3708
  455.0000   -57.4992   180.8878     5.3843     6.1437   100.7990
  455.5000   -57.6949   194.9867     5.0705     5.8874   105.5089
  456.0000   -57.8979   209.0856     4.7578     5.6439   106.7033
  456.5000   -57.8816   223.7374     4.4879     5.4017   107.5995
  457.0000   -57.4057   227.7778     4.5129     5.1601   111.4908
  457.5000   -56.9138   227.2727     4.5337     4.9548   120.0326
  458.0000   -56.5760   226.7677     4.5534     5.0530   122.3037
  458.5000   -56.7162   222.7273     4.5741     5.0213   111.7629
  459.0000   -56.9279   218.7646     4.5891     4.9306   106.0455
  459.5000   -57.1369   209.9237     4.8537     5.3075   106.1319
  460.0000   -57.3436   193.5011     5.2300     5.7310   108.9418
  460.5000   -57.5481   174.4128     5.6120     6.0904   108.7405
  461.0000   -57.7885   164.7475     5.9924     6.2703   107.6184
  461.5000   -57.9460   154.0404     6.3242     6.4092   111.4407
  462.0000   -57.9793   152.0606     6.4157     6.5129   109.1438
  462.5000   -58.0047   150.0000     6.5210     6.6406   107.5061
  463.0000   -58.0309   147.9394     6.6272     6.7846   109.0730
  463.5000   -58.0575   145.8788     6.7333     6.9305   101.2450
  464.0000   -58.0841   143.9394     6.8393     6.9906   105.3368
  464.5000   -58.1106   141.2202     6.9452     7.0167   110.5443
  465.0000   -58.1381   138.6325     7.0330     7.0413   104.6733
  465.5000   -58.1059   136.0679     7.0788     7.2099   102.6943
  466.0000   -58.0452   133.8384     7.1239     7.3998   100.5023
  466.5000   -57.9877   134.3771     7.1691     7.4715   105.7273
  467.0000   -58.2484   134.9495     7.2143     7.4378   108.3535
  467.5000   -58.6786   135.5219     7.2594     7.4076   103.5028
  468.0000   -58.1611   135.8586     7.3046     7.4878    98.3684
  468.5000   -58.5342   134.6725     7.3498     7.5733   107.8232
  469.0000   -59.0525   133.5093     7.3950     7.5859   110.8660
  469.5000   -59.6064   132.3460     7.4404     7.5853   109.4870
  470.0000   -59.6835   131.1828     7.4856     7.5904   121.5455
  470.5000   -59.4631   130.0195     7.5244     7.6794   116.3863
  471.0000   -59.2440   128.7879     7.5063     7.7687   109.0784
  471.5000   -58.7942   129.2424     7.4889     7.8015   103.2857
  472.0000   -58.2456   129.7237     7.4717     7.8780   100.3250
  472.5000   -57.6612   130.2083     7.4545     7.9485    97.7286
  473.0000   -57.9831   130.6914     7.4374     7.8480    97.9930
  473.5000   -58.6197   131.1742     7.4202     7.7680   100.1640
  474.0000   -58.7751   131.6572     7.4030     7.6515   108.9351
  474.5000   -58.9002   131.9817     7.3859     7.5433   106.2233
  475.0000   -59.0227   132.2266     7.3687     7.3567    99.7353
  475.5000   -59.1519   132.4698     7.3516     7.2052    98.2613
  476.0000   -59.4181   132.7142     7.3345     7.1621    96.4129
  476.5000   -59.5855   133.7710     7.2992     7.0870   106.8397
  477.0000   -59.7551   135.4882     7.2175     7.0072   118.4407
  477.5000   -59.7818   140.3030     6.9265     6.8388   121.2724
  478.0000   -59.6010   145.9697     6.6219     6.6309   115.3064
  478.5000   -59.4030   153.8228     6.3200     6.3088   110.4544
  479.0000   -59.2044   162.1445     5.9627     5.9854   111.8137
  479.5000   -59.0016   174.7383     5.5841     5.6629   104.5405
  480.0000   -58.9718   198.6226     5.0312     5.3406   108.2453
  480.5000   -59.0373   223.3333     4.4926     5.0176   113.1443
  481.0000   -59.1052   257.1493     3.9568     4.6851   106.5816
  481.5000   -59.1633   309.2187     3.4200     4.3042    98.8879
  482.0000   -58.9753   363.3362     2.8508     3.9101    99.8762
  482.5000   -58.0583   421.3417     2.2156     3.5183    91.8836
  483.0000   -57.1459   478.5735     1.9830     3.2747   100.0728
  483.5000   -55.8310   588.3190     1.7450     3.1161    92.2087
  484.0000   -54.2240   570.6487     1.6025     2.9585    86.9382
  484.5000   -54.3781   549.8106     1.7978     2.8512    93.6881
  485.0000   -54.4839   528.8826     1.9835     2.7424   105.4825
  485.5000   -54.3669   498.3117     2.1688     2.8366   118.5230
  486.0000   -54.2659   455.6768     2.3553     3.0331   125.5183
  486.5000   -54.6913   396.9495     2.6534     3.2238   117.5001
  487.0000   -55.2053   338.2222     3.1716     3.5672   124.8021
  487.5000   -55.5110   286.3636     3.6722     4.0301   122.2512
  488.0000   -55.6937   245.1515     4.0995     4.4700   117.1020
  488.5000   -55.9781   207.8788     4.5289     4.8208   113.9882
  489.0000   -56.3713   189.1644     4.9580     5.1695   108.2373
  489.5000   -56.7303   177.4564     5.3880     5.4302   108.9949
  490.0000   -56.6453   168.5426     5.6494     5.4356   113.0970
  490.5000   -56.4015   166.1616     5.7351     5.4436   107.4134
  491.0000   -56.1566   167.1717     5.7803     5.5034   109.7132
  491.5000   -56.1099   172.0202     5.5489     5.5847   117.7836
  492.0000   -56.1093   183.4091     5.3189     5.6643   114.6081
  492.5000   -56.1099   196.7172     5.0898     5.6721   116.8235
  493.0000   -56.1107   210.0253     4.8608     5.4527   126.5138
  493.5000   -56.1150   223.3333     4.6317     5.1686   127.4673
  494.0000   -55.9392   235.8586     4.4029     4.8839   114.1165
  494.5000   -55.7414   243.9394     4.1882     4.6370   117.7920
  495.0000   -55.5435   252.2727     4.0627     4.6899   113.6109
  495.5000   -55.3383   260.0000     3.9498     4.5908   102.4375
  496.0000   -55.5035   268.1818     3.7851     4.4124   105.3516
  496.5000   -55.8751   264.6199     3.9694     4.3763   115.6770
  497.0000   -56.0586   248.3519     4.1762     4.8549   113.3154
  497.5000   -55.7391   232.0840     4.4077     4.9346   113.7211
  498.0000   -55.4813   215.8161     4.6388     4.9519   108.3280
  498.5000   -55.9783   201.9092     4.8696     5.1413   104.3408
  499.0000   -56.5099   191.2295     5.1014     5.4300   103.0011
  499.5000   -56.4074   181.2379     5.3305     5.7274   104.9107
  500.0000   -56.2412   171.7195     5.6422     6.0360    96.3163
  500.5000   -56.0745   162.8235     5.9775     6.2804   107.7040
  501.0000   -55.9082   154.4421     6.2843     6.5315   104.1966
  501.5000   -55.7379   149.6221     6.5021     6.7856   113.3193
  502.0000   -55.7255   144.8021     6.7231     6.9544   116.9226
  502.5000   -55.7892   139.9822     6.9421     6.9949   115.7020
  503.0000   -55.8620   137.7652     7.1036     6.9949   126.8427
  503.5000   -56.0574   138.5438     6.9620     6.9629   119.6827
  504.0000   -56.3726   141.8132     6.8256     6.9310   120.6772
  504.5000   -56.7693   145.1061     6.6899     6.8949   120.1309
  505.0000   -57.1726   148.3983     6.5545     6.8004   125.4830
  505.5000   -57.5337   151.6905     6.4189     6.7048   129.9324
  506.0000   -57.5373   154.9827     6.2818     6.6159   124.8113
  506.5000   -57.5361   159.2898     6.1209     6.5026   127.9954
  507.0000   -57.5345   164.0909     5.9285     6.3696   122.3800
  507.5000   -57.6870   168.8920     5.7381     6.2638   126.8272
  508.0000   -57.9547   175.7489     5.5251     6.1252   122.6864
  508.5000   -58.2236   185.4823     5.2686     5.9823   112.9522
  509.0000   -58.4941   201.2727     5.0121     5.8197   118.7004
  509.5000   -58.7664   217.1489     4.7553     5.5452   116.8704
  510.0000   -58.9252   227.7636     4.4997     5.2749   119.9470
  510.5000   -58.4405   237.1062     4.2932     5.0031   113.3704
  511.0000   -58.0384   237.6647     4.3315     4.7412   109.6492
  511.5000   -57.9457   236.1283     4.3653     4.8749   113.0975
  512.0000   -57.2767   233.8384     4.3984     5.0370   111.3994
  512.5000   -55.9727   226.9444     4.4314     5.0074   121.2863
