~VERSION INFORMATION
 VERS.                2.0:   CWLS LOG ASCII STANDARD - VERSION 2.0
 WRAP.                 NO:   ONE LINE PER DEPTH STEP
~WELL INFORMATION
#MNEM.UNIT      DATA TYPE    INFORMATION
#----------   ------------   ------------------------------
 STRT.F           11.5000:   START DEPTH
 STOP.F          697.0000:   STOP DEPTH
 STEP.F            0.5000:   STEP LENGTH
 NULL.          -999.2500:   NO VALUE
 COMP. FENIX & SCISSON INC:   COMPANY
 WELL.    NPR3 SX-2 #12-2:   WELL
 FLD .             TEAPOT:   FIELD
 LOC .       S2 T38N R78W:   LOCATION
 CNTY.            NATRONA:   COUNTY
 STAT.            WYOMING:   STATE
 CTRY. UNITED STATES OF AMERICA:   COUNTRY
 SRVC.           BIRDWELL:   SERVICE COMPANY
 DATE.        13-JAN-1978:   LOGDATE
 API .       490251055000:   API NUMBER
~CURVE INFORMATION
#MNEM.UNIT       API CODE    CURVE DESCRIPTION
#----------   ------------   ------------------------------
 DEPT.F                  :   
 CALD.IN     45 280 60 00:   CALIPER FROM DENSITY LOG
 CORR.G/C3   45 356 01 00:   DENSITY CORRECTION
 RHOB.G/C3   45 350 01 00:   BULK DENSITY
 GRD .GAPI   45 310 01 00:   GAMMA RAY FROM DENSITY LOG
 DPHI.DEC    45 890 12 00:   DENSITY POROSITY SANDSTONE
 ILD .OHMM   05 120 46 00:   INDUCTION LOG DEEP
 SN  .OHMM   05 040 16 00:   SHORT NORMAL 16"
 SPR .MV     05 010 01 00:   SPONTANEOUS POTENTIAL FROM RES.
~PARAMETER INFORMATION
#MNEM.UNIT          VALUE    DESCRIPTION
#----------   ------------   ------------------------------
 PD  .                 GL:   PERMANENT DATUM
 EPD .F              5094:   ELEVATION PERMANENT DATUM
 LMF .                 KB:   LOG MEASURED FROM
 DAPD.F                 4:   FEET ABOVE PERMANENT DATUM
 DMF .                 KB:   DRILLING MEASURED FROM
 EKB .F              5098:   KELLING BUSHING
 EGL .F              5094:   GROUND LEVEL
 DATE.        13-JAN-1978:   RUN DATE
 RUN .                  1:   RUN NUMBER
 DD  .F               695:   DEPTH DRILLER
 DL  .F               697:   DEPTH LOGGER
 BLI .F               692:   BOTTOM LOG INTERVAL
 TLI .F                30:   TOP LOG INTERVAL
 CS  .IN            8.625:   CASING SIZE
 CBD .F                35:   CASING BOTTOM DRILLER
 CBL .F                35:   CASING BOTTOM LOGGER
 BS  .IN            7.875:   BIT SIZE
 BSD .F               695:   BIT SIZE AT DEPTH
 DFT .                KCL:   DRILLING FLUID TYPE
 DFD .                8.6:   DRILLING FLUID DENSITY
 DFV .                 32:   DRILLING FLUID VISCOSITY
 DFPH.                9.5:   DRILLING FLUID PH
 DFL .                 12:   DRILLING FLUID LOSS
 MSS .           FLOWLINE:   MUD SAMPLE SOURCE
 RMS .OHMM            0.3:   RESISTIVITY MUD SAMPLE
 MST .F                59:   MUD SAMPLE TEMPERATURE
 RMF .OHMM           0.24:   RESISTIVITY MUD FILTRATE SAMPLE
 MFST.F                70:   MUD FILTRATE SAMPLE TEMPERATURE
 RMC .OHMM           0.56:   RESISTIVITY MUD CAKE
 MCST.F                63:   MUD CAKE SAMPLE TEMPERATURE
 MFSS.               MEAS:   MUD FILTRATE SAMPLE SOURCE
 MCSS.               MEAS:   MUD CAKE SAMPLE SOURCE
 RMB .OHMM           0.26:   RESISTIVITY MUD AT BHT
 BHT .F                72:   BOTTOM HOLE TEMPERATURE
 TCS .HRS               2:   TIME CURCULATED STOPPED
 MRT .F                72:   MAXIMUM RECORDED TEMPERATURE
 LUN .               2958:   LOGGING UNIT NUMBER
 LUL .             CASPER:   LOGGING UNIT LOCATION
 ENGI.           MARTINEZ:   RECORDING ENGINEER
 WITN.       MR. MCGINLEY:   WITNESSED BY
 CLNT.            A2DTECH:   CLIENT CODE
 ORIG.           5" PRINT:   ORIGIN OF DATA
 UWI .       490251055000:   UNIQUE WELL ID
 DICO. A2D Technologies, Inc.:   DIGITIZING COMPANY
~OTHER INFORMATION
~A   DEPT     CALD       CORR       RHOB         GRD      DPHI        ILD         SN        SPR   
# ...
  254.5000     8.6801     0.0239     2.5149    99.5255     0.0864    11.8220    12.0561   -22.2457
  255.0000     8.6646     0.0372     2.5307    97.3584     0.0876    11.8250    11.9721   -22.2167
  255.5000     8.6642     0.0567     2.5411    97.0625     0.0875    11.9071    11.9712   -22.2054
  256.0000     8.6638     0.0642     2.5426    99.6224     0.0857    11.9071    11.9705   -22.2054
  256.5000     8.6632     0.0612     2.5329   101.5788     0.0861    11.9071    11.9696   -22.0544
  257.0000     8.6629     0.0506     2.5216   100.2348     0.0876    11.9071    11.9688   -22.0544
  257.5000     8.6774     0.0401     2.5134    98.1385     0.0882    11.9071    11.9680   -21.9033
  258.0000     8.6769     0.0341     2.5096    94.3906     0.0879    11.9071    11.9672   -21.9033
  258.5000     8.6765     0.0325     2.5143    91.6938     0.0861    11.9071    11.9664   -21.7523
  259.0000     8.6610     0.0400     2.5171    94.2624     0.0858    11.9071    11.8830   -21.7523
  259.5000     8.6606     0.0475     2.5111    96.2102     0.0885    11.8250    11.8001   -21.7523
  260.0000     8.6451     0.0536     2.5066    96.2174     0.0906    11.7435    11.7177   -21.7523
  260.5000     8.6446     0.0597     2.5036    96.5236     0.0906    11.7435    11.7169   -21.7523
  261.0000     8.6441     0.0654     2.5021    97.1300     0.0842    11.6626    11.6353   -21.7523
  261.5000     8.6588     0.0714     2.5171    98.7876     0.0831    11.6559    11.5542   -21.9033
  262.0000     8.6734     0.0759     2.5141   102.0967     0.0870    11.5822    11.4737   -22.0544
  262.5000     8.7031     0.0758     2.5088   100.6011     0.0906    11.5446    11.3937   -22.0544
  263.0000     8.7476     0.0728     2.5028    98.2046     0.0933    11.5024    11.3143   -22.0544
  263.5000     8.7622     0.0698     2.4990    95.8080     0.0939    11.4232    11.3136   -21.9033
  264.0000     8.7468     0.1013     2.5123    95.0551     0.0921    11.4232    11.2348   -21.9033
  264.5000     8.7291     0.1343     2.5303    96.8829     0.0858    11.4232    11.3120   -21.9033
  265.0000     8.6706     0.1447     2.5365    98.4184     0.0756    11.4232    11.3899   -21.9033
  265.5000     8.6551     0.1507     2.5440    99.4366     0.0666    11.5024    11.4717   -22.0544
  266.0000     8.6547     0.1492     2.5597    99.5926     0.0596    11.5822    11.6726   -22.5076
  266.5000     8.6542     0.1431     2.5635    99.4483     0.0561    11.6626    11.8705   -22.8097
  267.0000     8.6538     0.1326     2.5530    99.3026     0.0675    11.6761    11.9521   -23.1118
  267.5000     8.6534     0.1251     2.5395    99.1583     0.0723    11.7435    11.9513   -23.2628
  268.0000     8.6529     0.1220     2.5305    99.0140     0.0769    11.7435    11.9505   -23.2628
  268.5000     8.6525     0.1220     2.5215    99.0213     0.0775    11.8250    11.9497   -23.2628
  269.0000     8.6519     0.1265     2.5260    98.7269     0.0682    11.8250    11.9489   -23.1118
  269.5000     8.6515     0.1310     2.5411    98.2823     0.0655    11.9071    11.9481   -22.9607
  270.0000     8.6511     0.1264     2.5470    97.9879     0.0679    11.9071    11.9473   -22.8097
  270.5000     8.6506     0.1159     2.5484    99.5915     0.0751    11.9071    11.9465   -22.6586
  271.0000     8.6502     0.1098     2.5469   102.3555     0.0835    11.8250    11.9456   -22.5076
  271.5000     8.6498     0.1114     2.5447   104.3133     0.0810    11.8250    11.9448   -22.5076
  272.0000     8.6493     0.1158     2.5401   106.1209     0.0667    11.7435    11.9440   -22.3565
  272.5000     8.6639     0.1158     2.5349   107.3265     0.0745    11.8250    11.9432   -22.3565
  273.0000     8.6634     0.1112     2.5274   104.0306     0.0784    11.8843    11.9422   -22.3565
  273.5000     8.6629     0.1067     2.5289    99.2316     0.0703    11.9071    11.9414   -22.5076
  274.0000     8.6626     0.1052     2.5371    96.5348     0.0718    11.9071    11.9407   -22.5076
  274.5000     8.6621     0.1036     2.5349    95.9120     0.0802    11.9071    11.9282   -22.6586
  275.0000     8.6616     0.1021     2.5274    98.6487     0.0844    11.9071    11.8566   -22.6586
  275.5000     8.6612     0.1006     2.5229   100.3062     0.0784    11.9071    11.7739   -22.5076
  276.0000     8.6607     0.0990     2.5221    97.6108     0.0775    11.8250    11.7731   -22.5076
  276.5000     8.6603     0.1005     2.5251    93.5626     0.0781    11.8250    11.6911   -22.3565
  277.0000     8.6599     0.1005     2.5258    90.4153     0.0796    11.7435    11.6903   -22.3565
  277.5000     8.6745     0.1035     2.5243    91.3221     0.0799    11.7435    11.6089   -22.3565
  278.0000     8.6829     0.1064     2.5206    95.0817     0.0799    11.8250    11.6080   -22.3565
  278.5000     8.6886     0.1094     2.5183    96.2888     0.0784    11.8695    11.6072   -22.5076
  279.0000     8.6881     0.1154     2.5183    96.2947     0.0766    11.9071    11.6871   -22.5076
  279.5000     8.6876     0.1213     2.5235    96.4507     0.0757    12.1566    11.8491   -22.3565
  280.0000     8.6872     0.1378     2.5430    97.0572     0.0772    12.3259    12.0135   -21.7523
  280.5000     8.6868     0.1333     2.5552    97.9760     0.0796    12.5338    12.2649   -21.2991
  281.0000     8.6713     0.1183     2.5444    99.3573     0.0835    12.8481    12.4534   -20.8459
  281.5000     8.6557     0.1062     2.5289    99.7775     0.0908    13.2084    12.6079   -20.5438
  282.0000     8.6553     0.0927     2.5093    97.9830     0.0883    13.5788    12.7829   -20.3927
  282.5000     8.6398     0.0836     2.5003    93.0339     0.0844    13.8634    12.9603   -20.2417
  283.0000     8.6243     0.0791     2.5063    88.3851     0.0841    14.3511    13.2312   -20.2417
  283.5000     8.6239     0.0915     2.5265    85.3880     0.0811    14.6519    13.3225   -20.2417
  284.0000     8.6084     0.1031     2.5452    83.5921     0.0721    15.0628    13.5072   -20.2417
  284.5000     8.5929     0.1045     2.5520    82.9959     0.0646    15.2814    13.6946   -20.2417
  285.0000     8.5925     0.0985     2.5549    83.4537     0.0635    15.7009    13.8846   -20.3927
  285.5000     8.5919     0.0910     2.5557    86.3124     0.0626    16.0300    13.9908   -20.4069
  286.0000     8.5916     0.0819     2.5512    89.6616     0.0695    16.1412    14.2727   -20.3927
  286.5000     8.5911     0.0744     2.5219    91.9019     0.0788    16.3660    14.4707   -20.3927
  287.0000     8.5906     0.0713     2.5128    92.3374     0.0831    16.4796    14.5703   -20.3927
  287.5000     8.6053     0.0773     2.5067    91.8929     0.0869    16.4796    14.5691   -20.3927
  288.0000     8.6048     0.0893     2.5039    92.1990     0.0878    16.4796    14.5681   -20.3927
  288.5000     8.6194     0.1006     2.5114    92.8055     0.0887    16.4796    14.5671   -20.2417
  289.0000     8.6189     0.1090     2.5099    92.0606     0.0875    16.3660    14.5661   -20.2417
  289.5000     8.6035     0.1183     2.5166    90.8653     0.0809    16.1412    14.4646   -20.0906
  290.0000     8.5879     0.1207     2.5234    89.3697     0.0779    15.9196    14.4636   -20.0906
  290.5000     8.5875     0.1087     2.5144    87.8740     0.0881    15.5838    14.3628   -20.0906
  291.0000     8.5870     0.0981     2.5065    85.6276     0.0926    15.2551    14.2627   -19.9396
  291.5000     8.5866     0.0921     2.5024    82.5704     0.0941    14.7536    14.2588   -19.7885
  292.0000     8.5861     0.0921     2.5024    80.8346     0.0944    14.4507    14.1623   -19.6375
  292.5000     8.5857     0.0935     2.5070    85.7969     0.0917    14.2318    14.0636   -19.6375
  293.0000     8.5853     0.0980     2.5296    90.4574     0.0821    14.0565    13.9654   -19.4864
  293.5000     8.5698     0.1055     2.5278    91.6645     0.0746    14.0565    13.9645   -19.6375
  294.0000     8.5692     0.1040     2.5203    87.4661     0.0761    14.1540    13.9635   -19.6375
  294.5000     8.5688     0.0979     2.5136    82.9675     0.0824    14.3511    13.9626   -19.6375
