~VERSION INFORMATION
 VERS.                2.0:   CWLS LOG ASCII STANDARD - VERSION 2.0
 WRAP.                 NO:   ONE LINE PER DEPTH STEP
~WELL INFORMATION
#MNEM.UNIT      DATA TYPE    INFORMATION
#----------   ------------   ------------------------------
 STRT.F          420.0000:   START DEPTH
 STOP.F         1937.0000:   STOP DEPTH
 STEP.F            0.5000:   STEP LENGTH
 NULL.          -999.2500:   NO VALUE
 COMP. LAWRENCE/ALLISON INC:   COMPANY
 WELL.      85 "X" #85-29:   WELL
 FLD .             TEAPOT:   FIELD
 LOC .      S29 T39N R78W:   LOCATION
 CNTY.            NATRONA:   COUNTY
 STAT.            WYOMING:   STATE
 CTRY. UNITED STATES OF AMERICA:   COUNTRY
 SRVC.            Unknown:   SERVICE COMPANY
 DATE.        28-SEP-1987:   LOGDATE
 API .       490251119100:   API NUMBER
~CURVE INFORMATION
#MNEM.UNIT       API CODE    CURVE DESCRIPTION
#----------   ------------   ------------------------------
 DEPT.F                  :   
 ROP .FT/HR  91 810 01 00:   RAT OF DRILLING PENETRATION
 TGAS.TC/CC  91 830 01 00:   TOTAL GAS UNIT
~PARAMETER INFORMATION
#MNEM.UNIT          VALUE    DESCRIPTION
#----------   ------------   ------------------------------
 DATE.        28-SEP-1987:   RUN DATE
 BLI .F              1937:   BOTTOM LOG INTERVAL
 TLI .F               420:   TOP LOG INTERVAL
 LUN .              T-146:   LOGGING UNIT NUMBER
 CLNT.            A2DTECH:   CLIENT CODE
 ORIG.           5" PRINT:   ORIGIN OF DATA
 UWI .       490251119100:   UNIQUE WELL ID
 DICO. A2D Technologies, Inc.:   DIGITIZING COMPANY
~OTHER INFORMATION
~A   DEPT        ROP       TGAS 
# ...
 1392.0000     0.2462     4.7392
 1392.5000     0.2462     4.7278
 1393.0000     0.2461     4.7165
 1393.5000     0.2461     4.7029
 1394.0000     0.2460     4.6917
 1394.5000     0.2460     4.6804
 1395.0000     0.2459     5.0518
 1395.5000     0.2459     5.0377
 1396.0000     0.2458     5.0265
 1396.5000     0.2458     5.0165
 1397.0000     0.2457     5.0041
 1397.5000     0.2457     4.9928
 1398.0000     0.2456     4.9816
 1398.5000     0.2456     5.3506
 1399.0000     0.2455     5.3392
 1399.5000     0.2455     5.3277
 1400.0000     0.2454     4.9367
 1400.5000     0.2454     4.9253
 1401.0000     0.2452     4.9139
 1401.5000     0.2449     4.5228
 1402.0000     0.2446     4.5093
 1402.5000     0.2443     4.4980
 1403.0000     0.2440     4.8694
 1403.5000     0.2438     4.8553
 1404.0000     0.2435     4.8441
 1404.5000     0.2432     5.2154
 1405.0000     0.2429     5.2014
 1405.5000     0.2426     5.1409
 1406.0000     0.2423     5.0738
 1406.5000     0.2421     5.0066
 1407.0000     0.2419     5.3697
 1407.5000     0.2420     5.3735
 1408.0000     0.2420     2.7190
 1408.5000     0.2421     3.1025
 1409.0000     0.2422     3.1063
 1409.5000     0.2423     3.4906
 1410.0000     0.2424     3.4944
 1410.5000     0.2425     3.4981
 1411.0000     0.2425     3.5018
 1411.5000     0.2426     3.1249
 1412.0000     0.2427     3.1296
 1412.5000     0.2428     3.1333
 1413.0000     0.2429     3.1370
 1413.5000     0.2430     2.7601
 1414.0000     0.2430     2.7648
 1414.5000     0.2431     2.7685
 1415.0000     0.2432     2.7722
 1415.5000     0.2433     2.7760
 1416.0000     0.2434     2.7797
 1416.5000     0.2435     2.7835
 1417.0000     0.2435     2.8457
 1417.5000     0.2436     3.1716
 1418.0000     0.2437     3.1754
 1418.5000     0.2438     2.7984
 1419.0000     0.2439     2.8031
 1419.5000     0.2439     2.8068
 1420.0000     0.2440     2.4299
 1420.5000     0.2441     2.4346
 1421.0000     0.2442     2.8180
 1421.5000     0.2443     2.8218
 1422.0000     0.2444     3.2053
 1422.5000     0.2444     3.5887
 1423.0000     0.2445     3.9722
 1423.5000     0.2446     3.9760
 1424.0000     0.2447     3.9797
 1424.5000     0.2448     3.9835
 1425.0000     0.2449     3.9873
 1425.5000     0.2449     3.6112
 1426.0000     0.2450     3.2361
 1426.5000     0.2451     3.2398
 1427.0000     0.2452     3.2436
 1427.5000     0.2453     3.2473
 1428.0000     0.2453     3.2511
 1428.5000     0.2454     2.8741
 1429.0000     0.2455     2.8785
 1429.5000     0.2456     2.8825
 1430.0000     0.2457     2.8863
 1430.5000     0.2458     2.8900
 1431.0000     0.2459     3.2735
 1431.5000     0.2461     3.6570
 1432.0000     0.2463     3.6608
 1432.5000     0.2464     3.6646
 1433.0000     0.2466     3.6684
 1433.5000     0.2467     3.2922
 1434.0000     0.2469     2.9162
 1434.5000     0.2471     2.9208
 1435.0000     0.2472     2.9241
 1435.5000     0.2474     2.9283
 1436.0000     0.2475     2.9321
 1436.5000     0.2477     2.9358
 1437.0000     0.2479     2.9395
 1437.5000     0.2480     2.9433
 1438.0000     0.2482     2.5671
 1438.5000     0.2483     2.9507
 1439.0000     0.2485     2.9545
 1439.5000     0.2487     2.9582
 1440.0000     0.2488     2.9620
 1440.5000     0.2490     2.9658
 1441.0000     0.2491     2.9704
 1441.5000     0.2493     2.9741
 1442.0000     0.2495     2.9779
 1442.5000     0.2496     2.9816
 1443.0000     0.2498     2.6046
 1443.5000     0.2499     2.6093
 1444.0000     0.2501     2.6131
 1444.5000     0.2503     2.6168
 1445.0000     0.2504     2.6205
 1445.5000     0.2506     2.2436
 1446.0000     0.2507     2.2483
 1446.5000     0.2509     2.2520
 1447.0000     0.2511     1.8759
 1447.5000     0.2512     1.8797
 1448.0000     0.2514     2.2633
 1448.5000     0.2515     2.2671
 1449.0000     0.2517     2.6514
 1449.5000     0.2519     2.6551
 1450.0000     0.2520     2.6589
 1450.5000     0.2522     2.6626
 1451.0000     0.2523     2.6663
 1451.5000     0.2525     2.6701
 1452.0000     0.2527     2.6738
 1452.5000     0.2528     2.6775
 1453.0000     0.2530     2.6813
 1453.5000     0.2531     3.0648
 1454.0000     0.2533     3.0685
 1454.5000     0.2535     3.0722
 1455.0000     0.2536     3.4557
 1455.5000     0.2538     3.4595
 1456.0000     0.2539     3.4633
 1456.5000     0.2541     3.4671
 1457.0000     0.2543     3.8514
 1457.5000     0.2544     3.8551
 1458.0000     0.2546     3.8588
 1458.5000     0.2547     3.8626
 1459.0000     0.2549     3.4856
 1459.5000     0.2551     3.1106
 1460.0000     0.2553     2.7346
 1460.5000     0.2561     3.1180
 1461.0000     0.2569     3.1218
 1461.5000     0.2577     3.1255
 1462.0000     0.2585     3.1293
 1462.5000     0.2593     3.1330
 1463.0000     0.2602     3.1367
 1463.5000     0.2610     3.5203
 1464.0000     0.2618     3.5241
 1464.5000     0.2626     3.5278
 1465.0000     0.2634     3.5324
 1465.5000     0.2642     3.5361
 1466.0000     0.2663     3.5389
 1466.5000     0.2742     3.4816
 1467.0000     0.2739     3.4289
 1467.5000     0.2736     3.3762
 1468.0000     0.2733     3.3236
 1468.5000     0.2731     3.2709
 1469.0000     0.2728     3.2183
 1469.5000     0.2724     3.1656
 1470.0000     0.2155     3.1129
 1470.5000     0.2152     3.0603
 1471.0000     0.2149     3.0076
 1471.5000     0.2146     3.0392
 1472.0000     0.2144     3.3418
 1472.5000     0.2141     3.3195
 1473.0000     0.2138     3.3009
 1473.5000     0.2135     3.2822
 1474.0000     0.2132     3.2636
 1474.5000     0.2129     3.2449
 1475.0000     0.2127     3.2263
 1475.5000     0.2124     3.2076
 1476.0000     0.2121     3.1890
 1476.5000     0.2118     3.1704
 1477.0000     0.2115     3.9112
 1477.5000     0.2112     4.6644
 1478.0000     0.2110     4.5925
 1478.5000     0.2107     3.0949
 1479.0000     0.2104     2.6927
 1479.5000     0.2101     2.6741
 1480.0000     0.2098     2.6554
 1480.5000     0.2095     2.2570
 1481.0000     0.2093     2.6181
 1481.5000     0.2090     2.5995
 1482.0000     0.2087     2.5809
 1482.5000     0.2084     2.9466
 1483.0000     0.2081     2.9233
 1483.5000     0.2078     2.9047
 1484.0000     0.2076     2.8860
 1484.5000     0.2073     2.8671
 1485.0000     0.2070     3.2285
 1485.5000     0.2067     3.5896
 1486.0000     0.2064     3.5663
 1486.5000     0.2061     3.5476
 1487.0000     0.2059     3.5290
 1487.5000     0.2056     3.5103
 1488.0000     0.2053     3.4917
 1488.5000     0.2050     3.0933
 1489.0000     0.2047     3.0746
 1489.5000     0.2044     3.0560
 1490.0000     0.2042     3.0374
 1490.5000     0.2039     3.0187
 1491.0000     0.2036     2.6203
 1491.5000     0.2033     2.6013
 1492.0000     0.2030     2.2025
 1492.5000     0.2027     1.8002
 1493.0000     0.2025     1.7816
 1493.5000     0.2022     1.7629
 1494.0000     0.2019     2.1287
 1494.5000     0.2016     2.8649
 1495.0000     0.2013     3.2260
 1495.5000     0.2010     3.2073
 1496.0000     0.2008     4.7077
 1496.5000     0.2005    10.0055
 1497.0000     0.2002    15.3033
 1497.5000     0.1999    17.5631
 1498.0000     0.1996    17.5133
 1498.5000     0.1993    12.8823
 1499.0000     0.1991     8.3886
 1499.5000     0.1988     4.5725
 1500.0000     0.2079     2.2754
 1500.5000     0.2083     1.8770
 1501.0000     0.2168     2.2427
 1501.5000     0.2449     2.6038
 1502.0000     0.2541     4.0995
 1502.5000     0.2633     5.5999
 1503.0000     0.2724     7.4800
 1503.5000     0.2721     8.6006
 1504.0000     0.2718    10.1009
 1504.5000     0.2715    11.2215
 1505.0000     0.2712    11.9873
 1505.5000     0.2710    12.7032
 1506.0000     0.2706    13.4440
 1506.5000     0.2703    14.1849
 1507.0000     0.2699    14.9211
 1507.5000     0.2696    15.2868
 1508.0000     0.2692    15.6479
 1508.5000     0.2689    16.0090
 1509.0000     0.2686    15.9857
 1509.5000     0.2682    15.5873
 1510.0000     0.2679    15.5687
 1510.5000     0.2675    15.5500
 1511.0000     0.2672    15.5314
 1511.5000     0.2668    15.5127
 1512.0000     0.2665    15.4910
 1512.5000     0.2661    15.5850
 1513.0000     0.2658    15.6944
