~VERSION INFORMATION
 VERS.                2.0:   CWLS LOG ASCII STANDARD - VERSION 2.0
 WRAP.                 NO:   ONE LINE PER DEPTH STEP
~WELL INFORMATION
#MNEM.UNIT      DATA TYPE    INFORMATION
#----------   ------------   ------------------------------
 STRT.F           14.0000:   START DEPTH
 STOP.F          432.0000:   STOP DEPTH
 STEP.F            0.5000:   STEP LENGTH
 NULL.          -999.2500:   NO VALUE
 COMP.    FENIX & SCISSON:   COMPANY
 WELL.   NPR-3 #63SX10-10:   WELL
 FLD .             TEAPOT:   FIELD
 LOC .      S10 T38N R78W:   LOCATION
 CNTY.            NATRONA:   COUNTY
 STAT.            WYOMING:   STATE
 CTRY. UNITED STATES OF AMERICA:   COUNTRY
 SRVC.           BIRDWELL:   SERVICE COMPANY
 DATE.        10-FEB-1978:   LOGDATE
 API .       490251066800:   API NUMBER
~CURVE INFORMATION
#MNEM.UNIT       API CODE    CURVE DESCRIPTION
#----------   ------------   ------------------------------
 DEPT.F                  :   
 CALD.IN     45 280 60 00:   CALIPER FROM DENSITY LOG
 CORR.G/C3   45 356 01 00:   DENSITY CORRECTION
 DPHI.DEC    45 890 12 00:   DENSITY POROSITY SANDSTONE
 GRD .GAPI   45 310 01 00:   GAMMA RAY FROM DENSITY LOG
 RHOB.G/C3   45 350 01 00:   BULK DENSITY
 ILD .OHMM   05 120 46 00:   INDUCTION LOG DEEP
 SN  .OHMM   05 040 16 00:   SHORT NORMAL 16"
 SPR .MV     05 010 01 00:   SPONTANEOUS POTENTIAL FROM RES.
~PARAMETER INFORMATION
#MNEM.UNIT          VALUE    DESCRIPTION
#----------   ------------   ------------------------------
 PD  .                 GL:   PERMANENT DATUM
 EPD .F              5186:   ELEVATION PERMANENT DATUM
 LMF .                 KB:   LOG MEASURED FROM
 DAPD.F                 4:   FEET ABOVE PERMANENT DATUM
 DMF .                 KB:   DRILLING MEASURED FROM
 EKB .F              5190:   KELLING BUSHING
 EGL .F              5186:   GROUND LEVEL
 DATE.        10-FEB-1978:   RUN DATE
 RUN .                  1:   RUN NUMBER
 DD  .F               429:   DEPTH DRILLER
 DL  .F               432:   DEPTH LOGGER
 BLI .F               424:   BOTTOM LOG INTERVAL
 TLI .F                20:   TOP LOG INTERVAL
 CS  .IN            8.625:   CASING SIZE
 CBD .F                29:   CASING BOTTOM DRILLER
 CBL .F                29:   CASING BOTTOM LOGGER
 BS  .IN            7.875:   BIT SIZE
 BSD .F               429:   BIT SIZE AT DEPTH
 DFT .    LIGNO SULF/FULL:   DRILLING FLUID TYPE
 DFD .                8.6:   DRILLING FLUID DENSITY
 DFV .                 34:   DRILLING FLUID VISCOSITY
 DFPH.                9.8:   DRILLING FLUID PH
 DFL .                5.6:   DRILLING FLUID LOSS
 MSS .           FLOWLINE:   MUD SAMPLE SOURCE
 RMS .OHMM            1.2:   RESISTIVITY MUD SAMPLE
 MST .F                62:   MUD SAMPLE TEMPERATURE
 RMF .OHMM            1.4:   RESISTIVITY MUD FILTRATE SAMPLE
 MFST.F                62:   MUD FILTRATE SAMPLE TEMPERATURE
 RMC .OHMM            1.0:   RESISTIVITY MUD CAKE
 MCST.F                62:   MUD CAKE SAMPLE TEMPERATURE
 MFSS.               MEAS:   MUD FILTRATE SAMPLE SOURCE
 RMB .OHMM            1.2:   RESISTIVITY MUD AT BHT
 BHT .F                62:   BOTTOM HOLE TEMPERATURE
 TCS .HRS               4:   TIME CURCULATED STOPPED
 MRT .F                62:   MAXIMUM RECORDED TEMPERATURE
 LUN .               2958:   LOGGING UNIT NUMBER
 LUL .                CAS:   LOGGING UNIT LOCATION
 ENGI.            POINTER:   RECORDING ENGINEER
 WITN.          MC GINLEY:   WITNESSED BY
 CLNT.            A2DTECH:   CLIENT CODE
 ORIG.           5" PRINT:   ORIGIN OF DATA
 UWI .       490251066800:   UNIQUE WELL ID
 DICO. A2D Technologies, Inc.:   DIGITIZING COMPANY
~OTHER INFORMATION
~A   DEPT     CALD       CORR       DPHI         GRD      RHOB        ILD         SN        SPR   
# ...
  378.5000     7.7535     0.0245     0.1292    62.2308     2.4458    14.3681    13.8251   -35.3815
  379.0000     7.7391     0.0260     0.1250    63.9039     2.4436    14.2726    13.8273   -35.2269
  379.5000     7.7396     0.0291     0.1187    66.6342     2.4428    14.0792    13.8292   -35.0662
  380.0000     7.7402     0.0306     0.1175    67.5490     2.4503    14.0820    13.7351   -34.7661
  380.5000     7.7408     0.0307     0.1169    66.4972     2.4502    13.9876    13.6427   -34.7619
  381.0000     7.7414     0.0308     0.1169    66.0505     2.4495    13.7980    13.5503   -34.6072
  381.5000     7.7421     0.0308     0.1166    65.1518     2.4494    13.6117    13.4591   -34.6030
  382.0000     7.7426     0.0339     0.1163    62.1332     2.4509    13.4273    13.3680   -34.7491
  382.5000     7.7432     0.0430     0.1142    63.0499     2.4539    13.3373    13.2776   -34.5933
  383.0000     7.7590     0.0550     0.1079    67.2930     2.4576    13.2479    13.1878   -34.5891
  383.5000     7.7747     0.0671     0.1021    71.5362     2.4666    13.1592    13.0990   -34.5848
  384.0000     7.8055     0.0792     0.0994    73.5101     2.4853    13.1624    13.0103   -33.9549
  384.5000     7.8212     0.0912     0.0985    72.2724     2.4906    13.1650    12.9222   -33.5226
  385.0000     7.8219     0.1048     0.0985    70.1979     2.4883    13.1682    12.8349   -33.5183
  385.5000     7.8375     0.1169     0.0982    69.4487     2.4853    13.1708    12.8370   -33.5140
  386.0000     7.8532     0.1290     0.0973    69.4558     2.4890    13.0826    12.8386   -33.8105
  386.5000     7.8689     0.1440     0.0982    69.7656     2.4950    13.0851    12.8403   -33.9566
  387.0000     7.8847     0.1579     0.1003    70.0771     2.4867    12.9981    12.9312   -33.9513
  387.5000     7.8853     0.1712     0.1009    70.0843     2.4814    13.0007    13.0231   -34.0974
  388.0000     7.8858     0.1787     0.1018    69.7888     2.4799    13.0032    13.0248   -34.5442
  388.5000     7.9015     0.1863     0.1039    69.7960     2.4814    12.9161    13.0265   -34.6904
  389.0000     7.9022     0.1924     0.1054    70.4085     2.4806    12.9187    13.0282   -34.8354
  389.5000     7.8876     0.1984     0.1057    71.3250     2.4753    12.8321    12.9401   -34.9826
  390.0000     7.8883     0.2015     0.1066    72.0886     2.4761    12.8352    12.8525   -34.9772
  390.5000     7.8888     0.2031     0.1066    72.7009     2.4783    12.8377    12.7656   -34.6722
  391.0000     7.8894     0.2046     0.1030    71.6491     2.4813    12.7517    12.5922   -34.3661
  391.5000     7.8901     0.2047     0.1033    69.3887     2.4820    12.6663    12.5070   -34.0611
  392.0000     7.8907     0.2048     0.1050    70.1523     2.4820    12.5814    12.4223   -33.9065
  392.5000     7.9064     0.2063     0.1056    72.1262     2.4812    12.4109    12.3383   -33.7518
  393.0000     7.9071     0.2049     0.1056    73.7975     2.4789    12.3283    12.1703   -33.5961
  393.5000     7.9227     0.2034     0.1053    74.5613     2.4767    12.3308    12.0050   -33.4415
  394.0000     7.9233     0.2050     0.1056    72.9059     2.4774    12.2481    11.8415   -33.1364
  394.5000     7.9239     0.2036     0.1062    71.0976     2.4789    12.0822    11.7614   -32.9818
  395.0000     7.9093     0.2021     0.1068    70.9517     2.4781    11.9190    11.6818   -33.1378
  395.5000     7.9101     0.2007     0.1065    71.1120     2.4766    11.7575    11.6032   -33.5737
  396.0000     7.8954     0.1992     0.1046    71.2722     2.4743    11.5188    11.5247   -33.8702
  396.5000     7.8961     0.1978     0.0996    72.7922     2.4758    11.3622    11.4471   -33.8659
  397.0000     7.8968     0.1963     0.0981    73.7071     2.4840    11.1315    11.3693   -33.7113
  397.5000     7.8974     0.1889     0.0978    74.1681     2.4892    10.9806    11.2148   -33.6917
  398.0000     7.8677     0.1674     0.0978    73.7055     2.4900    10.7493    11.1389   -33.7027
  398.5000     7.8381     0.1455     0.0969    73.2765     2.4899    10.3939    10.8366   -33.6977
  399.0000     7.8235     0.1365     0.0972    73.4350     2.4922    10.1818    10.5422   -33.6931
  399.5000     7.8090     0.1306     0.0990    74.5012     2.4996     9.8380    10.1147   -33.5383
  400.0000     7.7794     0.1246     0.1005    75.8699     2.5200     9.1824     9.6377   -33.3827
  400.5000     7.7801     0.0991     0.1034    77.9067     2.5064     8.7525     9.3157   -33.0777
  401.0000     7.7655     0.0901     0.1064    79.6520     2.4921     7.9871     9.0033   -32.7727
  401.5000     7.7662     0.0827     0.1115    81.6480     2.4839     7.1691     8.7014   -32.4677
  402.0000     7.7365     0.0722     0.1196    86.0061     2.4764     6.6469     8.1800   -32.1616
  402.5000     7.7221     0.0626     0.1385    90.9985     2.4604     6.3357     7.5713   -32.0080
  403.0000     7.7228     0.0512     0.1451    93.5704     2.4291     6.1233     7.0327   -32.1136
  403.5000     7.7233     0.0437     0.1400    94.1755     2.4066     6.0004     6.5657   -31.9498
  404.0000     7.7087     0.0347     0.1304    92.9652     2.4044     5.9620     6.3018   -31.7888
  404.5000     7.7094     0.0303     0.1100    88.1241     2.4186     6.0908     6.2182   -31.7781
  405.0000     7.7101     0.0303     0.0938    81.0136     2.4411     6.3083     6.4411   -32.2185
  405.5000     7.7258     0.0333     0.0908    78.2905     2.4858     6.6777     7.5560   -32.5085
  406.0000     7.7263     0.0333     0.0884    77.3828     2.5041     7.8263     8.9875   -32.4952
  406.5000     7.7039     0.0349     0.0865    77.0802     2.5086     8.9924     9.7704   -32.6375
  407.0000     7.7039     0.0364     0.0839    76.0212     2.5101     9.7084    10.3534   -32.7745
  407.5000     7.7039     0.0379     0.0835    74.8109     2.5086    10.1249    10.8511   -32.7612
  408.0000     7.7190     0.0379     0.0835    74.3570     2.5169    10.3426    11.1611   -32.7505
  408.5000     7.7190     0.0380     0.0838    75.7186     2.5176    10.3488    11.4008   -32.7398
  409.0000     7.7190     0.0395     0.0847    77.2315     2.5169    10.3539    11.4857   -32.7291
  409.5000     7.7341     0.0410     0.0859    78.4418     2.5161    10.4309    11.5725   -32.7180
  410.0000     7.7341     0.0410     0.0867    78.3812     2.5131    10.6550    11.5782   -33.1561
  410.5000     7.7190     0.0456     0.0852    75.7186     2.5124    10.8852    11.7453   -33.4488
  411.0000     7.7190     0.0546     0.0750    74.6596     2.5154    11.0423    11.9149   -33.8866
  411.5000     7.7190     0.0666     0.0678    75.5673     2.5236    11.2795    12.4276   -33.8759
  412.0000     7.7341     0.0712     0.0654    77.0882     2.5344    11.6017    12.6070   -33.8625
  412.5000     7.7795     0.0712     0.0642    77.8366     2.5439    12.0162    12.8778   -33.7014
  413.0000     7.8097     0.0697     0.0645    78.2905     2.5484    12.3609    13.2457   -33.6908
  413.5000     7.8399     0.0697     0.0645    78.8956     2.5506    12.7141    13.3513   -33.3793
  414.0000     7.8701     0.0713     0.0654    79.1992     2.5506    12.9872    13.6325   -33.2180
  414.5000     7.8852     0.0713     0.0691    79.3495     2.5491    13.0838    13.9253   -33.0545
  415.0000     7.8399     0.0713     0.0737    78.5930     2.5452    13.3665    14.0289   -32.8934
  415.5000     7.6586     0.0728     0.0737    76.4750     2.5341    13.4660    14.1333   -32.5819
  416.0000     7.5227     0.0774     0.0725    74.3570     2.5281    13.5661    14.3390   -32.5713
  416.5000     7.4320     0.0879     0.0725    73.9032     2.5311    13.7620    14.4457   -32.4098
  417.0000     7.4169     0.1000     0.0740    74.2057     2.5326    13.8644    14.5532   -32.5472
  417.5000     7.4320     0.1120     0.0737    74.6596     2.5326    13.9692    14.7632   -32.9876
  418.0000     7.4622     0.1255     0.0716    73.7519     2.5319    14.1709    14.7809   -33.2777
  418.5000     7.4970     0.1421     0.0686    73.1467     2.5281    14.3754    14.8822   -33.7181
