~VERSION INFORMATION
 VERS.                2.0:   CWLS LOG ASCII STANDARD - VERSION 2.0
 WRAP.                 NO:   ONE LINE PER DEPTH STEP
~WELL INFORMATION
#MNEM.UNIT      DATA TYPE    INFORMATION
#----------   ------------   ------------------------------
 STRT.F            6.0000:   START DEPTH
 STOP.F          622.0000:   STOP DEPTH
 STEP.F            0.5000:   STEP LENGTH
 NULL.          -999.2500:   NO VALUE
 COMP. BROWN JOHN E&C INC:   COMPANY
 WELL. 71-26 STX-15 #26-15:   WELL
 FLD .             TEAPOT:   FIELD
 LOC .      S15 T38N R78W:   LOCATION
 CNTY.            NATRONA:   COUNTY
 STAT.            WYOMING:   STATE
 CTRY. UNITED STATES OF AMERICA:   COUNTRY
 SRVC.           Gearhart:   SERVICE COMPANY
 DATE.        01-JUL-1987:   LOGDATE
 API .       490251114900:   API NUMBER
~CURVE INFORMATION
#MNEM.UNIT       API CODE    CURVE DESCRIPTION
#----------   ------------   ------------------------------
 DEPT.F                  :   
 GRR .GAPI   07 310 01 00:   GAMMA RAY FROM RES. LOG.
 RILD.OHMM   11 120 46 00:   INDUCTION LOG DEEP RESISTIVITY
 RILM.OHMM   07 120 44 00:   INDUCTION LOG MEDIUM RESISTIVITY
~PARAMETER INFORMATION
#MNEM.UNIT          VALUE    DESCRIPTION
#----------   ------------   ------------------------------
 PD  .                 GL:   PERMANENT DATUM
 EPD .F              5208:   ELEVATION PERMANENT DATUM
 LMF .                 KB:   LOG MEASURED FROM
 DAPD.F                 8:   FEET ABOVE PERMANENT DATUM
 DMF .                 KB:   DRILLING MEASURED FROM
 EKB .F              5216:   KELLING BUSHING
 EDF .F              5214:   DRILLING FLOOR
 EGL .F              5208:   GROUND LEVEL
 DATE.             7-1-87:   RUN DATE
 RUN .                  1:   RUN NUMBER
 DD  .F               630:   DEPTH DRILLER
 DL  .F               630:   DEPTH LOGGER
 BLI .F               622:   BOTTOM LOG INTERVAL
 CS  .IN            8.625:   CASING SIZE
 CBD .F                50:   CASING BOTTOM DRILLER
 CBL .F                50:   CASING BOTTOM LOGGER
 BS  .IN             7.87:   BIT SIZE
 BSD .F               630:   BIT SIZE AT DEPTH
 DFT .                AIR:   DRILLING FLUID TYPE
 TCS .HRS            0300:   TIME CURCULATED STOPPED
 TLAB.HRS            0505:   TIME LOGGER AT BOTTOM
 LUN .               7660:   LOGGING UNIT NUMBER
 LUL .           GILLETTE:   LOGGING UNIT LOCATION
 ENGI.           JOHNSTON:   RECORDING ENGINEER
 WITN.             STRONG:   WITNESSED BY
 CLNT.            A2DTECH:   CLIENT CODE
 ORIG.       2", 5" PRINT:   ORIGIN OF DATA
 UWI .       490251114900:   UNIQUE WELL ID
 DICO. A2D Technologies, Inc.:   DIGITIZING COMPANY
~OTHER INFORMATION
~A    DEPT      GRR      RILD       RILM   
# ...
  279.0000   122.5593     8.1153     7.8940
  279.5000   121.2734     8.0965     7.8753
  280.0000   119.7692     8.0778     7.8566
  280.5000   118.1885     8.0583     7.8376
  281.0000   114.3981     7.8358     7.5946
  281.5000   110.6305     7.6150     7.3540
  282.0000   110.8039     7.4006     7.1210
  282.5000   112.4053     7.1906     6.8954
  283.0000   114.9555     6.8700     6.6061
  283.5000   116.1285     6.5305     6.2146
  284.0000   116.5729     6.2077     5.8463
  284.5000   117.0158     5.7710     5.4998
  285.0000   117.0182     5.7906     5.1739
  285.5000   115.4823     5.8257     4.9751
  286.0000   113.9321     5.8609     4.9751
  286.5000   112.3672     5.8964     5.1984
  287.0000   112.2091     5.9338     5.5330
  287.5000   112.7447     6.3071     5.8892
  288.0000   113.4235     6.7245     6.2682
  288.5000   114.3152     7.0942     6.6943
  289.0000   116.3762     7.3409     6.9938
  289.5000   118.4010     7.5957     7.3059
  290.0000   118.0130     7.8587     7.5116
  290.5000   116.5628     8.0157     7.7066
  291.0000   113.0760     8.1090     7.8018
  291.5000   113.1498     8.2033     7.8982
  292.0000   116.3135     8.2988     7.9958
  292.5000   119.4239     8.3954     8.0946
  293.0000   121.1627     8.4931     8.1946
  293.5000   121.3396     8.5919     8.2958
  294.0000   121.1622     8.6919     8.3983
  294.5000   119.7866     8.7790     8.5021
  295.0000   119.0791     8.8373     8.6071
  295.5000   119.0720     8.8959     8.6875
  296.0000   118.2564     8.9389     8.7128
  296.5000   116.5791     8.9672     8.7379
  297.0000   115.0654     8.9955     8.7632
  297.5000   115.0848     9.0240     8.7885
  298.0000   116.8284     9.0525     8.8140
  298.5000   118.4945     9.0811     8.8420
  299.0000   118.6724     9.1098     8.8420
  299.5000   117.6814     9.1386     8.8420
  300.0000   116.5608     9.1760     8.8420
  300.5000   115.4465     9.1616     8.8420
  301.0000   114.6355     9.1403     8.8421
  301.5000   114.6966     9.1188     8.8423
  302.0000   116.6191     9.0979     8.8420
  302.5000   119.8109     9.0417     8.8133
  303.0000   122.9866     8.9413     8.7154
  303.5000   124.1147     8.8419     8.6186
  304.0000   122.9226     8.7437     8.5229
  304.5000   121.7340     8.6465     8.4281
  305.0000   120.5346     8.5503     8.3344
  305.5000   119.3389     8.4016     8.2041
  306.0000   117.9280     8.2306     8.0357
  306.5000   118.1351     8.0631     7.8708
  307.0000   119.1340     7.9106     7.7093
  307.5000   118.7699     7.4822     7.5509
  308.0000   117.6991     7.0944     7.3958
  308.5000   117.0319     6.7267     7.0340
  309.0000   118.2455     6.3780     6.5927
  309.5000   119.6662     5.7254     6.1791
  310.0000   119.0369     5.0945     5.7914
  310.5000   117.7655     4.5339     5.1943
  311.0000   115.8964     4.0354     4.5541
  311.5000   118.5283     3.5299     3.9927
  312.0000   120.2156     3.2278     3.4998
  312.5000   117.3093     3.0149     2.9891
  313.0000   114.5138     2.9752     2.6221
  313.5000   111.8407     2.9379     2.5274
  314.0000   110.0667     2.9322     2.5036
  314.5000   108.1843     3.0650     2.5848
  315.0000   108.2987     3.1978     2.7197
  315.5000   114.3862     3.4553     2.9412
  316.0000   120.6520     3.8080     3.2938
  316.5000   126.0855     4.1967     3.6838
  317.0000   125.6699     4.6251     4.1169
  317.5000   125.5804     5.0495     4.6005
  318.0000   126.7353     5.4825     5.1710
  318.5000   129.1149     5.8736     5.6372
  319.0000   131.1055     6.1213     5.9394
  319.5000   130.9318     6.1687     5.9645
  320.0000   130.7501     6.2155     5.9891
  320.5000   130.5804     6.1064     5.9125
  321.0000   130.4090     5.9644     5.8383
  321.5000   131.0128     5.7754     5.6202
  322.0000   132.2939     5.5924     5.3790
  322.5000   133.6118     5.4152     5.1483
  323.0000   133.6800     5.2112     4.9292
  323.5000   132.2462     5.2402     4.9292
  324.0000   128.5367     5.3120     4.9395
  324.5000   124.2049     5.3848     4.9906
  325.0000   123.1579     5.4586     5.0839
  325.5000   124.9953     5.7172     5.2690
  326.0000   127.1964     5.9880     5.5699
  326.5000   128.2375     6.2717     5.8880
  327.0000   126.6546     6.5688     6.2250
  327.5000   125.1121     6.8800     6.5816
  328.0000   124.4266     7.1665     6.9341
  328.5000   124.7724     7.4010     7.1981
  329.0000   126.6232     7.6435     7.4713
  329.5000   128.2668     7.8940     7.7565
  330.0000   127.7209     8.2111     8.0587
  330.5000   127.1360     8.1868     8.0228
  331.0000   126.5626     8.1432     7.9612
  331.5000   125.9906     7.9987     7.9000
  332.0000   125.4165     7.8278     7.8393
  332.5000   124.8346     7.6605     7.7790
  333.0000   124.3398     7.4572     7.6205
  333.5000   125.4371     7.2470     7.4350
  334.0000   126.8192     7.0464     7.2541
  334.5000   129.1528     6.8681     7.0780
  335.0000   131.4617     6.6273     6.9059
  335.5000   133.7521     6.2815     6.7382
  336.0000   135.2117     5.9537     6.4702
  336.5000   135.4181     5.6430     6.0363
  337.0000   136.0146     5.4626     5.6314
  337.5000   137.2022     5.3498     5.2537
  338.0000   138.3934     5.2109     4.9013
  338.5000   139.4860     5.2944     4.6282
  339.0000   138.4135     5.3849     4.6879
  339.5000   135.1656     5.5783     4.9440
  340.0000   130.8776     5.8156     5.2868
  340.5000   127.0884     6.1239     5.6531
  341.0000   126.2523     6.4714     6.0365
  341.5000   128.3789     6.8385     6.3961
  342.0000   131.0339     7.2265     6.7770
  342.5000   131.5231     7.6356     7.1807
  343.0000   131.9395     7.8439     7.5649
  343.5000   133.1393     7.9021     7.6656
  344.0000   134.2552     7.9605     7.7677
  344.5000   133.0893     8.0188     7.8711
  345.0000   131.7342     8.0716     7.9843
  345.5000   130.3668     8.1117     7.9957
  346.0000   129.9704     8.1520     8.0080
  346.5000   129.5871     8.1925     8.0204
  347.0000   130.2205     8.2333     8.0328
  347.5000   131.1720     8.2861     8.0451
  348.0000   132.1340     8.2691     8.0587
  348.5000   133.0948     8.2452     8.0354
  349.0000   134.0594     8.2214     8.0098
  349.5000   135.4587     8.1977     7.9843
  350.0000   137.0716     8.1740     7.9588
  350.5000   136.3554     8.1502     7.9335
  351.0000   135.5832     8.1340     7.9106
  351.5000   136.2663     8.1616     7.9336
  352.0000   136.8036     8.1833     7.9546
  352.5000   134.6692     8.2051     7.9757
  353.0000   131.6376     8.2268     7.9968
  353.5000   131.6137     8.2486     8.0180
  354.0000   134.1853     8.2704     8.0392
  354.5000   135.9793     8.2857     8.0584
  355.0000   135.6633     8.2717     8.0467
  355.5000   135.3685     8.2604     8.0359
  356.0000   135.4962     8.2492     8.0250
  356.5000   136.8799     8.2380     8.0136
  357.0000   137.1406     8.2268     8.0025
  357.5000   134.4261     8.2156     7.9856
  358.0000   130.4126     8.1431     7.9896
  358.5000   126.0897     8.0030     7.5443
  359.0000   123.4223     7.7063     7.2146
  359.5000   125.4800     7.3971     6.8993
  360.0000   129.8729     7.0999     6.5978
  360.5000   134.9752     6.8137     6.3094
  361.0000   138.5381     6.4478     6.0562
  361.5000   140.6081     6.4529     5.8835
  362.0000   141.7517     6.4739     5.8248
  362.5000   141.7292     6.4927     5.9270
  363.0000   140.7496     6.5106     6.1600
  363.5000   139.1177     6.7147     6.3909
  364.0000   137.4903     6.9154     6.6183
  364.5000   136.0884     7.1221     6.8433
  365.0000   135.2243     7.3350     7.0759
  365.5000   134.3620     7.4133     7.2099
  366.0000   133.0020     7.4133     6.9776
  366.5000   131.1290     7.1070     6.6639
  367.0000   129.2038     6.7571     6.3398
  367.5000   129.1155     6.4244     6.0118
  368.0000   130.8674     6.1081     5.6386
  368.5000   134.3171     5.8949     5.2886
  369.0000   137.0718     5.8046     5.1174
  369.5000   137.1488     5.6649     5.0450
