~VERSION INFORMATION
 VERS.                2.0:   CWLS LOG ASCII STANDARD - VERSION 2.0
 WRAP.                 NO:   ONE LINE PER DEPTH STEP
~WELL INFORMATION
#MNEM.UNIT      DATA TYPE    INFORMATION
#----------   ------------   ------------------------------
 STRT.F            0.0000:   START DEPTH
 STOP.F          717.5000:   STOP DEPTH
 STEP.F            0.5000:   STEP LENGTH
 NULL.          -999.2500:   NO VALUE
 COMP. LAWRENCE/ALLISON INC:   COMPANY
 WELL. NPR 3 #27-64-SX-11-WP:   WELL
 FLD .             TEAPOT:   FIELD
 LOC .      S11 T38N R78W:   LOCATION
 CNTY.            NATRONA:   COUNTY
 STAT.            WYOMING:   STATE
 CTRY. UNITED STATES OF AMERICA:   COUNTRY
 SRVC.      Dresser Atlas:   SERVICE COMPANY
 DATE.        15-SEP-1984:   LOGDATE
 API .       490251097500:   API NUMBER
~CURVE INFORMATION
#MNEM.UNIT       API CODE    CURVE DESCRIPTION
#----------   ------------   ------------------------------
 DEPT.F                  :   
 CALD.IN     45 280 60 00:   CALIPER FROM DENSITY LOG
 CNC .DEC    42 890 03 00:   COMPENSATED NEUTRON POROSITY SANDSTONE
 CORR.G/C3   45 356 01 00:   DENSITY CORRECTION
 DEN .G/C3   45 350 01 00:   BULK DENSTIY
 PORD.DEC    45 890 12 00:   POROSITY DENSITY SANDSTONE
 GRR .GAPI   07 310 01 00:   GAMMA RAY FROM RESISTIVITY
 RFOC.OHMM   07 220 01 00:   RESISTIVITY FOCUSED LOG
 RILD.OHMM   07 120 46 00:   RESISTIVITY INDUCTION LOG DEEP
 RILM.OHMM   07 120 44 00:   RESITIVITY INDUCTION LOG MEDIUM
 SPR .MV     07 010 01 00:   SPONTANEOUS POTENTIAL FROM RES.
~PARAMETER INFORMATION
#MNEM.UNIT          VALUE    DESCRIPTION
#----------   ------------   ------------------------------
 PD  .                 GL:   PERMANENT DATUM
 EPD .F              5198:   ELEVATION PERMANENT DATUM
 LMF .                 GL:   LOG MEASURED FROM
 DMF .                 GL:   DRILLING MEASURED FROM
 EGL .F              5198:   GROUND LEVEL
 DATE.        15-SEP-1984:   RUN DATE
 RUN .                  1:   RUN NUMBER
 DD  .F               736:   DEPTH DRILLER
 DL  .F               722:   DEPTH LOGGER
 BLI .F               704:   BOTTOM LOG INTERVAL
 TLI .F                42:   TOP LOG INTERVAL
 CS  .IN            8.625:   CASING SIZE
 CBD .F                42:   CASING BOTTOM DRILLER
 CBL .F                42:   CASING BOTTOM LOGGER
 BS  .IN            7.875:   BIT SIZE
 BSD .F               736:   BIT SIZE AT DEPTH
 DFT .          KCL WATER:   DRILLING FLUID TYPE
 MSS .           FLOWLINE:   MUD SAMPLE SOURCE
 RMS .OHMM           0.22:   RESISTIVITY MUD SAMPLE
 MST .F                70:   MUD SAMPLE TEMPERATURE
 RMB .OHMM           0.17:   RESISTIVITY MUD AT BHT
 BHT .F                90:   BOTTOM HOLE TEMPERATURE
 TCS .HRS               5:   TIME CURCULATED STOPPED
 MRT .F                90:   MAXIMUM RECORDED TEMPERATURE
 LUN .               6274:   LOGGING UNIT NUMBER
 LUL .               GLTE:   LOGGING UNIT LOCATION
 ENGI.             RAUTIO:   RECORDING ENGINEER
 WITN.            JOHNSON:   WITNESSED BY
 CLNT.            A2DTECH:   CLIENT CODE
 ORIG.         2.5" PRINT:   ORIGIN OF DATA
 UWI .       490251097500:   UNIQUE WELL ID
 DICO. A2D Technologies, Inc.:   DIGITIZING COMPANY
~OTHER INFORMATION
~A    DEPT    CALD        CNC       CORR        DEN       PORD         GRR      RFOC       RILD       RILM        SPR   
# ...
  402.0000     8.1520     0.2706     0.0270     2.4697     0.1216    82.7021     8.0060     7.1013     7.0318    -0.0710
  402.5000     8.1501     0.2741     0.0269     2.4773     0.1200    82.0858     7.8529     6.9208     6.8059    -0.0912
  403.0000     8.1482     0.2789     0.0264     2.4772     0.1201    82.6406     7.5672     6.7371     6.4676    -0.6982
  403.5000     8.1463     0.2908     0.0110     2.4749     0.1208    84.4151     7.2541     6.4337     6.2843    -1.3077
  404.0000     8.1444     0.2975    -0.0044     2.4723     0.1249    87.7397     7.0203     6.0327     5.9188    -1.9196
  404.5000     8.1425     0.3049    -0.0205     2.4620     0.1321    90.2354     6.6741     5.7002     5.4733    -2.5266
  405.0000     8.1402     0.3093    -0.0113     2.4412     0.1368    92.5744     6.3923     5.2352     5.1639    -2.9438
  405.5000     8.1383     0.3276     0.0131     2.4322     0.1416    91.3580     6.1060     4.3319     4.1454    -3.7480
  406.0000     8.1365     0.3507     0.0201     2.4232     0.1464    93.6882     5.5719     3.6469     3.2433    -4.3609
  406.5000     8.1346     0.3620     0.0216     2.4157     0.1525    96.6953     4.9637     2.8303     2.7794    -4.9645
  407.0000     8.1328     0.3715     0.0229     2.4081     0.1622    99.5497     4.0940     2.4640     2.4242    -5.5763
  407.5000     8.1309     0.3917     0.0108     2.3867     0.1695    87.6736     3.4868     2.2634     2.2967    -6.1834
  408.0000     8.1290     0.4146     0.0018     2.3561     0.1777    79.2978     3.0634     2.1750     2.2951    -5.9882
  408.5000     8.1271     0.4417    -0.0043     2.3297     0.2025    75.6775     2.7640     2.1436     2.3251    -4.7420
  409.0000     8.1251     0.5000    -0.0044     2.2874     0.2419    74.5583     2.6443     2.2072     2.4536    -4.1568
  409.5000     8.1232     0.5066    -0.0045     2.2386     0.2675    77.0089     2.8068     2.3517     2.6327    -3.7796
  410.0000     8.1213     0.4948    -0.0046     2.1936     0.2925    81.3610     3.3864     2.6269     2.9743    -3.3136
  410.5000     8.1194     0.4594    -0.0047     2.1964     0.2842    86.2951     4.3209     3.0584     3.4778    -2.7394
  411.0000     8.1175     0.4239     0.0019     2.2346     0.2653    88.7199     5.3102     3.5376     3.9813    -2.3521
  411.5000     8.1451     0.3884     0.0075     2.2886     0.2317    90.6183     6.1571     4.0168     4.4848    -2.1834
  412.0000     8.1432     0.3565     0.0128     2.3434     0.2129    92.1183     6.7897     4.4961     4.9883    -2.2012
  412.5000     8.1409     0.3225     0.0126     2.3997     0.1947    93.9102     7.0710     4.9753     5.5519    -2.2189
  413.0000     8.1391     0.3086     0.0125     2.4248     0.1677    95.2604     7.0659     5.4546     5.9485    -2.2389
  413.5000     8.1372     0.3253     0.0124     2.4425     0.1520    96.1627     6.8694     5.9429     6.0193    -2.2544
  414.0000     8.1353     0.3318     0.0107     2.4469     0.1422    96.7232     6.6665     6.1082     6.0130    -2.6805
  414.5000     8.1335     0.3237     0.0062     2.4482     0.1388    97.5355     6.4939     6.1881     6.0085    -2.8838
  415.0000     8.1316     0.2975     0.0001     2.4450     0.1400    97.8402     6.7619     6.1425     5.8068    -3.1953
  415.5000     8.1297     0.2816     0.0060     2.4436     0.1400    97.2160     7.1698     5.9292     5.5246    -3.3269
  416.0000     8.1278     0.2810     0.0118     2.4468     0.1401    97.4438     7.5361     5.7524     5.3558    -3.5288
  416.5000     8.1556     0.2811     0.0146     2.4577     0.1342    98.3312     7.3273     5.5668     5.1196    -3.5444
  417.0000     8.1536     0.2799     0.0145     2.4596     0.1295    98.8951     6.3397     5.3747     4.9387    -3.8580
  417.5000     8.1516     0.2799     0.0055     2.4595     0.1289    99.4589     5.7543     5.2132     4.7287    -3.8778
  418.0000     8.1497     0.2816    -0.0006     2.4587     0.1303   100.0118     5.4063     5.0114     4.6391    -3.5972
  418.5000     8.1478     0.3022     0.0154     2.4504     0.1328    99.9793     5.3295     4.8720     4.5377    -3.4985
  419.0000     8.1459     0.3253     0.0301     2.4429     0.1363    98.2189     5.5134     4.7247     4.5343    -3.2293
  419.5000     8.1439     0.3483     0.0385     2.4265     0.1439    93.9942     5.7785     4.6689     4.5305    -3.0399
  420.0000     8.1416     0.3736     0.0406     2.4027     0.1570    92.6232     6.1520     4.7298     4.6523    -2.6627
  420.5000     8.1398     0.3464     0.0143     2.3992     0.1644    91.8432     6.7105     4.9385     4.7961    -2.5030
  421.0000     8.1379     0.3234     0.0033     2.4129     0.1594    95.0802     6.7182     5.2691     5.1094    -2.5202
  421.5000     8.1361     0.3095     0.0077     2.4217     0.1523    97.5868     6.5914     5.5645     5.6225    -2.2395
  422.0000     8.1342     0.3013     0.0145     2.4295     0.1429    99.1361     6.8831     5.9640     6.0413    -1.9645
  422.5000     8.1323     0.3004     0.0073     2.4417     0.1352    99.7189     7.3678     6.3635     6.4359    -1.9822
  423.0000     8.1305     0.3051     0.0101     2.4532     0.1329    98.5030     7.6968     6.7630     6.7951    -1.8787
  423.5000     8.1286     0.3121     0.0219     2.4588     0.1323    98.4704     7.9885     7.1625     7.0902    -1.7219
  424.0000     8.1266     0.3171     0.0307     2.4623     0.1278    97.2520     7.9838     7.3891     7.3150    -1.7396
  424.5000     8.1247     0.3202     0.0365     2.4690     0.1202    95.3501     7.9786     7.4862     7.3598    -1.7574
  425.0000     8.1228     0.3219     0.0305     2.4759     0.1167    95.7100     8.0823     7.4808     7.3370    -1.7770
  425.5000     8.1209     0.3184     0.0091     2.4805     0.1147    98.3380     7.9674     7.4741     7.1980    -2.0888
  426.0000     8.1302     0.3028    -0.0033     2.4816     0.1147    99.5937     7.8536     7.3677     7.1427    -2.1065
  426.5000     8.1466     0.2871    -0.0002     2.4786     0.1198    98.8550     7.7403     7.2621     7.1201    -2.4220
  427.0000     8.1447     0.2859     0.0227     2.4725     0.1228    98.7436     7.5263     7.1569     6.9385    -2.7337
  427.5000     8.1428     0.2853     0.0368     2.4724     0.1208    98.8043     7.3909     7.0549     6.9325    -2.7515
  428.0000     8.1405     0.2848     0.0500     2.4753     0.1185    98.7692     7.3117     6.8591     6.8155    -2.7711
  428.5000     8.1386     0.2950     0.0578     2.4782     0.1173    98.7347     7.2078     6.7598     6.6863    -3.1110
  429.0000     8.1368     0.3164     0.0576     2.4811     0.1168    98.1124     7.2030     6.6635     6.5465    -3.3964
  429.5000     8.1349     0.3234     0.0294     2.4824     0.1162    98.0799     7.1973     6.4785     6.3307    -3.4160
  430.0000     8.1330     0.3101     0.0144     2.4803     0.1162    97.4538     7.1930     6.2121     5.9371    -3.4320
  430.5000     8.1312     0.3093     0.0262     2.4740     0.1189    97.4231     7.0902     5.9580     5.6940    -3.5784
  431.0000     8.1589     0.3147     0.0320     2.4713     0.1224    97.9822     6.9880     5.5656     5.3412    -4.0609
  431.5000     8.1570     0.3187     0.0319     2.4696     0.1236    99.1314     6.8887     4.9099     4.8219    -4.4039
  432.0000     8.1550     0.3252     0.0199     2.4672     0.1263   101.1282     6.6684     4.6449     4.5615    -4.6864
  432.5000     8.1531     0.3355     0.0108     2.4624     0.1288   103.7955     6.2484     4.5783     4.4959    -4.7059
  433.0000     8.1512     0.3426     0.0018     2.4565     0.1310   103.7677     5.8305     4.5743     4.4303    -4.7219
  433.5000     8.1493     0.3290     0.0013     2.4535     0.1323   102.2889     5.4652     4.5714     4.4272    -4.7396
  434.0000     8.1473     0.3190    -0.0014     2.4534     0.1337    99.5560     5.0753     4.6315     4.4516    -5.0549
  434.5000     8.1454     0.3190    -0.0015     2.4518     0.1361    97.1613     4.7998     4.6270     4.7982    -5.3669
  435.0000     8.1435     0.3423     0.0014     2.4473     0.1403    95.0789     4.4986     4.7547     4.9961    -5.5177
