~VERSION INFORMATION
 VERS.                2.0:   CWLS LOG ASCII STANDARD - VERSION 2.0
 WRAP.                 NO:   ONE LINE PER DEPTH STEP
~WELL INFORMATION
#MNEM.UNIT      DATA TYPE    INFORMATION
#----------   ------------   ------------------------------
 STRT.F            0.0000:   START DEPTH
 STOP.F         2838.0000:   STOP DEPTH
 STEP.F            0.5000:   STEP LENGTH
 NULL.          -999.2500:   NO VALUE
 COMP. INTEX OIL CO U S NAVY:   COMPANY
 WELL. NAVAL PETROLEUM RESERVE 3 29 #NPR #3 (204A29)-29:   WELL
 FLD .                N/A:   FIELD
 LOC .      S29 T39N R78W:   LOCATION
 CNTY.            NATRONA:   COUNTY
 STAT.            WYOMING:   STATE
 CTRY. UNITED STATES OF AMERICA:   COUNTRY
 SRVC.      NL McCullough:   SERVICE COMPANY
 DATE.        24-JUN-1965:   LOGDATE
 API .       490251021700:   API NUMBER
~CURVE INFORMATION
#MNEM.UNIT       API CODE    CURVE DESCRIPTION
#----------   ------------   ------------------------------
 DEPT.F                  :   
 GR  .GAPI   30 310 01 00:   GAMMA RAY
 HD  .IN     70 280 01 00:   DAIMETER
~PARAMETER INFORMATION
#MNEM.UNIT          VALUE    DESCRIPTION
#----------   ------------   ------------------------------
 PD  .                 GL:   PERMANENT DATUM
 LMF .                 GL:   LOG MEASURED FROM
 EDF .F              5016:   DRILLING FLOOR
 DATE.        24-JUN-1965:   RUN DATE
 RUN .                  1:   RUN NUMBER
 DD  .F              2838:   DEPTH DRILLER
 DL  .F              2838:   DEPTH LOGGER
 BLI .F              2836:   BOTTOM LOG INTERVAL
 TLI .F              2400:   TOP LOG INTERVAL
 CS  .IN            6.625:   CASING SIZE
 CBD .F              2820:   CASING BOTTOM DRILLER
 BSD .F              2838:   BIT SIZE AT DEPTH
 LUN .               1497:   LOGGING UNIT NUMBER
 ENGI.         COWLTHORPE:   RECORDING ENGINEER
 WITN.         MR. HUDSON:   WITNESSED BY
 CLNT.            A2DTECH:   CLIENT CODE
 ORIG.           5" PRINT:   ORIGIN OF DATA
 UWI .       490251021700:   UNIQUE WELL ID
 DICO. A2D Technologies, Inc.:   DIGITIZING COMPANY
~OTHER INFORMATION
~A    DEPT      GR           HD 
# ...
  729.0000  -999.2500     6.5829
  729.5000  -999.2500     6.5836
  730.0000  -999.2500     6.5843
  730.5000  -999.2500     6.5851
  731.0000  -999.2500     6.5860
  731.5000  -999.2500     6.5867
  732.0000  -999.2500     6.5722
  732.5000  -999.2500     6.5731
  733.0000  -999.2500     6.5738
  733.5000  -999.2500     6.5745
  734.0000  -999.2500     6.5753
  734.5000  -999.2500     6.5610
  735.0000  -999.2500     6.5617
  735.5000  -999.2500     6.5626
  736.0000  -999.2500     6.5482
  736.5000  -999.2500     6.5490
  737.0000  -999.2500     6.5498
  737.5000  -999.2500     6.5355
  738.0000  -999.2500     6.5362
  738.5000  -999.2500     6.5369
  739.0000  -999.2500     6.5377
  739.5000  -999.2500     6.5384
  740.0000  -999.2500     6.5393
  740.5000  -999.2500     6.5399
  741.0000  -999.2500     6.5408
  741.5000  -999.2500     6.5263
  742.0000  -999.2500     6.5119
  742.5000  -999.2500     6.5129
  743.0000  -999.2500     6.5136
  743.5000  -999.2500     6.5143
  744.0000  -999.2500     6.5151
  744.5000  -999.2500     6.5158
  745.0000  -999.2500     6.5167
  745.5000  -999.2500     6.5174
  746.0000  -999.2500     6.5181
  746.5000  -999.2500     6.5188
  747.0000  -999.2500     6.5196
  747.5000  -999.2500     6.5204
  748.0000  -999.2500     6.5211
  748.5000  -999.2500     6.5218
  749.0000  -999.2500     6.5075
  749.5000  -999.2500     6.5084
  750.0000  -999.2500     6.5092
  750.5000  -999.2500     6.5250
  751.0000  -999.2500     6.5106
  751.5000  -999.2500     6.5113
  752.0000  -999.2500     6.5123
  752.5000  -999.2500     6.5132
  753.0000  -999.2500     6.5141
  753.5000  -999.2500     6.5150
  754.0000  -999.2500     6.5159
  754.5000  -999.2500     6.5169
  755.0000  -999.2500     6.5178
  755.5000  -999.2500     6.5187
  756.0000  -999.2500     6.5196
  756.5000  -999.2500     6.5205
  757.0000  -999.2500     6.5215
  757.5000  -999.2500     6.5224
  758.0000  -999.2500     6.5233
  758.5000  -999.2500     6.5241
  759.0000  -999.2500     6.5214
  759.5000  -999.2500     6.5189
  760.0000  -999.2500     6.5164
  760.5000  -999.2500     6.5140
  761.0000  -999.2500     6.5115
  761.5000  -999.2500     6.5090
  762.0000  -999.2500     6.5066
  762.5000  -999.2500     6.5041
  763.0000  -999.2500     6.5017
  763.5000  -999.2500     6.4992
  764.0000  -999.2500     6.4967
  764.5000  -999.2500     6.4943
  765.0000  -999.2500     6.4918
  765.5000  -999.2500     6.4893
  766.0000  -999.2500     6.4869
  766.5000  -999.2500     6.4844
  767.0000  -999.2500     6.4820
  767.5000  -999.2500     6.4795
  768.0000  -999.2500     6.4770
  768.5000  -999.2500     6.4746
  769.0000  -999.2500     6.4721
  769.5000  -999.2500     6.4697
  770.0000  -999.2500     6.4672
  770.5000  -999.2500     6.4647
  771.0000  -999.2500     6.4623
  771.5000  -999.2500     6.4598
  772.0000  -999.2500     6.4573
  772.5000  -999.2500     6.4549
  773.0000  -999.2500     6.4524
  773.5000  -999.2500     6.4500
  774.0000  -999.2500     6.4488
  774.5000  -999.2500     6.4488
  775.0000  -999.2500     6.4488
  775.5000  -999.2500     6.4488
  776.0000  -999.2500     6.4488
  776.5000  -999.2500     6.4488
  777.0000  -999.2500     6.4488
  777.5000  -999.2500     6.4488
  778.0000  -999.2500     6.4488
  778.5000  -999.2500     6.4488
  779.0000  -999.2500     6.4488
  779.5000  -999.2500     6.4488
  780.0000  -999.2500     6.4639
  780.5000  -999.2500     6.4639
  781.0000  -999.2500     6.4639
  781.5000  -999.2500     6.4639
  782.0000  -999.2500     6.4639
  782.5000  -999.2500     6.4639
  783.0000  -999.2500     6.4639
  783.5000  -999.2500     6.4639
  784.0000  -999.2500     6.4639
  784.5000  -999.2500     6.4639
  785.0000  -999.2500     6.4789
  785.5000  -999.2500     6.4789
  786.0000  -999.2500     6.4639
  786.5000  -999.2500     6.4639
  787.0000  -999.2500     6.4639
  787.5000  -999.2500     6.4582
  788.0000  -999.2500     6.4488
  788.5000  -999.2500     6.4488
  789.0000  -999.2500     6.4488
  789.5000  -999.2500     6.4488
  790.0000  -999.2500     6.4488
  790.5000  -999.2500     6.4488
  791.0000  -999.2500     6.4488
  791.5000  -999.2500     6.4488
  792.0000  -999.2500     6.4488
  792.5000  -999.2500     6.4488
  793.0000  -999.2500     6.4488
  793.5000  -999.2500     6.4488
  794.0000  -999.2500     6.4488
  794.5000  -999.2500     6.4488
  795.0000  -999.2500     6.4488
  795.5000  -999.2500     6.4488
  796.0000  -999.2500     6.4488
  796.5000  -999.2500     6.4488
  797.0000  -999.2500     6.4488
  797.5000  -999.2500     6.4488
  798.0000  -999.2500     6.4337
  798.5000  -999.2500     6.4337
  799.0000  -999.2500     6.4337
  799.5000  -999.2500     6.4337
  800.0000  -999.2500     6.4337
  800.5000  -999.2500     6.4488
  801.0000  -999.2500     6.4488
  801.5000  -999.2500     6.4488
  802.0000  -999.2500     6.4468
  802.5000  -999.2500     6.4445
  803.0000  -999.2500     6.4423
  803.5000  -999.2500     6.4400
  804.0000  -999.2500     6.4378
  804.5000  -999.2500     6.4355
  805.0000  -999.2500     6.4333
  805.5000  -999.2500     6.4310
  806.0000  -999.2500     6.4288
  806.5000  -999.2500     6.4265
  807.0000  -999.2500     6.4243
  807.5000  -999.2500     6.4220
  808.0000  -999.2500     6.4198
  808.5000  -999.2500     6.4175
  809.0000  -999.2500     6.4153
  809.5000  -999.2500     6.4130
  810.0000  -999.2500     6.4108
  810.5000  -999.2500     6.4085
  811.0000  -999.2500     6.4069
  811.5000  -999.2500     6.4221
  812.0000  -999.2500     6.4373
  812.5000  -999.2500     6.4224
  813.0000  -999.2500     6.4377
  813.5000  -999.2500     6.4378
  814.0000  -999.2500     6.4380
  814.5000  -999.2500     6.4532
  815.0000  -999.2500     6.4533
  815.5000  -999.2500     6.4384
  816.0000  -999.2500     6.4385
  816.5000  -999.2500     6.4387
  817.0000  -999.2500     6.4389
  817.5000  -999.2500     6.4390
  818.0000  -999.2500     6.4391
  818.5000  -999.2500     6.4393
  819.0000  -999.2500     6.4395
  819.5000  -999.2500     6.4396
  820.0000  -999.2500     6.4398
  820.5000  -999.2500     6.4399
  821.0000  -999.2500     6.4401
  821.5000  -999.2500     6.4402
  822.0000  -999.2500     6.4403
  822.5000  -999.2500     6.4555
  823.0000  -999.2500     6.4558
  823.5000  -999.2500     6.4559
  824.0000  -999.2500     6.4560
  824.5000  -999.2500     6.4562
  825.0000  -999.2500     6.4563
  825.5000  -999.2500     6.4564
  826.0000  -999.2500     6.4566
  826.5000  -999.2500     6.4719
  827.0000  -999.2500     6.4720
  827.5000  -999.2500     6.4571
  828.0000  -999.2500     6.4572
  828.5000  -999.2500     6.4574
  829.0000  -999.2500     6.4575
  829.5000  -999.2500     6.4577
  830.0000  -999.2500     6.4578
  830.5000  -999.2500     6.4580
  831.0000  -999.2500     6.4582
  831.5000  -999.2500     6.4583
  832.0000  -999.2500     6.4584
  832.5000  -999.2500     6.4586
  833.0000  -999.2500     6.4527
  833.5000  -999.2500     6.4438
  834.0000  -999.2500     6.4440
  834.5000  -999.2500     6.4441
  835.0000  -999.2500     6.4443
  835.5000  -999.2500     6.4444
  836.0000  -999.2500     6.4446
  836.5000  -999.2500     6.4447
  837.0000  -999.2500     6.4449
  837.5000  -999.2500     6.4300
  838.0000  -999.2500     6.4301
  838.5000  -999.2500     6.4303
  839.0000  -999.2500     6.4304
  839.5000  -999.2500     6.4155
  840.0000  -999.2500     6.4156
  840.5000  -999.2500     6.4158
  841.0000  -999.2500     6.4009
  841.5000  -999.2500     6.4011
  842.0000  -999.2500     6.3861
  842.5000  -999.2500     6.3863
  843.0000  -999.2500     6.3865
  843.5000  -999.2500     6.3866
  844.0000  -999.2500     6.3717
  844.5000  -999.2500     6.3719
  845.0000  -999.2500     6.3569
  845.5000  -999.2500     6.3722
  846.0000  -999.2500     6.3723
  846.5000  -999.2500     6.3724
  847.0000  -999.2500     6.3726
  847.5000  -999.2500     6.3727
  848.0000  -999.2500     6.3729
  848.5000  -999.2500     6.3736
  849.0000  -999.2500     6.3882
  849.5000  -999.2500     6.3884
  850.0000  -999.2500     6.3885
