~VERSION INFORMATION
 VERS.                2.0:   CWLS LOG ASCII STANDARD - VERSION 2.0
 WRAP.                 NO:   ONE LINE PER DEPTH STEP
~WELL INFORMATION
#MNEM.UNIT      DATA TYPE    INFORMATION
#----------   ------------   ------------------------------
 STRT.F           20.0000:   START DEPTH
 STOP.F          744.0000:   STOP DEPTH
 STEP.F            0.5000:   STEP LENGTH
 NULL.          -999.2500:   NO VALUE
 COMP. FENIX & SCISSON INCORP.:   COMPANY
 WELL.          SX #53-15:   WELL
 FLD .             TEAPOT:   FIELD
 LOC .      S15 T38N R78W:   LOCATION
 CNTY.            NATRONA:   COUNTY
 STAT.            WYOMING:   STATE
 CTRY. UNITED STATES OF AMERICA:   COUNTRY
 SRVC.              Welex:   SERVICE COMPANY
 DATE.        02-MAR-1977:   LOGDATE
 API .       490251030000:   API NUMBER
~CURVE INFORMATION
#MNEM.UNIT       API CODE    CURVE DESCRIPTION
#----------   ------------   ------------------------------
 DEPT.F                  :   
 SGRD.OHMM   07 220 05 00:   SHALLOW RESISTIVITY
 ILD .OHMM   07 120 46 00:   INDUCTION LOG DEEP
 ILM .OHMM   07 120 44 00:   INDUCTION LOG MEDIUM
 SPR .MV     07 010 01 00:   SPONTANEOUS POTENTIAL
 GRD .GAPI   45 310 01 00:   GAMMA RAY FROM DENSITY LOG
 CALD.IN     45 280 60 00:   CALIPER
 RHOB.G/C3   45 350 01 00:   BULK DENSITY
 DPHI.DEC    45 890 10 00:   DENSITY POROSITY SANDSTONE
 CORR.G/C3   45 356 01 00:   DENSITY CORRECTION
~PARAMETER INFORMATION
#MNEM.UNIT          VALUE    DESCRIPTION
#----------   ------------   ------------------------------
 PD  .                 GL:   PERMANENT DATUM
 EPD .F              5253:   ELEVATION PERMANENT DATUM
 LMF .                 GL:   LOG MEASURED FROM
 DMF .                 GL:   DRILLING MEASURED FROM
 EGL .F              5253:   GROUND LEVEL
 DATE.             3-2-77:   RUN DATE
 RUN .                  1:   RUN NUMBER
 DD  .F               750:   DEPTH DRILLER
 DL  .F               747:   DEPTH LOGGER
 BLI .F               745:   BOTTOM LOG INTERVAL
 TLI .F                44:   TOP LOG INTERVAL
 CS  .IN            8.625:   CASING SIZE
 CBD .F                40:   CASING BOTTOM DRILLER
 CBL .F                44:   CASING BOTTOM LOGGER
 BS  .IN            7.875:   BIT SIZE
 BSD .F               750:   BIT SIZE AT DEPTH
 DFT .           CHEM-GEL:   DRILLING FLUID TYPE
 MSS .          FLOW LINE:   MUD SAMPLE SOURCE
 RMS .OHMM           .425:   RESISTIVITY MUD SAMPLE
 MST .F                56:   MUD SAMPLE TEMPERATURE
 RMF .OHMM           .436:   RESISTIVITY MUD FILTRATE SAMPLE
 MFST.F                56:   MUD FILTRATE SAMPLE TEMPERATURE
 RMC .OHMM           .712:   RESISTIVITY MUD CAKE
 MCST.F                56:   MUD CAKE SAMPLE TEMPERATURE
 MFSS.           MEASURED:   MUD FILTRATE SAMPLE SOURCE
 MCSS.           MEASURED:   MUD CAKE SAMPLE SOURCE
 RMB .OHMM            .35:   RESISTIVITY MUD AT BHT
 BHT .F                68:   BOTTOM HOLE TEMPERATURE
 TCS .HRS               2:   TIME CURCULATED STOPPED
 MRT .F                68:   MAXIMUM RECORDED TEMPERATURE
 LUN .               8611:   LOGGING UNIT NUMBER
 LUL .           GILLETTE:   LOGGING UNIT LOCATION
 ENGI.          D. LAWSON:   RECORDING ENGINEER
 WITN.           S. BURKE:   WITNESSED BY
 CLNT.            A2DTECH:   CLIENT CODE
 ORIG.        2" 5" PRINT:   ORIGIN OF DATA
 UWI .       490251030000:   UNIQUE WELL ID
 DICO. A2D Technologies, Inc.:   DIGITIZING COMPANY
~OTHER INFORMATION
~A   DEPT     SGRD        ILD        ILM        SPR         GRD      CALD         RHOB       DPHI      CORR  
   20.0000  -999.2500  -999.2500  -999.2500  -999.2500    87.1743  -999.2500     2.3308     0.1868    -0.3154
   20.5000  -999.2500  -999.2500  -999.2500  -999.2500    87.1743  -999.2500     2.3358     0.1856    -0.3154
   21.0000  -999.2500  -999.2500  -999.2500  -999.2500    87.6428  -999.2500     2.3386     0.1836    -0.3154
   21.5000  -999.2500  -999.2500  -999.2500  -999.2500    88.1404  -999.2500     2.3447     0.1824    -0.3134
   22.0000  -999.2500  -999.2500  -999.2500  -999.2500    88.2601  -999.2500     2.3427     0.1812    -0.3161
   22.5000  -999.2500  -999.2500  -999.2500  -999.2500    87.7454  -999.2500     2.3452     0.1797    -0.3201
   23.0000  -999.2500  -999.2500  -999.2500  -999.2500    87.4186  -999.2500     2.3420     0.1806    -0.3241
   23.5000  -999.2500  -999.2500  -999.2500  -999.2500    87.6642  -999.2500     2.3365     0.1826    -0.3280
   24.0000  -999.2500  -999.2500  -999.2500  -999.2500    87.9028  -999.2500     2.3212     0.1893    -0.3320
   24.5000  -999.2500  -999.2500  -999.2500  -999.2500    87.6502  -999.2500     2.3059     0.2012    -0.3361
   25.0000  -999.2500  -999.2500  -999.2500  -999.2500    87.1593  -999.2500     2.2947     0.2096    -0.3373
   25.5000  -999.2500  -999.2500  -999.2500  -999.2500    86.7089  -999.2500     2.2835     0.2140    -0.3400
   26.0000  -999.2500  -999.2500  -999.2500  -999.2500    85.0420  -999.2500     2.2749     0.2183    -0.3430
   26.5000  -999.2500  -999.2500  -999.2500  -999.2500    83.2344  -999.2500     2.2747     0.2243    -0.3454
   27.0000  -999.2500  -999.2500  -999.2500  -999.2500    81.8379  -999.2500     2.2594     0.2350    -0.3453
   27.5000  -999.2500  -999.2500  -999.2500  -999.2500    82.4940  -999.2500     2.2372     0.2457    -0.3453
   28.0000  -999.2500  -999.2500  -999.2500  -999.2500    83.1137  -999.2500     2.2158     0.2602    -0.3453
   28.5000  -999.2500  -999.2500  -999.2500  -999.2500    82.3362  -999.2500     2.1789     0.2752    -0.3492
   29.0000  -999.2500  -999.2500  -999.2500  -999.2500    80.6541  -999.2500     2.1395     0.2902    -0.3566
   29.5000  -999.2500  -999.2500  -999.2500  -999.2500    78.9774  -999.2500     2.1006     0.2986    -0.3641
   30.0000  -999.2500  -999.2500  -999.2500  -999.2500    77.5038  -999.2500     2.0644     0.2986    -0.3715
   30.5000  -999.2500  -999.2500  -999.2500  -999.2500    77.5559  -999.2500     2.0704     0.2996    -0.3775
   31.0000  -999.2500  -999.2500  -999.2500  -999.2500    77.7111  -999.2500     2.1232     0.2850    -0.3689
   31.5000  -999.2500  -999.2500  -999.2500  -999.2500    77.8708  -999.2500     2.1742     0.2673    -0.3557
   32.0000  -999.2500  -999.2500  -999.2500  -999.2500    78.0328  -999.2500     2.2235     0.2494    -0.3423
   32.5000  -999.2500  -999.2500  -999.2500  -999.2500    78.1942  -999.2500     2.2613     0.2331    -0.3343
   33.0000  -999.2500  -999.2500  -999.2500  -999.2500    78.3556  -999.2500     2.2826     0.2221    -0.3293
   33.5000  -999.2500  -999.2500  -999.2500  -999.2500    78.5170  -999.2500     2.3033     0.2110    -0.3243
   34.0000  -999.2500  -999.2500  -999.2500  -999.2500    78.6784  -999.2500     2.3170     0.2000    -0.3193
   34.5000  -999.2500  -999.2500  -999.2500  -999.2500    78.8398  -999.2500     2.3198     0.1960    -0.3144
   35.0000  -999.2500  -999.2500  -999.2500  -999.2500    79.0013  -999.2500     2.3208     0.1960    -0.3094
   35.5000  -999.2500  -999.2500  -999.2500  -999.2500    79.1627  -999.2500     2.3160     0.1990    -0.3074
   36.0000  -999.2500  -999.2500  -999.2500  -999.2500    79.3241  -999.2500     2.3111     0.2026    -0.3069
   36.5000  -999.2500  -999.2500  -999.2500  -999.2500    79.4855  -999.2500     2.3047     0.2063    -0.3064
   37.0000  -999.2500  -999.2500  -999.2500  -999.2500    79.6469  -999.2500     2.2981     0.2099    -0.3060
   37.5000  -999.2500  -999.2500  -999.2500  -999.2500    79.8077  -999.2500     2.2916     0.2136    -0.3058
   38.0000  -999.2500  -999.2500  -999.2500  -999.2500    79.9662  -999.2500     2.2850     0.2172    -0.2952
   38.5000  -999.2500  -999.2500  -999.2500  -999.2500    80.1343  -999.2500     2.2785     0.2230    -0.2824
   39.0000  -999.2500  -999.2500  -999.2500  -999.2500    79.7377  -999.2500     2.2631     0.2304    -0.2694
   39.5000  -999.2500  -999.2500  -999.2500  -999.2500    79.2990  -999.2500     2.2421     0.2375    -0.2564
   40.0000     0.1991    28.5121  2009.2316   -13.1919    77.4794     7.9559     2.1657     0.2495    -0.2493
   40.5000     0.1991    37.5863  2009.2316   -13.6740    75.4985     7.9851     2.1189     0.2630    -0.2434
   41.0000     0.1991    47.0880  1990.8108   -14.1561    73.5138     8.0144     2.0773     0.2765    -0.2292
   41.5000     0.1991    57.7673  2009.7803   -14.5419    71.8812     8.0300     2.0258     0.2899    -0.2137
   42.0000     0.1991    87.4384  1954.4745   -15.1296    71.9783     8.1257     2.0738     0.2991    -0.1905
   42.5000     0.1990   152.7140  1954.4745   -16.1934    73.3318     8.2059     1.9036     0.2990    -0.1654
   43.0000     0.1991   272.2889   649.0976   -17.2443    75.9048     8.3277     2.0061     0.2989    -0.1376
   43.5000     0.1991  1640.7031   152.7531   -18.2939    80.3005     8.4506     2.0035     0.2990    -0.0931
   44.0000     0.2047  1581.3573    35.9476   -19.3423    88.4069     8.5740     2.0972     0.2654    -0.0328
   44.5000     0.5260   263.9117     8.4596   -20.3872    91.9574     8.6978     2.2258     0.2162     0.0147
   45.0000     1.5292    36.8518     1.9908   -21.4702    95.3810     8.7878     2.3105     0.1921     0.0432
   45.5000     3.0405     5.1459     2.1098   -23.4217    97.7799     8.8308     2.3537     0.1765     0.0545
   46.0000     3.1721     0.5957     2.2358   -25.4150    99.8721     8.8304     2.3380     0.1791     0.0606
   46.5000     3.2461     0.4582     2.3962   -27.4006   101.0330     8.8150     2.3219     0.1909     0.0553
   47.0000     2.9643     0.3524     2.7481   -29.3293   101.4618     8.7953     2.3057     0.2026     0.0503
   47.5000     2.7698     0.2767     2.7292   -30.3016   101.8790     8.7747     2.2885     0.2144     0.0438
   48.0000     2.5875     0.2553     2.7104   -30.3295   102.8661     8.7759     2.2698     0.2262     0.0360
   48.5000     2.4186     0.4434     2.6979   -29.7577   104.0365     8.7837     2.2663     0.2287     0.0282
   49.0000     2.3414     0.6444     2.9840   -29.0680   104.7428     8.7916     2.2790     0.2193     0.0240
   49.5000     2.9188     1.0929     3.3647   -27.9149   105.0253     8.7997     2.3360     0.1880     0.0251
   50.0000     4.6375     2.1629     3.7949   -26.7765   105.5140     8.8080     2.4100     0.1534     0.0356
   50.5000     7.7096     2.4615     4.2783   -25.6354   106.6481     8.8306     2.4773     0.1114     0.0462
   51.0000     8.1476     2.8397     4.8262   -24.4945   107.7540     8.8716     2.4978     0.0896     0.0567
   51.5000     7.9703     3.2760     5.1325   -23.3536   108.8623     8.9129     2.4985     0.0862     0.0609
   52.0000     7.6304     3.7794     5.3255   -22.2127   109.7560     8.9492     2.4964     0.0904     0.0642
   52.5000     7.3050     4.3601     5.5283   -21.0725   108.1764     8.8577     2.4915     0.0930     0.0675
   53.0000     6.9668     5.0937     5.5974   -19.9354   106.3532     8.7526     2.4897     0.0943     0.0708
   53.5000     7.0850     5.1884     5.6169   -18.7853   105.0474     8.6474     2.4889     0.0954     0.0741
   54.0000     7.2170     5.1010     5.6352   -16.7335   106.5923     8.5513     2.4822     0.0996     0.0732
   54.5000     7.3626     4.8337     5.6538   -14.5702   109.5313     8.5301     2.4716     0.1050     0.0680
   55.0000     7.2634     4.5607     5.6725   -12.3962   112.4521     8.5110     2.4630     0.1099     0.0627
   55.5000     7.1570     4.5170     5.6889   -10.8252   115.2774     8.5293     2.4562     0.1133     0.0607
   56.0000     7.0521     4.4335     5.5851    -9.4838   117.6884     8.5480     2.4491     0.1176     0.0637
