~VERSION INFORMATION
 VERS.                2.0:   CWLS LOG ASCII STANDARD - VERSION 2.0
 WRAP.                 NO:   ONE LINE PER DEPTH STEP
~WELL INFORMATION
#MNEM.UNIT      DATA TYPE    INFORMATION
#----------   ------------   ------------------------------
 STRT.F           14.0000:   START DEPTH
 STOP.F          608.0000:   STOP DEPTH
 STEP.F            0.1000:   STEP LENGTH
 NULL.          -999.2500:   NO VALUE
 COMP. FENIX & SCISSON INC:   COMPANY
 WELL. NAVAL PETROLEUM RESERVE 3 S-15 #72-15:   WELL
 FLD .             TEAPOT:   FIELD
 LOC .      S15 T38N R78W:   LOCATION
 CNTY.            NATRONA:   COUNTY
 STAT.            WYOMING:   STATE
 CTRY. UNITED STATES OF AMERICA:   COUNTRY
 SRVC.           BIRDWELL:   SERVICE COMPANY
 DATE.        21-JUL-1978:   LOGDATE
 API .       490251067300:   API NUMBER
~CURVE INFORMATION
#MNEM.UNIT       API CODE    CURVE DESCRIPTION
#----------   ------------   ------------------------------
 DEPT.F                  :   
 ILD .OHMM   05 120 46 00:   INDUCTION LOG DEEP
 SN  .OHMM   05 040 16 00:   SHORT NORMAL 16"
 SPR .MV     05 010 01 00:   SPONTANEOUS POTENTIAL FROM RES.
 CALD.IN     45 280 60 00:   CALIPER FROM DENSITY LOG
 DPHI.DEC    45 890 12 00:   DENSITY POROSITY SANDSTONE
 DRHO.G/C3   45 356 01 00:   DENSITY CORRECTION
 GRD .GAPI   45 310 01 00:   GAMMA RAY FROM DENSITY LOG
 RHOB.G/C3   45 350 01 00:   BULK DENSITY
~PARAMETER INFORMATION
#MNEM.UNIT          VALUE    DESCRIPTION
#----------   ------------   ------------------------------
 PD  .                 GL:   PERMANENT DATUM
 EPD .F              5238:   ELEVATION PERMANENT DATUM
 LMF .                 KB:   LOG MEASURED FROM
 DAPD.F                 4:   FEET ABOVE PERMANENT DATUM
 DMF .                 KB:   DRILLING MEASURED FROM
 EKB .F              5242:   KELLING BUSHING
 EGL .F              5238:   GROUND LEVEL
 DATE.        21-JUL-1978:   RUN DATE
 RUN .                  1:   RUN NUMBER
 DD  .F               597:   DEPTH DRILLER
 DL  .F               615:   DEPTH LOGGER
 BLI .F               608:   BOTTOM LOG INTERVAL
 TLI .F                35:   TOP LOG INTERVAL
 CS  .IN            8.625:   CASING SIZE
 CBD .F                40:   CASING BOTTOM DRILLER
 CBL .F                35:   CASING BOTTOM LOGGER
 BS  .IN            7.875:   BIT SIZE
 BSD .F               597:   BIT SIZE AT DEPTH
 DFT .                KCL:   DRILLING FLUID TYPE
 DFD .                8.6:   DRILLING FLUID DENSITY
 DFV .                 33:   DRILLING FLUID VISCOSITY
 DFPH.                9.0:   DRILLING FLUID PH
 MSS .            MUD PIT:   MUD SAMPLE SOURCE
 MFSS.               MEAS:   MUD FILTRATE SAMPLE SOURCE
 MCSS.               MEAS:   MUD CAKE SAMPLE SOURCE
 BHT .F                74:   BOTTOM HOLE TEMPERATURE
 TCS .HRS               2:   TIME CURCULATED STOPPED
 MRT .F                74:   MAXIMUM RECORDED TEMPERATURE
 LUN .               2958:   LOGGING UNIT NUMBER
 LUL .             CASPER:   LOGGING UNIT LOCATION
 ENGI.             MILLER:   RECORDING ENGINEER
 WITN.           MCGINLEY:   WITNESSED BY
 CLNT.            A2DTECH:   CLIENT CODE
 ORIG.           5" PRINT:   ORIGIN OF DATA
 UWI .       490251067300:   UNIQUE WELL ID
 DICO. A2D Technologies, Inc.:   DIGITIZING COMPANY
~OTHER INFORMATION
~A   DEPT      ILD         SN        SPR       CALD       DPHI       DRHO         GRD      RHOB   
# ...
   38.3000  -999.2500     7.3356  -999.2500     7.3181     0.1713     0.0409    75.6205     2.3854
   38.4000  -999.2500     7.4094  -999.2500     7.3548     0.1711     0.0409    76.1785     2.3872
   38.5000  -999.2500     7.4481  -999.2500     7.3915     0.1712     0.0409    76.4932     2.3892
   38.6000  -999.2500     7.4618  -999.2500     7.4307     0.1714     0.0416    76.9363     2.3915
   38.7000  -999.2500     7.5044  -999.2500     7.4765     0.1716     0.0424    77.4252     2.3939
   38.8000  -999.2500     7.5523  -999.2500     7.5255     0.1721     0.0426    77.9338     2.3955
   38.9000  -999.2500     7.6283  -999.2500     7.5687     0.1725     0.0439    78.5888     2.3961
   39.0000    17.0374     7.6578  -999.2500     7.6085     0.1730     0.0450    79.4972     2.3967
   39.1000    11.6545     7.6963  -999.2500     7.6573     0.1732     0.0463    81.4976     2.3960
   39.2000    10.8199     7.7841  -999.2500     7.6940     0.1735     0.0469    83.6042     2.3960
   39.3000    10.1629     7.8731  -999.2500     7.7598     0.1739     0.0472    84.9778     2.3956
   39.4000     9.9000     7.9179  -999.2500     7.8265     0.1744     0.0485    85.2223     2.3952
   39.5000     9.9438     7.9983  -999.2500     7.8959     0.1748     0.0499    85.2217     2.3951
   39.6000     9.9439     8.0641  -999.2500     7.9793     0.1751     0.0519    85.0337     2.3945
   39.7000     9.9441     8.1101  -999.2500     8.0487     0.1759     0.0536    84.7883     2.3939
   39.8000     9.9442     8.1563  -999.2500     8.0806     0.1763     0.0549    84.5062     2.3933
   39.9000     9.9443     8.2077  -999.2500     8.1252     0.1770     0.0563    84.1217     2.3927
   40.0000     9.9628     8.2917  -999.2500     8.1843     0.1776     0.0589    83.4087     2.3921
   40.1000    10.0135     8.3543     0.9833     8.2535     0.1781     0.0612    82.6923     2.3914
   40.2000    10.0137     8.4237     1.5460     8.3049     0.1783     0.0636    81.6875     2.3908
   40.3000    10.0138     8.5084     1.9199     8.3281     0.1788     0.0655    80.4041     2.3907
   40.4000    10.0139     8.5576     2.2825     8.3437     0.1793     0.0670    78.8633     2.3900
   40.5000    10.0141     8.6554     2.4638     8.3317     0.1796     0.0695    77.5233     2.3892
   40.6000    10.0142     8.7542     2.5205     8.2851     0.1800     0.0709    76.9687     2.3891
   40.7000    10.0143     8.8254     2.5597     8.2120     0.1804     0.0729    76.3563     2.3884
   40.8000    10.0145     8.8935     2.6827     8.1531     0.1792     0.0754    75.8516     2.3879
   40.9000    10.0578     8.9882     2.8213     8.1135     0.1784     0.0778    75.5347     2.3873
   41.0000    10.1149     9.0441     2.9285     8.0642     0.1771     0.0803    75.4087     2.3867
   41.1000    10.1541     9.0911     3.0515     8.0065     0.1757     0.0829    75.1694     2.3862
   41.2000    10.1595     9.1789     3.1220     7.9355     0.1746     0.0863    75.0150     2.3862
   41.3000    10.2248     9.2589     3.1223     7.8806     0.1741     0.0891    74.8296     2.3856
   41.4000    10.2752     9.3117     3.1226     7.8370     0.1741     0.0921    74.6182     2.3849
   41.5000    10.2959     9.3663     3.1229     7.7958     0.1739     0.0955    74.5007     2.3847
   41.6000    10.2960     9.4939     3.0301     7.7693     0.1738     0.0980    74.5000     2.3851
   41.7000    10.3077     9.5377     2.9736     7.7520     0.1737     0.1017    74.5990     2.3863
   41.8000    10.3677     9.5602     2.9353     7.7138     0.1735     0.1054    74.7208     2.3869
   41.9000    10.3678     9.5804     2.8017     7.7018     0.1735     0.1083    74.8425     2.3886
   42.0000    10.4120     9.6350     2.5248     7.6985     0.1733     0.1108    74.9643     2.3900
   42.1000    10.4711     9.6940     2.3117     7.6859     0.1728     0.1132    75.1004     2.3912
   42.2000    10.5305     9.7453     2.0668     7.6646     0.1720     0.1160    75.4238     2.3928
   42.3000    10.5854     9.7813     1.7176     7.6522     0.1709     0.1160    75.7903     2.3952
   42.4000    10.5855     9.8093     1.2770     7.6376     0.1696     0.1151    76.2079     2.3970
   42.5000    10.5857     9.8596     1.0270     7.6375     0.1680     0.1139    76.7421     2.3994
   42.6000    10.5858     9.9695     0.6669     7.6301     0.1656     0.1130    77.5107     2.4018
   42.7000    10.6105    10.0365    -0.0358     7.6177     0.1628     0.1130    78.2094     2.4045
   42.8000    10.6707    10.0837    -0.0268     7.6069     0.1600     0.1105    78.6787     2.4075
   42.9000    10.7335    10.1066    -0.0177     7.6068     0.1576     0.1081    78.9856     2.4102
   43.0000    10.7336    10.1400    -0.0087     7.5956     0.1559     0.1063    79.1986     2.4113
   43.1000    10.7337    10.2270     0.0004     7.5914     0.1545     0.1051    79.3231     2.4129
   43.2000    10.7652    10.3191     0.0094     7.5913     0.1540     0.1039    79.5672     2.4147
   43.3000    10.8263    10.3746     0.0185     7.5886     0.1541     0.1025    79.7147     2.4167
   43.4000    10.8834    10.3912     0.0275     7.5760     0.1544     0.1014    79.7683     2.4192
   43.5000    10.8836    10.4211     0.0366     7.5758     0.1555     0.1010    79.7677     2.4204
   43.6000    10.9358    10.4805     0.0456     7.5757     0.1566     0.0999    79.7221     2.4216
   43.7000    10.9979    10.5403     0.0547     7.5756     0.1582     0.0978    79.1631     2.4225
   43.8000    11.0602    10.6101     0.0637     7.5755     0.1599     0.0965    78.5315     2.4229
   43.9000    11.1230    10.6609     0.0728     7.5753     0.1621     0.0953    77.7200     2.4228
   44.0000    11.1891    10.6842     0.0818     7.5752     0.1663     0.0941    76.8628     2.4221
   44.1000    11.1893    10.7086     0.0908     7.5751     0.1714     0.0929    75.9065     2.4199
   44.2000    11.2355    10.7697     0.0999     7.5750     0.1751     0.0912    74.3336     2.4158
   44.3000    11.2993    10.8338     0.1089     7.5749     0.1772     0.0889    73.4232     2.4109
   44.4000    11.3634    10.8341     0.1180     7.5747     0.1784     0.0875    73.1258     2.4057
   44.5000    11.4278    10.9253     0.1270     7.5746     0.1796     0.0854    73.0684     2.3996
   44.6000    11.5034    10.9854     0.1361     7.5745     0.1804     0.0838    72.9454     2.3947
   44.7000    11.5036    11.0042     0.1451     7.5828     0.1795     0.0820    72.8223     2.3878
   44.8000    11.5835    11.0669     0.1542     7.5894     0.1774     0.0796    72.6995     2.3843
   44.9000    11.6894    11.1393     0.1632     7.5921     0.1748     0.0771    72.5765     2.3845
   45.0000    11.7557    11.1936     0.1723     7.6042     0.1723     0.0747    72.3228     2.3864
   45.1000    11.8263    11.2575     0.1813     7.6041     0.1696     0.0722    71.9181     2.3891
   45.2000    11.8265    11.2951     0.1903     7.6040     0.1679     0.0704    71.4196     2.3913
   45.3000    11.9229    11.3203     0.1994     7.6039     0.1660     0.0684    70.7070     2.3938
   45.4000    12.0247    11.4530     0.2084     7.6037     0.1654     0.0649    70.0923     2.3962
   45.5000    12.0929    11.5165     0.2175     7.6046     0.1657     0.0621    69.3575     2.3984
   45.6000    12.1615    11.5823     0.2265     7.6186     0.1657     0.0600    68.5772     2.3996
   45.7000    12.2428    11.6133     0.2356     7.6185     0.1651     0.0583    67.7369     2.4015
   45.8000    12.2999    11.6341     0.2446     7.6184     0.1643     0.0566    66.9333     2.4033
   45.9000    12.3697    11.7004     0.2537     7.6231     0.1633     0.0544    66.6000     2.4051
   46.0000    12.4399    11.7759     0.2627     7.6333     0.1620     0.0531    66.5621     2.4072
   46.1000    12.5104    11.8344     0.2718     7.6331     0.1601     0.0496    66.7919     2.4097
   46.2000    12.5864    11.9019     0.2808     7.6330     0.1573     0.0477    67.1839     2.4131
   46.3000    12.7194    11.9698     0.2898     7.6415     0.1568     0.0458    67.6844     2.4159
