~VERSION INFORMATION
 VERS.                2.0:   CWLS LOG ASCII STANDARD - VERSION 2.0
 WRAP.                 NO:   ONE LINE PER DEPTH STEP
~WELL INFORMATION
#MNEM.UNIT      DATA TYPE    INFORMATION
#----------   ------------   ------------------------------
 STRT.F           35.0000:   START DEPTH
 STOP.F          601.0000:   STOP DEPTH
 STEP.F            0.5000:   STEP LENGTH
 NULL.          -999.2500:   NO VALUE
 COMP. FENIX & SCISSON INC:   COMPANY
 WELL. NPR #3 71SX #71-15:   WELL
 FLD .             TEAPOT:   FIELD
 LOC .      S15 T38N R78W:   LOCATION
 CNTY.            NATRONA:   COUNTY
 STAT.            WYOMING:   STATE
 CTRY. UNITED STATES OF AMERICA:   COUNTRY
 SRVC.              Welex:   SERVICE COMPANY
 DATE.        10-MAR-1977:   LOGDATE
 API .       490251031200:   API NUMBER
~CURVE INFORMATION
#MNEM.UNIT       API CODE    CURVE DESCRIPTION
#----------   ------------   ------------------------------
 DEPT.F                  :   
 SPR .MV     07 010 01 00:   SPONTANEOUS POTENTIAL
 SGRD.OHMM   07 220 05 00:   SHALLOW RESISTIVITY
 DRES.OHMM   07 120 46 00:   INDUCTION LOG DEEP
 MRES.OHMM   07 120 44 00:   INDUCTION LOG MEDIUM
 GRD .GAPI   45 310 01 00:   GAMMA RAY FROM DENSITY LOG
 CALD.IN     45 280 60 00:   CALIPER
 RHOB.G/C3   45 350 01 00:   BULK DENSITY
 DPHI.DEC    45 890 12 00:   DENSITY POROSITY
 CORR.G/C3   45 356 01 00:   DENSITY CORRECTION
~PARAMETER INFORMATION
#MNEM.UNIT          VALUE    DESCRIPTION
#----------   ------------   ------------------------------
 PD  .                 GL:   PERMANENT DATUM
 EPD .F              5241:   ELEVATION PERMANENT DATUM
 LMF .                 GL:   LOG MEASURED FROM
 DMF .                 GL:   DRILLING MEASURED FROM
 EGL .F              5241:   GROUND LEVEL
 DATE.            3-10-77:   RUN DATE
 RUN .                  1:   RUN NUMBER
 DD  .F               600:   DEPTH DRILLER
 DL  .F               603:   DEPTH LOGGER
 BLI .F               601:   BOTTOM LOG INTERVAL
 TLI .F                35:   TOP LOG INTERVAL
 CS  .IN            8.625:   CASING SIZE
 CBD .F                40:   CASING BOTTOM DRILLER
 CBL .F                40:   CASING BOTTOM LOGGER
 BS  .IN            7.875:   BIT SIZE
 BSD .F               600:   BIT SIZE AT DEPTH
 DFT .            KCL MUD:   DRILLING FLUID TYPE
 DFD .                8.6:   DRILLING FLUID DENSITY
 DFV .                 10:   DRILLING FLUID VISCOSITY
 DFPH.                7.2:   DRILLING FLUID PH
 DFL .                  8:   DRILLING FLUID LOSS
 MSS .            MUD PIT:   MUD SAMPLE SOURCE
 RMS .OHMM            .36:   RESISTIVITY MUD SAMPLE
 MST .F                47:   MUD SAMPLE TEMPERATURE
 RMF .OHMM            .35:   RESISTIVITY MUD FILTRATE SAMPLE
 MFST.F                47:   MUD FILTRATE SAMPLE TEMPERATURE
 RMC .OHMM            .40:   RESISTIVITY MUD CAKE
 MCST.F                47:   MUD CAKE SAMPLE TEMPERATURE
 MFSS.           FANN KIT:   MUD FILTRATE SAMPLE SOURCE
 MCSS.           FANN KIT:   MUD CAKE SAMPLE SOURCE
 RMB .OHMM            .31:   RESISTIVITY MUD AT BHT
 BHT .F                53:   BOTTOM HOLE TEMPERATURE
 TCS .HRS             1.5:   TIME CURCULATED STOPPED
 MRT .F                53:   MAXIMUM RECORDED TEMPERATURE
 LUN .               8611:   LOGGING UNIT NUMBER
 LUL .           GILLETTE:   LOGGING UNIT LOCATION
 ENGI.               DOAK:   RECORDING ENGINEER
 WITN.         STUEBINGER:   WITNESSED BY
 CLNT.            A2DTECH:   CLIENT CODE
 ORIG.       2", 5" PRINT:   ORIGIN OF DATA
 UWI .       490251031200:   UNIQUE WELL ID
 DICO. A2D Technologies, Inc.:   DIGITIZING COMPANY
~OTHER INFORMATION
~A   DEPT      SPR       SGRD       DRES       MRES         GRD      CALD       RHOB       DPHI       CORR   
# ...
  290.5000   -35.4751    11.4055     7.7190     8.8363   109.6173     7.9261     2.4294     0.1315     0.0393
  291.0000   -35.4331    11.4977     7.8223     9.0751   111.3838     7.9261     2.4294     0.1317     0.0352
  291.5000   -35.3911    11.5906     7.8743     9.3765   113.4236     7.9261     2.4294     0.1319     0.0321
  292.0000   -35.3490    11.6843     7.8871     9.2753   114.2116     7.9261     2.4295     0.1319     0.0322
  292.5000   -35.3066    11.7788     7.8998     9.1449   112.9717     7.9261     2.4309     0.1309     0.0322
  293.0000   -35.2652    11.8739     7.9126     9.0364   111.7488     7.9261     2.4362     0.1288     0.0324
  293.5000   -35.2504    11.9698     7.9254     9.2899   110.5289     7.9261     2.4443     0.1250     0.0367
  294.0000   -35.4009    12.0490     7.9381     9.5148   110.3501     7.9261     2.4554     0.1190     0.0410
  294.5000   -35.5505    12.0953     7.9510     9.7452   110.8493     7.9261     2.4665     0.1105     0.0453
  295.0000   -35.6996    12.1445     7.9638     9.9811   111.3908     7.9261     2.4763     0.1020     0.0496
  295.5000   -35.8487    12.1633     7.9767    10.1836   110.1759     7.9261     2.4747     0.1039     0.0538
  296.0000   -35.9979    12.1833     7.9896    10.1367   110.6507     7.9261     2.4737     0.1020     0.0521
  296.5000   -36.1473    12.2033     8.0025    10.0900   111.3644     7.9261     2.4791     0.0986     0.0496
  297.0000   -36.2964    12.2234     8.0122    10.0436   113.1752     7.9261     2.4805     0.0978     0.0470
  297.5000   -36.4217    12.2435     7.9035     9.9974   114.9576     7.9261     2.4777     0.1008     0.0445
  298.0000   -36.3815    12.2572     7.8607     9.9515   115.9687     7.9261     2.4736     0.1043     0.0454
  298.5000   -36.3391    12.0729     7.8190     9.9058   115.7364     7.9261     2.4721     0.1041     0.0466
  299.0000   -36.2971    11.9349     7.7780     9.8604   114.2814     7.9261     2.4745     0.1023     0.0479
  299.5000   -36.2579    11.7984     7.7372     9.8149   114.1336     7.9261     2.4768     0.1006     0.0491
  300.0000   -36.2879    11.6635     7.6966     9.7692   113.0672     7.9261     2.4745     0.1038     0.0504
  300.5000   -36.5222    11.5301     7.6563     9.7283   111.7275     7.9261     2.4687     0.1090     0.0516
  301.0000   -36.7485    11.4725     7.5549     9.5417   111.3651     7.9261     2.4632     0.1094     0.0542
  301.5000   -36.9738    11.4140     7.4171     9.3750   111.0228     7.9261     2.4769     0.1009     0.0582
  302.0000   -37.2019    11.3558     7.2818     9.2113   111.0279     7.9261     2.4959     0.0915     0.0663
  302.5000   -37.5916    11.2979     7.1491     9.0503   111.1570     7.9261     2.5055     0.0843     0.0742
  303.0000   -38.0028    11.0596     7.0187     8.8920   111.3196     7.9261     2.4995     0.0857     0.0727
  303.5000   -38.4141    10.6129     6.8907     8.5398   110.1881     7.9261     2.4883     0.0934     0.0711
  304.0000   -38.8253    10.1845     6.6361     8.0715   108.5467     7.9261     2.4773     0.1047     0.0672
  304.5000   -39.2363     9.7729     6.2046     7.6289   107.0904     7.9261     2.4483     0.1176     0.0610
  305.0000   -39.6474     9.2450     5.8011     7.2106   106.1711     7.9261     2.4262     0.1292     0.0545
  305.5000   -40.0584     8.6826     5.2716     6.8152   105.2627     7.9261     2.4032     0.1403     0.0550
  306.0000   -40.4695     8.1542     4.7681     6.4415   104.6962     7.9261     2.3881     0.1514     0.0560
  306.5000   -40.8805     7.6576     4.3128     5.9954   106.1280     7.9261     2.3810     0.1605     0.0569
  307.0000   -41.2921     7.1913     3.9009     5.4763   109.2253     7.9261     2.3699     0.1655     0.0578
  307.5000   -41.7038     6.7524     3.5283     5.0021   108.4513     7.9261     2.3456     0.1849     0.0564
  308.0000   -42.1135     6.0702     3.1914     4.5689   106.9746     7.9261     2.3205     0.2065     0.0528
  308.5000   -42.4235     5.3238     2.9215     4.1733   106.1732     7.9261     2.2890     0.2248     0.0485
  309.0000   -42.1067     4.6692     2.7826     3.8119   106.1719     7.9261     2.2581     0.2400     0.0420
  309.5000   -41.7496     4.0951     2.6494     3.4916   106.9935     7.9261     2.2273     0.2538     0.0356
  310.0000   -41.3923     3.5916     2.5025     3.3658   108.8082     7.9261     2.2116     0.2629     0.0291
  310.5000   -41.0349     3.2408     2.5603     3.5549   110.8483     7.9261     2.2378     0.2463     0.0225
  311.0000   -40.6778     3.8854     2.6350     3.6728   113.7088     7.9261     2.2868     0.2220     0.0293
  311.5000   -40.3208     5.2196     2.6954     3.7969   114.6238     7.9261     2.3444     0.1703     0.0375
  312.0000   -39.9637     6.6006     2.9380     3.9647   115.3934     7.9261     2.4002     0.1467     0.0459
  312.5000   -39.6063     4.3960     3.1998     4.3041   117.9714     7.9261     2.4129     0.1407     0.0500
  313.0000   -39.2488     5.7634     3.4855     4.6726   120.6433     7.9261     2.4281     0.1306     0.0541
  313.5000   -38.8950     9.0361     3.7971     5.0729   123.1478     7.9261     2.4448     0.1214     0.0582
  314.0000   -38.6091     9.5682     4.1366     5.5077   125.0224     7.9261     2.4516     0.1150     0.0595
  314.5000   -38.4508     9.3413     4.5064     5.9796   122.8612     7.9261     2.4440     0.1202     0.0580
  315.0000   -38.2800     9.0097     4.9092     6.2876   125.2043     7.9261     2.4342     0.1240     0.0566
  315.5000   -38.3486     8.6841     5.1151     6.4635   124.2844     7.9261     2.4390     0.1208     0.0551
  316.0000   -38.5407     8.2390     5.3150     6.6444   122.7183     7.9261     2.4477     0.1170     0.0536
  316.5000   -38.7343     8.3877     5.4871     6.9127   121.6324     7.9261     2.4418     0.1202     0.0520
  317.0000   -38.9287     8.6550     5.3994     6.7995   122.5659     7.9261     2.4208     0.1322     0.0465
  317.5000   -39.1226     8.9308     5.2471     6.6656   123.2147     7.9261     2.4019     0.1446     0.0412
  318.0000   -39.3122     9.2153     5.0994     6.5343   122.8667     7.9261     2.3897     0.1571     0.0359
  318.5000   -39.5061     9.4636     4.9557     6.4056   123.1202     7.9261     2.3781     0.1620     0.0305
  319.0000   -39.3609     7.2946     4.8163     6.2794   123.9484     7.9261     2.3724     0.1647     0.0313
  319.5000   -39.1904     5.7465     4.6807     6.1557   121.0342     7.9261     2.3855     0.1551     0.0327
  320.0000   -39.0071     6.7354     4.6038     6.0344   118.0013     7.9261     2.4041     0.1445     0.0340
  320.5000   -38.8192     7.9262     4.6038     5.9072   116.6769     7.9261     2.4180     0.1360     0.0353
  321.0000   -38.6322     7.3131     4.6696     5.9088   117.9381     7.9261     2.4249     0.1326     0.0366
  321.5000   -38.4455     6.6006     4.7195     5.9060   119.5876     7.9261     2.4320     0.1294     0.0379
  322.0000   -38.2587     7.5454     4.8786     6.2489   119.9606     7.9261     2.4462     0.1223     0.0392
  322.5000   -38.0720     8.8710     5.0859     6.5207   120.0889     7.9261     2.4581     0.1178     0.0406
  323.0000   -37.8852     8.5485     5.3020     6.8037   120.1533     7.9261     2.4551     0.1211     0.0418
  323.5000   -37.6984     8.3155     5.5274     7.0983   118.8934     7.9261     2.4634     0.1154     0.0455
  324.0000   -37.5115     9.1529     5.7624     7.4057   117.6933     7.9261     2.4867     0.1034     0.0502
  324.5000   -37.3249     9.8467     6.0074     7.7265   116.9946     7.9261     2.4894     0.0933     0.0550
  325.0000   -37.1389    10.6712     6.2626     8.0611   120.3504     7.9261     2.4878     0.0951     0.0568
  325.5000   -37.0247    10.8661     6.5288     8.4102   122.8254     7.9261     2.4811     0.0988     0.0577
  326.0000   -37.0261    11.0871     6.7237     8.7745   122.5493     7.9261     2.4766     0.1008     0.0585
  326.5000   -37.0259    11.3861     6.9296     9.1202   121.6812     7.9261     2.4820     0.0988     0.0593
