~VERSION INFORMATION
 VERS.                2.0:   CWLS LOG ASCII STANDARD - VERSION 2.0
 WRAP.                 NO:   ONE LINE PER DEPTH STEP
~WELL INFORMATION
#MNEM.UNIT      DATA TYPE    INFORMATION
#----------   ------------   ------------------------------
 STRT.F           99.0000:   START DEPTH
 STOP.F          761.5000:   STOP DEPTH
 STEP.F            0.5000:   STEP LENGTH
 NULL.          -999.2500:   NO VALUE
 COMP.          U.S. NAVY:   COMPANY
 WELL. RES 3 TEAPOT DOM #48S-11:   WELL
 FLD .             TEAPOT:   FIELD
 LOC .      S11 T38N R78W:   LOCATION
 CNTY.            NATRONA:   COUNTY
 STAT.            WYOMING:   STATE
 CTRY. UNITED STATES OF AMERICA:   COUNTRY
 SRVC.       Schlumberger:   SERVICE COMPANY
 DATE.        14-JUL-1963:   LOGDATE
 API .       490250632500:   API NUMBER
~CURVE INFORMATION
#MNEM.UNIT       API CODE    CURVE DESCRIPTION
#----------   ------------   ------------------------------
 DEPT.F                  :   
 SPR .MV     05 010 01 00:   SPONTANEOUS POTENTIAL FROM RES.
 ILD .OHMM   05 120 46 00:   INDUCTION LOG DEEP
 CILD.MMHO   05 110 46 00:   CONDUCTIVITY INDUCTION LOG DEEP
 GR  .GAPI   30 310 01 00:   GAMMA RAY
 ASN .OHMM   05 041 16 00:   AMPLIFIED SHORT NORMAL 16"
~PARAMETER INFORMATION
#MNEM.UNIT          VALUE    DESCRIPTION
#----------   ------------   ------------------------------
 PD  .                 GL:   PERMANENT DATUM
 EPD .F              5187:   ELEVATION PERMANENT DATUM
 LMF .                 KB:   LOG MEASURED FROM
 DAPD.F                 5:   FEET ABOVE PERMANENT DATUM
 DMF .                 KB:   DRILLING MEASURED FROM
 EKB .F              5192:   KELLING BUSHING
 EGL .F              5187:   GROUND LEVEL
 DATE.            7-14-63:   RUN DATE
 RUN .                  1:   RUN NUMBER
 DD  .F               762:   DEPTH DRILLER
 DL  .F               761:   DEPTH LOGGER
 BLI .F               760:   BOTTOM LOG INTERVAL
 TLI .F               100:   TOP LOG INTERVAL
 CS  .IN            8.625:   CASING SIZE
 CBD .F                10:   CASING BOTTOM DRILLER
 BS  .IN            7.875:   BIT SIZE
 BSD .F               762:   BIT SIZE AT DEPTH
 DFT .            GEL-OIL:   DRILLING FLUID TYPE
 DFD .                 10:   DRILLING FLUID DENSITY
 DFV .                 55:   DRILLING FLUID VISCOSITY
 DFPH.                9.5:   DRILLING FLUID PH
 DFL .                  4:   DRILLING FLUID LOSS
 MSS .          FLOW LINE:   MUD SAMPLE SOURCE
 RMS .OHMM           3.11:   RESISTIVITY MUD SAMPLE
 MST .F                78:   MUD SAMPLE TEMPERATURE
 RMF .OHMM           2.31:   RESISTIVITY MUD FILTRATE SAMPLE
 MFST.F                78:   MUD FILTRATE SAMPLE TEMPERATURE
 RMC .OHMM           3.82:   RESISTIVITY MUD CAKE
 MCST.F                78:   MUD CAKE SAMPLE TEMPERATURE
 MFSS.                  M:   MUD FILTRATE SAMPLE SOURCE
 MCSS.                  M:   MUD CAKE SAMPLE SOURCE
 TCS .HRS               1:   TIME CURCULATED STOPPED
 LUN .               4507:   LOGGING UNIT NUMBER
 ENGI.             KNOBEL:   RECORDING ENGINEER
 WITN.          JORGENSEN:   WITNESSED BY
 CLNT.            A2DTECH:   CLIENT CODE
 ORIG.       2", 5" PRINT:   ORIGIN OF DATA
 UWI .       490250632500:   UNIQUE WELL ID
 DICO. A2D Technologies, Inc.:   DIGITIZING COMPANY
~OTHER INFORMATION
~A   DEPT      SPR        ILD       CILD         GR        ASN   
# ...
  343.0000   -27.6000     7.4879   133.1793    66.2073     8.2449
  343.5000   -27.7353     7.6394   130.1670    62.6426     8.3484
  344.0000   -27.9120     7.7890   127.0477    71.5036     8.4490
  344.5000   -28.0887     7.8879   123.9196    69.4071     8.5046
  345.0000   -28.2216     7.8633   123.3354    69.9789     8.5602
  345.5000   -27.8864     7.8408   124.8995    70.9433     8.6380
  346.0000   -27.4242     7.8179   126.4636    54.8266     8.7655
  346.5000   -27.0146     7.7946   128.1407    56.6918     8.7402
  347.0000   -27.0518     7.7135   129.5694    59.8167     8.6772
  347.5000   -27.0952     7.5704   131.1094    59.6177     8.6142
  348.0000   -27.1369     7.4273   133.0991    62.5385     8.5304
  348.5000   -27.1808     7.2841   136.0567    60.8629     8.3879
  349.0000   -27.3536     7.1407   139.0142    60.0198     8.2486
  349.5000   -27.8617     6.9981   141.9717    63.4428     8.1024
  350.0000   -28.3666     6.8542   144.9292    74.0061     8.0313
  350.5000   -28.7829     6.8750   144.8169    70.5349     8.0303
  351.0000   -29.1403     7.0509   141.1773    71.7038     8.0452
  351.5000   -29.1281     7.2281   137.5377    68.8654     8.1084
  352.0000   -29.0087     7.4069   133.8981    65.5819     8.1997
  352.5000   -28.6900     7.5806   130.1508    62.5307     8.5262
  353.0000   -28.3462     7.6874   126.6188    63.4479     8.7811
  353.5000   -28.0197     7.8541   122.9792    55.4546     8.6568
  354.0000   -28.0536     8.0934   119.3395    62.2104     8.6891
  354.5000   -28.1090     8.3471   115.6999    63.0932     9.3539
  355.0000   -28.1634     8.4941   115.0742    59.9177     9.5086
  355.5000   -28.2123     8.4943   115.0540    59.2129     9.3800
  356.0000   -28.2131     8.4810   115.0915    63.4782     9.3764
  356.5000   -28.2129     8.2214   118.2544    67.8352     9.3773
  357.0000   -28.2128     8.0157   121.2586    64.1524     9.3089
  357.5000   -28.2127     7.8624   124.2912    60.5694     9.2044
  358.0000   -28.2111     7.7099   128.1023    60.2001     8.9936
  358.5000   -28.2867     7.5571   132.2714    57.4806     8.7397
  359.0000   -28.3836     7.4042   135.8660    58.9940     8.4843
  359.5000   -28.4808     7.2513   138.9799    64.3234     8.2654
  360.0000   -28.5797     7.0986   142.0938    61.8394     8.0684
  360.5000   -28.6595     6.9444   145.2261    66.6953     7.9728
  361.0000   -28.7685     6.9000   145.2261    73.5831     7.8892
  361.5000   -28.8755     6.9230   145.2261    70.3178     7.8404
  362.0000   -28.9812     6.9473   145.2261    73.9917     7.8677
  362.5000   -28.8781     6.9728   142.2790    65.4427     7.9115
  363.0000   -28.6048     7.0459   138.7913    63.5691     7.9581
  363.5000   -28.5004     7.1806   135.2700    55.2712     8.1401
  364.0000   -28.7785     7.3144   133.1276    53.1808     8.3388
  364.5000   -28.8782     7.4537   131.5990    63.1200     8.5421
  365.0000   -28.5279     7.4883   130.0703    64.1123     8.5786
  365.5000   -28.1523     7.5978   128.5262    64.7448     8.6107
  366.0000   -27.8098     7.7173   127.2334    65.6578     8.6391
  366.5000   -27.4048     7.8381   125.5238    67.2508     8.6794
  367.0000   -27.5730     7.8988   123.8258    66.1386     8.7206
  367.5000   -27.7362     7.9641   122.1273    57.3613     8.7792
  368.0000   -27.8971     8.0282   121.0628    55.0077     8.9228
  368.5000   -28.0133     8.0910   120.8505    60.2622     9.0372
  369.0000   -27.9877     8.1518   120.6362    62.6369     9.0693
  369.5000   -27.9647     8.0753   120.4232    64.0502     9.0713
  370.0000   -27.9420     8.0381   120.2186    64.0060     9.0622
  370.5000   -27.9193     7.9993   120.5753    57.3780     9.0551
  371.0000   -27.8967     7.9584   122.3324    59.2226     9.0695
  371.5000   -27.8743     7.9176   124.0894    63.1475     9.0582
  372.0000   -27.8527     7.8531   125.8473    64.5960     8.9875
  372.5000   -27.8236     7.7322   127.6073    77.5100     8.8595
  373.0000   -27.6555     7.6115   129.3526    75.1095     8.6749
  373.5000   -27.4899     7.4919   130.6181    66.8818     8.5303
  374.0000   -27.3788     7.4770   131.4673    72.6499     8.4297
  374.5000   -27.2664     7.4677   132.3166    66.9961     8.4463
  375.0000   -27.1526     7.4579   133.1658    65.6798     8.4794
  375.5000   -27.0335     7.4479   134.0151    62.2882     8.4917
  376.0000   -27.0108     7.4379   134.0131    57.8397     8.4768
  376.5000   -27.2846     7.4279   133.7583    61.7686     8.4609
  377.0000   -27.7924     7.4179   133.5035    59.4660     8.4408
  377.5000   -28.2994     7.4079   133.2487    61.2767     8.3880
  378.0000   -28.6201     7.3976   132.9940    63.9860     8.3873
  378.5000   -28.4678     7.3882   132.7392    56.0253     8.4535
  379.0000   -28.2299     7.4339   132.4844    59.0153     8.5173
  379.5000   -27.9896     7.4865   132.2296    61.3680     8.5733
  380.0000   -27.8025     7.5390   131.5737    64.2374     8.5617
  380.5000   -27.9752     7.5915   130.7691    73.8470     8.5512
  381.0000   -28.1672     7.6439   129.9646    72.4282     8.5410
  381.5000   -28.3666     7.6964   129.1600    68.7254     8.5321
  382.0000   -28.4141     7.7488   128.3555    68.9778     8.5654
  382.5000   -28.1664     7.8013   127.5509    62.1991     8.6213
  383.0000   -27.7075     7.8537   126.7448    65.1863     8.7010
  383.5000   -27.4137     7.9062   125.9618    59.7792     8.8345
  384.0000   -27.4696     7.9586   125.2309    65.2619     8.8549
  384.5000   -27.5197     8.0108   124.5040    62.0234     8.8733
  385.0000   -27.5713     8.0638   123.7760    62.9979     8.9797
  385.5000   -27.6434     8.1185   123.1156    62.1787     9.1019
  386.0000   -27.8037     8.2364   121.7269    61.6119     9.1239
  386.5000   -27.9627     8.3498   120.1761    58.1794     9.1316
  387.0000   -28.0113     8.4630   118.6253    62.0778     9.2160
  387.5000   -28.0123     8.5763   117.0745    68.8885     9.3774
  388.0000   -28.0115     8.6897   116.0804    63.5266     9.6024
  388.5000   -28.1648     8.8028   114.6709    60.8272     9.8077
  389.0000   -28.4567     8.8972   114.1438    69.0322     9.9934
  389.5000   -28.7543     8.8808   113.6167    74.6909    10.0376
  390.0000   -28.9717     8.8630   113.0896    71.2339    10.0099
  390.5000   -29.2429     8.8454   112.5625    62.1778     9.9839
  391.0000   -29.5173     8.8272   112.0603    64.7387     9.9544
  391.5000   -29.5731     8.8076   111.2393    65.2571     9.9260
  392.0000   -29.5050     8.8156   110.4557    65.8397     9.9835
  392.5000   -29.4345     9.0070   109.6723    62.7780    10.0639
  393.0000   -29.3638     9.1427   108.8873    63.5069    10.1936
  393.5000   -29.2928     9.2747   108.0482    74.5468    10.3291
  394.0000   -29.2189     9.4066   106.2181    75.8465    10.4545
  394.5000   -29.2930     9.5383   104.2386    69.2188    10.3558
  395.0000   -29.4006     9.7433   102.2557    66.1249    10.2646
  395.5000   -29.5092    10.0070   100.2741    75.4551    10.2750
  396.0000   -29.6173    10.2706    98.2926    72.5656    10.3813
  396.5000   -29.4883    10.5343    96.3110    68.7096    10.5119
  397.0000   -29.3245    10.7984    94.3294    65.1987    10.6443
  397.5000   -29.4584    11.0630    93.1626    72.0902    10.7774
  398.0000   -29.5983    11.1664    92.1752    57.0767    10.9103
  398.5000   -29.7403    11.2401    91.1899    51.7358    11.0432
  399.0000   -29.8198    11.3036    90.2028    47.5477    11.1762
  399.5000   -29.8162    11.4565    89.2178    42.1407    11.3087
  400.0000   -29.6512    11.6108    88.2315    56.1247    11.4421
  400.5000   -29.3085    11.6082    88.5854    53.3577    11.5064
  401.0000   -28.9662    11.6097    89.8593    62.5712    11.5078
  401.5000   -28.8605    11.5362    91.1423    65.3386    11.5097
  402.0000   -29.1410    11.4385    91.9942    60.5198    11.4188
  402.5000   -29.4112    11.3404    92.2729    63.4522    11.3003
  403.0000   -29.3192    11.2424    92.5411    68.4824    11.1812
  403.5000   -29.1587    11.1440    92.7707    74.0477    11.0622
