~VERSION INFORMATION
 VERS.                2.0:   CWLS LOG ASCII STANDARD - VERSION 2.0
 WRAP.                 NO:   ONE LINE PER DEPTH STEP
~WELL INFORMATION
#MNEM.UNIT      DATA TYPE    INFORMATION
#----------   ------------   ------------------------------
 STRT.F           26.0000:   START DEPTH
 STOP.F          535.5000:   STOP DEPTH
 STEP.F            0.5000:   STEP LENGTH
 NULL.          -999.2500:   NO VALUE
 COMP. BROWN JOHN E&C INC:   COMPANY
 WELL.       NPR 86 #11-3:   WELL
 FLD .             TEAPOT:   FIELD
 LOC .       S3 T38N R78W:   LOCATION
 CNTY.            NATRONA:   COUNTY
 STAT.            WYOMING:   STATE
 CTRY. UNITED STATES OF AMERICA:   COUNTRY
 SRVC.       Schlumberger:   SERVICE COMPANY
 DATE.        21-SEP-1990:   LOGDATE
 API .       490251130800:   API NUMBER
~CURVE INFORMATION
#MNEM.UNIT       API CODE    CURVE DESCRIPTION
#----------   ------------   ------------------------------
 DEPT.F                  :   
 ILD .OHMM   07 120 46 00:   INDUCTION LOG DEEP
 ILM .OHMM   07 120 44 00:   INDUCTION LOG MEDIUM
 GRD .GAPI   45 310 01 00:   GAMMA RAY FROM DENSITY LOG
 CALD.IN     45 280 60 00:   CALIPER
 DRHO.G/C3   45 356 01 00:   DENSITY CORRECTION
 DPHI.DEC    45 890 00 00:   DENSITY POROSITY
 RHOB.G/C3   45 350 01 00:   BULK DENSITY
~PARAMETER INFORMATION
#MNEM.UNIT          VALUE    DESCRIPTION
#----------   ------------   ------------------------------
 PD  .                 GL:   PERMANENT DATUM
 EPD .F              5144:   ELEVATION PERMANENT DATUM
 LMF .                 KB:   LOG MEASURED FROM
 DAPD.F                10:   FEET ABOVE PERMANENT DATUM
 DMF .                 KB:   DRILLING MEASURED FROM
 EKB .F              5154:   KELLING BUSHING
 EDF .F              5153:   DRILLING FLOOR
 EGL .F              5144:   GROUND LEVEL
 DATE.            9-21-90:   RUN DATE
 RUN .                  1:   RUN NUMBER
 DD  .F               540:   DEPTH DRILLER
 DL  .F               539:   DEPTH LOGGER
 BLI .F               533:   BOTTOM LOG INTERVAL
 TLI .F                49:   TOP LOG INTERVAL
 CS  .IN            8.625:   CASING SIZE
 CBD .F                50:   CASING BOTTOM DRILLER
 CBL .F                48:   CASING BOTTOM LOGGER
 BS  .IN            7.875:   BIT SIZE
 BSD .F               540:   BIT SIZE AT DEPTH
 DFT .                AIR:   DRILLING FLUID TYPE
 TCS .HRS            0315:   TIME CURCULATED STOPPED
 TLAB.HRS            0409:   TIME LOGGER AT BOTTOM
 LUN .               5882:   LOGGING UNIT NUMBER
 LUL .               CODY:   LOGGING UNIT LOCATION
 ENGI.          M. FISHER:   RECORDING ENGINEER
 WITN.          G. STRONG:   WITNESSED BY
 CLNT.            A2DTECH:   CLIENT CODE
 ORIG.   2" 2.5" 5" PRINT:   ORIGIN OF DATA
 UWI .       490251130800:   UNIQUE WELL ID
 DICO. A2D Technologies, Inc.:   DIGITIZING COMPANY
~OTHER INFORMATION
~A   DEPT      ILD        ILM         GRD      CALD       DRHO       DPHI       RHOB   
# ...
   71.5000     8.9086     9.0237   125.3271     7.9619     0.0037     0.1112     2.4691
   72.0000     9.1131     9.1561   120.7698     7.9939     0.0074     0.1147     2.4607
   72.5000     9.3225     9.2904   117.0483     8.0058     0.0109     0.1182     2.4531
   73.0000     9.5367     9.4267   119.4223     8.0062     0.0110     0.1162     2.4597
   73.5000     9.7569     9.5650   123.0912     8.0052     0.0109     0.1113     2.4670
   74.0000     9.9280     9.8406   126.7026     7.9811     0.0087     0.1063     2.4743
   74.5000    10.0131    10.1255   128.8111     7.9561     0.0064     0.1054     2.4756
   75.0000    10.1183    10.2408   127.8621     7.9311     0.0049     0.1054     2.4775
   75.5000    10.3047    10.3575   125.7652     7.9062     0.0058     0.1023     2.4825
   76.0000    10.4944    10.4755   123.6545     7.8857     0.0069     0.0991     2.4875
   76.5000    10.6881    10.5948   121.9083     7.8862     0.0080     0.0959     2.4925
   77.0000    10.8223    10.7155   122.0887     7.8862     0.0080     0.0934     2.4966
   77.5000    10.9244    10.7986   123.2172     7.8862     0.0080     0.0954     2.4936
   78.0000    11.0274    10.8621   125.8330     7.8862     0.0080     0.1006     2.4878
   78.5000    11.1626    10.9260   128.3424     7.8862     0.0080     0.1058     2.4785
   79.0000    11.1246    10.9903   130.3127     7.8862     0.0080     0.1110     2.4694
   79.5000    11.0707    11.0597   131.9129     7.8890     0.0071     0.1142     2.4635
   80.0000    11.0171    10.9592   131.2972     7.9058     0.0062     0.1130     2.4645
   80.5000    10.9637    10.8229   129.8223     7.9225     0.0054     0.1116     2.4670
   81.0000    10.9106    10.6882   129.5262     7.9391     0.0040     0.1101     2.4695
   81.5000    10.8568    10.5552   130.2010     7.9557     0.0024     0.1086     2.4721
   82.0000    10.7148    10.4240   131.0601     7.9723     0.0007     0.1086     2.4726
   82.5000    10.5721    10.2706   131.9047     7.9861    -0.0010     0.1097     2.4704
   83.0000    10.4622    10.3062   131.9384     7.9840    -0.0027     0.1110     2.4685
   83.5000    10.4622    10.3498   132.4168     7.9821    -0.0030     0.1077     2.4735
   84.0000    10.5024    10.3942   133.2428     7.9803    -0.0026     0.1020     2.4820
   84.5000    10.5307    10.4387   133.7721     7.9785    -0.0013     0.0962     2.4906
   85.0000    10.5589    10.4833   132.2206     7.9767     0.0000     0.0902     2.4993
   85.5000    10.5873    10.5282   128.9407     7.9749     0.0010     0.0875     2.5064
   86.0000    10.6157    10.5846   125.6948     7.9730     0.0005     0.0858     2.5096
   86.5000    10.6577    10.6577   123.5247     7.9712    -0.0028     0.0886     2.5020
   87.0000    10.5883    10.4081   123.8714     7.9694    -0.0057     0.0952     2.4915
   87.5000    10.4584    10.2465   124.7736     7.9676    -0.0077     0.1021     2.4789
   88.0000    10.3300    10.0875   125.4529     7.9664    -0.0090     0.1090     2.4679
   88.5000    10.2032     9.8970   124.9578     7.9687    -0.0090     0.1150     2.4606
   89.0000    10.1544     9.9890   126.7318     7.9710    -0.0084     0.1150     2.4661
   89.5000    10.1272     9.9438   129.2771     7.9734    -0.0074     0.1086     2.4720
   90.0000    10.1000     9.9113   131.7837     7.9757    -0.0062     0.1050     2.4779
   90.5000    10.0730     9.8789   129.6907     7.9780    -0.0047     0.1033     2.4805
   91.0000    10.0460     9.8466   127.2546     7.9803    -0.0031     0.1030     2.4806
   91.5000    10.0191     9.8144   127.6486     7.9826    -0.0016     0.1049     2.4788
   92.0000     9.9923     9.7824   131.6566     7.9850     0.0000     0.1070     2.4753
   92.5000     9.9187     9.7503   135.6594     7.9761     0.0025     0.1066     2.4745
   93.0000     9.8392     9.7159   139.3274     7.9574     0.0052     0.1036     2.4785
   93.5000     9.7604     9.6159   139.7414     7.9388     0.0079     0.1006     2.4838
   94.0000     9.6822     9.5071   138.0297     7.9201     0.0106     0.0974     2.4893
   94.5000     9.6046     9.3995   136.3266     7.9014     0.0131     0.0974     2.4895
   95.0000     9.5276     9.2932   135.9100     7.8827     0.0126     0.0994     2.4860
   95.5000     9.4494     9.1881   138.9466     7.8657     0.0091     0.1022     2.4822
   96.0000     9.2233     9.0841   142.0115     7.8652     0.0056     0.1053     2.4778
   96.5000     8.9970     8.8945   144.8851     7.8644     0.0022     0.1085     2.4722
   97.0000     8.7762     8.5810   145.4658     7.8636    -0.0012     0.1117     2.4666
   97.5000     8.5609     8.2785   144.8451     7.8627    -0.0040     0.1140     2.4609
   98.0000     8.3508     7.9991   144.5002     7.8618    -0.0040     0.1154     2.4613
   98.5000     8.1457     7.9100   146.2180     7.8609    -0.0040     0.1154     2.4639
   99.0000     7.9979     7.8084   146.0692     7.8601    -0.0040     0.1150     2.4646
   99.5000     8.0021     7.7072   143.3432     7.8592    -0.0039     0.1136     2.4646
  100.0000     7.9217     7.6365   138.5436     7.8583    -0.0052     0.1123     2.4660
  100.5000     7.9204     7.8717   133.6229     7.8575    -0.0056     0.1110     2.4681
  101.0000     8.0047     8.0923   128.5520     7.8566    -0.0060     0.1110     2.4686
  101.5000     8.3022     8.3189   125.6345     7.8557    -0.0064     0.1118     2.4686
  102.0000     8.5514     8.5516   124.3928     7.8548    -0.0068     0.1116     2.4686
  102.5000     8.8079     8.7354   125.1275     7.8540    -0.0060     0.1098     2.4697
  103.0000     8.8959     8.8393   127.3035     7.8531    -0.0043     0.1086     2.4710
  103.5000     8.9446     8.8565   129.6060     7.8522    -0.0024     0.1086     2.4715
  104.0000     8.9936     8.8565   131.1144     7.8514    -0.0023     0.1094     2.4704
  104.5000     9.0428     8.8565   129.2211     7.8505    -0.0048     0.1110     2.4682
  105.0000     9.1059     8.8565   128.7285     7.8496    -0.0074     0.1126     2.4660
  105.5000     9.0843     8.8565   128.7189     7.8488    -0.0085     0.1130     2.4646
  106.0000     9.0547     8.8565   127.8384     7.8479    -0.0090     0.1130     2.4646
  106.5000     9.0253     8.8565   126.8842     7.8470    -0.0090     0.1130     2.4646
  107.0000     8.9957     8.8565   126.0371     7.8469    -0.0084     0.1110     2.4667
  107.5000     8.9647     8.8564   127.8947     7.8503    -0.0072     0.1083     2.4707
  108.0000     8.9393     8.8564   129.1376     7.8538    -0.0062     0.1056     2.4746
  108.5000     9.0502     8.8548   130.3367     7.8572    -0.0044     0.1038     2.4785
  109.0000     9.0883     8.8870   131.5636     7.8606    -0.0024     0.1022     2.4826
  109.5000     9.1241     8.9503   133.5536     7.8640    -0.0002     0.0986     2.4902
  110.0000     9.1601     9.0140   135.9011     7.8675     0.0021     0.0944     2.4981
  110.5000     9.1976     9.0782   138.2804     7.8709     0.0028     0.0903     2.5048
  111.0000     9.2423     9.1708   138.5291     7.8743     0.0018     0.0907     2.5003
  111.5000     9.2873     9.2858   137.6268     7.8777     0.0007     0.0939     2.4950
  112.0000     9.3325     9.4021   136.2462     7.8812    -0.0004     0.0971     2.4895
  112.5000     9.3778     9.5372   134.2279     7.8846    -0.0010     0.0990     2.4875
  113.0000     9.4235     9.4653   132.2270     7.8880    -0.0010     0.1001     2.4866
  113.5000     9.4693     9.3818   130.2943     7.8914    -0.0010     0.1028     2.4815
  114.0000     9.5372     9.2760   128.6377     7.8948    -0.0010     0.1054     2.4765
  114.5000     9.4780     9.2970   127.1031     7.8983    -0.0010     0.1070     2.4736
  115.0000     9.3666     9.3371   126.7508     7.9017    -0.0010     0.1058     2.4766
  115.5000     9.2565     9.3773   126.7444     7.9052    -0.0010     0.1046     2.4795
  116.0000     9.1477     9.4178   126.7286     7.9050    -0.0010     0.1046     2.4785
  116.5000     9.1059     9.4583   126.6455     7.9034    -0.0023     0.1055     2.4768
