~VERSION INFORMATION
 VERS.                2.0:   CWLS LOG ASCII STANDARD - VERSION 2.0
 WRAP.                 NO:   ONE LINE PER DEPTH STEP
~WELL INFORMATION
#MNEM.UNIT      DATA TYPE    INFORMATION
#----------   ------------   ------------------------------
 STRT.F           38.0000:   START DEPTH
 STOP.F          663.5000:   STOP DEPTH
 STEP.F            0.5000:   STEP LENGTH
 NULL.          -999.2500:   NO VALUE
 COMP. FENIX & SCISSON INC:   COMPANY
 WELL.   NPR SX #3 #35-34:   WELL
 FLD .             TEAPOT:   FIELD
 LOC .      S34 T39N R78W:   LOCATION
 CNTY.            NATRONA:   COUNTY
 STAT.            WYOMING:   STATE
 CTRY. UNITED STATES OF AMERICA:   COUNTRY
 SRVC.       Schlumberger:   SERVICE COMPANY
 DATE.        21-MAR-1977:   LOGDATE
 API .       490251031500:   API NUMBER
~CURVE INFORMATION
#MNEM.UNIT       API CODE    CURVE DESCRIPTION
#----------   ------------   ------------------------------
 DEPT.F                  :   
 SPR .MV     07 010 01 00:   SPONTANEOUS POTENTIAL
 LL8 .OHMM   07 220 08 00:   LATEROLOG-8 RES.
 ILD .OHMM   07 120 46 00:   INDUCTION LOG DEEP
 ILM .OHMM   07 120 44 00:   INDUCTION LOG MEDIUM
 CALD.IN     45 280 60 00:   CALIPER
 RHOB.G/C3   45 350 01 00:   BULK DENSITY
 DPHI.DEC    45 890 12 00:   DENSITY POROSITY SANDSTONE
 CORR.G/C3   45 356 01 00:   DENSITY CORRECTION
 GRD .GAPI   45 310 01 00:   GAMMA RAY FROM DENSITY LOG
~PARAMETER INFORMATION
#MNEM.UNIT          VALUE    DESCRIPTION
#----------   ------------   ------------------------------
 PD  .                 GL:   PERMANENT DATUM
 EPD .F              5081:   ELEVATION PERMANENT DATUM
 LMF .                 GL:   LOG MEASURED FROM
 DMF .                 KB:   DRILLING MEASURED FROM
 EKB .F              5086:   KELLING BUSHING
 EGL .F              5081:   GROUND LEVEL
 DATE.          3-21-1977:   RUN DATE
 RUN .                  1:   RUN NUMBER
 DD  .F               670:   DEPTH DRILLER
 DL  .F               665:   DEPTH LOGGER
 BLI .F               659:   BOTTOM LOG INTERVAL
 TLI .F                40:   TOP LOG INTERVAL
 CS  .IN            8.625:   CASING SIZE
 CBD .F                40:   CASING BOTTOM DRILLER
 CBL .F                40:   CASING BOTTOM LOGGER
 BS  .IN            7.875:   BIT SIZE
 BSD .F               670:   BIT SIZE AT DEPTH
 DFT .           CHEM GEL:   DRILLING FLUID TYPE
 DFV .                 33:   DRILLING FLUID VISCOSITY
 MSS .           MUD TANK:   MUD SAMPLE SOURCE
 RMS .OHMM           4.98:   RESISTIVITY MUD SAMPLE
 MST .F                53:   MUD SAMPLE TEMPERATURE
 RMF .OHMM           4.94:   RESISTIVITY MUD FILTRATE SAMPLE
 MFST.F                53:   MUD FILTRATE SAMPLE TEMPERATURE
 RMC .OHMM            2.5:   RESISTIVITY MUD CAKE
 MCST.F                53:   MUD CAKE SAMPLE TEMPERATURE
 MFSS.                  M:   MUD FILTRATE SAMPLE SOURCE
 MCSS.                  C:   MUD CAKE SAMPLE SOURCE
 RMB .OHMM              4:   RESISTIVITY MUD AT BHT
 BHT .F                65:   BOTTOM HOLE TEMPERATURE
 TCS .HRS            1000:   TIME CURCULATED STOPPED
 TLAB.HRS            1400:   TIME LOGGER AT BOTTOM
 MRT .F                65:   MAXIMUM RECORDED TEMPERATURE
 LUN .               7742:   LOGGING UNIT NUMBER
 LUL .                GLT:   LOGGING UNIT LOCATION
 ENGI.               LANE:   RECORDING ENGINEER
 WITN.              BURKE:   WITNESSED BY
 CLNT.            A2DTECH:   CLIENT CODE
 ORIG.       2", 5" PRINT:   ORIGIN OF DATA
 UWI .       490251031500:   UNIQUE WELL ID
 DICO. A2D Technologies, Inc.:   DIGITIZING COMPANY
~OTHER INFORMATION
~A   DEPT      SPR        LL8        ILD        ILM       CALD       RHOB       DPHI       CORR         GRD  
# ...
  111.0000   -69.8971     8.3199     7.6282     6.7296     8.1202     2.4444     0.1274     0.0229   120.6829
  111.5000   -69.8324     8.2048     7.6944     6.6614     8.1191     2.4506     0.1218     0.0231   120.4635
  112.0000   -69.7677     8.2577     7.7611     6.6358     8.1179     2.4483     0.1255     0.0229   120.4237
  112.5000   -69.7030     8.3021     7.8284     6.7818     8.1167     2.4606     0.1199     0.0276   117.7664
  113.0000   -69.6383     8.3455     7.8963     6.9236     8.1156     2.4773     0.1118     0.0321   115.2744
  113.5000   -69.5736     8.6713     7.9648     7.0688     8.1144     2.4707     0.1144     0.0263   116.9967
  114.0000   -69.5089     9.2504     8.0338     7.2164     8.1132     2.4603     0.1191     0.0200   119.5690
  114.5000   -69.4442     9.1770     8.1035     7.3698     8.1121     2.4496     0.1238     0.0191   121.2077
  115.0000   -69.3795     8.8860     8.2048     7.4129     8.1109     2.4428     0.1293     0.0210   120.0185
  115.5000   -69.3148     8.5843     8.1253     7.4129     8.1100     2.4411     0.1261     0.0250   121.1194
  116.0000   -69.2501     8.2929     7.9855     7.1752     8.1100     2.4534     0.1209     0.0371   124.9593
  116.5000   -69.1854     8.0106     7.8481     6.9425     8.1100     2.4664     0.1178     0.0442   125.4721
  117.0000   -69.1207     7.9711     7.7130     6.7173     8.1100     2.4497     0.1258     0.0335   120.6634
  117.5000   -69.0538     7.9575     7.5803     6.4995     8.1100     2.4377     0.1331     0.0231   117.5439
  118.0000   -69.0204     7.9443     7.4499     6.4083     8.1100     2.4347     0.1327     0.0193   119.0872
  118.5000   -68.9959     7.9309     7.3217     6.3493     8.1100     2.4354     0.1323     0.0228   122.7296
  119.0000   -68.9717     7.9174     7.2044     6.2916     8.1100     2.4416     0.1274     0.0265   126.2094
  119.5000   -68.9473     7.9040     7.1536     6.2342     8.1100     2.4459     0.1250     0.0241   128.8234
  120.0000   -68.9230     7.8906     7.1032     6.1773     8.1100     2.4431     0.1311     0.0207   126.8051
  120.5000   -68.8985     7.8773     7.0531     6.1209     8.1100     2.4456     0.1252     0.0279   124.2322
  121.0000   -68.8742     7.8640     7.0034     6.0650     8.1100     2.4503     0.1219     0.0184   121.7079
  121.5000   -68.8498     7.8510     6.9539     6.0096     8.1100     2.4301     0.1371     0.0141   121.4331
  122.0000   -68.8564     7.8365     6.9047     5.9548     8.1100     2.4151     0.1443     0.0101   118.9495
  122.5000   -68.8938     7.7255     6.8567     5.9004     8.1100     2.4157     0.1445     0.0105   116.4267
  123.0000   -68.9313     7.5550     6.8229     5.8316     8.1100     2.4196     0.1415     0.0158   116.1169
  123.5000   -68.9689     7.4129     6.9986     5.9069     8.1100     2.4371     0.1317     0.0209   114.7561
  124.0000   -69.0069     7.6550     7.1381     6.0512     8.1100     2.4546     0.1208     0.0200   111.8256
  124.5000   -69.0371     7.8720     7.2803     6.1996     8.1100     2.4721     0.1086     0.0112   111.6449
  125.0000   -68.9295     8.0947     7.4254     6.3521     8.1100     2.4820     0.1023     0.0108   117.6805
  125.5000   -68.8146     8.5005     7.5735     6.5138     8.1100     2.4751     0.1047     0.0118   121.1103
  126.0000   -68.7001     9.4229     7.7244     6.5299     8.1100     2.4632     0.1183     0.0088   122.7412
  126.5000   -68.5857     9.2758     7.8784     6.5447     8.1100     2.4536     0.1230     0.0059   123.7078
  127.0000   -68.4714     9.0414     8.0354     6.5600     8.1100     2.4426     0.1295     0.0030   122.8622
  127.5000   -68.3571     8.8116     8.2048     6.5755     8.1100     2.4228     0.1400     0.0075   118.7905
  128.0000   -68.2427     8.6702     8.1439     6.5910     8.1100     2.4292     0.1367     0.0168   114.6513
  128.5000   -68.1283     8.8011     8.0635     6.6066     8.1100     2.4389     0.1306     0.0256   115.3379
  129.0000   -68.0139     8.9121     7.9839     6.6222     8.1100     2.4482     0.1245     0.0205   117.1132
  129.5000   -67.9001     9.0245     7.9051     6.6358     8.1100     2.4432     0.1235     0.0147   118.8815
  130.0000   -67.8353     9.1384     7.8271     6.5106     8.1100     2.4348     0.1316     0.0089   121.1075
  130.5000   -67.8357     9.2506     7.7500     6.4013     8.1100     2.4343     0.1336     0.0042   128.2487
  131.0000   -67.8356     9.0148     7.6727     6.2939     8.1100     2.4314     0.1355     0.0066   136.7566
  131.5000   -67.8357     8.7910     7.6091     6.2095     8.1100     2.4262     0.1371     0.0090   137.9300
  132.0000   -67.8357     8.5724     7.5022     6.1729     8.1100     2.4272     0.1346     0.0114   131.8662
  132.5000   -67.8357     8.3597     7.3977     6.1371     8.1100     2.4345     0.1319     0.0162   125.8145
  133.0000   -67.8356     8.2039     7.2945     6.1013     8.1100     2.4548     0.1180     0.0295   126.6237
  133.5000   -67.8352     8.2048     7.1929     6.0656     8.1100     2.4588     0.1148     0.0421   127.0745
  134.0000   -67.8305     8.2048     7.0926     6.0302     8.1100     2.4765     0.1018     0.0502   123.3727
  134.5000   -68.0193     8.1805     7.0136     5.9953     8.1100     2.4761     0.1054     0.0385   116.2457
  135.0000   -68.2411     8.1390     7.0786     6.0896     8.1100     2.4715     0.1106     0.0417   113.3422
  135.5000   -68.4621     8.0976     7.2037     6.2061     8.1100     2.4734     0.1084     0.0486   117.7806
  136.0000   -68.6139     8.0548     7.3509     6.3253     8.1100     2.4793     0.1052     0.0496   122.0809
  136.5000   -68.4525     8.2127     7.5010     6.4466     8.1100     2.4795     0.1046     0.0438   125.4049
  137.0000   -68.2979     8.3821     7.6542     6.5703     8.1100     2.4734     0.1099     0.0239   126.8612
  137.5000   -68.1436     8.5560     7.8106     6.6962     8.1100     2.4490     0.1279     0.0061   125.7561
  138.0000   -67.9894     8.6952     7.9701     6.8247     8.1100     2.4431     0.1273     0.0059   124.1644
  138.5000   -67.8353     8.7655     8.1329     6.9556     8.1100     2.4425     0.1285     0.0060   121.2689
  139.0000   -67.6795     8.8334     8.2992     7.0889     8.1100     2.4341     0.1336     0.0066   117.2489
  139.5000   -67.6205     9.0499     8.4688     7.2249     8.1100     2.4273     0.1370     0.0097   117.0034
  140.0000   -67.5986     9.3110     8.6416     7.3448     8.1100     2.4295     0.1349     0.0129   118.1019
  140.5000   -67.5774     9.6874     8.7523     7.3448     8.1109     2.4317     0.1347     0.0131   116.9221
  141.0000   -67.5561     9.5423     8.5057     7.3055     8.1118     2.4340     0.1327     0.0130   112.1153
  141.5000   -67.5347     9.3079     8.3301     7.1249     8.1128     2.4325     0.1331     0.0130   109.3878
  142.0000   -67.5133     9.0793     8.1582     6.9506     8.1137     2.4300     0.1363     0.0154   111.7393
  142.5000   -67.4919     8.8563     7.9898     6.7803     8.1146     2.4284     0.1368     0.0233   115.6614
  143.0000   -67.4705     8.6388     7.8248     6.6142     8.1156     2.4406     0.1300     0.0347   119.6504
  143.5000   -67.4493     8.4266     7.6633     6.4522     8.1165     2.4401     0.1286     0.0205   123.6576
  144.0000   -67.4285     8.2048     7.5051     6.2942     8.1175     2.4358     0.1321     0.0133   125.8746
  144.5000   -67.4095     8.1154     7.3502     6.1070     8.1184     2.4322     0.1322     0.0170   124.4543
  145.0000   -67.3904     7.9956     7.1985     6.1650     8.1194     2.4353     0.1314     0.0162   122.0059
  145.5000   -67.3714     7.9075     7.1442     6.2400     8.1203     2.4396     0.1291     0.0137   124.0809
  146.0000   -67.3523     8.0285     7.1442     6.3159     8.1213     2.4440     0.1258     0.0132   127.1018
  146.5000   -67.3333     8.1451     7.2008     6.3927     8.1222     2.4483     0.1255     0.0166   127.7103
  147.0000   -67.3142     8.3157     7.3071     6.4705     8.1232     2.4524     0.1218     0.0184   124.1359
