~VERSION INFORMATION
 VERS.                2.0:   CWLS LOG ASCII STANDARD - VERSION 2.0
 WRAP.                 NO:   ONE LINE PER DEPTH STEP
~WELL INFORMATION
#MNEM.UNIT      DATA TYPE    INFORMATION
#----------   ------------   ------------------------------
 STRT.F          250.0000:   START DEPTH
 STOP.F         1798.0000:   STOP DEPTH
 STEP.F            0.5000:   STEP LENGTH
 NULL.          -999.2500:   NO VALUE
 COMP. BROWN JOHN E&C INC:   COMPANY
 WELL. NPR 3 STX-10 #57-10:   WELL
 FLD .  TEAPOT DOME NPR 3:   FIELD
 LOC .      S10 T38N R78W:   LOCATION
 CNTY.            NATRONA:   COUNTY
 STAT.            WYOMING:   STATE
 CTRY. UNITED STATES OF AMERICA:   COUNTRY
 SRVC.           BIRDWELL:   SERVICE COMPANY
 DATE.        24-FEB-1979:   LOGDATE
 API .       490251096900:   API NUMBER
~CURVE INFORMATION
#MNEM.UNIT       API CODE    CURVE DESCRIPTION
#----------   ------------   ------------------------------
 DEPT.F                  :   
 GRD .GAPI   45 310 01 00:   GAMMA RAY FROM DENSITY LOG
 CALD.IN     45 280 60 00:   CALIPER
 RHOB.G/C3   45 350 01 00:   BULK DENSITY
 DPHI.DEC    45 890 12 00:   DENSITY POROSITY SANDSTONE
 CORR.G/C3   45 356 01 00:   DENSITY CORRECTION
~PARAMETER INFORMATION
#MNEM.UNIT          VALUE    DESCRIPTION
#----------   ------------   ------------------------------
 PD  .                 GL:   PERMANENT DATUM
 EPD .F              5201:   ELEVATION PERMANENT DATUM
 LMF .                 KB:   LOG MEASURED FROM
 DAPD.F                10:   FEET ABOVE PERMANENT DATUM
 DMF .                 KB:   DRILLING MEASURED FROM
 EKB .F              5211:   KELLING BUSHING
 EGL .F              5201:   GROUND LEVEL
 RUN .                  1:   RUN NUMBER
 DD  .F              1802:   DEPTH DRILLER
 DL  .F              1793:   DEPTH LOGGER
 BLI .F              1793:   BOTTOM LOG INTERVAL
 TLI .F               250:   TOP LOG INTERVAL
 CS  .IN            9.625:   CASING SIZE
 CBD .F               500:   CASING BOTTOM DRILLER
 CBL .F               490:   CASING BOTTOM LOGGER
 BS  .IN             8.75:   BIT SIZE
 BSD .F              1802:   BIT SIZE AT DEPTH
 DFT .                OIL:   DRILLING FLUID TYPE
 BHT .F                90:   BOTTOM HOLE TEMPERATURE
 TCS .HRS               4:   TIME CURCULATED STOPPED
 MRT .F                90:   MAXIMUM RECORDED TEMPERATURE
 LUN .               3029:   LOGGING UNIT NUMBER
 LUL .             CASPER:   LOGGING UNIT LOCATION
 ENGI.            ROLLINS:   RECORDING ENGINEER
 WITN.              AMEND:   WITNESSED BY
 CLNT.            A2DTECH:   CLIENT CODE
 ORIG.       2", 5" PRINT:   ORIGIN OF DATA
 UWI .       490251096900:   UNIQUE WELL ID
 DICO. A2D Technologies, Inc.:   DIGITIZING COMPANY
~OTHER INFORMATION
~A   DEPT       GRD        CALD       RHOB       DPHI      CORR  
# ...
  921.0000   124.3204     9.5138     2.4586     0.0525     0.0850
  921.5000   121.3254     9.5112     2.4614     0.0453     0.1133
  922.0000   117.3336     9.5085     2.4810     0.0355     0.1420
  922.5000   120.9441     9.5059     2.5027     0.0278     0.1711
  923.0000   129.6444     9.5033     2.5124     0.0245     0.1767
  923.5000   130.8133     9.5006     2.5217     0.0209     0.1822
  924.0000   129.3045     9.4982     2.5312     0.0147     0.1878
  924.5000   127.0426     9.4798     2.5407     0.0085     0.1936
  925.0000   124.7781     9.4519     2.5502     0.0023     0.1992
  925.5000   122.5125     9.4239     2.5597    -0.0022     0.2043
  926.0000   120.2581     9.3960     2.5672    -0.0072     0.1968
  926.5000   116.8962     9.3678     2.5594    -0.0021     0.1815
  927.0000   118.6718     9.3555     2.5486     0.0055     0.1663
  927.5000   124.3691     9.3508     2.5472     0.0065     0.1509
  928.0000   130.0413     9.3462     2.5467     0.0065     0.1356
  928.5000   132.1113     9.3417     2.5346     0.0161     0.1205
  929.0000   128.3006     9.3371     2.5229     0.0222     0.1129
  929.5000   124.7303     9.3461     2.5181     0.0183     0.1251
  930.0000   121.3047     9.3638     2.5324     0.0139     0.1366
  930.5000   126.3599     9.3818     2.5275     0.0216     0.1283
  931.0000   124.3487     9.3997     2.5186     0.0313     0.1168
  931.5000   121.7216     9.4177     2.5096     0.0329     0.1151
  932.0000   123.2274     9.4356     2.4961     0.0329     0.1260
  932.5000   126.1106     9.4536     2.5047     0.0251     0.1368
  933.0000   124.0002     9.4723     2.5257     0.0156     0.1477
  933.5000   121.7447     9.4669     2.5464     0.0061     0.1586
  934.0000   125.3636     9.4530     2.5640    -0.0032     0.1582
  934.5000   126.6018     9.4390     2.5589    -0.0038     0.1559
  935.0000   123.7540     9.4249     2.5514    -0.0045     0.1665
  935.5000   120.4729     9.4109     2.5473    -0.0052     0.2042
  936.0000   115.5765     9.3968     2.5772    -0.0117     0.2422
  936.5000   117.2950     9.3828     2.5712    -0.0117     0.2484
  937.0000   121.3438     9.3688     2.5506    -0.0099     0.2356
  937.5000   125.3985     9.3546     2.5571    -0.0084     0.2220
  938.0000   129.9080     9.3404     2.5793    -0.0147     0.1921
  938.5000   127.3303     9.3270     2.5638    -0.0160     0.1616
  939.0000   124.1141     9.3390     2.5366     0.0087     0.1313
  939.5000   120.8440     9.4504     2.5092     0.0295     0.0890
  940.0000   117.5816     9.5597     2.4820     0.0470     0.1285
  940.5000   114.3493     9.6691     2.4683     0.0476     0.2358
  941.0000   111.1505     9.7787     2.5041     0.0246     0.3412
  941.5000   109.6073     9.7785     2.5326     0.0016     0.3199
  942.0000   114.3629     9.6719     2.5612    -0.0094     0.2934
  942.5000   118.0036     9.5654     2.5807    -0.0164     0.2678
  943.0000   121.1275     9.4569     2.5802     0.0073     0.2314
  943.5000   121.0284     9.4710     2.5290     0.0320     0.1586
  944.0000   121.0286     9.5138     2.4638     0.0568     0.1510
  944.5000   121.0357     9.5577     2.4331     0.0737     0.1819
  945.0000   122.1743     9.6009     2.4602     0.0409     0.2052
  945.5000   124.1581     9.6354     2.4976     0.0138     0.1878
  946.0000   126.1537     9.6091     2.5350     0.0014     0.2045
  946.5000   128.1651     9.5839     2.5722    -0.0109     0.2377
  947.0000   130.0375     9.5590     2.5991    -0.0196     0.2688
  947.5000   129.6993     9.5340     2.5870    -0.0179     0.2534
  948.0000   129.2682     9.5089     2.5632    -0.0066     0.2143
  948.5000   128.8435     9.4831     2.5395     0.0047     0.1765
  949.0000   128.4342     9.4773     2.5274     0.0160     0.1457
  949.5000   130.0600     9.5051     2.5385     0.0205     0.1367
  950.0000   132.2709     9.5364     2.5467     0.0150     0.1587
  950.5000   134.3152     9.5684     2.5554     0.0088     0.1837
  951.0000   135.1252     9.5663     2.5543     0.0027     0.2061
  951.5000   135.8752     9.5213     2.5497     0.0031     0.1961
  952.0000   136.6264     9.4771     2.5450     0.0053     0.1841
  952.5000   137.3778     9.4331     2.5402     0.0076     0.1722
  953.0000   138.1289     9.3890     2.5355     0.0098     0.1603
  953.5000   138.8782     9.3448     2.5308     0.0120     0.1484
  954.0000   139.4338     9.3004     2.5261     0.0126     0.1366
  954.5000   139.6693     9.2571     2.5211     0.0122     0.1247
  955.0000   139.9094     9.2681     2.5259     0.0117     0.1161
  955.5000   140.1523     9.2818     2.5323     0.0128     0.1095
  956.0000   140.3967     9.2952     2.5388     0.0083     0.1028
  956.5000   140.6087     9.3086     2.5460     0.0012     0.0962
  957.0000   139.9316     9.3219     2.5350     0.0125     0.0896
  957.5000   136.8862     9.3353     2.5207     0.0321     0.0836
  958.0000   133.9400     9.3487     2.5062     0.0408     0.0838
  958.5000   130.9959     9.3620     2.4918     0.0429     0.0931
  959.0000   128.0446     9.3753     2.4855     0.0317     0.1025
  959.5000   125.1071     9.3886     2.4949     0.0332     0.1118
  960.0000   122.1755     9.3962     2.5041     0.0361     0.1156
  960.5000   120.5197     9.3940     2.5022     0.0341     0.1137
  961.0000   123.6954     9.3916     2.4908     0.0320     0.1122
  961.5000   124.8178     9.3892     2.4955     0.0299     0.1297
  962.0000   122.3038     9.3869     2.5050     0.0273     0.1511
  962.5000   120.3288     9.3845     2.5134     0.0242     0.1712
  963.0000   119.5507     9.3822     2.5102     0.0232     0.1724
  963.5000   122.5141     9.3799     2.5065     0.0231     0.1724
  964.0000   126.9640     9.3774     2.5069     0.0230     0.1822
  964.5000   125.6799     9.3722     2.5122     0.0229     0.1933
  965.0000   122.6242     9.3567     2.5175     0.0228     0.2044
  965.5000   123.9665     9.3415     2.5228     0.0185     0.2156
  966.0000   125.5476     9.3265     2.5388     0.0108     0.2268
  966.5000   123.0872     9.3114     2.5515     0.0064     0.2239
  967.0000   121.5319     9.2963     2.5418     0.0056     0.2273
  967.5000   122.5270     9.2812     2.5482     0.0047     0.2425
  968.0000   122.5460     9.2661     2.5606     0.0088     0.2331
  968.5000   118.6211     9.2508     2.5450     0.0159     0.2216
  969.0000   114.7559     9.2362     2.5294     0.0229     0.2101
  969.5000   110.8871     9.2534     2.5135     0.0272     0.1988
  970.0000   108.1733     9.2723     2.5132     0.0228     0.2138
  970.5000   106.3983     9.2911     2.5164     0.0184     0.2397
  971.0000   105.5346     9.3099     2.5196     0.0170     0.2723
  971.5000   108.4565     9.3286     2.5222     0.0227     0.3089
  972.0000   110.9045     9.3474     2.5183     0.0100     0.3609
  972.5000   113.3521     9.3662     2.4402     0.0040     0.2509
  973.0000   115.8058     9.3849     2.3965     0.0918     0.1192
  973.5000   118.2684     9.4037     2.3948     0.0914     0.1439
  974.0000   120.2909     9.4225     2.4290     0.0757     0.1726
  974.5000   119.0799     9.4412     2.4728     0.0479     0.2022
  975.0000   117.9611     9.4600     2.5165     0.0200     0.2171
  975.5000   121.3685     9.4788     2.5490     0.0056     0.2067
  976.0000   117.5026     9.4978     2.5387     0.0170     0.1795
  976.5000   114.4117     9.5162     2.4977     0.0299     0.1538
  977.0000   111.3097     9.5022     2.4914     0.0360     0.1510
  977.5000   107.5915     9.4862     2.4989     0.0389     0.1686
  978.0000   113.2100     9.4703     2.5126     0.0397     0.1920
  978.5000   118.3699     9.4545     2.5205     0.0204     0.1812
  979.0000   116.2151     9.4387     2.5004     0.0276     0.1524
  979.5000   113.5816     9.4229     2.4842     0.0361     0.1647
  980.0000   114.8687     9.4071     2.4790     0.0393     0.1932
  980.5000   117.5618     9.3913     2.5191     0.0112     0.1983
  981.0000   120.2699     9.3755     2.5383     0.0108     0.1654
  981.5000   123.7846     9.3596     2.5355     0.0120     0.1389
