~VERSION INFORMATION
 VERS.                2.0:   CWLS LOG ASCII STANDARD - VERSION 2.0
 WRAP.                 NO:   ONE LINE PER DEPTH STEP
~WELL INFORMATION
#MNEM.UNIT      DATA TYPE    INFORMATION
#----------   ------------   ------------------------------
 STRT.F           25.0000:   START DEPTH
 STOP.F          439.0000:   STOP DEPTH
 STEP.F            0.5000:   STEP LENGTH
 NULL.          -999.2500:   NO VALUE
 COMP. LAWRENCE/ALLISON INC:   COMPANY
 WELL.    63-31 SX #10-10:   WELL
 FLD .             TEAPOT:   FIELD
 LOC .      S10 T38N R78W:   LOCATION
 CNTY.            NATRONA:   COUNTY
 STAT.            WYOMING:   STATE
 CTRY. UNITED STATES OF AMERICA:   COUNTRY
 SRVC.           Gearhart:   SERVICE COMPANY
 DATE.        29-SEP-1988:   LOGDATE
 API .       490251125000:   API NUMBER
~CURVE INFORMATION
#MNEM.UNIT       API CODE    CURVE DESCRIPTION
#----------   ------------   ------------------------------
 DEPT.F                  :   
 GRR .GAPI   07 310 01 00:   GAMMA RAY
 RILD.OHMM   07 120 46 00:   INDUCTION LOG DEEP RESISTIVITY
 RILM.OHMM   07 120 44 00:   INDUCTION LOG MEDIUM RESISTIVITY
~PARAMETER INFORMATION
#MNEM.UNIT          VALUE    DESCRIPTION
#----------   ------------   ------------------------------
 PD  .                 GL:   PERMANENT DATUM
 EPD .F              5165:   ELEVATION PERMANENT DATUM
 LMF .                 KB:   LOG MEASURED FROM
 DAPD.F                10:   FEET ABOVE PERMANENT DATUM
 DMF .                 KB:   DRILLING MEASURED FROM
 EKB .F              5175:   KELLING BUSHING
 EGL .F              5165:   GROUND LEVEL
 DATE.        29-SEP-1988:   RUN DATE
 RUN .                  1:   RUN NUMBER
 DD  .F               440:   DEPTH DRILLER
 DL  .F               440:   DEPTH LOGGER
 BLI .F               439:   BOTTOM LOG INTERVAL
 TLI .F                40:   TOP LOG INTERVAL
 CS  .IN            9.625:   CASING SIZE
 CBD .F                45:   CASING BOTTOM DRILLER
 CBL .F                46:   CASING BOTTOM LOGGER
 BS  .IN             8.75:   BIT SIZE
 BSD .F               440:   BIT SIZE AT DEPTH
 TLAB.HRS            2126:   TIME LOGGER AT BOTTOM
 MRT .F                70:   MAXIMUM RECORDED TEMPERATURE
 LUN .               7597:   LOGGING UNIT NUMBER
 LUL .           GILLETTE:   LOGGING UNIT LOCATION
 ENGI.         WEATHERMON:   RECORDING ENGINEER
 WITN.             STRONG:   WITNESSED BY
 CLNT.            A2DTECH:   CLIENT CODE
 ORIG.        2" 5" PRINT:   ORIGIN OF DATA
 UWI .       490251125000:   UNIQUE WELL ID
 DICO. A2D Technologies, Inc.:   DIGITIZING COMPANY
~OTHER INFORMATION
~A   DEPT       GRR      RILD       RILM   
# ...
  389.0000   104.7967    10.7714    10.5941
  389.5000   107.2313    10.6191    10.2395
  390.0000   110.5778    10.4690     9.8173
  390.5000   112.4045    10.2491     9.4785
  391.0000   112.7115     9.8259     9.1514
  391.5000   111.8026     9.1560     8.5922
  392.0000   110.2859     8.4057     7.7903
  392.5000   109.0730     7.6729     7.1128
  393.0000   110.8998     7.0686     6.5856
  393.5000   115.4620     6.7295     6.1401
  394.0000   117.8966     6.6808     5.8460
  394.5000   117.2187     6.7729     5.8044
  395.0000   109.2063     7.0608     6.2226
  395.5000   100.8433     7.4644     6.7651
  396.0000   102.7358     7.8910     7.1523
  396.5000   105.7396     8.5187     7.6680
  397.0000   106.6412     9.2607     8.1084
  397.5000   104.8126     9.8587     8.7036
  398.0000   103.3029    10.4222     9.4072
  398.5000   102.4088    10.7145     9.9324
  399.0000   102.4164    10.8622    10.2708
  399.5000   102.7305    11.0891    10.7075
  400.0000   103.9514    11.3207    10.8712
  400.5000   106.9985    11.3445    11.0507
  401.0000   110.6535    11.3684    11.2302
  401.5000   112.7888    11.5308    11.4097
  402.0000   110.3648    11.7654    11.6957
  402.5000   105.8131    12.0048    12.0200
  403.0000   103.0852    12.1662    12.2482
  403.5000   103.7007    12.4137    12.4129
  404.0000   105.5320    12.6637    12.6629
  404.5000   106.7555    12.9214    12.7439
  405.0000   107.6749    13.1843    13.0005
  405.5000   108.5944    13.3589    13.0837
  406.0000   112.8573    13.3481    13.2570
  406.5000   114.6887    13.4335    13.4299
  407.0000   111.6568    13.5167    13.6077
  407.5000   105.8893    13.5977    13.7880
  408.0000   100.4258    13.7782    13.8734
  408.5000   101.3453    13.8634    13.8622
  409.0000   105.0003    13.9492    14.0486
  409.5000   108.0474    14.1338    14.1328
  410.0000   107.4471    14.2213    14.1213
  410.5000   105.9350    14.2097    14.1099
  411.0000   104.7268    14.1981    14.0985
  411.5000   102.9107    14.0878    13.9891
  412.0000   101.0946    14.0763    13.8806
  412.5000   100.4924    13.9670    13.6770
  413.0000   100.8059    13.7599    13.4764
  413.5000   101.4214    13.7488    13.4656
  414.0000   101.7330    13.7377    13.4547
  414.5000   101.4347    13.7266    13.4438
  415.0000   101.4442    13.7155    13.5271
  415.5000   101.4519    13.7044    13.6109
  416.0000   102.0674    13.5981    13.5050
  416.5000   102.6829    13.4925    13.4001
  417.0000   100.8668    13.2947    13.2036
  417.5000  -999.2500    13.1915    13.0858
  418.0000  -999.2500    12.9076    12.8169
  418.5000  -999.2500    12.6298    12.6289
  419.0000  -999.2500    12.3580    12.3572
  419.5000  -999.2500    12.0920    12.0071
  420.0000  -999.2500    11.8318    11.7487
  420.5000  -999.2500    11.6583    11.4958
  421.0000  -999.2500    11.4873    11.3272
  421.5000  -999.2500    11.4780    11.2393
  422.0000  -999.2500    11.3097    11.0745
  422.5000  -999.2500    11.1438    11.0656
  423.0000  -999.2500    11.1348    11.0566
  423.5000  -999.2500    11.1259    10.9708
  424.0000  -999.2500    11.0395    10.8099
  424.5000  -999.2500    10.7268    10.3580
  425.0000  -999.2500    10.4229    10.2061
  425.5000  -999.2500    10.1985    10.1269
  426.0000  -999.2500    10.1902    10.1187
  426.5000  -999.2500    10.1110    10.1106
  427.0000  -999.2500    10.1028    10.1024
  427.5000  -999.2500    10.0949    10.0240
  428.0000  -999.2500    10.3704    10.0864
  428.5000  -999.2500  -999.2500    10.2913
  429.0000  -999.2500  -999.2500    10.3551
  429.5000  -999.2500  -999.2500    10.2032
  430.0000  -999.2500  -999.2500     9.9141
  430.5000  -999.2500  -999.2500     9.7686
  431.0000  -999.2500  -999.2500     9.7607
  431.5000  -999.2500  -999.2500     9.7527
  432.0000  -999.2500  -999.2500     9.7448
  432.5000  -999.2500  -999.2500     9.6691
  433.0000  -999.2500  -999.2500     9.4594
  433.5000  -999.2500  -999.2500     9.1275
  434.0000  -999.2500  -999.2500     8.5646
  434.5000  -999.2500  -999.2500     8.4390
  435.0000  -999.2500  -999.2500    59.5756
  435.5000  -999.2500  -999.2500   952.0496
  436.0000  -999.2500  -999.2500   964.8539
  436.5000  -999.2500  -999.2500   950.5125
  437.0000  -999.2500  -999.2500   963.1016
  437.5000  -999.2500  -999.2500   976.0547
  438.0000  -999.2500  -999.2500   922.0931
  438.5000  -999.2500  -999.2500   853.2283
  439.0000  -999.2500  -999.2500   736.2576
