~VERSION INFORMATION
 VERS.                2.0:   CWLS LOG ASCII STANDARD - VERSION 2.0
 WRAP.                 NO:   ONE LINE PER DEPTH STEP
~WELL INFORMATION
#MNEM.UNIT      DATA TYPE    INFORMATION
#----------   ------------   ------------------------------
 STRT.F            0.5000:   START DEPTH
 STOP.F         2271.5000:   STOP DEPTH
 STEP.F            0.5000:   STEP LENGTH
 NULL.          -999.2500:   NO VALUE
 COMP. BROWN JOHN E&C INC:   COMPANY
 WELL. NPR 3 STX-11 #27-11:   WELL
 FLD .             TEAPOT:   FIELD
 LOC .      S11 T38N R78W:   LOCATION
 CNTY.            NATRONA:   COUNTY
 STAT.            WYOMING:   STATE
 CTRY. UNITED STATES OF AMERICA:   COUNTRY
 SRVC.      Dresser Atlas:   SERVICE COMPANY
 DATE.        20-JAN-1993:   LOGDATE
 API .       490251108500:   API NUMBER
~CURVE INFORMATION
#MNEM.UNIT       API CODE    CURVE DESCRIPTION
#----------   ------------   ------------------------------
 DEPT.F                  :   
 ILD .OHMM   07 120 46 00:   INDUCTION LOG DEEP
 ILM .OHMM   07 120 44 00:   INDUCTION LOG MEDIUM
 GRR .GAPI   07 310 01 00:   GAMMA RAY FROM RES. LOG.
~PARAMETER INFORMATION
#MNEM.UNIT          VALUE    DESCRIPTION
#----------   ------------   ------------------------------
 PD  .                 GL:   PERMANENT DATUM
 EPD .F              5187:   ELEVATION PERMANENT DATUM
 LMF .                 KB:   LOG MEASURED FROM
 DAPD.F                12:   FEET ABOVE PERMANENT DATUM
 DMF .                 KB:   DRILLING MEASURED FROM
 EKB .F            5198.8:   KELLING BUSHING
 EDF .F            5197.8:   DRILLING FLOOR
 EGL .F              5187:   GROUND LEVEL
 DATE.            1-20-93:   RUN DATE
 RUN .                  1:   RUN NUMBER
 DD  .F              2279:   DEPTH DRILLER
 DL  .F              2279:   DEPTH LOGGER
 BLI .F              2271:   BOTTOM LOG INTERVAL
 TLI .F               692:   TOP LOG INTERVAL
 CS  .IN            8.625:   CASING SIZE
 CBD .F               689:   CASING BOTTOM DRILLER
 CBL .F               692:   CASING BOTTOM LOGGER
 BS  .IN            7.875:   BIT SIZE
 BSD .F              2279:   BIT SIZE AT DEPTH
 DFT .                OIL:   DRILLING FLUID TYPE
 BHT .F                92:   BOTTOM HOLE TEMPERATURE
 TCS .HRS               2:   TIME CURCULATED STOPPED
 MRT .F                92:   MAXIMUM RECORDED TEMPERATURE
 LUN .            HL-6274:   LOGGING UNIT NUMBER
 LUL .             CASPER:   LOGGING UNIT LOCATION
 ENGI.             RAUTIO:   RECORDING ENGINEER
 WITN.             STRONG:   WITNESSED BY
 CLNT.            A2DTECH:   CLIENT CODE
 ORIG.  2", 5", 20" PRINT:   ORIGIN OF DATA
 UWI .       490251108500:   UNIQUE WELL ID
 DICO. A2D Technologies, Inc.:   DIGITIZING COMPANY
~OTHER INFORMATION
~A    DEPT     ILD        ILM         GRR  
# ...
  728.5000     9.0854     8.8168   142.1347
  729.0000     9.0854     8.8245   138.0788
  729.5000     9.0854     8.8322   134.0715
  730.0000     9.0911     8.8407   133.3795
  730.5000     9.1016     8.8510   132.8815
  731.0000     9.1122     8.8613   130.5558
  731.5000     9.1227     8.8716   127.7630
  732.0000     9.1333     8.8818   127.9684
  732.5000     9.1439     8.8921   129.9185
  733.0000     9.1545     8.9025   129.5492
  733.5000     9.1653     8.9128   128.3429
  734.0000     9.1918     8.9323   128.1297
  734.5000     9.2305     8.9672   131.7755
  735.0000     9.2694     9.0024   132.7913
  735.5000     9.3085     9.0377   131.3555
  736.0000     9.3478     9.0732   129.7962
  736.5000     9.3873     9.1088   129.4415
  737.0000     9.4269     9.1445   129.8931
  737.5000     9.4667     9.1804   129.1353
  738.0000     9.5066     9.2164   126.2736
  738.5000     9.5442     9.2526   123.5883
  739.0000     9.5934     9.2888   125.1313
  739.5000     9.6429     9.3253   126.6325
  740.0000     9.6927     9.3619   126.3719
  740.5000     9.7429     9.3986   125.9480
  741.0000     9.7966     9.4457   127.6823
  741.5000     9.8647     9.5281   130.0163
  742.0000     9.9331     9.6112   131.5762
  742.5000    10.0018     9.6951   129.2769
  743.0000    10.0711     9.7797   125.8655
  743.5000    10.1408     9.8650   123.0093
  744.0000    10.2110     9.9510   124.5243
  744.5000    10.2817    10.0379   127.7609
  745.0000    10.3529    10.1256   128.5195
  745.5000    10.4246    10.2139   128.9376
  746.0000    10.4466    10.2438   130.2890
  746.5000    10.4609    10.2434   132.0876
  747.0000    10.4751    10.2435   131.8318
  747.5000    10.4894    10.2435   130.7331
  748.0000    10.5037    10.2434   128.9632
  748.5000    10.5179    10.2431   127.2225
  749.0000    10.5303    10.2423   126.6367
  749.5000    10.5702    10.2951   129.8569
  750.0000    10.6139    10.3427   133.1642
  750.5000    10.6579    10.3904   135.5744
  751.0000    10.7021    10.4384   134.0942
  751.5000    10.7464    10.4866   132.5066
  752.0000    10.7910    10.5350   130.5433
  752.5000    10.8357    10.5836   126.4990
  753.0000    10.8806    10.6325   122.4197
  753.5000    10.9271    10.6816   119.7638
  754.0000    10.9754    10.7309   123.5056
  754.5000    11.0254    10.7804   128.1630
  755.0000    11.0757    10.8302   132.6534
  755.5000    11.1262    10.8802   130.4725
  756.0000    11.1769    10.9305   127.5646
  756.5000    11.2280    10.9809   128.0456
  757.0000    11.2794    11.0320   129.0191
  757.5000    11.3411    11.0825   127.7757
  758.0000    11.3419    11.1307   125.5842
  758.5000    10.9793    10.8058   123.4169
  759.0000    10.7443    10.5293   122.2131
  759.5000    10.5143    10.2551   124.7340
  760.0000    10.2885    10.0049   127.0575
  760.5000    10.0704     9.6890   128.3738
  761.0000     9.9442     9.6931   130.0375
  761.5000     9.9118     9.6920   134.0793
  762.0000     9.8777     9.6917   138.1806
  762.5000     9.8436     9.6917   138.3562
  763.0000     9.8097     9.6924   136.9250
  763.5000     9.7816     9.6917   135.3740
  764.0000     9.6794     9.5072   135.7975
  764.5000     9.5489     9.3521   137.6202
  765.0000     9.4199     9.1996   135.9100
  765.5000     9.2930     9.0420   131.2196
  766.0000     9.1697     8.8854   127.4114
  766.5000     8.9827     8.7307   129.0273
  767.0000     8.8031     8.5314   132.3893
  767.5000     8.6271     8.3063   135.7308
  768.0000     8.4546     8.0868   139.0105
  768.5000     8.2856     8.0115   140.7948
  769.0000     8.1326     7.9398   138.4649
  769.5000     8.1036     7.8700   135.7964
  770.0000     8.0765     7.7662   133.1367
  770.5000     8.0584     7.7711   130.4895
  771.0000     8.0583     7.7809   134.1275
  771.5000     8.0583     7.7907   138.3147
  772.0000     8.0582     7.8006   141.2118
  772.5000     8.0582     7.8104   141.1528
  773.0000     8.0582     7.8202   141.9610
  773.5000     8.0582     7.8301   143.3969
  774.0000     8.0582     7.8400   144.2720
  774.5000     8.0583     7.8498   141.2497
  775.0000     8.0580     7.8597   139.9392
  775.5000     8.0799     7.8696   141.8595
  776.0000     8.1158     7.8796   144.2011
  776.5000     8.1519     7.8898   145.2487
  777.0000     8.1882     7.8995   143.9824
  777.5000     8.2991     7.9094   142.8480
  778.0000     8.5064     8.1056   142.2575
  778.5000     8.7188     8.3405   142.1218
  779.0000     8.9367     8.5822   136.3516
  779.5000     9.1600     8.8309   130.4940
  780.0000     9.3888     9.0868   125.9666
  780.5000     9.6233     9.3501   125.8908
  781.0000     9.7046     9.4480   126.6799
  781.5000     9.7227     9.4774   127.9540
  782.0000     9.7409     9.5069   129.3251
  782.5000     9.7590     9.5365   130.6636
  783.0000     9.7817     9.5661   129.6210
  783.5000     9.7481     9.6027   124.8530
  784.0000     9.6886     9.5473   123.7285
  784.5000     9.6294     9.4761   125.2856
  785.0000     9.5708     9.4053   125.1575
  785.5000     9.5125     9.3352   123.9309
  786.0000     9.4545     9.2655   124.6324
  786.5000     9.3969     9.1964   128.2998
  787.0000     9.3396     9.1277   131.9113
  787.5000     9.2827     9.0596   133.5584
  788.0000     9.2261     8.9920   131.6929
  788.5000     9.1699     8.9249   130.9999
  789.0000     9.1140     8.8373   132.2657
  789.5000     9.0854     8.8470   133.4848
  790.0000     9.1070     8.8612   134.6795
  790.5000     9.1217     8.8755   135.2569
  791.0000     9.1365     8.8898   134.2310
  791.5000     9.1512     8.9039   133.9238
  792.0000     9.1693     8.9186   135.2614
  792.5000     9.1465     8.8905   135.4123
  793.0000     9.1153     8.8604   135.1591
  793.5000     9.0843     8.8303   136.5653
  794.0000     9.0534     8.8002   138.4053
  794.5000     9.0225     8.7702   139.4857
  795.0000     8.9918     8.7404   137.9460
  795.5000     8.9612     8.7106   135.9173
  796.0000     8.9307     8.6814   133.9658
  796.5000     8.8743     8.6180   134.9635
  797.0000     8.8026     8.5486   138.3801
  797.5000     8.7316     8.4795   141.5102
  798.0000     8.6611     8.4111   139.5688
  798.5000     8.5960     8.3390   134.2513
  799.0000     8.5049     8.2564   131.0644
  799.5000     8.4206     8.1745   132.9071
  800.0000     8.3371     8.0935   134.9992
  800.5000     8.2541     8.0133   132.6647
  801.0000     8.1333     7.9109   130.3580
  801.5000     8.1812     7.9775   128.3228
  802.0000     8.2795     8.0724   128.4682
  802.5000     8.3780     8.1684   128.8021
  803.0000     8.4777     8.2657   129.1305
  803.5000     8.5786     8.3640   131.5547
  804.0000     8.6807     8.4636   135.7955
  804.5000     8.7840     8.5643   139.5315
  805.0000     8.8885     8.6662   138.1366
  805.5000     8.9943     8.7693   136.5122
  806.0000     9.0880     8.8432   134.8980
  806.5000     9.1054     8.8603   133.2784
  807.0000     9.1232     8.8774   131.6836
  807.5000     9.1409     8.8946   131.9397
  808.0000     9.1585     8.9118   135.9249
  808.5000     9.1697     8.9193   137.2794
  809.0000     9.0800     8.8172   135.9122
  809.5000     9.0038     8.7432   135.9094
  810.0000     8.9282     8.6699   137.5927
  810.5000     8.8373     8.5960   139.4389
  811.0000     8.8666     8.6317   140.0613
  811.5000     8.9040     8.6680   139.4564
  812.0000     8.9193     8.6758   138.8562
  812.5000     8.9775     8.7464   138.2500
  813.0000     9.0513     8.8184   138.6712
  813.5000     9.1256     8.8908   141.8803
  814.0000     9.2005     8.9638   145.7658
  814.5000     9.2760     9.0374   149.5996
  815.0000     9.3521     9.1116   146.9877
  815.5000     9.4289     9.1864   139.6891
  816.0000     9.5063     9.2618   132.3105
  816.5000     9.5843     9.3378   131.7125
  817.0000     9.6917     9.4271   132.4645
  817.5000     9.6796     9.4056   133.0862
  818.0000     9.6605     9.3800   132.7233
  818.5000     9.6415     9.3545   132.4125
  819.0000     9.6225     9.3290   134.3650
