~VERSION INFORMATION
 VERS.                2.0:   CWLS LOG ASCII STANDARD - VERSION 2.0
 WRAP.                 NO:   ONE LINE PER DEPTH STEP
~WELL INFORMATION
#MNEM.UNIT      DATA TYPE    INFORMATION
#----------   ------------   ------------------------------
 STRT.F           66.0000:   START DEPTH
 STOP.F          892.0000:   STOP DEPTH
 STEP.F            0.5000:   STEP LENGTH
 NULL.          -999.2500:   NO VALUE
 COMP. LAWRENCE/ALLISON INC:   COMPANY
 WELL. NPR #3 #31-11 SX 2:   WELL
 FLD .             TEAPOT:   FIELD
 LOC .       S2 T38N R78W:   LOCATION
 CNTY.            NATRONA:   COUNTY
 STAT.            WYOMING:   STATE
 CTRY. UNITED STATES OF AMERICA:   COUNTRY
 SRVC.      Dresser Atlas:   SERVICE COMPANY
 DATE.        10-AUG-1985:   LOGDATE
 API .       490251103900:   API NUMBER
~CURVE INFORMATION
#MNEM.UNIT       API CODE    CURVE DESCRIPTION
#----------   ------------   ------------------------------
 DEPT.F                  :   
 PORD.DEC    45 890 12 00:   POROSITY DENSITY SANDSTONE
 CNC .DEC    42 890 03 00:   NEUTRON POROSITY SANDSTONE
 CORR.G/C3   45 356 01 00:   DENSITY CORRECTION
 DEN .G/C3   45 350 01 00:   COMPENSATED BULK DENSTIY
 CALD.IN     45 280 60 00:   CALIPER FROM DENSITY LOG
 SPR .MV     07 010 01 00:   SPONTANEOUS POTENTIAL
 RILD.OHMM   07 120 46 00:   INDUCTION LOG DEEP RESISTIVITY
 RILM.OHMM   07 120 44 00:   INDUCTION LOG MEDIUM RESISTIVITY
 RFOC.OHMM   07 220 04 00:   RESISTIVITY FOCUSED LOG
~PARAMETER INFORMATION
#MNEM.UNIT          VALUE    DESCRIPTION
#----------   ------------   ------------------------------
 PD  .                 GL:   PERMANENT DATUM
 EPD .F              5110:   ELEVATION PERMANENT DATUM
 LMF .                 GL:   LOG MEASURED FROM
 DMF .                 GL:   DRILLING MEASURED FROM
 EKB .F              5115:   KELLING BUSHING
 EGL .F              5110:   GROUND LEVEL
 DATE.        10-AUG-1985:   RUN DATE
 RUN .                  1:   RUN NUMBER
 DD  .F               899:   DEPTH DRILLER
 DL  .F               895:   DEPTH LOGGER
 BLI .F               892:   BOTTOM LOG INTERVAL
 CS  .IN            8.625:   CASING SIZE
 CBD .F                75:   CASING BOTTOM DRILLER
 CBL .F                78:   CASING BOTTOM LOGGER
 BS  .IN            7.875:   BIT SIZE
 BSD .F               899:   BIT SIZE AT DEPTH
 DFT .                KCL:   DRILLING FLUID TYPE
 MSS .           FLOWLINE:   MUD SAMPLE SOURCE
 RMS .OHMM            .21:   RESISTIVITY MUD SAMPLE
 MST .F                75:   MUD SAMPLE TEMPERATURE
 TCS .HRS            0200:   TIME CURCULATED STOPPED
 MRT .F               100:   MAXIMUM RECORDED TEMPERATURE
 LUN .               6274:   LOGGING UNIT NUMBER
 LUL .               GLTE:   LOGGING UNIT LOCATION
 ENGI.             RAUTIO:   RECORDING ENGINEER
 WITN.        LINDA FIVAS:   WITNESSED BY
 CLNT.            A2DTECH:   CLIENT CODE
 ORIG.           5" PRINT:   ORIGIN OF DATA
 UWI .       490251103900:   UNIQUE WELL ID
 DICO. A2D Technologies, Inc.:   DIGITIZING COMPANY
~OTHER INFORMATION
~A   DEPT     PORD        CNC       CORR        DEN       CALD        SPR       RILD       RILM       RFOC   
# ...
  431.0000     0.1415     0.3385    -0.0006     2.4428     8.1210   -72.4819     7.7677     7.5084     8.1457
  431.5000     0.1433     0.3511     0.0115     2.4428     8.1349   -73.0943     7.5618     7.3526     7.8755
  432.0000     0.1473     0.3533     0.0220     2.4390     8.1335   -73.5554     7.4052     7.3011     7.6068
  432.5000     0.1491     0.3391    -0.0202     2.4330     8.1474   -73.7139     7.2016     7.1996     7.3983
  433.0000     0.1463     0.3159    -0.0488     2.4314     8.1457   -73.2690     7.0525     7.0502     7.1956
  433.5000     0.1421     0.3026    -0.0503     2.4344     8.1444   -72.9718     7.0035     7.0990     7.2465
  434.0000     0.1394     0.2866     0.0009     2.4404     8.1586   -72.6765     7.3027     7.4015     7.6621
  434.5000     0.1403     0.2875     0.0174     2.4456     8.1569   -72.6855     7.5092     7.7169     8.1580
  435.0000     0.1394     0.2881     0.0114     2.4456     8.1553   -72.6929     7.7756     7.8794     8.6258
  435.5000     0.1379     0.2875     0.0068     2.4463     8.1540   -72.3991     7.9955     8.0535     8.8700
  436.0000     0.1331     0.2851     0.0204     2.4493     8.1527   -72.5576     8.1078     8.1576     8.5673
  436.5000     0.1273     0.2833     0.0294     2.4560     8.1514   -72.7161     8.1078     8.2141     8.2747
  437.0000     0.1270     0.2806     0.0294     2.4658     8.1501   -72.8746     7.9955     8.2710     8.1609
  437.5000     0.1267     0.2782     0.0218     2.4680     8.1640   -73.1972     7.9955     8.2703     8.2758
  438.0000     0.1246     0.2836     0.0203     2.4705     8.1623   -73.7986     7.9955     8.2122     8.4534
  438.5000     0.1213     0.2855     0.0233     2.4762     8.1610   -74.2596     7.9955     8.1546     8.6301
  439.0000     0.1234     0.2882     0.0293     2.4747     8.1752   -74.5694     7.8848     8.0975     8.6910
  439.5000     0.1261     0.3002     0.0278     2.4709     8.1735   -74.7279     7.8848     8.0407     8.5119
  440.0000     0.1279     0.3180     0.0200     2.4679     8.1874   -74.5838     7.8300     7.9844     8.2787
  440.5000     0.1270     0.3174     0.0067     2.4678     8.1857   -74.4416     7.7756     7.9837     8.0478
  441.0000     0.1213     0.3159     0.0052     2.4724     8.1999   -74.4488     7.7871     7.9278     7.8860
  441.5000     0.1174     0.3135     0.0172     2.4806     8.1982   -74.3029     7.9955     7.9272     7.9417
  442.0000     0.1119     0.3075     0.0397     2.4933     8.1969   -74.1604     8.2216     8.0941     7.9977
  442.5000     0.1062     0.2912     0.0473     2.5046     8.1956   -73.7065     8.3371     8.4548     8.2241
  443.0000     0.0995     0.2776     0.0367     2.5151     8.1940   -73.7230     8.8285     9.0473     8.6614
  443.5000     0.0956     0.2770     0.0292     2.5189     8.1927   -74.0328     9.3210     9.4988     9.7211
  444.0000     0.0977     0.2804     0.0307     2.5118     8.1914   -74.4938     9.5846     9.1093    10.4227
  444.5000     0.1035     0.2933     0.0397     2.4969     8.1901   -74.9549     9.0017     8.8567    11.0204
  445.0000     0.1077     0.3114     0.0472     2.4931     8.1888   -74.9621     8.6933     8.7351    10.4969
  445.5000     0.1113     0.3169     0.0411     2.4848     8.1872   -74.6668     8.6933     8.7345     9.6192
  446.0000     0.1161     0.3108     0.0126     2.4758     8.1859   -74.5227     8.8153     8.6733     8.6995
  446.5000     0.1282     0.2936    -0.0040     2.4584     8.1846   -74.5317     8.6329     8.5527     8.3441
  447.0000     0.1346     0.2924    -0.0071     2.4486     8.1833   -74.8415     8.2216     8.3140     8.1155
  447.5000     0.1382     0.3099    -0.0101     2.4471     8.1820   -74.8487     8.1078     8.2013     8.0597
  448.0000     0.1370     0.3063    -0.0236     2.4546     8.1804   -74.4038     7.9955     8.0873     8.1167
  448.5000     0.1321     0.2906    -0.0056     2.4606     8.1791   -74.1085     7.8848     7.9749     8.1173
  449.0000     0.1273     0.2828     0.0277     2.4651     8.1778   -73.8113     7.8300     7.9743     8.3470
  449.5000     0.1270     0.2934     0.0455     2.4665     8.1765   -73.3665     7.8300     7.9184     8.5238
  450.0000     0.1225     0.3136     0.0355     2.4748     8.1752   -73.2224     8.0515     7.9257     8.5839
  450.5000     0.1162     0.3127     0.0214     2.4853     8.1739   -73.2284     8.2189     8.0244     8.5115
  451.0000     0.1161     0.3097     0.0033     2.4838     8.1724   -73.2345     8.1633     8.0831     8.4390
  451.5000     0.1205     0.3069    -0.0193     2.4755     8.1865   -73.2417     8.1061     8.0817     8.4046
  452.0000     0.1273     0.3109    -0.0209     2.4672     8.2000   -72.9449     8.0492     8.0806     8.4040
  452.5000     0.1273     0.3100    -0.0029     2.4658     8.1986   -72.9507     7.9926     8.0793     8.3452
  453.0000     0.1258     0.3076     0.0091     2.4688     8.2124   -72.8038     7.9921     8.0782     8.1154
  453.5000     0.1213     0.2982     0.0271     2.4725     8.2108   -72.8110     8.0476     8.0771     8.0586
  454.0000     0.1162     0.2919     0.1159     2.4823     8.2249   -72.9844     8.1034     8.0760     8.0022
  454.5000     0.1107     0.2907     0.1175     2.4929     8.2233   -73.2779     8.2165     8.0750     8.0015
  455.0000     0.1026     0.2949     0.1041     2.5113     8.2219   -73.7375     8.2159     8.0739     8.0010
  455.5000     0.0959     0.3040     0.0330     2.5229     8.2206   -74.1972     8.2729     8.0165     8.0004
  456.0000     0.1014     0.3046     0.0209     2.5087     8.2042   -74.3543     8.2147     8.0154     7.9999
  456.5000     0.1032     0.2982     0.0269     2.5049     8.2029   -74.5113     8.2142     8.0143     7.9994
  457.0000     0.0998     0.2937     0.0449     2.5094     8.2012   -74.5186     8.2136     7.9576     7.9987
  457.5000     0.0953     0.2961     0.0599     2.5147     8.1999   -74.5244     8.0974     7.9566     7.9982
  458.0000     0.0884     0.3088     0.0689     2.5241     8.1988   -74.5302     7.9310     7.9003     7.9976
  458.5000     0.0860     0.3245     0.0643     2.5350     8.1973   -74.3832     7.8207     7.8441     7.9971
  459.0000     0.0890     0.3272     0.0522     2.5327     8.1960   -74.2390     7.7658     7.7346     8.1087
  459.5000     0.0952     0.3239     0.0161     2.5207     8.1947   -74.0937     7.6578     7.6798     8.1081
  460.0000     0.1068     0.3145     0.0010     2.5056     8.1782   -73.7969     7.5512     7.5725     8.1075
  460.5000     0.1110     0.3052    -0.0006     2.4943     8.1769   -73.5016     7.4923     7.4149     8.1069
  461.0000     0.1116     0.3001     0.0189     2.4936     8.1753   -73.3561     7.3424     7.3113     8.1064
  461.5000     0.1083     0.3000     0.0339     2.4989     8.1589   -73.2106     7.3419     7.3101     7.9383
  462.0000     0.1032     0.3010     0.0505     2.5056     8.1576   -73.2164     7.3929     7.4117     7.8244
  462.5000     0.0965     0.2989     0.0504     2.5192     8.1562   -73.5262     7.6014     7.6737     7.7192
  463.0000     0.0880     0.2937     0.0443     2.5320     8.1549   -73.9858     7.7623     7.8345     7.6651
  463.5000     0.0905     0.2922     0.0262     2.5350     8.1536   -74.5968     7.9804     7.9440     7.6115
  464.0000     0.0950     0.2959     0.0337     2.5222     8.1523   -74.4498     8.0357     8.1097     7.7715
  464.5000     0.0986     0.2931     0.0487     2.5154     8.1506   -74.3056     8.0915     8.0523     7.9905
  465.0000     0.1002     0.2947     0.0517     2.5124     8.1493   -74.0090     8.0908     8.0513     8.2154
  465.5000     0.1020     0.3079     0.0381     2.5117     8.1482   -73.8635     8.0903     7.9943     8.5058
  466.0000     0.1032     0.3122     0.0200     2.5087     8.1467   -73.4154     8.2033     8.1621     8.8066
  466.5000     0.1056     0.3073     0.0109     2.5033     8.1454   -72.9674     8.3760     8.2755     9.0548
  467.0000     0.1096     0.3032     0.0319     2.4989     8.1441   -72.9746     8.3755     8.2741     8.8054
