~VERSION INFORMATION
 VERS.                2.0:   CWLS LOG ASCII STANDARD - VERSION 2.0
 WRAP.                 NO:   ONE LINE PER DEPTH STEP
~WELL INFORMATION
#MNEM.UNIT      DATA TYPE    INFORMATION
#----------   ------------   ------------------------------
 STRT.F           30.0000:   START DEPTH
 STOP.F         1358.0000:   STOP DEPTH
 STEP.F            0.5000:   STEP LENGTH
 NULL.          -999.2500:   NO VALUE
 COMP. FENIX & SCISSON INC:   COMPANY
 WELL.      3 SX14 #85-14:   WELL
 FLD .             TEAPOT:   FIELD
 LOC .      S14 T38N R78W:   LOCATION
 CNTY.            NATRONA:   COUNTY
 STAT.            WYOMING:   STATE
 CTRY. UNITED STATES OF AMERICA:   COUNTRY
 SRVC.              Welex:   SERVICE COMPANY
 DATE.        10-FEB-1977:   LOGDATE
 API .       490251027500:   API NUMBER
~CURVE INFORMATION
#MNEM.UNIT       API CODE    CURVE DESCRIPTION
#----------   ------------   ------------------------------
 DEPT.F                  :   
 ILM .OHMM   07 120 44 00:   INDUCTION LOG MEDIUM
 ILD .OHMM   07 120 46 00:   INDUCTION LOG DEEP
 CALD.IN     45 280 60 00:   CALIPER
 GRD .GAPI   45 310 01 00:   GAMMA RAY FROM DENSITY LOG
 RHOB.G/C3   45 350 01 00:   BULK DENSITY
 DPHI.DEC    45 890 12 00:   DENSITY POROSITY SANDSTONE
 CORR.G/C3   45 356 01 00:   DENSITY CORRECTION
~PARAMETER INFORMATION
#MNEM.UNIT          VALUE    DESCRIPTION
#----------   ------------   ------------------------------
 PD  .                 GL:   PERMANENT DATUM
 EPD .F              5345:   ELEVATION PERMANENT DATUM
 LMF .                 GL:   LOG MEASURED FROM
 DMF .                 GL:   DRILLING MEASURED FROM
 EGL .F              5345:   GROUND LEVEL
 DATE.          2-10-1977:   RUN DATE
 RUN .                  1:   RUN NUMBER
 DD  .F              1362:   DEPTH DRILLER
 DL  .F              1361:   DEPTH LOGGER
 BLI .F              1359:   BOTTOM LOG INTERVAL
 TLI .F                43:   TOP LOG INTERVAL
 CS  .IN            8.625:   CASING SIZE
 CBD .F                43:   CASING BOTTOM DRILLER
 CBL .F                43:   CASING BOTTOM LOGGER
 BS  .IN            7.875:   BIT SIZE
 BSD .F              1362:   BIT SIZE AT DEPTH
 DFT .           AIR MIST:   DRILLING FLUID TYPE
 TCS .HRS               4:   TIME CURCULATED STOPPED
 MRT .F               104:   MAXIMUM RECORDED TEMPERATURE
 LUN .               8611:   LOGGING UNIT NUMBER
 LUL .           GILLETTE:   LOGGING UNIT LOCATION
 ENGI.               DOAK:   RECORDING ENGINEER
 WITN. PETTINGILL/STUEBINGER:   WITNESSED BY
 CLNT.            A2DTECH:   CLIENT CODE
 ORIG.       2", 5" PRINT:   ORIGIN OF DATA
 UWI .       490251027500:   UNIQUE WELL ID
 DICO. A2D Technologies, Inc.:   DIGITIZING COMPANY
~OTHER INFORMATION
~A   DEPT      ILM        ILD         CALD      GRD         RHOB     DPHI        CORR  
# ...
  894.5000     6.6708     6.1030     8.0417   116.0620     2.5057     0.1006     0.0260
  895.0000     6.6156     6.0971     8.0361   116.1800     2.5096     0.1002     0.0256
  895.5000     6.5058     6.0541     8.0305   117.1198     2.5148     0.0984     0.0252
  896.0000     6.5116     6.0114     8.0250   118.1029     2.5200     0.0958     0.0248
  896.5000     6.5098     5.9689     8.0194   118.3265     2.5251     0.0932     0.0245
  897.0000     6.5088     5.9268     8.0140   118.1841     2.5285     0.0915     0.0241
  897.5000     6.5092     5.8850     8.0334   118.2557     2.5281     0.0926     0.0237
  898.0000     6.5473     5.8434     8.0597   119.1926     2.5278     0.0947     0.0234
  898.5000     6.5855     5.8286     8.0863   120.1501     2.5269     0.0967     0.0230
  899.0000     6.6236     5.8947     8.1128   119.8926     2.5221     0.0988     0.0226
  899.5000     6.6620     5.9212     8.1393   118.1862     2.5172     0.1008     0.0223
  900.0000     6.7006     5.9479     8.1657   116.5425     2.5122     0.1029     0.0219
  900.5000     6.7395     5.9747     8.1931   114.9006     2.5096     0.1048     0.0213
  901.0000     6.7785     6.0016     8.1939   113.2512     2.5070     0.1057     0.0204
  901.5000     6.8178     6.0287     8.1813   111.6960     2.5044     0.1064     0.0195
  902.0000     6.8573     6.0558     8.1685   111.7000     2.5019     0.1054     0.0186
  902.5000     6.8971     6.0831     8.1556   115.5696     2.5018     0.1039     0.0178
  903.0000     6.9371     6.1105     8.1428   119.3646     2.5021     0.1045     0.0194
  903.5000     6.9773     6.1379     8.1299   121.6012     2.5024     0.1055     0.0214
  904.0000     7.0177     6.1588     8.1171   122.1583     2.5041     0.1040     0.0234
  904.5000     7.0588     6.2006     8.1044   122.8701     2.5106     0.1014     0.0254
  905.0000     7.1067     6.2656     8.0972   124.1968     2.5183     0.0987     0.0274
  905.5000     7.1598     6.3308     8.0971   125.2612     2.5228     0.0961     0.0294
  906.0000     7.2127     6.3966     8.0971   126.3404     2.5252     0.0936     0.0314
  906.5000     7.2661     6.4632     8.0971   127.4090     2.5277     0.0951     0.0312
  907.0000     7.3199     6.5304     8.0986   128.2952     2.5232     0.0969     0.0298
  907.5000     7.3741     6.5984     8.1023   127.9582     2.5154     0.0988     0.0283
  908.0000     7.4287     6.6670     8.1060   127.5389     2.5202     0.1006     0.0268
  908.5000     7.4837     6.7364     8.1096   127.2665     2.5254     0.0991     0.0253
  909.0000     7.5391     6.8065     8.1133   128.2270     2.5296     0.0970     0.0239
  909.5000     7.5949     6.8773     8.1173   128.8872     2.5262     0.0942     0.0238
  910.0000     7.6815     6.9488     8.1112   128.6402     2.5270     0.0923     0.0244
  910.5000     7.7552     7.0211     8.1030   127.3079     2.5293     0.0949     0.0250
  911.0000     7.8343     7.0942     8.0946   126.2675     2.5224     0.0974     0.0256
  911.5000     7.9142     7.1680     8.0863   127.4754     2.5170     0.0977     0.0262
  912.0000     7.9948     7.2426     8.0779   127.6398     2.5243     0.0955     0.0269
  912.5000     8.0763     7.3179     8.0696   126.5767     2.5315     0.0933     0.0275
  913.0000     8.1586     7.3924     8.0609   125.4306     2.5334     0.0926     0.0272
  913.5000     8.2418     7.4672     8.0556   126.2281     2.5312     0.0936     0.0217
  914.0000     8.3258     7.5427     8.0329   125.5704     2.5319     0.0936     0.0161
  914.5000     8.4106     7.6189     8.0384   123.6187     2.5400     0.0911     0.0175
  915.0000     8.4964     7.6960     8.0434   122.6688     2.5479     0.0884     0.0241
  915.5000     8.5829     7.7738     8.0481   122.3609     2.5432     0.0869     0.0258
  916.0000     8.6704     7.8524     8.0528   121.5751     2.5376     0.0892     0.0201
  916.5000     8.7588     7.9318     8.0575   120.6679     2.5366     0.0916     0.0168
  917.0000     8.8481     8.0120     8.0623   120.2154     2.5436     0.0896     0.0220
  917.5000     8.9383     8.0930     8.0670   120.8765     2.5503     0.0857     0.0270
  918.0000     9.0294     8.1749     8.0718   121.6480     2.5635     0.0819     0.0319
  918.5000     9.1214     8.2575     8.0765   121.6155     2.5796     0.0780     0.0368
  919.0000     9.2144     8.3410     8.0812   119.8497     2.5989     0.0741     0.0400
  919.5000     9.3088     8.4254     8.0860   118.1447     2.5897     0.0769     0.0375
  920.0000     9.4050     8.5106     8.0907   118.9456     2.5733     0.0807     0.0351
  920.5000     9.3875     8.5782     8.0956   120.4516     2.5591     0.0845     0.0328
  921.0000     9.3698     8.5418     8.0959   121.9636     2.5537     0.0878     0.0304
  921.5000     9.3521     8.5063     8.0907   123.4706     2.5484     0.0897     0.0299
  922.0000     9.3344     8.4709     8.0856   124.2961     2.5377     0.0915     0.0296
  922.5000     9.3167     8.4356     8.0804   123.4092     2.5328     0.0938     0.0293
  923.0000     9.2991     8.4005     8.0753   122.9109     2.5292     0.0960     0.0290
  923.5000     9.2816     8.3656     8.0702   123.7018     2.5267     0.0963     0.0287
  924.0000     9.2640     8.3308     8.0651   124.4524     2.5299     0.0939     0.0284
  924.5000     9.2465     8.2962     8.0600   124.5063     2.5340     0.0915     0.0281
  925.0000     9.2290     8.2683     8.0547   123.8773     2.5383     0.0891     0.0278
  925.5000     9.2116     8.2683     8.0392   124.5500     2.5407     0.0886     0.0275
  926.0000     9.1941     8.2683     8.0435   125.5642     2.5420     0.0896     0.0272
  926.5000     9.1768     8.2390     8.0530   125.9463     2.5435     0.0889     0.0269
  927.0000     9.1593     8.2061     8.0623   124.8242     2.5454     0.0866     0.0266
  927.5000     9.1494     8.1734     8.0713   123.6393     2.5473     0.0861     0.0263
  928.0000     9.1024     8.1408     8.0804   122.8866     2.5440     0.0883     0.0260
  928.5000     9.0459     8.1083     8.0894   123.4766     2.5368     0.0903     0.0268
  929.0000     8.9897     8.0760     8.0967   124.0986     2.5344     0.0886     0.0280
  929.5000     8.9338     8.0438     8.0918   124.7257     2.5368     0.0895     0.0292
  930.0000     8.8783     8.0118     8.0872   124.4863     2.5412     0.0903     0.0303
  930.5000     8.8232     7.9798     8.0826   124.1468     2.5460     0.0888     0.0315
  931.0000     8.7683     7.9480     8.0780   124.2789     2.5485     0.0868     0.0327
  931.5000     8.7139     7.9163     8.0734   125.4826     2.5504     0.0849     0.0339
  932.0000     8.6597     7.8847     8.0688   127.1920     2.5521     0.0828     0.0351
  932.5000     8.6059     7.8533     8.0642   128.8759     2.5501     0.0857     0.0362
  933.0000     8.5525     7.8220     8.0596   130.5420     2.5376     0.0894     0.0334
  933.5000     8.4993     7.7908     8.0550   131.8740     2.5256     0.0934     0.0303
  934.0000     8.4465     7.7597     8.0504   134.0462     2.5153     0.0974     0.0280
  934.5000     8.3941     7.7525     8.0458   136.1749     2.5100     0.1001     0.0280
  935.0000     8.3419     7.7227     8.0412   138.3625     2.5119     0.1000     0.0280
  935.5000     8.2901     7.5948     8.0364   138.5363     2.5139     0.0998     0.0280
  936.0000     8.2386     7.4690     8.0353   137.6797     2.5158     0.1008     0.0280
  936.5000     8.1874     7.3452     8.0396   136.7812     2.5140     0.1017     0.0280
  937.0000     8.1365     7.2235     8.0440   135.9189     2.5116     0.1026     0.0280
  937.5000     8.0557     7.1039     8.0483   135.2851     2.5091     0.1035     0.0280
  938.0000     7.9577     6.9862     8.0525   134.6596     2.5074     0.1044     0.0280
  938.5000     7.8609     6.8704     8.0568   134.7383     2.5065     0.1053     0.0280
  939.0000     7.7653     6.7566     8.0611   136.1030     2.5058     0.1046     0.0280
  939.5000     7.6708     6.6447     8.0654   136.4525     2.5083     0.1031     0.0280
