~VERSION INFORMATION
 VERS.                2.0:   CWLS LOG ASCII STANDARD - VERSION 2.0
 WRAP.                 NO:   ONE LINE PER DEPTH STEP
~WELL INFORMATION
#MNEM.UNIT      DATA TYPE    INFORMATION
#----------   ------------   ------------------------------
 STRT.F           20.5000:   START DEPTH
 STOP.F          544.0000:   STOP DEPTH
 STEP.F            0.5000:   STEP LENGTH
 NULL.          -999.2500:   NO VALUE
 COMP. LAWRENCE/ALLISON INC:   COMPANY
 WELL.    45-65 SX #10-10:   WELL
 FLD .             TEAPOT:   FIELD
 LOC .      S10 T38N R78W:   LOCATION
 CNTY.            NATRONA:   COUNTY
 STAT.            WYOMING:   STATE
 CTRY. UNITED STATES OF AMERICA:   COUNTRY
 SRVC.            Unknown:   SERVICE COMPANY
 DATE.        01-SEP-1984:   LOGDATE
 API .       490251098400:   API NUMBER
~CURVE INFORMATION
#MNEM.UNIT       API CODE    CURVE DESCRIPTION
#----------   ------------   ------------------------------
 DEPT.F                  :   
 GRD .GAPI   45 310 01 00:   GAMMA RAY FROM DENSITY LOG
 CALD.IN     45 280 60 00:   CALIPER
 DEN .G/C3   45 350 01 00:   COMPENSATED BULK DENSTIY
 CORR.G/C3   45 356 01 00:   DENSITY CORRECTION
 CNC .DEC    42 890 03 00:   NEUTRON POROSITY SANDSTONE
 PORD.DEC    45 890 12 00:   POROSITY DENSITY SANDSTONE
 AC  .US/F   60 520 00 00:   ACOUSTIC SONIC
 SPR .MV     07 010 01 00:   SPONTANEOUS POTENTIAL
 RILD.OHMM   07 120 46 00:   INDUCTION LOG DEEP RESISTIVITY
 RILM.OHMM   07 120 44 00:   INDUCTION LOG MEDIUM RESISTIVITY
 RFOC.OHMM   07 220 04 00:   RESISTIVITY FOCUSED LOG
~PARAMETER INFORMATION
#MNEM.UNIT          VALUE    DESCRIPTION
#----------   ------------   ------------------------------
 PD  .                 GL:   PERMANENT DATUM
 EPD .F              5208:   ELEVATION PERMANENT DATUM
 LMF .                 KB:   LOG MEASURED FROM
 DAPD.F                12:   FEET ABOVE PERMANENT DATUM
 DMF .                 KB:   DRILLING MEASURED FROM
 EKB .F              5220:   KELLING BUSHING
 EGL .F              5208:   GROUND LEVEL
 DATE.        1-SEPT-1984:   RUN DATE
 RUN .                  1:   RUN NUMBER
 DD  .F               550:   DEPTH DRILLER
 DL  .F               544:   DEPTH LOGGER
 BLI .F               544:   BOTTOM LOG INTERVAL
 TLI .F                30:   TOP LOG INTERVAL
 CBL .F                44:   CASING BOTTOM LOGGER
 BS  .IN            7.875:   BIT SIZE
 BSD .F               550:   BIT SIZE AT DEPTH
 DFT .          KCL WATER:   DRILLING FLUID TYPE
 MSS .               TANK:   MUD SAMPLE SOURCE
 RMS .OHMM           .236:   RESISTIVITY MUD SAMPLE
 MST .F                75:   MUD SAMPLE TEMPERATURE
 TCS .HRS               3:   TIME CURCULATED STOPPED
 MRT .F               100:   MAXIMUM RECORDED TEMPERATURE
 LUN .               4082:   LOGGING UNIT NUMBER
 LUL .               ROOS:   LOGGING UNIT LOCATION
 ENGI.             MILLER:   RECORDING ENGINEER
 WITN.            JOHNSON:   WITNESSED BY
 CLNT.            A2DTECH:   CLIENT CODE
 ORIG.       2", 5" PRINT:   ORIGIN OF DATA
 UWI .       490251098400:   UNIQUE WELL ID
 DICO. A2D Technologies, Inc.:   DIGITIZING COMPANY
~OTHER INFORMATION
~A   DEPT      GRD       CALD        DEN       CORR          CNC     PORD         AC        SPR       RILD       RILM       RFOC   
# ...
  356.0000    70.9463     8.1270     2.3601     0.0309     0.2092     0.1913   106.7067   -75.5260    25.7977    23.7791    26.8221
  356.5000    69.7961     8.1246     2.3547     0.0116     0.2130     0.1944   106.5245   -75.7180    25.8574    24.1071    27.2166
  357.0000    68.1743     8.1222     2.3526     0.0177     0.2171     0.1949   106.0044   -75.6308    25.9181    24.4400    27.4634
  357.5000    67.7865     8.1198     2.3523     0.0076     0.2189     0.1956   105.4073   -75.5428    25.9926    24.7758    27.0273
  358.0000    68.7251     8.1174     2.3523    -0.0019     0.2211     0.2004   104.7790   -75.4036    25.7371    25.0437    26.8873
  358.5000    67.7663     8.1151     2.3343     0.0108     0.2249     0.2128   104.9179   -74.9899    25.3103    25.0653    26.7554
  359.0000    66.7684     8.1127     2.3133     0.0305     0.2422     0.2208   105.7456   -74.5334    24.8922    24.1472    26.6251
  359.5000    68.5238     8.1103     2.3087     0.0504     0.2386     0.2143   106.7959   -74.0730    24.4813    22.6875    26.4958
  360.0000    72.0865     8.1079     2.3251     0.0509     0.2516     0.2216   108.9814   -73.6122    23.9251    21.2447    25.4929
  360.5000    75.7929     8.1055     2.3442     0.0392     0.2619     0.1980   111.8911   -73.1515    23.9279    19.8937    24.3410
  361.0000    73.3481     8.1031     2.3523     0.0297     0.2557     0.2120   113.7730   -72.6909    23.3308    18.6677    23.2755
  361.5000    69.4698     8.1011     2.2908     0.0280     0.2601     0.2051   114.9750   -72.2301    22.8568    19.4505    20.6139
  362.0000    66.2448     8.0986     2.1762     0.0704     0.2416     0.2629   112.9978   -71.7706    22.3922    20.4338    18.3252
  362.5000    67.6744     8.1721     2.0634     0.1292     0.2329     0.2494   107.5924   -71.2120    22.1450    21.6253    17.9938
  363.0000    69.2937     8.1171     2.0610     0.1098     0.2398     0.2357   102.6403   -70.5917    21.8063    21.2239    18.7857
  363.5000    69.8733     8.0552     2.1798     0.0864     0.2346     0.2221    98.5250   -69.9704    21.4728    20.7618    20.0684
  364.0000    70.3732     7.9942     2.2778     0.0782     0.2454     0.2085    96.6790   -69.3500    21.1444    20.3097    21.4387
  364.5000    72.6711     7.9331     2.3435     0.0696     0.2306     0.1949    97.6300   -68.7386    20.8210    19.8674    21.8590
  365.0000    75.3936     7.8708     2.3517     0.0640     0.2188     0.1929    98.8591   -67.8170    20.6539    19.4996    21.9313
  365.5000    78.1277     7.8577     2.3631     0.0589     0.2232     0.1936    99.7902   -66.8418    20.7370    19.0058    22.0038
  366.0000    80.6453     7.8560     2.3775     0.0594     0.2256     0.1753    99.5437   -65.8649    20.7935    19.0122    22.0766
  366.5000    80.4105     7.8546     2.3869     0.0596     0.2188     0.1838    99.1058   -64.8888    20.8460    19.3571    22.1497
  367.0000    80.1187     7.8531     2.3758     0.0579     0.2200     0.1837    98.6686   -63.9128    20.7761    19.6819    22.2230
  367.5000    79.8213     7.8516     2.3643     0.0555     0.2200     0.1854    98.3295   -62.9368    20.6759    20.0102    22.2971
  368.0000    80.2441     7.8500     2.3616     0.0317     0.2235     0.1877    98.5843   -61.9608    20.5772    20.3430    22.3703
  368.5000    80.4059     7.8485     2.3665     0.0056     0.2256     0.1870    98.8347   -60.9848    20.4788    20.6817    22.4352
  369.0000    78.4911     7.8470     2.3647     0.0008     0.2192     0.1882    99.0912   -60.0081    20.3805    20.8446    21.9084
  369.5000    75.6225     7.8455     2.3625     0.0193     0.2187     0.1892    99.3581   -59.0334    20.2777    20.5034    21.4490
  370.0000    72.6906     7.8439     2.3602     0.0319     0.2180     0.1892    99.6250   -58.0674    20.2777    20.2497    20.9993
  370.5000    71.9570     7.8424     2.3619     0.0298     0.2173     0.1830    99.7296   -57.7119    20.6227    19.9992    20.5590
  371.0000    73.4226     7.8409     2.3669     0.0279     0.2179     0.1838    99.3959   -57.3718    20.8446    19.7536    20.2777
  371.5000    75.8094     7.8394     2.3765     0.0260     0.2174     0.1853    99.0623   -57.0363    20.0406    19.5432    20.5891
  372.0000    78.3089     7.8379     2.3864     0.0241     0.2184     0.1717    98.5974   -56.7426    19.3673    19.2318    21.0098
  372.5000    77.9126     7.8363     2.3899     0.0269     0.2168     0.1701    97.8865   -56.8722    18.7166    18.9074    21.6253
  373.0000    76.0826     7.8348     2.3916     0.0364     0.2199     0.1695    97.1190   -57.0054    18.0878    18.5896    21.0280
  373.5000    74.2077     7.8333     2.3940     0.0458     0.2232     0.1691    96.3516   -57.1436    17.7051    18.2771    20.0061
  374.0000    74.5909     7.8318     2.3987     0.0552     0.2180     0.1691    95.4483   -57.4650    17.4929    17.9698    18.8323
  374.5000    76.3106     7.8302     2.3962     0.0565     0.2103     0.1623    94.6340   -57.7818    17.2830    17.6660    18.8644
  375.0000    78.0032     7.8287     2.3988     0.0452     0.2061     0.1601    94.3519   -58.0989    17.0757    17.5095    18.9268
  375.5000    79.6991     7.8272     2.4086     0.0340     0.2103     0.1583    94.0568   -57.6815    16.8725    17.3535    18.9894
  376.0000    81.3722     7.8257     2.4164     0.0256     0.2171     0.1679    93.8961   -57.3217    16.7363    17.1989    19.0140
  376.5000    81.4634     7.8242     2.4067     0.0349     0.2261     0.1836    94.8226   -57.3277    16.6024    17.0457    18.2126
  377.0000    80.6767     7.8226     2.3861     0.0476     0.2284     0.1784    96.6161   -57.3265    16.4695    16.8939    17.5763
  377.5000    79.4540     7.8211     2.3656     0.0602     0.2277     0.1898    98.3916   -57.3266    16.3376    16.7433    17.2640
  378.0000    78.2423     7.8196     2.3469     0.0628     0.2313     0.2004    99.6915   -57.3251    16.2068    16.5942    17.0263
  378.5000    77.0267     7.8177     2.3421     0.0490     0.2133     0.1759   100.1898   -57.4028    16.0770    16.4464    17.1098
  379.0000    75.8088     7.8156     2.3686     0.0402     0.2107     0.1804    99.5554   -57.5068    15.9482    16.2998    17.2970
  379.5000    74.5890     7.8136     2.3889     0.0367     0.2127     0.1691    98.9298   -57.6106    15.8205    16.1546    17.4862
  380.0000    73.3820     7.8115     2.3945     0.0332     0.2096     0.1589    98.3595   -57.7239    15.6938    16.0107    17.6660
  380.5000    75.0343     7.8094     2.3974     0.0365     0.1989     0.1497    97.8232   -58.0956    15.5681    15.8681    17.2989
  381.0000    78.4021     7.8074     2.4136     0.0465     0.2020     0.1565    97.2860   -58.4940    15.4434    15.7621    16.9595
  381.5000    81.4610     7.8053     2.4356     0.0564     0.1981     0.1383    96.9449   -58.8951    15.3199    15.5463    16.7181
  382.0000    80.1306     7.8033     2.4530     0.0664     0.2060     0.1507    96.6428   -59.2896    15.1984    15.3334    16.6488
  382.5000    77.4923     7.8012     2.4447     0.0717     0.2105     0.1561    96.5709   -59.4961    15.1081    15.1234    16.5875
  383.0000    75.0401     7.7991     2.4311     0.0648     0.2109     0.1595    96.5352   -59.8346    14.8292    14.9162    16.5710
  383.5000    74.7038     7.7971     2.4175     0.0578     0.2122     0.1494    96.4994   -59.7354    14.5727    14.7120    16.2344
  384.0000    74.9135     7.7950     2.4083     0.0515     0.2180     0.1411    96.3522   -59.4480    14.3222    14.5105    16.0306
  384.5000    75.1347     7.7929     2.4245     0.0609     0.2216     0.1475    96.0005   -59.1573    14.0760    14.3118    15.8322
  385.0000    75.3853     7.7909     2.4432     0.0721     0.2170     0.1411    95.5327   -58.8666    13.8341    14.1158    15.6371
  385.5000    77.0749     7.7888     2.4391     0.0593     0.2200     0.1513    95.0683   -58.5698    13.5963    13.9225    15.3835
  386.0000    79.9819     7.7867     2.4282     0.0397     0.2135     0.1526    94.8545   -58.5541    13.3626    13.7318    15.3986
