~VERSION INFORMATION
 VERS.                2.0:   CWLS LOG ASCII STANDARD - VERSION 2.0
 WRAP.                 NO:   ONE LINE PER DEPTH STEP
~WELL INFORMATION
#MNEM.UNIT      DATA TYPE    INFORMATION
#----------   ------------   ------------------------------
 STRT.F           20.0000:   START DEPTH
 STOP.F          744.0000:   STOP DEPTH
 STEP.F            0.5000:   STEP LENGTH
 NULL.          -999.2500:   NO VALUE
 COMP. FENIX & SCISSON INCORP.:   COMPANY
 WELL.          SX #53-15:   WELL
 FLD .             TEAPOT:   FIELD
 LOC .      S15 T38N R78W:   LOCATION
 CNTY.            NATRONA:   COUNTY
 STAT.            WYOMING:   STATE
 CTRY. UNITED STATES OF AMERICA:   COUNTRY
 SRVC.              Welex:   SERVICE COMPANY
 DATE.        02-MAR-1977:   LOGDATE
 API .       490251030000:   API NUMBER
~CURVE INFORMATION
#MNEM.UNIT       API CODE    CURVE DESCRIPTION
#----------   ------------   ------------------------------
 DEPT.F                  :   
 SGRD.OHMM   07 220 05 00:   SHALLOW RESISTIVITY
 ILD .OHMM   07 120 46 00:   INDUCTION LOG DEEP
 ILM .OHMM   07 120 44 00:   INDUCTION LOG MEDIUM
 SPR .MV     07 010 01 00:   SPONTANEOUS POTENTIAL
 GRD .GAPI   45 310 01 00:   GAMMA RAY FROM DENSITY LOG
 CALD.IN     45 280 60 00:   CALIPER
 RHOB.G/C3   45 350 01 00:   BULK DENSITY
 DPHI.DEC    45 890 10 00:   DENSITY POROSITY SANDSTONE
 CORR.G/C3   45 356 01 00:   DENSITY CORRECTION
~PARAMETER INFORMATION
#MNEM.UNIT          VALUE    DESCRIPTION
#----------   ------------   ------------------------------
 PD  .                 GL:   PERMANENT DATUM
 EPD .F              5253:   ELEVATION PERMANENT DATUM
 LMF .                 GL:   LOG MEASURED FROM
 DMF .                 GL:   DRILLING MEASURED FROM
 EGL .F              5253:   GROUND LEVEL
 DATE.             3-2-77:   RUN DATE
 RUN .                  1:   RUN NUMBER
 DD  .F               750:   DEPTH DRILLER
 DL  .F               747:   DEPTH LOGGER
 BLI .F               745:   BOTTOM LOG INTERVAL
 TLI .F                44:   TOP LOG INTERVAL
 CS  .IN            8.625:   CASING SIZE
 CBD .F                40:   CASING BOTTOM DRILLER
 CBL .F                44:   CASING BOTTOM LOGGER
 BS  .IN            7.875:   BIT SIZE
 BSD .F               750:   BIT SIZE AT DEPTH
 DFT .           CHEM-GEL:   DRILLING FLUID TYPE
 MSS .          FLOW LINE:   MUD SAMPLE SOURCE
 RMS .OHMM           .425:   RESISTIVITY MUD SAMPLE
 MST .F                56:   MUD SAMPLE TEMPERATURE
 RMF .OHMM           .436:   RESISTIVITY MUD FILTRATE SAMPLE
 MFST.F                56:   MUD FILTRATE SAMPLE TEMPERATURE
 RMC .OHMM           .712:   RESISTIVITY MUD CAKE
 MCST.F                56:   MUD CAKE SAMPLE TEMPERATURE
 MFSS.           MEASURED:   MUD FILTRATE SAMPLE SOURCE
 MCSS.           MEASURED:   MUD CAKE SAMPLE SOURCE
 RMB .OHMM            .35:   RESISTIVITY MUD AT BHT
 BHT .F                68:   BOTTOM HOLE TEMPERATURE
 TCS .HRS               2:   TIME CURCULATED STOPPED
 MRT .F                68:   MAXIMUM RECORDED TEMPERATURE
 LUN .               8611:   LOGGING UNIT NUMBER
 LUL .           GILLETTE:   LOGGING UNIT LOCATION
 ENGI.          D. LAWSON:   RECORDING ENGINEER
 WITN.           S. BURKE:   WITNESSED BY
 CLNT.            A2DTECH:   CLIENT CODE
 ORIG.        2" 5" PRINT:   ORIGIN OF DATA
 UWI .       490251030000:   UNIQUE WELL ID
 DICO. A2D Technologies, Inc.:   DIGITIZING COMPANY
~OTHER INFORMATION
~A   DEPT     SGRD        ILD        ILM        SPR         GRD      CALD         RHOB       DPHI      CORR  
# ...
  567.5000    18.5924    14.1912    17.4489   -28.4187    89.1482     8.4481     2.4106     0.1406     0.0780
  568.0000    18.5383    14.2273    17.3541   -28.4116    88.8785     8.4455     2.4095     0.1429     0.0766
  568.5000    18.4843    14.2636    17.2597   -28.4044    91.8266     8.4427     2.4081     0.1442     0.0751
  569.0000    18.4305    14.2999    17.1658   -28.3973    95.2492     8.4399     2.4065     0.1444     0.0737
  569.5000    18.3768    14.3362    17.0723   -28.3902    97.2933     8.4372     2.4003     0.1479     0.0723
  570.0000    18.3233    14.3728    17.0227   -28.3830    97.6073     8.4344     2.3935     0.1529     0.0709
  570.5000    18.2700    14.4221    17.0226   -28.3759    95.5556     8.4316     2.3864     0.1573     0.0699
  571.0000    18.2168    14.3413    17.0227   -28.3688    93.5576     8.4268     2.3837     0.1580     0.0702
  571.5000    18.1638    14.2181    17.0228   -28.3624    92.4085     8.4188     2.3823     0.1587     0.0705
  572.0000    18.1109    14.0960    17.0228   -28.3124    92.4714     8.4110     2.3837     0.1573     0.0708
  572.5000    18.0581    13.9750    17.0228   -28.2477    92.6137     8.4031     2.3880     0.1540     0.0711
  573.0000    18.0056    13.8550    17.0228   -28.1828    93.6993     8.3952     2.3923     0.1511     0.0713
  573.5000    17.9532    13.7360    17.0228   -28.1178    94.7452     8.3873     2.3965     0.1493     0.0716
  574.0000    17.9009    13.6181    17.0235   -28.0529    94.2848     8.3794     2.3994     0.1477     0.0718
  574.5000    17.8488    13.5011    17.0288   -27.9881    93.8404     8.3713     2.3955     0.1494     0.0701
  575.0000    17.7968    13.3852    16.7892   -27.9232    95.1635     8.3767     2.3918     0.1513     0.0666
  575.5000    17.7448    13.2702    16.5035   -27.8583    96.5470     8.3849     2.3887     0.1532     0.0630
  576.0000    17.6926    13.1563    16.1076   -27.7934    97.4961     8.3933     2.3908     0.1549     0.0600
  576.5000    17.6616    13.0433    16.3754   -27.7285    96.7160     8.4016     2.3930     0.1502     0.0629
  577.0000    17.7768    12.9313    16.8433   -27.6636    95.2981     8.4100     2.3950     0.1484     0.0657
  577.5000    17.8604    12.7947    17.3392   -27.5987    93.8731     8.4182     2.3949     0.1507     0.0648
  578.0000    17.9445    12.9048    17.3392   -27.5338    92.9762     8.4265     2.3886     0.1538     0.0635
  578.5000    18.0289    13.0484    17.3392   -27.4689    92.9881     8.4210     2.3822     0.1569     0.0622
  579.0000    18.1138    13.1945    17.0228   -27.4040    92.9907     8.4062     2.3813     0.1597     0.0610
  579.5000    18.1990    13.3421    14.3979   -27.3391    92.9668     8.3914     2.3826     0.1590     0.0609
  580.0000    18.3244    13.4913    14.2341   -27.2742    92.2141     8.3763     2.3860     0.1572     0.0630
  580.5000    18.2602    13.6421    14.1589   -27.2095    91.4349     8.3808     2.3909     0.1528     0.0643
  581.0000    18.1413    13.7946    14.1586   -27.1737    90.8775     8.3987     2.3995     0.1484     0.0656
  581.5000    18.0230    13.9488    14.1589   -27.1740    91.5898     8.4168     2.4078     0.1436     0.0668
  582.0000    17.9050    14.1047    14.1589   -27.1739    93.2212     8.4349     2.4160     0.1378     0.0681
  582.5000    17.7887    14.2624    14.1589   -27.1739    93.3597     8.4531     2.4299     0.1325     0.0694
  583.0000    17.6616    14.4219    14.1589   -27.1739    93.2562     8.4712     2.4433     0.1277     0.0707
  583.5000    17.9890    14.5831    14.1621   -27.1739    93.4871     8.4894     2.4567     0.1233     0.0719
  584.0000    18.4655    14.7461    14.1570   -27.1740    91.8554     8.5075     2.4707     0.1195     0.0732
  584.5000    19.0099    14.9634    14.1589   -27.1739    90.9830     8.5257     2.4706     0.1169     0.0718
  585.0000    18.6293    14.8301    13.2342   -27.1684    91.6799     8.5438     2.4552     0.1162     0.0677
  585.5000    18.2092    14.6374    12.2621   -27.1398    91.3454     8.5620     2.4404     0.1254     0.0636
  586.0000    17.7971    14.4472    11.7226   -27.1117    90.2466     8.5703     2.4258     0.1325     0.0595
  586.5000    17.3944    14.2595    11.6082   -27.0837    89.2234     8.5711     2.4186     0.1355     0.0560
  587.0000    17.1803    14.0742    11.4949   -27.0557    88.1944     8.5719     2.4244     0.1320     0.0574
  587.5000    17.2004    13.8913    11.2670   -27.0277    88.4725     8.5726     2.4362     0.1258     0.0589
  588.0000    17.2142    13.7108    10.9403   -26.9997    90.3555     8.5733     2.4332     0.1291     0.0597
  588.5000    17.2281    13.5327    11.4589   -26.9717    92.2691     8.5740     2.4272     0.1349     0.0587
  589.0000    17.2419    13.3569    12.1059   -26.9437    94.1589     8.5748     2.4211     0.1369     0.0577
  589.5000    17.2558    13.1833    12.7895   -26.9157    96.1428     8.5755     2.4147     0.1382     0.0568
  590.0000    17.2696    13.0120    12.9131   -26.8877    93.4883     8.5762     2.4145     0.1385     0.0559
  590.5000    17.2835    12.8429    12.1092   -26.8598    88.7309     8.5770     2.4148     0.1388     0.0550
  591.0000    17.2974    12.6761    11.4869   -26.8318    86.5525     8.5777     2.4151     0.1391     0.0540
  591.5000    17.3112    12.5113    10.8958   -26.8037    86.6704     8.5784     2.4153     0.1394     0.0531
  592.0000    17.3252    12.3487    10.4479   -26.7757    87.3685     8.5792     2.4149     0.1397     0.0521
  592.5000    17.3631    12.1884    11.4020   -26.7477    88.1226     8.5799     2.4139     0.1381     0.0525
  593.0000    17.3502    12.0289    12.4475   -26.7197    88.8729     8.5806     2.4138     0.1364     0.0538
  593.5000    17.0409    11.9686    13.5890   -26.6917    89.6234     8.5813     2.4231     0.1346     0.0550
  594.0000    16.8646    11.9338    14.8351   -26.6638    90.2460     8.5821     2.4325     0.1311     0.0566
  594.5000    16.6900    11.8992    15.9745   -26.6358    90.7485     8.5828     2.4440     0.1238     0.0594
  595.0000    16.5173    11.8647    16.0617   -26.6078    91.9143     8.5835     2.4552     0.1164     0.0622
  595.5000    16.4070    11.8302    16.1519   -26.5798    93.6915     8.5843     2.4664     0.1143     0.0649
  596.0000    16.6636    11.7959    16.2403   -26.5518    95.5213     8.5850     2.4709     0.1146     0.0677
  596.5000    16.8554    11.7617    16.3294   -26.5238    96.2047     8.5857     2.4634     0.1148     0.0667
  597.0000    17.0494    11.7275    16.4070   -26.4958    97.0932     8.5864     2.4671     0.1143     0.0653
  597.5000    17.1803    11.6935    16.1950   -26.4678    98.0594     8.5872     2.4710     0.1129     0.0640
  598.0000    16.7986    11.6595    16.0107   -26.4398    97.4531     8.5879     2.4720     0.1119     0.0655
  598.5000    16.5177    11.6256    15.8136   -26.4118    96.8052     8.5886     2.4729     0.1114     0.0674
  599.0000    16.1076    11.5921    15.9940   -26.3838    97.4999     8.5895     2.4739     0.1109     0.0693
  599.5000    16.6180    11.5621    16.1931   -26.3558    98.4979     8.5897     2.4750     0.1103     0.0711
  600.0000    17.6681    11.5987    16.3946   -26.3278   100.1051     8.5582     2.4685     0.1134     0.0730
  600.5000    19.3656    11.6323    16.5986   -26.2998   102.4109     8.5227     2.4593     0.1179     0.0749
  601.0000    18.9213    11.6659    16.8667   -26.2718   103.0290     8.4873     2.4518     0.1212     0.0758
  601.5000    18.0680    11.6995    16.7269   -26.2438   103.3509     8.4518     2.4447     0.1239     0.0758
  602.0000    17.5627    11.7333    16.4535   -26.2158    99.8450     8.4166     2.4381     0.1266     0.0759
  602.5000    17.3693    11.7672    16.1076   -26.1878    94.3877     8.3892     2.4334     0.1292     0.0759
  603.0000    17.1777    11.8011    16.1958   -26.1598    93.0770     8.3900     2.4287     0.1319     0.0759
  603.5000    16.9883    11.8351    16.3209   -26.1318    93.1604     8.3900     2.4240     0.1345     0.0759
