~VERSION INFORMATION
 VERS.                2.0:   CWLS LOG ASCII STANDARD - VERSION 2.0
 WRAP.                 NO:   ONE LINE PER DEPTH STEP
~WELL INFORMATION
#MNEM.UNIT      DATA TYPE    INFORMATION
#----------   ------------   ------------------------------
 STRT.F           66.0000:   START DEPTH
 STOP.F         1030.5000:   STOP DEPTH
 STEP.F            0.5000:   STEP LENGTH
 NULL.          -999.2500:   NO VALUE
 COMP. U S NAVY/INTEX OIL CO:   COMPANY
 WELL.      NRP-3 #68S-11:   WELL
 FLD .             TEAPOT:   FIELD
 LOC .      S11 T38N R78W:   LOCATION
 CNTY.            NATRONA:   COUNTY
 STAT.            WYOMING:   STATE
 CTRY. UNITED STATES OF AMERICA:   COUNTRY
 SRVC.       Schlumberger:   SERVICE COMPANY
 DATE.        07-JUL-1962:   LOGDATE
 API .       490250632700:   API NUMBER
~CURVE INFORMATION
#MNEM.UNIT       API CODE    CURVE DESCRIPTION
#----------   ------------   ------------------------------
 DEPT.F                  :   
 SPR .MV     05 010 01 00:   SPONTANEOUS POTENTIAL FROM RES.
 ASN .OHMM   05 041 16 00:   AMPLIFIED SHORT NORMAL 16"
 ILD .OHMM   05 120 46 00:   INDUCTION LOG DEEP
 CILD.MMHO   05 110 46 00:   CONDUCTIVITY INDUCTION LOG DEEP
 GRN .GAPI   35 310 30 00:   GAMMA RAY
 GR  .GAPI   81 310 01 00:   GAMMA RAY
~PARAMETER INFORMATION
#MNEM.UNIT          VALUE    DESCRIPTION
#----------   ------------   ------------------------------
 LMF .                 KB:   LOG MEASURED FROM
 DMF .                 KB:   DRILLING MEASURED FROM
 EKB .F              5226:   KELLING BUSHING
 EGL .F              5221:   GROUND LEVEL
 DATE.           7-7-1962:   RUN DATE
 RUN .                  1:   RUN NUMBER
 DD  .F              1030:   DEPTH DRILLER
 DL  .F              1031:   DEPTH LOGGER
 BLI .F              1030:   BOTTOM LOG INTERVAL
 TLI .F                90:   TOP LOG INTERVAL
 CBD .F                10:   CASING BOTTOM DRILLER
 BS  .IN             6.75:   BIT SIZE
 BSD .F              1030:   BIT SIZE AT DEPTH
 DFT .            GEL-OIL:   DRILLING FLUID TYPE
 DFD .               10.2:   DRILLING FLUID DENSITY
 DFV .                 50:   DRILLING FLUID VISCOSITY
 DFL .                3.6:   DRILLING FLUID LOSS
 RMS .OHMM           5.06:   RESISTIVITY MUD SAMPLE
 MST .F                71:   MUD SAMPLE TEMPERATURE
 RMF .OHMM           4.89:   RESISTIVITY MUD FILTRATE SAMPLE
 MFST.F                71:   MUD FILTRATE SAMPLE TEMPERATURE
 RMC .OHMM           4.85:   RESISTIVITY MUD CAKE
 MCST.F                71:   MUD CAKE SAMPLE TEMPERATURE
 MFSS.                  M:   MUD FILTRATE SAMPLE SOURCE
 MCSS.                  M:   MUD CAKE SAMPLE SOURCE
 RMB .OHMM           4.54:   RESISTIVITY MUD AT BHT
 BHT .F                82:   BOTTOM HOLE TEMPERATURE
 TCS .HRS               1:   TIME CURCULATED STOPPED
 MRT .F                82:   MAXIMUM RECORDED TEMPERATURE
 LUN .               2503:   LOGGING UNIT NUMBER
 LUL .              CSPR.:   LOGGING UNIT LOCATION
 ENGI.             KNOBEL:   RECORDING ENGINEER
 WITN.          JORGENSEN:   WITNESSED BY
 CLNT.            A2DTECH:   CLIENT CODE
 ORIG.      2" & 5" PRINT:   ORIGIN OF DATA
 UWI .       490250632700:   UNIQUE WELL ID
 DICO. A2D Technologies, Inc.:   DIGITIZING COMPANY
~OTHER INFORMATION
~A   DEPT      SPR        ASN        ILD       CILD        GRN          GR  
# ...
  482.0000   -43.3201    13.2280    12.7201    82.1891  -999.2500   114.7825
  482.5000   -43.5512    13.4104    12.9554    80.9261  -999.2500   115.2001
  483.0000   -43.7821    13.5926    13.0577    79.6631  -999.2500   117.4227
  483.5000   -44.0133    13.7747    13.1629    78.3748  -999.2500   119.4530
  484.0000   -44.2430    13.9569    13.2665    77.0788  -999.2500   119.1553
  484.5000   -44.6405    14.1494    13.4780    75.7828  -999.2500   118.1617
  485.0000   -45.1638    14.3836    13.7701    74.4868  -999.2500   113.9240
  485.5000   -45.6879    14.6197    14.0620    73.1908  -999.2500   113.2807
  486.0000   -46.2886    14.8558    14.3509    71.8949  -999.2500   116.8168
  486.5000   -47.2742    15.0917    14.5883    70.5985  -999.2500   120.4321
  487.0000   -48.2657    15.3277    14.8297    69.3007  -999.2500   121.2725
  487.5000   -49.2593    15.5639    15.0715    68.0129  -999.2500   120.9427
  488.0000   -50.2665    15.7997    15.3131    66.9330  -999.2500   119.7031
  488.5000   -50.7210    16.0380    15.5547    66.0413  -999.2500   117.4249
  489.0000   -50.3341    16.2595    15.7966    65.1496  -999.2500   115.4860
  489.5000   -49.2592    16.4961    16.0437    64.2579  -999.2500   118.2353
  490.0000   -48.1683    16.9235    16.2323    63.3662  -999.2500   121.2440
  490.5000   -47.0818    17.3738    16.4114    62.4746  -999.2500   118.6917
  491.0000   -45.9943    17.3578    16.5904    61.5829  -999.2500   113.4479
  491.5000   -44.8984    17.3120    16.5999    60.6912  -999.2500   107.9748
  492.0000   -43.7724    17.2681    16.5996    61.1283  -999.2500   105.6800
  492.5000   -45.0624    17.2250    16.5963    62.0483  -999.2500   113.4592
  493.0000   -46.8633    17.1641    16.4343    62.9683  -999.2500   118.2976
  493.5000   -48.6692    17.0639    16.2567    63.8883  -999.2500   117.3109
  494.0000   -50.4499    16.9042    16.0538    64.8083  -999.2500   114.5083
  494.5000   -51.6997    16.6098    15.7155    65.7282  -999.2500   115.0407
  495.0000   -51.0758    16.3158    15.3698    66.6482  -999.2500   117.9491
  495.5000   -50.4808    16.0139    15.1696    67.5682  -999.2500   119.5377
  496.0000   -50.4944    15.8160    15.0937    68.4896  -999.2500   117.9428
  496.5000   -50.4978    15.6120    15.0204    69.4163  -999.2500   118.7390
  497.0000   -50.4828    15.4992    14.9475    70.4046  -999.2500   123.1625
  497.5000   -49.9892    15.3880    14.8747    69.6099  -999.2500   127.6400
  498.0000   -48.8600    15.2760    14.8018    68.7332  -999.2500   128.3743
  498.5000   -47.7350    15.1641    14.7323    67.8565  -999.2500   119.8913
  499.0000   -46.7404    15.0521    14.3562    69.0951  -999.2500   112.3189
  499.5000   -47.1714    14.9453    13.8628    72.4071  -999.2500   109.9559
  500.0000   -47.5854    14.3790    13.1645    76.4495  -999.2500   113.9567
  500.5000   -48.0296    13.6125    11.9744    87.0516  -999.2500   121.0867
  501.0000   -47.6772    12.6517    10.7794    97.6538  -999.2500   122.4419
  501.5000   -46.1829    11.5861     9.7916   108.2559  -999.2500   120.3020
  502.0000   -43.4418    10.5354     8.8885   121.7395  -999.2500   115.8776
  502.5000   -40.4584     9.0357     7.9679   136.3454  -999.2500   111.6942
  503.0000   -38.6400     8.1066     7.2319   148.7013  -999.2500   109.8550
  503.5000   -37.0781     7.6139     6.9422   157.0243  -999.2500   113.3871
  504.0000   -36.1777     7.1454     6.6714   163.8407  -999.2500   116.5708
  504.5000   -35.8315     6.9797     6.4752   169.7002  -999.2500   113.6539
  505.0000   -36.0174     6.9183     6.3678   167.9538  -999.2500   110.6108
  505.5000   -36.1972     6.9225     6.4451   166.2211  -999.2500   107.8266
  506.0000   -36.3797     6.9559     6.5188   164.4710  -999.2500   109.9435
  506.5000   -36.2906     6.9893     6.5932   162.7379  -999.2500   112.2603
  507.0000   -36.1432     7.0223     6.6679   161.7286  -999.2500   114.5118
  507.5000   -35.9942     7.0341     6.7395   161.2826  -999.2500   118.8063
  508.0000   -35.8461     7.0100     6.7290   160.8294  -999.2500   124.0684
  508.5000   -35.6990     6.9168     6.7147   160.3722  -999.2500   129.4490
  509.0000   -35.6467     6.8084     6.7007   159.5404  -999.2500   130.4990
  509.5000   -35.7220     6.7150     6.6867   157.2642  -999.2500   129.6754
  510.0000   -35.7958     6.7194     6.6728   155.0332  -999.2500   128.7141
  510.5000   -35.8702     6.7956     6.6586   155.0332  -999.2500   123.6719
  511.0000   -35.9449     6.8827     6.6427   155.0332  -999.2500   118.0478
  511.5000   -36.0070     6.9702     6.7220   155.0332  -999.2500   112.3363
  512.0000   -35.9212     6.9888     6.8173   155.0307  -999.2500   110.2492
  512.5000   -35.8355     6.9950     6.9127   155.0202  -999.2500   112.1734
  513.0000   -35.7506     7.0017     7.0109   155.0332  -999.2500   114.0443
  513.5000   -35.6659     6.9738     6.9468   157.5853  -999.2500   115.8745
  514.0000   -35.5811     6.9324     6.8087   160.0028  -999.2500   116.6019
  514.5000   -35.4964     6.8153     6.6683   162.4203  -999.2500   111.5129
  515.0000   -35.4116     6.7121     6.5278   164.8379  -999.2500   106.5143
  515.5000   -35.3269     6.6663     6.3856   167.2554  -999.2500   101.4999
  516.0000   -35.2420     6.6207     6.3471   169.2139  -999.2500   100.3195
  516.5000   -35.1572     6.5747     6.3980   170.0805  -999.2500   101.4546
  517.0000   -35.0740     6.5281     6.4486   170.9228  -999.2500   100.4588
  517.5000   -35.0672     6.5569     6.4988   168.7983  -999.2500    99.6166
  518.0000   -35.1996     6.5926     6.5488   167.2169  -999.2500   100.7074
  518.5000   -35.3298     6.6280     6.5988   165.6355  -999.2500   105.8317
  519.0000   -35.4609     6.6944     6.6587   164.0475  -999.2500   111.2844
  519.5000   -35.5946     6.7892     6.7752   162.3107  -999.2500   116.5893
  520.0000   -35.5526     6.8844     6.8934   160.1990  -999.2500   122.1248
  520.5000   -35.4761     6.9796     7.0143   158.1006  -999.2500   122.2907
  521.0000   -35.3987     6.9998     7.0759   155.9998  -999.2500   120.7057
  521.5000   -35.3217     7.0159     7.1232   153.8977  -999.2500   119.0806
  522.0000   -35.2448     7.0329     7.1700   151.8070  -999.2500   119.8554
  522.5000   -35.1679     7.0778     7.2168   150.0414  -999.2500   120.7818
  523.0000   -35.0910     7.1747     7.2638   150.0535  -999.2500   120.3176
  523.5000   -35.0140     7.2708     7.3109   148.8793  -999.2500   117.0780
  524.0000   -34.9371     7.3670     7.3744   146.8221  -999.2500   113.8924
  524.5000   -34.8607     7.4626     7.4658   144.7693  -999.2500   111.2761
  525.0000   -34.8514     7.5319     7.5570   142.7287  -999.2500   112.4755
  525.5000   -34.9123     7.5575     7.6489   141.3771  -999.2500   113.6829
  526.0000   -34.9726     7.5837     7.7328   142.7543  -999.2500   114.5479
  526.5000   -35.0333     7.6100     7.6578   144.1314  -999.2500   115.1694
  527.0000   -35.0941     7.6372     7.5768   145.5085  -999.2500   118.5974
  527.5000   -35.1555     7.5998     7.4965   146.8857  -999.2500   121.7796
  528.0000   -35.2139     7.5099     7.4165   148.2628  -999.2500   117.7560
  528.5000   -35.1193     7.3991     7.3384   149.6399  -999.2500   112.9162
  529.0000   -35.0128     7.2879     7.2685   151.0170  -999.2500   108.7028
  529.5000   -34.9077     7.1811     7.2001   152.0465  -999.2500   111.6345
  530.0000   -34.8465     7.1052     7.1319   152.0465  -999.2500   116.1475
  530.5000   -35.0175     7.0328     7.0626   152.0465  -999.2500   120.4124
  531.0000   -35.1876     7.0424     7.0533   152.0465  -999.2500   121.1328
  531.5000   -35.1986     7.1263     7.0707   152.0465  -999.2500   121.9344
  532.0000   -35.1485     7.3585     7.0886   152.0465  -999.2500   122.1185
  532.5000   -35.0983     7.5770     7.1066   152.0465  -999.2500   118.2160
  533.0000   -35.0488     7.5535     7.1244   152.0465  -999.2500   114.8141
  533.5000   -35.0421     7.5252     7.1422   152.0465  -999.2500   117.0169
