~VERSION INFORMATION
 VERS.                2.0:   CWLS LOG ASCII STANDARD - VERSION 2.0
 WRAP.                 NO:   ONE LINE PER DEPTH STEP
~WELL INFORMATION
#MNEM.UNIT      DATA TYPE    INFORMATION
#----------   ------------   ------------------------------
 STRT.F           30.0000:   START DEPTH
 STOP.F          506.0000:   STOP DEPTH
 STEP.F            0.5000:   STEP LENGTH
 NULL.          -999.2500:   NO VALUE
 COMP. FENIX & SCISSON INC:   COMPANY
 WELL.    42 SX-3F1 #55-3:   WELL
 FLD .             TEAPOT:   FIELD
 LOC .       S3 T38N R78W:   LOCATION
 CNTY.            NATRONA:   COUNTY
 STAT.            WYOMING:   STATE
 CTRY. UNITED STATES OF AMERICA:   COUNTRY
 SRVC.              Welex:   SERVICE COMPANY
 DATE.        26-MAY-1980:   LOGDATE
 API .       490251082900:   API NUMBER
~CURVE INFORMATION
#MNEM.UNIT       API CODE    CURVE DESCRIPTION
#----------   ------------   ------------------------------
 DEPT.F                  :   
 GRD .GAPI   45 310 01 00:   GAMMA RAY FROM DENSITY LOG
 CALD.IN     45 280 60 00:   CALIPER
 RHOB.G/C3   45 350 01 00:   BULK DENSITY
 CORR.G/C3   45 356 01 00:   DENSITY CORRECTION
 DPHI.DEC    45 890 12 00:   DENSITY POROSITY SANDSTONE
 NPHI.DEC    42 890 03 00:   NEUTRON POROSITY SANDSTONE
 GURD.OHMM   07 220 05 00:   GUARD RESISTIVITY
 ILD .OHMM   07 120 46 00:   INDUCTION LOG DEEP
 ILM .OHMM   07 120 44 00:   INDUCTION LOG MEDIUM
 SPR .MV     07 010 01 00:   SPONTANEOUS POTENTIAL
~PARAMETER INFORMATION
#MNEM.UNIT          VALUE    DESCRIPTION
#----------   ------------   ------------------------------
 PD  .                 GL:   PERMANENT DATUM
 EPD .F              5161:   ELEVATION PERMANENT DATUM
 LMF .                 KB:   LOG MEASURED FROM
 DAPD.F                 4:   FEET ABOVE PERMANENT DATUM
 DMF .                 KB:   DRILLING MEASURED FROM
 EKB .F              5165:   KELLING BUSHING
 EGL .F              5161:   GROUND LEVEL
 DATE.            5-26-80:   RUN DATE
 RUN .                  1:   RUN NUMBER
 DD  .F               500:   DEPTH DRILLER
 DL  .F               502:   DEPTH LOGGER
 BLI .F               500:   BOTTOM LOG INTERVAL
 TLI .F                34:   TOP LOG INTERVAL
 BS  .IN            9.875:   BIT SIZE
 BSD .F               500:   BIT SIZE AT DEPTH
 DFT .          KCL WATER:   DRILLING FLUID TYPE
 DFD .                9.5:   DRILLING FLUID DENSITY
 DFV .                 45:   DRILLING FLUID VISCOSITY
 MSS .            MUD PIT:   MUD SAMPLE SOURCE
 RMS .OHMM            .39:   RESISTIVITY MUD SAMPLE
 MST .F                75:   MUD SAMPLE TEMPERATURE
 RMF .OHMM           .312:   RESISTIVITY MUD FILTRATE SAMPLE
 MFST.F                75:   MUD FILTRATE SAMPLE TEMPERATURE
 RMC .OHMM           .468:   RESISTIVITY MUD CAKE
 MCST.F                75:   MUD CAKE SAMPLE TEMPERATURE
 MFSS.           MEASURED:   MUD FILTRATE SAMPLE SOURCE
 MCSS.           MEASURED:   MUD CAKE SAMPLE SOURCE
 RMB .OHMM            .39:   RESISTIVITY MUD AT BHT
 BHT .F                75:   BOTTOM HOLE TEMPERATURE
 TCS .HRS               2:   TIME CURCULATED STOPPED
 MRT .F                75:   MAXIMUM RECORDED TEMPERATURE
 LUN .               9685:   LOGGING UNIT NUMBER
 LUL .             CASPER:   LOGGING UNIT LOCATION
 ENGI.            TOTHILL:   RECORDING ENGINEER
 WITN.            RHOADES:   WITNESSED BY
 CLNT.            A2DTECH:   CLIENT CODE
 ORIG.           5" PRINT:   ORIGIN OF DATA
 UWI .       490251082900:   UNIQUE WELL ID
 DICO. A2D Technologies, Inc.:   DIGITIZING COMPANY
~OTHER INFORMATION
~A   DEPT      GRD       CALD       RHOB       CORR         DPHI       NPHI      GURD        ILD        ILM       SPR   
# ...
  298.0000    69.5051     9.8075     2.3267     0.0686     0.2014     0.2544    28.2119    23.9177    14.7015   -26.8081
  298.5000    68.3045     9.8039     2.3412     0.0765     0.1917     0.2589    27.9543    23.1819    15.1053   -26.7022
  299.0000    69.0737     9.8004     2.3585     0.0902     0.1848     0.2621    31.4950    22.5180    15.3972   -26.5963
  299.5000    70.0713     9.7953     2.3713     0.0887     0.1719     0.2644    28.6112    21.8732    15.0374   -26.4904
  300.0000    71.1004     9.7646     2.3907     0.0821     0.1534     0.2592    24.5147    21.2469    14.7624   -26.3845
  300.5000    71.2565     9.7347     2.4142     0.0900     0.1574     0.2505    23.5446    20.6385    14.4924   -26.2787
  301.0000    71.3584     9.7050     2.4209     0.0880     0.1781     0.2474    23.2684    20.3491    14.2274   -26.1728
  301.5000    71.6043     9.6753     2.4016     0.0671     0.1658     0.2439    25.0403    20.1878    14.0489   -26.0645
  302.0000    72.6705     9.6450     2.3779     0.0400     0.1585     0.2404    22.8454    20.0279    14.3809   -25.9422
  302.5000    73.7390     9.6360     2.4096     0.0571     0.1495     0.2398    23.7350    19.8692    14.6384   -25.8104
  303.0000    74.8181     9.6319     2.4228     0.0598     0.1450     0.2407    25.2711    19.7117    14.7084   -25.6787
  303.5000    75.0004     9.6279     2.4381     0.0706     0.1651     0.2418    23.2090    19.5465    14.9232   -25.5469
  304.0000    75.0031     9.6238     2.4344     0.0491     0.1785     0.2416    22.4301    19.6362    15.3303   -25.4147
  304.5000    74.9963     9.6192     2.3830     0.0294     0.1690     0.2398    29.0060    19.7316    15.6838   -25.2775
  305.0000    75.2407     9.6418     2.3973     0.0449     0.1674     0.2359    33.2771    19.8279    15.4081   -25.3224
  305.5000    75.5910     9.6678     2.4012     0.0444     0.1549     0.2306    28.3393    19.9244    15.1729   -25.4160
  306.0000    75.9413     9.6939     2.4162     0.0625     0.1471     0.2293    25.3954    20.0215    14.9413   -25.5100
  306.5000    76.1876     9.7198     2.4337     0.0875     0.1471     0.2307    23.9177    20.1190    14.8439   -25.6067
  307.0000    76.1828     9.7462     2.4311     0.0976     0.1591     0.2348    24.8116    20.2173    14.8439   -25.4828
  307.5000    76.1830     9.7334     2.4133     0.0828     0.1637     0.2402    23.5908    20.2927    14.8439   -25.2098
  308.0000    76.1787     9.6915     2.4048     0.0886     0.1619     0.2421    22.5899    20.3338    15.0482   -24.9330
  308.5000    76.3717     9.6490     2.4090     0.0964     0.1747     0.2398    22.3506    20.3746    15.2581   -24.6748
  309.0000    76.6083     9.6064     2.3926     0.0784     0.1793     0.2396    22.1139    20.4157    15.1072   -24.8388
  309.5000    76.8436     9.6088     2.3786     0.0581     0.1715     0.2445    21.0350    20.4638    15.0004   -25.0209
  310.0000    77.0950     9.6541     2.3892     0.0365     0.1559     0.2489    22.0560    20.3838    14.6097   -25.2010
  310.5000    77.7271     9.6985     2.4064     0.0436     0.1592     0.2509    23.0560    20.2521    14.1784   -25.3824
  311.0000    78.3537     9.7427     2.4184     0.0595     0.1654     0.2512    22.1617    20.1222    14.1784   -25.4467
  311.5000    78.9779     9.7863     2.4081     0.0533     0.1674     0.2503    21.5121    19.9930    14.1301   -25.4478
  312.0000    79.6013     9.8139     2.3981     0.0387     0.1610     0.2489    21.0518    19.8647    13.9278   -25.4477
  312.5000    80.2164     9.8034     2.3995     0.0425     0.1552     0.2449    20.6010    19.7372    13.7284   -25.4476
  313.0000    80.5095     9.8027     2.4151     0.0569     0.1479     0.2426    20.2707    19.6105    13.5428   -25.4476
  313.5000    80.1645     9.8200     2.4218     0.0660     0.1479     0.2441    21.1744    19.4847    13.6676   -25.4476
  314.0000    79.8284     9.8347     2.4326     0.0782     0.1634     0.2429    21.8212    19.3680    13.4893   -25.4476
  314.5000    79.4768     9.8005     2.4341     0.0772     0.1649     0.2413    20.3170    19.2679    13.2966   -25.4476
  315.0000    79.9939     9.7646     2.4090     0.0557     0.1610     0.2382    19.7267    19.1745    13.2964   -25.4476
  315.5000    80.6674     9.7417     2.4009     0.0402     0.1618     0.2340    19.7267    19.0816    13.2964   -25.4476
  316.0000    81.3449     9.7641     2.4139     0.0540     0.1570     0.2330    19.7267    18.9891    13.2958   -25.4476
  316.5000    82.0221     9.7852     2.4071     0.0640     0.1539     0.2359    19.9508    18.8971    13.2980   -25.4476
  317.0000    82.6966     9.8065     2.4185     0.0658     0.1645     0.2383    20.2880    18.8056    13.1144   -25.4477
  317.5000    83.2983     9.8164     2.4225     0.0809     0.1698     0.2348    20.6505    18.6702    12.9939   -25.4473
  318.0000    83.4099     9.8166     2.4062     0.0706     0.1759     0.2330    20.3946    18.7154    12.8745   -25.4228
  318.5000    83.5741     9.8165     2.3988     0.0584     0.1839     0.2334    20.0893    18.8037    12.7004   -25.3394
  319.0000    83.7415     9.8163     2.3923     0.0560     0.1921     0.2355    20.0939    18.8924    12.8241   -25.2569
  319.5000    83.9089     9.8179     2.3759     0.0421     0.2032     0.2377    20.0916    18.9816    13.0548   -25.1747
  320.0000    84.0761     9.8582     2.3645     0.0281     0.1991     0.2368    20.0919    19.0712    12.4696   -25.0922
  320.5000    84.2444     9.9006     2.3526     0.0142     0.1922     0.2344    20.2136    19.1612    12.6720   -25.0741
  321.0000    84.4072     9.9100     2.3427     0.0126     0.1877     0.2326    20.3789    19.2516    12.9501   -25.1305
  321.5000    84.8043     9.8991     2.3525     0.0246     0.1813     0.2318    20.5460    19.3425    13.2361   -25.1869
  322.0000    85.3017     9.8879     2.3617     0.0366     0.1841     0.2344    20.7383    19.4338    13.4406   -25.2435
  322.5000    85.8248     9.8767     2.3686     0.0353     0.1694     0.2343    21.0335    19.5465    13.5058   -25.3000
  323.0000    85.7809     9.8656     2.3771     0.0291     0.1734     0.2344    20.7290    19.5083    13.5428   -25.3564
  323.5000    85.4667     9.8552     2.3752     0.0339     0.1761     0.2330    20.3388    19.4418    13.3106   -25.4127
  324.0000    85.1480     9.8514     2.3949     0.0541     0.1675     0.2386    19.9560    19.3754    13.0808   -25.4594
  324.5000    84.8230     9.8474     2.3851     0.0408     0.1637     0.2405    19.7267    19.3093    12.5845   -25.4891
  325.0000    84.8274     9.8434     2.3936     0.0458     0.1527     0.2433    19.8304    19.2434    12.7210   -25.5191
  325.5000    84.9334     9.8393     2.4037     0.0599     0.1504     0.2465    19.9177    19.1497    12.8599   -25.5490
  326.0000    85.0417     9.8311     2.4133     0.0706     0.1497     0.2447    20.0069    18.9482    13.0548   -25.5789
  326.5000    85.1496     9.8049     2.4295     0.0912     0.1527     0.2424    20.0910    18.7489    12.9320   -25.6082
  327.0000    85.2591     9.8104     2.4332     0.0870     0.1479     0.2401    19.8433    18.5517    12.7004   -25.6335
  327.5000    85.3652     9.8302     2.4266     0.0822     0.1421     0.2379    19.5995    18.3566    12.7887   -25.8615
  328.0000    84.9863     9.8514     2.4278     0.0796     0.1380     0.2371    19.3595    18.1635    12.8964   -26.1260
  328.5000    84.5705     9.8416     2.4400     0.0923     0.1508     0.2410    19.1225    17.9724    12.9356   -26.3956
  329.0000    84.1535     9.8217     2.4479     0.0978     0.1614     0.2445    18.8889    17.7834    12.9356   -26.2722
  329.5000    83.7362     9.8010     2.4350     0.1006     0.1578     0.2445    18.6702    17.5963    12.9349   -26.0841
  330.0000    83.3225     9.7968     2.4374     0.0958     0.1520     0.2394    18.6702    17.3491    12.9348   -25.8954
  330.5000    83.0485     9.7968     2.4112     0.0728     0.1451     0.2365    18.6698    17.3991    13.0511   -25.7026
  331.0000    83.4553     9.7971     2.4211     0.0748     0.1558     0.2308    18.6695    17.4782    13.1751   -25.7553
