~VERSION INFORMATION
 VERS.                2.0:   CWLS LOG ASCII STANDARD - VERSION 2.0
 WRAP.                 NO:   ONE LINE PER DEPTH STEP
~WELL INFORMATION
#MNEM.UNIT      DATA TYPE    INFORMATION
#----------   ------------   ------------------------------
 STRT.F           66.0000:   START DEPTH
 STOP.F          794.0000:   STOP DEPTH
 STEP.F            0.5000:   STEP LENGTH
 NULL.          -999.2500:   NO VALUE
 COMP. LAWRENCE/ALLISON INC:   COMPANY
 WELL.    27-16 SX #35-35:   WELL
 FLD .           NPR NO 3:   FIELD
 LOC .      S35 T39N R78W:   LOCATION
 CNTY.            NATRONA:   COUNTY
 STAT.            WYOMING:   STATE
 CTRY. UNITED STATES OF AMERICA:   COUNTRY
 SRVC.           Gearhart:   SERVICE COMPANY
 DATE.        16-MAY-1986:   LOGDATE
 API .       490251106100:   API NUMBER
~CURVE INFORMATION
#MNEM.UNIT       API CODE    CURVE DESCRIPTION
#----------   ------------   ------------------------------
 DEPT.F                  :   
 GRN .GAPI   42 310 01 00:   GAMMA RAY FROM COMPENSATED NEUTRON LOG
 CNC .DEC    42 890 01 00:   NEUTRON POROSITY LIMESTONE
~PARAMETER INFORMATION
#MNEM.UNIT          VALUE    DESCRIPTION
#----------   ------------   ------------------------------
 PD  .                 GL:   PERMANENT DATUM
 LMF .                 GL:   LOG MEASURED FROM
 DMF .                 GL:   DRILLING MEASURED FROM
 DATE.        16-MAY-1986:   RUN DATE
 RUN .                  1:   RUN NUMBER
 DD  .F               803:   DEPTH DRILLER
 DL  .F             793.5:   DEPTH LOGGER
 BLI .F             793.5:   BOTTOM LOG INTERVAL
 TLI .F                50:   TOP LOG INTERVAL
 BS  .IN             7.87:   BIT SIZE
 BSD .F               803:   BIT SIZE AT DEPTH
 DFT .              WATER:   DRILLING FLUID TYPE
 LUN .               6084:   LOGGING UNIT NUMBER
 LUL .           GILLETTE:   LOGGING UNIT LOCATION
 ENGI.                COX:   RECORDING ENGINEER
 WITN.             STRONG:   WITNESSED BY
 CLNT.            A2DTECH:   CLIENT CODE
 ORIG.           5" PRINT:   ORIGIN OF DATA
 UWI .       490251106100:   UNIQUE WELL ID
 DICO. A2D Technologies, Inc.:   DIGITIZING COMPANY
~OTHER INFORMATION
~A   DEPT       GRN       CNC   
   66.0000    62.8834  -999.2500
   66.5000    62.5579  -999.2500
   67.0000    60.9815  -999.2500
   67.5000    59.4240  -999.2500
   68.0000    57.6687  -999.2500
   68.5000    56.1350  -999.2500
   69.0000    54.9080  -999.2500
   69.5000    53.9877  -999.2500
   70.0000    56.7485  -999.2500
   70.5000    60.4294  -999.2500
   71.0000    62.5767  -999.2500
   71.5000    62.5767  -999.2500
   72.0000    61.9632  -999.2500
   72.5000    61.6564  -999.2500
   73.0000    61.6564  -999.2500
   73.5000    61.9632  -999.2500
   74.0000    62.5767  -999.2500
   74.5000    63.8037  -999.2500
   75.0000    64.4172  -999.2500
   75.5000    63.8037  -999.2500
   76.0000    66.5644  -999.2500
   76.5000    63.8037  -999.2500
   77.0000    65.0307  -999.2500
   77.5000    65.6442  -999.2500
   78.0000    64.4172  -999.2500
   78.5000    63.8037  -999.2500
   79.0000    63.5257  -999.2500
   79.5000    63.6384  -999.2500
   80.0000    63.7510  -999.2500
   80.5000    63.8037  -999.2500
   81.0000    63.8617  -999.2500
   81.5000    64.4172  -999.2500
   82.0000    65.0307  -999.2500
   82.5000    65.6442  -999.2500
   83.0000    67.4847  -999.2500
   83.5000    70.2454  -999.2500
   84.0000    74.2331  -999.2500
   84.5000    72.6936  -999.2500
   85.0000    70.4500  -999.2500
   85.5000    67.7914  -999.2500
   86.0000    64.7239  -999.2500
   86.5000    61.9632  -999.2500
   87.0000    61.3497  -999.2500
   87.5000    64.4172  -999.2500
   88.0000    66.8712  -999.2500
   88.5000    68.7117  -999.2500
   89.0000    69.3252  -999.2500
   89.5000    68.0982  -999.2500
   90.0000    66.2577     0.3791
   90.5000    64.1104     0.3890
   91.0000    62.5767     0.3995
   91.5000    61.3497     0.3995
   92.0000    61.3497     0.3995
   92.5000    61.3497     0.3995
   93.0000    61.3497     0.3996
   93.5000    61.9632     0.3996
   94.0000    62.5767     0.3996
   94.5000    63.4969     0.3996
   95.0000    64.4172     0.3996
   95.5000    65.6442     0.3996
   96.0000    66.8779     0.3997
   96.5000    67.8102     0.3997
   97.0000    68.7424     0.3997
   97.5000    69.9387     0.3995
   98.0000    69.9387     0.3992
   98.5000    69.3252     0.3990
   99.0000    68.0982     0.3921
   99.5000    67.1779     0.3823
  100.0000    69.3252     0.3721
  100.5000    65.6319     0.3621
  101.0000    66.5929     0.3698
  101.5000    68.7147     0.3989
  102.0000    69.9427     0.3990
  102.5000    71.1049     0.3990
  103.0000    70.7830     0.3991
  103.5000    69.8506     0.3991
  104.0000    67.9980     0.3992
  104.5000    66.1454     0.3992
  105.0000    64.9063     0.3996
  105.5000    65.8144     0.3996
  106.0000    69.1765     0.3997
  106.5000    72.2318     0.3997
  107.0000    74.6737     0.3995
  107.5000    75.2780     0.3995
  108.0000    73.4224     0.3999
  108.5000    71.2630     0.3999
  109.0000    70.3306     0.4000
  109.5000    69.7050     0.4003
  110.0000    69.3861     0.4004
  110.5000    68.4537     0.4004
  111.0000    67.2146     0.4005
  111.5000    63.5215     0.4005
  112.0000    60.4295     0.4002
  112.5000    61.1196     0.4000
  113.0000    66.1333     0.3997
  113.5000    71.3496     0.3998
  114.0000    76.3412     0.3995
  114.5000    78.4763     0.3996
  115.0000    79.3874     0.3993
  115.5000    79.0655     0.3991
  116.0000    79.3631     0.3988
  116.5000    83.6424     0.3786
  117.0000    84.8603     0.3518
  117.5000    81.1642     0.3251
  118.0000    77.4711     0.3308
  118.5000    74.3914     0.3700
  119.0000    76.8333     0.3872
  119.5000    80.5021     0.3995
  120.0000    82.0237     0.4007
  120.5000    82.3214     0.3986
  121.0000    81.6927     0.3874
  121.5000    81.6806     0.3753
  122.0000    82.5887     0.3632
  122.5000    84.1103     0.3511
  123.0000    86.8589     0.3375
  123.5000    89.0162     0.3212
  124.0000    91.1534     0.3042
  124.5000    92.0372     0.2878
  125.0000    92.6891     0.2858
  125.5000    94.4639     0.2949
  126.0000    96.5990     0.3034
  126.5000    98.4273     0.3041
  127.0000    98.7250     0.2996
  127.5000    98.0963     0.2875
  128.0000    96.8572     0.2791
  128.5000    95.3113     0.2803
  129.0000    93.7654     0.2843
  129.5000    91.9128     0.2738
  130.0000    89.7534     0.2582
  130.5000    90.3547     0.2453
  131.0000    92.4898     0.2336
  131.5000    93.4010     0.2463
  132.0000    92.7723     0.2602
  132.5000    91.5332     0.2742
  133.0000    89.9873     0.2805
  133.5000    88.7482     0.2757
  134.0000    87.8158     0.2569
  134.5000    86.8834     0.2521
  135.0000    86.2577     0.2513
  135.5000    85.6319     0.2560
  136.0000    85.3128     0.2718
  136.5000    85.3006     0.2863
  137.0000    86.2062     0.3030
  137.5000    93.5560     0.3303
  138.0000   100.2923     0.3967
  138.5000   101.8139     0.4004
  139.0000   102.4183     0.4008
  139.5000   102.4032     0.4008
  140.0000   102.3910     0.4005
  140.5000   102.3789     0.4003
  141.0000   102.0600     0.4003
  141.5000    95.9129     0.3990
  142.0000    86.0848     0.3085
  142.5000    81.7782     0.2623
  143.0000    79.9256     0.2499
  143.5000    77.7662     0.2436
  144.0000    75.6068     0.2421
  144.5000    74.9812     0.2455
  145.0000    76.5028     0.2392
  145.5000    78.6379     0.2314
  146.0000    80.7730     0.2305
  146.5000    81.6811     0.2475
  147.0000    80.7259     0.2515
  147.5000    79.1667     0.2546
  148.0000    79.6322     0.2695
  148.5000    88.0712     0.2926
  149.0000    92.9670     0.3069
  149.5000    96.6359     0.3211
  150.0000    97.5470     0.3273
  150.5000    88.6173     0.3183
  151.0000    86.7710     0.2868
  151.5000    84.1777     0.2666
  152.0000    80.7978     0.2535
  152.5000    77.8822     0.2574
  153.0000    78.4897     0.2590
  153.5000    81.5511     0.2442
  154.0000    82.7735     0.2337
  154.5000    79.6985     0.2239
  155.0000    79.6924     0.2200
  155.5000    77.2323     0.2176
  156.0000    74.4655     0.2246
  156.5000    72.3122     0.2374
  157.0000    73.5331     0.2350
  157.5000    76.2878     0.2238
  158.0000    79.3492     0.2199
  158.5000    78.4229     0.2399
  159.0000    77.8049     0.2484
  159.5000    83.0120     0.2488
  160.0000    85.7667     0.2527
  160.5000    81.4661     0.2600
  161.0000    79.9120     0.2670
  161.5000    83.9080     0.2722
  162.0000    85.7424     0.2804
  162.5000    82.3109     0.2564
  163.0000    79.5562     0.2350
  163.5000    79.5892     0.2217
  164.0000    81.7289     0.2372
  164.5000    85.4038     0.2482
  165.0000    86.3195     0.2518
  165.5000    83.2444     0.2524
  166.0000    81.3978     0.2470
  166.5000    82.3120     0.2395
  167.0000    82.9210     0.2304
  167.5000    81.9931     0.2259
  168.0000    80.1466     0.2326
  168.5000    78.3000     0.2399
  169.0000    76.7602     0.2445
  169.5000    80.1284     0.2478
  170.0000    79.2020     0.2382
  170.5000    78.2757     0.2370
  171.0000    79.4967     0.2443
  171.5000    79.7975     0.2610
  172.0000    78.2575     0.2747
  172.5000    76.0889     0.2696
  173.0000    75.7914     0.2462
  173.5000    75.7853     0.2148
  174.0000    76.0860     0.1828
  174.5000    75.7730     0.1600
  175.0000    77.0960     0.1535
  175.5000    80.6675     0.1518
  176.0000    82.8102     0.1552
  176.5000    79.7351     0.1768
  177.0000    78.1953     0.1938
  177.5000    76.0420     0.2074
  178.0000    77.2629     0.2296
  178.5000    79.7124     0.2423
  179.0000    78.7861     0.2460
  179.5000    84.2999     0.2491
  180.0000    86.1344     0.2527
  180.5000    86.4366     0.2509
  181.0000    84.5885     0.2479
  181.5000    82.4352     0.2522
  182.0000    85.4966     0.2725
  182.5000    86.4111     0.2902
  183.0000    85.1777     0.2820
  183.5000    84.2514     0.2690
  184.0000    85.7791     0.2621
  184.5000    86.3895     0.2609
  185.0000    85.4500     0.2659
  185.5000    84.5338     0.2800
  186.0000    84.5643     0.3034
  186.5000    85.8487     0.3083
  187.0000    89.7289     0.2932
