~VERSION INFORMATION
 VERS.                2.0:   CWLS LOG ASCII STANDARD - VERSION 2.0
 WRAP.                 NO:   ONE LINE PER DEPTH STEP
~WELL INFORMATION
#MNEM.UNIT      DATA TYPE    INFORMATION
#----------   ------------   ------------------------------
 STRT.F            1.0000:   START DEPTH
 STOP.F          478.0000:   STOP DEPTH
 STEP.F            0.1000:   STEP LENGTH
 NULL.          -999.2500:   NO VALUE
 COMP. LAWRENCE/ALLISON INC:   COMPANY
 WELL.     58-61 SX #58-3:   WELL
 FLD .             TEAPOT:   FIELD
 LOC .       S3 T38N R78W:   LOCATION
 CNTY.            NATRONA:   COUNTY
 STAT.            WYOMING:   STATE
 CTRY. UNITED STATES OF AMERICA:   COUNTRY
 SRVC.           Gearhart:   SERVICE COMPANY
 DATE.        08-JUL-1988:   LOGDATE
 API .       490251123400:   API NUMBER
~CURVE INFORMATION
#MNEM.UNIT       API CODE    CURVE DESCRIPTION
#----------   ------------   ------------------------------
 DEPT.F                  :   
 GRR .GAPI   07 310 01 00:   GAMMA RAY
 RILD.OHMM   07 120 46 00:   INDUCTION LOG DEEP RESISTIVITY
 RILM.OHMM   07 120 44 00:   INDUCTION LOG MEDIUM RESISTIVITY
~PARAMETER INFORMATION
#MNEM.UNIT          VALUE    DESCRIPTION
#----------   ------------   ------------------------------
 PD  .                 GL:   PERMANENT DATUM
 EPD .F              5184:   ELEVATION PERMANENT DATUM
 LMF .                 KB:   LOG MEASURED FROM
 DAPD.F                 5:   FEET ABOVE PERMANENT DATUM
 DMF .                 KB:   DRILLING MEASURED FROM
 EKB .F              5189:   KELLING BUSHING
 EGL .F              5184:   GROUND LEVEL
 DATE.        08-JUL-1988:   RUN DATE
 RUN .                  1:   RUN NUMBER
 DD  .F               485:   DEPTH DRILLER
 DL  .F               486:   DEPTH LOGGER
 BLI .F               478:   BOTTOM LOG INTERVAL
 CS  .IN            9.625:   CASING SIZE
 CBD .F                45:   CASING BOTTOM DRILLER
 CBL .F                44:   CASING BOTTOM LOGGER
 BS  .IN             8.75:   BIT SIZE
 BSD .F               485:   BIT SIZE AT DEPTH
 DFT .                AIR:   DRILLING FLUID TYPE
 TCS .HRS            2200:   TIME CURCULATED STOPPED
 TLAB.HRS            2315:   TIME LOGGER AT BOTTOM
 LUN .               7597:   LOGGING UNIT NUMBER
 LUL .           GILLETTE:   LOGGING UNIT LOCATION
 ENGI.           JOHNSTON:   RECORDING ENGINEER
 WITN.              FIVAS:   WITNESSED BY
 CLNT.            A2DTECH:   CLIENT CODE
 ORIG.           5" PRINT:   ORIGIN OF DATA
 UWI .       490251123400:   UNIQUE WELL ID
 DICO. A2D Technologies, Inc.:   DIGITIZING COMPANY
~OTHER INFORMATION
~A    DEPT     GRR       RILD       RILM   
# ...
  128.4000   131.5981     9.2728     9.1775
  128.5000   132.6222     9.2615     9.1328
  128.6000   133.6057     9.2310     9.1328
  128.7000   134.6095     9.1970     9.0836
  128.8000   135.4756     9.1893     9.0691
  128.9000   136.1455     9.1328     9.0427
  129.0000   136.6798     9.1328     9.0059
  129.1000   137.5039     9.1328     9.0059
  129.2000   137.9609     9.1065     9.0059
  129.3000   138.1190     9.0691     9.0059
  129.4000   138.0038     9.0691     9.0059
  129.5000   137.7582     9.0691     9.0059
  129.6000   137.5004     9.0691     9.0059
  129.7000   136.9227     9.0691     9.0059
  129.8000   136.7178     9.0691     9.0059
  129.9000   136.4722     9.0579     9.0059
  130.0000   136.2266     9.0059     9.0059
  130.1000   135.9810     9.0059     9.0059
  130.2000   135.7294     9.0059     9.0059
  130.3000   135.4897     9.0356     9.0059
  130.4000   135.2441     9.0691     9.0059
  130.5000   134.8619     9.0691     9.0059
  130.6000   134.4493     9.0691     9.0059
  130.7000   134.2326     9.0691     9.0201
  130.8000   134.2377     9.0691     9.0691
  130.9000   134.2416     9.0691     9.0691
  131.0000   134.4178     9.0691     9.0691
  131.1000   134.6719     9.0691     9.0691
  131.2000   134.9908     9.0691     9.0907
  131.3000   135.4725     9.1139     9.1328
  131.4000   135.4775     9.1328     9.1328
  131.5000   135.8958     9.1328     9.1328
  131.6000   136.3998     9.1328     9.1328
  131.7000   136.9038     9.1328     9.1328
  131.8000   137.4078     9.1328     9.1504
  131.9000   137.9261     9.1328     9.1970
  132.0000   138.4158     9.1627     9.1970
  132.1000   138.9198     9.1970     9.1970
  132.2000   139.2882     9.1970     9.1970
  132.3000   139.6243     9.1970     9.2220
  132.4000   140.1282     9.2460     9.2615
  132.5000   140.6833     9.2615     9.2615
  132.6000   140.9117     9.2615     9.2615
  132.7000   140.4819     9.2765     9.2615
  132.8000   139.7366     9.3266     9.2615
  132.9000   138.9912     9.3266     9.2615
  133.0000   138.2560     9.3724     9.2711
  133.1000   137.6742     9.3921     9.3266
  133.2000   137.0585     9.3921     9.3266
  133.3000   136.7715     9.4033     9.3669
  133.4000   136.5774     9.4581     9.3921
  133.5000   136.1275     9.4581     9.4092
  133.6000   135.8739     9.5006     9.4581
  133.7000   135.6362     9.5245     9.4581
  133.8000   135.5788     9.5245     9.4581
  133.9000   135.5830     9.5245     9.4946
  134.0000   135.5872     9.5245     9.5245
  134.1000   135.5915     9.5751     9.5245
  134.2000   135.5962     9.5914     9.5245
  134.3000   135.6000     9.5914     9.5245
  134.4000   135.7742     9.5914     9.4804
  134.5000   135.9120     9.5914     9.4581
  134.6000   135.9790     9.5914     9.4377
  134.7000   136.2330     9.5914     9.3835
  134.8000   136.5325     9.5914     9.3266
  134.9000   136.5360     9.5684     9.2760
  135.0000   136.5402     9.5134     9.2615
  135.1000   136.5445     9.4581     9.2615
  135.2000   136.5042     9.4044     9.2457
  135.3000   136.2496     9.3504     9.1970
  135.4000   136.0129     9.2967     9.1970
  135.5000   135.7673     9.2615     9.1970
  135.6000   135.6552     9.2547     9.1626
  135.7000   135.5796     9.1970     9.1328
  135.8000   135.3076     9.1486     9.1213
  135.9000   134.7580     9.1328     9.0691
  136.0000   134.5392     9.1328     9.0691
  136.1000   134.2936     9.1186     9.0280
  136.2000   134.1633     9.0691     9.0059
  136.3000   134.0441     9.0691     9.0059
  136.4000   133.5567     9.0691     9.0059
  136.5000   133.2663     9.0691     9.0059
  136.6000   133.0654     9.0691     8.9580
  136.7000   132.8198     9.0588     8.9431
  136.8000   132.4771     9.0059     8.9431
  136.9000   132.0251     9.0059     8.9431
  137.0000   131.7695     9.0059     8.9431
  137.1000   131.5338     9.0059     8.9431
  137.2000   131.2882     9.0059     8.9431
  137.3000   131.0426     9.0059     8.9431
  137.4000   130.7970     9.0059     8.9431
  137.5000   130.5261     8.9588     8.9431
  137.6000   129.9744     8.9431     8.9431
  137.7000   129.7566     8.9431     8.8924
  137.8000   129.5110     8.9431     8.8807
  137.9000   129.2653     8.9431     8.8807
  138.0000   129.0197     8.9431     8.8807
  138.1000   128.7811     8.9431     8.8807
  138.2000   128.7862     8.9431     8.8807
  138.3000   129.1963     8.9431     8.9431
  138.4000   129.7003     8.9431     8.9431
  138.5000   130.3005     8.9431     8.9431
  138.6000   131.0544     8.9431     8.9431
  138.7000   131.8418     8.9431     8.9431
  138.8000   132.8008     8.9431     8.9431
  138.9000   133.6194     8.9258     8.9431
  139.0000   134.2418     8.8807     8.9322
  139.1000   134.7458     8.8807     8.8807
  139.2000   135.2008     8.8807     8.8807
  139.3000   134.5990     8.8807     8.8807
  139.4000   134.3822     8.8807     8.8807
  139.5000   133.8027     8.8673     8.8807
  139.6000   133.1707     8.8187     8.8739
  139.7000   132.6752     8.8187     8.8187
  139.8000   132.1736     8.7765     8.8187
  139.9000   131.2864     8.7261     8.7832
  140.0000   130.8852     8.6760     8.7572
  140.1000   130.2410     8.6261     8.7436
  140.2000   129.5907     8.5753     8.6934
  140.3000   129.0952     8.5273     8.6355
  140.4000   128.5756     8.4783     8.5526
  140.5000   128.5797     8.4296     8.5155
  140.6000   128.3998     8.3811     8.4955
  140.7000   128.2847     8.3329     8.4374
  140.8000   128.4427     8.2804     8.3386
  140.9000   128.9931     8.2375     8.2918
  141.0000   130.1189     8.1902     8.2442
  141.1000   131.0007     8.1431     8.2226
  141.2000   131.8386     8.0963     8.1916
  141.3000   132.4801     8.0477     8.1030
  141.4000   132.9841     7.9399     8.0518
  141.5000   133.4780     7.9020     8.0103
  141.6000   133.4831     7.8290     7.9643
  141.7000   133.2852     7.7570     7.8974
  141.8000   133.0396     7.7124     7.8182
  141.9000   132.7939     7.6668     7.7733
  142.0000   132.5483     7.5816     7.7207
  142.1000   132.2898     7.5274     7.6843
  142.2000   132.2938     7.4842     7.6402
  142.3000   132.2980     7.4272     7.5963
  142.4000   132.1728     7.3468     7.5451
  142.5000   132.0030     7.3003     7.4552
  142.6000   132.0295     7.3003     7.4141
  142.7000   132.3156     7.2431     7.3716
  142.8000   132.3193     7.1794     7.3293
  142.9000   132.3235     7.1381     7.2742
  143.0000   132.6617     7.0971     7.1988
  143.1000   133.4155     7.0492     7.1988
  143.2000   134.1694     6.9826     7.1624
  143.3000   135.0728     6.9269     7.0942
  143.4000   135.6771     6.9028     7.0310
  143.5000   136.1376     6.8956     6.9813
  143.6000   136.4848     6.8546     6.9012
  143.7000   136.9493     6.8166     6.8068
  143.8000   137.2178     6.7774     6.8068
  143.9000   137.4576     6.7385     6.7610
  144.0000   137.7117     6.7122     6.6979
  144.1000   137.8373     6.7122     6.6654
  144.2000   137.8416     6.7122     6.6654
  144.3000   137.8458     6.7122     6.6654
  144.4000   137.8506     6.7122     6.6654
  144.5000   137.8543     6.7122     6.6654
  144.6000   137.6947     6.7220     6.6768
  144.7000   137.5593     6.7608     6.7153
  144.8000   137.5636     6.8068     6.7594
  144.9000   137.5678     6.8392     6.7594
  145.0000   137.3192     6.8787     6.7847
  145.1000   136.8742     6.9028     6.8068
  145.2000   136.3787     6.9171     6.8240
  145.3000   135.8833     7.0001     6.9028
  145.4000   135.3878     7.0391     6.9427
  145.5000   134.8622     7.0492     6.9828
  145.6000   134.3968     7.0710     7.0001
  145.7000   133.9012     7.0988     7.0289
  145.8000   133.4058     7.1031     7.1045
  145.9000   132.9103     7.1486     7.1486
  146.0000   132.4549     7.1854     7.1868
  146.1000   133.0670     7.2270     7.1988
  146.2000   133.2872     7.2687     7.2193
  146.3000   133.7042     7.3003     7.2610
  146.4000   134.2082     7.3030     7.3029
  146.5000   134.6565     7.4032     7.3516
