~VERSION INFORMATION
 VERS.                2.0:   CWLS LOG ASCII STANDARD - VERSION 2.0
 WRAP.                 NO:   ONE LINE PER DEPTH STEP
~WELL INFORMATION
#MNEM.UNIT      DATA TYPE    INFORMATION
#----------   ------------   ------------------------------
 STRT.F           30.0000:   START DEPTH
 STOP.F          547.0000:   STOP DEPTH
 STEP.F            0.5000:   STEP LENGTH
 NULL.          -999.2500:   NO VALUE
 COMP.   FINIX & SCISSION:   COMPANY
 WELL. SX-11 NPR #3 #11-11:   WELL
 FLD .             TEAPOT:   FIELD
 LOC .      S11 T38N R78W:   LOCATION
 CNTY.            NATRONA:   COUNTY
 STAT.            WYOMING:   STATE
 CTRY. UNITED STATES OF AMERICA:   COUNTRY
 SRVC.       Schlumberger:   SERVICE COMPANY
 DATE.        01-MAR-1977:   LOGDATE
 API .       490251058500:   API NUMBER
~CURVE INFORMATION
#MNEM.UNIT       API CODE    CURVE DESCRIPTION
#----------   ------------   ------------------------------
 DEPT.F                  :   
 ILD .OHMM               :   INDUCTION LOG DEEP
 ILM .OHMM   07 120 44 00:   INDUCTION LOG MEDIUM
 LL8 .OHMM   07 220 08 00:   
 SPR .MV     07 010 01 00:   SPONTANEOUS POTENTIAL
 CALD.IN     45 280 60 00:   CALIPER FROM DENSITY LOG
 CORR.G/C3   45 356 01 00:   DENSITY CORRECTION
 DPHI.DEC    45 890 12 00:   DENSITY POROSITY SANDSTONE
 GRD .GAPI   45 310 01 00:   GAMMA RAY FROM DENSITY LOG
 RHOB.G/C3   45 350 01 00:   BULK DENSITY
~PARAMETER INFORMATION
#MNEM.UNIT          VALUE    DESCRIPTION
#----------   ------------   ------------------------------
 PD  .                 GL:   PERMANENT DATUM
 EPD .F              5158:   ELEVATION PERMANENT DATUM
 LMF .                 GL:   LOG MEASURED FROM
 DMF .                 GL:   DRILLING MEASURED FROM
 EKB .F              5161:   KELLING BUSHING
 EGL .F              5158:   GROUND LEVEL
 DATE.        01-MAR-1977:   RUN DATE
 RUN .                  1:   RUN NUMBER
 DD  .F               575:   DEPTH DRILLER
 DL  .F               548:   DEPTH LOGGER
 BLI .F               547:   BOTTOM LOG INTERVAL
 TLI .F                45:   TOP LOG INTERVAL
 CS  .IN            8.625:   CASING SIZE
 CBD .F                40:   CASING BOTTOM DRILLER
 CBL .F                45:   CASING BOTTOM LOGGER
 BS  .IN            7.875:   BIT SIZE
 BSD .F               575:   BIT SIZE AT DEPTH
 DFT .                PIT:   DRILLING FLUID TYPE
 DFD .                8.7:   DRILLING FLUID DENSITY
 DFV .                 46:   DRILLING FLUID VISCOSITY
 DFPH.                  8:   DRILLING FLUID PH
 DFL .                6.8:   DRILLING FLUID LOSS
 MSS .                PIT:   MUD SAMPLE SOURCE
 RMS .OHMM          0.632:   RESISTIVITY MUD SAMPLE
 MST .F                65:   MUD SAMPLE TEMPERATURE
 RMF .OHMM          0.465:   RESISTIVITY MUD FILTRATE SAMPLE
 MFST.F                65:   MUD FILTRATE SAMPLE TEMPERATURE
 MFSS.               MEAS:   MUD FILTRATE SAMPLE SOURCE
 RMB .OHMM          0.635:   RESISTIVITY MUD AT BHT
 BHT .F                68:   BOTTOM HOLE TEMPERATURE
 TCS .HRS              12:   TIME CURCULATED STOPPED
 MRT .F                68:   MAXIMUM RECORDED TEMPERATURE
 LUN .               5642:   LOGGING UNIT NUMBER
 LUL .               CSPR:   LOGGING UNIT LOCATION
 ENGI.         JIM MARTIN:   RECORDING ENGINEER
 WITN.         STUEBINGER:   WITNESSED BY
 CLNT.            A2DTECH:   CLIENT CODE
 ORIG.           5" PRINT:   ORIGIN OF DATA
 UWI .       490251058500:   UNIQUE WELL ID
 DICO. A2D Technologies, Inc.:   DIGITIZING COMPANY
~OTHER INFORMATION
~A   DEPT      ILD        ILM        LL8        SPR       CALD       CORR       DPHI         GRD      RHOB   
# ...
  504.5000    12.9048    12.4817    12.6823   -27.4054     8.1346     0.0422     0.1158    71.7941     2.4642
  505.0000    12.9057    12.4847    12.7463   -27.5209     8.0760     0.0492     0.1274    70.4508     2.4372
  505.5000    12.9068    12.4878    12.7489   -27.6302     8.0468     0.0274     0.1338    70.0055     2.4147
  506.0000    12.9075    12.4899    12.8399   -27.7593     8.0181     0.0214     0.1269    71.3623     2.4353
  506.5000    12.8195    12.4925    12.8351   -27.7410     8.0038     0.0177     0.1266    71.5167     2.4328
  507.0000    12.6444    12.4951    12.7566   -27.7212     8.0200     0.0184     0.1296    70.9245     2.4306
  507.5000    12.5193    12.4977    12.5847   -27.5524     8.0360     0.0251     0.1221    70.6292     2.4504
  508.0000    12.4681    12.5003    12.3892   -27.5329     8.0519     0.0333     0.1155    71.9860     2.4499
  508.5000    12.3876    12.4163    12.2464   -27.5097     8.0529     0.0266     0.1239    73.0415     2.4342
  509.0000    12.2789    12.4193    12.1472   -27.4797     8.0539     0.0273     0.1293    74.3968     2.4299
  509.5000    12.2193    12.3367    12.0829   -27.3219     8.0549     0.0364     0.1187    75.6022     2.4558
  510.0000    12.2202    12.3390    12.0026   -27.6070     8.0561     0.0460     0.1095    74.8586     2.4786
  510.5000    12.1368    12.3415    11.9223   -27.8874     8.0569     0.0370     0.1128    72.9155     2.4580
  511.0000    12.0541    12.3440    11.9249   -28.0165     8.0580     0.0417     0.1188    71.5722     2.4516
  511.5000    12.0549    12.3469    11.9273   -28.0822     8.0492     0.0496     0.1131    71.1269     2.4668
  512.0000    12.0558    12.2947    11.9298   -28.1257     8.0449     0.0419     0.1083    72.6337     2.4788
  512.5000    12.0566    12.2244    11.9323   -28.1059     8.0459     0.0344     0.1068    73.3893     2.4699
  513.0000    11.9743    12.1847    11.9533   -28.0868     8.0470     0.0276     0.1176    74.7446     2.4505
  513.5000    11.9752    12.1032    12.0200   -28.0674     8.0480     0.0241     0.1239    76.5497     2.4351
  514.0000    11.9762    12.0230    12.0225   -27.9887     8.0489     0.0293     0.1164    78.5047     2.4467
  514.5000    11.9769    12.0250    12.0250   -27.8787     8.0499     0.0136     0.1236    79.7101     2.4436
  515.0000    11.9777    12.0220    12.0275   -27.7707     8.0509     0.0098     0.1296    79.4163     2.4273
  515.5000    11.8961    11.9471    12.0300   -27.3881     8.0519     0.0195     0.1330    78.6727     2.4177
  516.0000    11.8970    11.8672    12.0325   -27.3713     8.0529     0.0255     0.1249    78.0790     2.4336
  516.5000    11.8977    11.8698    12.0350   -27.3501     8.0541     0.0337     0.1174    77.7836     2.4549
  517.0000    11.8359    11.7901    11.9111   -27.1797     8.0549     0.0419     0.1120    78.6907     2.4671
  517.5000    11.7360    11.7113    11.7930   -27.1632     8.0559     0.0516     0.1051    79.4463     2.4927
  518.0000    11.6939    11.6336    11.7069   -27.1433     8.0570     0.0591     0.1027    78.5527     2.4872
  518.5000    11.6269    11.5558    11.6359   -26.9714     8.0580     0.0673     0.1063    77.8091     2.4794
  519.0000    11.4978    11.4786    11.5584   -26.9551     8.0438     0.0515     0.0949    77.0655     2.5154
  519.5000    11.4498    11.4019    11.4807   -26.9356     8.0450     0.0448     0.1003    76.3218     2.5062
  520.0000    11.4075    11.3257    11.4404   -26.7662     8.0609     0.0507     0.1090    75.8781     2.4823
  520.5000    11.2641    11.2837    11.3283   -26.5942     8.0619     0.0373     0.1198    75.2844     2.4566
  521.0000    11.1873    11.1753    11.2929   -26.5555     8.0629     0.0140     0.1285    74.6907     2.4329
  521.5000    11.0346    11.1007    11.2548   -26.4065     8.0639     0.0237     0.1249    74.3953     2.4373
  522.0000    10.9352    11.1029    11.1796   -26.5371     8.0650     0.0372     0.1138    74.4028     2.4673
  522.5000    10.8078    10.9522    11.1488   -27.1169     8.0659     0.0446     0.1033    75.7581     2.4894
  523.0000    10.6833    10.9550    11.1019   -27.4020     8.0669     0.0514     0.0958    77.4133     2.5116
  523.5000    10.4783    10.9572    10.9575   -27.6781     8.0679     0.0289     0.1105    78.4688     2.4812
  524.0000    10.3501    10.9594    10.8093   -27.8084     8.0689     0.0184     0.1174    79.2244     2.4603
  524.5000    10.1817    10.8861    10.6478   -28.0940     8.0699     0.0318     0.1075    80.8796     2.4726
  525.0000     9.9531    10.8884    10.4282   -28.2186     8.0710     0.0288     0.1135    80.4358     2.4720
  525.5000     9.7496    10.8907    10.2343   -28.1956     8.0720     0.0198     0.1162    79.7911     2.4636
  526.0000     9.4989    10.8178    10.0263   -28.1796     8.0762     0.0310     0.1066    79.3968     2.4870
  526.5000     9.0372    10.5256     9.4237   -28.1602     8.0889     0.0280     0.1012    81.0535     2.4810
  527.0000     8.6708    10.2408     8.8574   -28.1385     8.0899     0.0108     0.1138    82.7086     2.4576
  527.5000     8.0368    10.0327     8.3250   -28.1194     8.0908     0.0197     0.1210    84.0640     2.4444
  528.0000     7.4430    10.0348     7.7935   -28.1018     8.0918     0.0130     0.1252    83.3203     2.4366
  528.5000     6.7854    10.1064     7.2341   -28.0814     8.0928     0.0174     0.1177    82.8751     2.4526
  529.0000     5.9312     9.8329     6.3627   -28.0623     8.0938     0.0309     0.1138    87.2304     2.4621
  529.5000     5.3476     8.3898     5.6980   -28.1931     8.0798     0.0211     0.1273    90.5347     2.4341
  530.0000     4.9225     6.5889     4.9635   -28.4831     8.0810     0.0149     0.1351    92.6888     2.4141
  530.5000     4.4076     5.6609     4.3238   -28.6040     8.0668     0.0263     0.1405  -999.2500     2.3983
  531.0000     4.0015     4.9999     3.8454   -28.5802     8.0680     0.0091     0.1462  -999.2500     2.3631
  531.5000     4.4695     5.7137     4.1787   -28.2618     8.0839     0.0008     0.1559  -999.2500     2.3473
  532.0000     5.6145     7.3010     5.1422   -28.2428     8.0849     0.0120     0.1352  -999.2500     2.4111
  532.5000     6.6277     8.1152     6.0291   -27.9073     8.0859     0.0225     0.1102  -999.2500     2.4659
  533.0000     7.5580     8.5191     6.9240   -27.7121     8.0719     0.0277     0.0991  -999.2500     2.4981
  533.5000     8.4473     8.7596     7.8475   -27.2875     8.0429     0.0232     0.1043  -999.2500     2.4876
  534.0000     9.0541     8.8833     8.5437   -26.9675     7.9840     0.0202     0.1076  -999.2500     2.4779
  534.5000     9.3653     8.9779     9.1342   -26.7572     7.9696     0.0338     0.0953  -999.2500     2.5086
  535.0000     9.5621     9.0730     9.3921   -26.4819     7.9561     0.0433     0.0932  -999.2500     2.5199
  535.5000     9.6958     9.2012     9.5247   -26.3129     7.9872     0.0381     0.1001  -999.2500     2.5004
  536.0000     9.7637     9.3958     9.5927   -26.1437     7.9900     0.0325     0.1052  -999.2500     2.4876
  536.5000     9.8321     9.5561     9.6610   -26.1243     8.0042     0.0393     0.0941  -999.2500     2.5011
  537.0000     9.8328     9.5965     9.7410   -26.1048     8.0051     0.0515     0.0767  -999.2500     2.5236
  537.5000     9.9703     9.5984     9.7996   -25.9329     8.0061     0.0288     0.0896  -999.2500     2.5094
  538.0000    10.0401     9.6004     9.9381   -25.9162     8.0071     0.0359     0.0917  -999.2500     2.5026
  538.5000    10.1805     9.6024     9.9613   -25.8967     8.0080     0.0589     0.0824  -999.2500     2.5326
  539.0000    10.3944     9.6048    10.0803   -25.7261     8.0090     0.0461     0.0782  -999.2500     2.5364
  539.5000    10.5940     9.8079    10.1688   -25.4076     8.0100     0.0401     0.0866  -999.2500     2.5139
  540.0000    10.7570     9.9737    10.2792   -23.5628     7.9960     0.0461     0.0890  -999.2500     2.5079
  540.5000  -999.2500  -999.2500  -999.2500  -999.2500     8.0120     0.0521     0.0827  -999.2500     2.5349
