~VERSION INFORMATION
 VERS.                2.0:   CWLS LOG ASCII STANDARD - VERSION 2.0
 WRAP.                 NO:   ONE LINE PER DEPTH STEP
~WELL INFORMATION
#MNEM.UNIT      DATA TYPE    INFORMATION
#----------   ------------   ------------------------------
 STRT.F           99.0000:   START DEPTH
 STOP.F          761.5000:   STOP DEPTH
 STEP.F            0.5000:   STEP LENGTH
 NULL.          -999.2500:   NO VALUE
 COMP.          U.S. NAVY:   COMPANY
 WELL. RES 3 TEAPOT DOM #48S-11:   WELL
 FLD .             TEAPOT:   FIELD
 LOC .      S11 T38N R78W:   LOCATION
 CNTY.            NATRONA:   COUNTY
 STAT.            WYOMING:   STATE
 CTRY. UNITED STATES OF AMERICA:   COUNTRY
 SRVC.       Schlumberger:   SERVICE COMPANY
 DATE.        14-JUL-1963:   LOGDATE
 API .       490250632500:   API NUMBER
~CURVE INFORMATION
#MNEM.UNIT       API CODE    CURVE DESCRIPTION
#----------   ------------   ------------------------------
 DEPT.F                  :   
 SPR .MV     05 010 01 00:   SPONTANEOUS POTENTIAL FROM RES.
 ILD .OHMM   05 120 46 00:   INDUCTION LOG DEEP
 CILD.MMHO   05 110 46 00:   CONDUCTIVITY INDUCTION LOG DEEP
 GR  .GAPI   30 310 01 00:   GAMMA RAY
 ASN .OHMM   05 041 16 00:   AMPLIFIED SHORT NORMAL 16"
~PARAMETER INFORMATION
#MNEM.UNIT          VALUE    DESCRIPTION
#----------   ------------   ------------------------------
 PD  .                 GL:   PERMANENT DATUM
 EPD .F              5187:   ELEVATION PERMANENT DATUM
 LMF .                 KB:   LOG MEASURED FROM
 DAPD.F                 5:   FEET ABOVE PERMANENT DATUM
 DMF .                 KB:   DRILLING MEASURED FROM
 EKB .F              5192:   KELLING BUSHING
 EGL .F              5187:   GROUND LEVEL
 DATE.            7-14-63:   RUN DATE
 RUN .                  1:   RUN NUMBER
 DD  .F               762:   DEPTH DRILLER
 DL  .F               761:   DEPTH LOGGER
 BLI .F               760:   BOTTOM LOG INTERVAL
 TLI .F               100:   TOP LOG INTERVAL
 CS  .IN            8.625:   CASING SIZE
 CBD .F                10:   CASING BOTTOM DRILLER
 BS  .IN            7.875:   BIT SIZE
 BSD .F               762:   BIT SIZE AT DEPTH
 DFT .            GEL-OIL:   DRILLING FLUID TYPE
 DFD .                 10:   DRILLING FLUID DENSITY
 DFV .                 55:   DRILLING FLUID VISCOSITY
 DFPH.                9.5:   DRILLING FLUID PH
 DFL .                  4:   DRILLING FLUID LOSS
 MSS .          FLOW LINE:   MUD SAMPLE SOURCE
 RMS .OHMM           3.11:   RESISTIVITY MUD SAMPLE
 MST .F                78:   MUD SAMPLE TEMPERATURE
 RMF .OHMM           2.31:   RESISTIVITY MUD FILTRATE SAMPLE
 MFST.F                78:   MUD FILTRATE SAMPLE TEMPERATURE
 RMC .OHMM           3.82:   RESISTIVITY MUD CAKE
 MCST.F                78:   MUD CAKE SAMPLE TEMPERATURE
 MFSS.                  M:   MUD FILTRATE SAMPLE SOURCE
 MCSS.                  M:   MUD CAKE SAMPLE SOURCE
 TCS .HRS               1:   TIME CURCULATED STOPPED
 LUN .               4507:   LOGGING UNIT NUMBER
 ENGI.             KNOBEL:   RECORDING ENGINEER
 WITN.          JORGENSEN:   WITNESSED BY
 CLNT.            A2DTECH:   CLIENT CODE
 ORIG.       2", 5" PRINT:   ORIGIN OF DATA
 UWI .       490250632500:   UNIQUE WELL ID
 DICO. A2D Technologies, Inc.:   DIGITIZING COMPANY
~OTHER INFORMATION
~A   DEPT      SPR        ILD       CILD         GR        ASN   
# ...
  526.0000   -29.5064     8.4182   119.2995    58.4486     9.3513
  526.5000   -29.6603     8.5233   117.3001    59.2055     9.3721
  527.0000   -29.8132     8.6283   115.3008    53.8383     9.4066
  527.5000   -29.8234     8.7333   113.3014    54.2068     9.6019
  528.0000   -29.6248     8.8394   111.3020    60.2194     9.7996
  528.5000   -29.4777     8.9672   109.3026    78.6313     9.9937
  529.0000   -29.8781     9.1244   108.4925    74.7040    10.1869
  529.5000   -30.2759     9.2799   107.8580    62.8389    10.3593
  530.0000   -30.4051     9.2721   107.2236    52.2617    10.3084
  530.5000   -30.0076     9.2438   108.2839    53.7465    10.3020
  531.0000   -29.6211     9.2146   110.0603    56.2780    10.3534
  531.5000   -29.8147     9.1316   111.8367    57.0153    10.2867
  532.0000   -30.0512     8.9265   113.6131    52.0418    10.1009
  532.5000   -30.2174     8.7255   115.0754    46.4401    10.0173
  533.0000   -30.0602     8.5910   115.0754    55.8869     9.9394
  533.5000   -29.8357     8.5932   115.0754    60.0432     9.8283
  534.0000   -29.4688     8.5929   115.0754    64.4391     9.6821
  534.5000   -29.2386     8.5930   115.0754    67.4086     9.6443
  535.0000   -29.4466     8.5930   115.0754    67.7066     9.6785
  535.5000   -29.6209     8.5929   115.0754    60.8108     9.8018
  536.0000   -29.5225     8.5930   115.0754    58.1420     9.9019
  536.5000   -29.4193     8.5926   114.8892    57.1655     9.9002
  537.0000   -29.6789     8.6213   114.5906    66.1482     9.8993
  537.5000   -30.1283     8.6650   114.2921    65.4979     9.8056
  538.0000   -30.3163     8.7093   114.3009    68.0984     9.6754
  538.5000   -30.2003     8.7538   115.1966    65.1984     9.6781
  539.0000   -29.6560     8.7956   116.0922    66.3857     9.6696
  539.5000   -29.0973     8.7246   116.9879    68.1868     9.6565
  540.0000   -28.8782     8.6451   117.8835    60.5427     9.5276
  540.5000   -28.8151     8.5655   118.7792    52.8332     9.4233
  541.0000   -28.8149     8.4862   119.6694    51.5952     9.3816
  541.5000   -28.8150     8.4070   120.2143    46.5545     9.3387
  542.0000   -28.8155     8.3276   120.4102    43.1433     9.2953
  542.5000   -28.8411     8.2458   120.6131    48.1514     9.2466
  543.0000   -28.9275     8.1608   120.8161    46.6036     9.1556
  543.5000   -29.0141     8.0763   121.0191    44.4757     9.0657
  544.0000   -28.9443     7.9914   121.7703    38.7505     8.9840
  544.5000   -28.8474     7.9062   124.0311    35.4333     8.9590
  545.0000   -28.7509     7.7695   129.8911    38.2744     8.9443
  545.5000   -28.6529     7.4107   137.1141    35.5900     8.7212
  546.0000   -28.5783     6.9545   144.3647    42.9704     8.4052
  546.5000   -28.3706     6.5848   151.6152    41.5369     8.0871
  547.0000   -28.1665     6.2892   157.0280    41.5746     7.7693
  547.5000   -27.9643     6.2084   160.3015    44.0729     7.4636
  548.0000   -27.8057     6.1252   162.5413    47.0907     7.2407
  548.5000   -27.9221     6.0770   163.3166    50.1097     7.0985
  549.0000   -28.0924     6.1904   162.3116    52.3954     7.0873
  549.5000   -28.3638     6.3170   157.7160    54.3392     7.2662
  550.0000   -28.9903     6.4418   152.5065    51.4829     7.5956
  550.5000   -29.4263     6.7057   147.2858    48.9982     7.9258
  551.0000   -29.4185     7.0248   142.0657    45.7988     8.1629
  551.5000   -29.4189     7.2238   136.8551    44.8209     8.3083
  552.0000   -29.4082     7.3807   133.1658    43.4829     8.4293
  552.5000   -29.2398     7.5317   132.1399    41.6357     8.5402
  553.0000   -29.3674     7.6813   130.0502    41.8004     8.5823
  553.5000   -29.6776     7.7912   127.9606    42.8598     8.6029
  554.0000   -29.9805     7.7891   125.8710    43.2992     8.6224
  554.5000   -29.8622     7.7890   123.7814    40.3042     8.6358
  555.0000   -29.6225     7.7892   123.1156    37.9009     8.6875
  555.5000   -29.3041     7.7901   123.9980    36.5556     8.7330
  556.0000   -28.9465     7.7821   125.9415    43.5364     8.7075
  556.5000   -28.6266     7.6360   128.8915    49.7077     8.5905
  557.0000   -28.3212     7.4915   131.8416    54.6750     8.4668
  557.5000   -27.9874     7.3481   134.7916    54.8798     8.3271
  558.0000   -27.8248     7.2080   136.1809    53.4396     8.1881
  558.5000   -28.1433     7.0674   137.1859    54.0678     8.0510
  559.0000   -28.4593     6.9264   142.4523    51.5780     7.9351
  559.5000   -28.7718     6.7236   146.0959    41.9543     7.8299
  560.0000   -28.8824     6.3669   155.6965    44.3819     7.5934
  560.5000   -28.9598     5.9826   170.4836    51.9601     7.3438
  561.0000   -29.0225     5.5748   183.1156    48.1530     7.0964
  561.5000   -28.8381     5.2287   195.6533    52.1406     6.7887
  562.0000   -28.6293     5.0350   201.5075    47.0158     6.4863
  562.5000   -28.4195     4.8986   201.7144    42.9354     6.1855
  563.0000   -28.2104     4.9074   199.9444    48.2517     5.9393
  563.5000   -28.0137     4.9543   198.1744    51.6237     5.9390
  564.0000   -28.1420     5.1491   196.5859    48.2247     5.9792
  564.5000   -28.3413     5.4665   187.5526    44.1331     6.4217
  565.0000   -28.5432     5.7772   177.3367    38.4465     6.9227
  565.5000   -28.6781     6.0900   162.6080    39.9529     7.5784
  566.0000   -28.7818     6.5107   148.3987    43.1265     7.7594
  566.5000   -28.6747     6.9088   140.0302    45.7537     7.9106
  567.0000   -28.4595     7.3062   135.0139    46.1377     8.0468
  567.5000   -28.2411     7.6824   131.1175    48.6885     8.3277
  568.0000   -28.0215     7.7607   129.6425    50.9876     8.5916
  568.5000   -27.8104     7.8277   128.1595    52.2713     8.6376
  569.0000   -27.9287     7.8957   126.6863    48.3766     8.6751
  569.5000   -28.2148     7.9640   125.2109    40.8389     8.8181
  570.0000   -29.1906     8.0324   123.7352    36.6416     8.9845
  570.5000   -29.2230     8.1008   122.2653    44.9351     9.1274
  571.0000   -29.2171     8.1693   121.0938    44.7295     9.2424
  571.5000   -29.2881     8.2376   120.4438    44.2188     9.3396
  572.0000   -29.4017     8.3010   119.7868    41.5172     9.3648
  572.5000   -29.5163     8.3444   119.1326    45.1005     9.4015
  573.0000   -29.6309     8.3879   118.4785    43.4765     9.5076
  573.5000   -29.7457     8.4316   118.0684    48.2922     9.6149
  574.0000   -29.8593     8.4752   117.9617    40.7719     9.6188
  574.5000   -29.9788     8.5188   117.8550    38.0653     9.6429
  575.0000   -29.7150     8.5624   117.7483    32.0098     9.7402
  575.5000   -29.2174     8.6066   117.6416    38.0273     9.7804
  576.0000   -28.7057     8.6519   117.5349    44.8781     9.8164
  576.5000   -28.6850     8.6676   117.4282    49.6614     9.8525
  577.0000   -28.8011     8.5829   117.3215    48.4466     9.8655
  577.5000   -28.9201     8.5624   117.2148    51.5016     9.8734
  578.0000   -29.0383     8.5461   117.1081    47.6277     9.8791
  578.5000   -29.1562     8.5295   117.3323    49.0669     9.8584
  579.0000   -29.2743     8.5128   117.6457    51.5464     9.8352
  579.5000   -29.3947     8.4957   117.9592    52.0405     9.7003
  580.0000   -29.4107     8.4925   118.0904    55.0318     9.5574
  580.5000   -29.4550     8.4924   118.0904    53.0893     9.4277
  581.0000   -29.1871     8.4927   118.0904    53.8538     9.3061
  581.5000   -29.0718     8.4946   118.0904    52.1648     9.1849
  582.0000   -28.8989     8.4062   118.0904    54.3678     9.0639
  582.5000   -28.7178     8.2952   120.5088    51.9651     8.9431
  583.0000   -28.5378     8.1857   123.6432    48.8304     8.7528
  583.5000   -28.3580     8.0790   126.7776    54.2493     8.5427
  584.0000   -28.1781     7.6729   133.1005    56.5870     8.2077
  584.5000   -27.9979     7.2369   141.8769    50.8805     7.8361
  585.0000   -27.8150     6.7887   152.1943    46.9528     7.4641
  585.5000   -27.6508     6.1653   170.5829    44.0994     7.0921
  586.0000   -27.4833     5.5212   188.9715    42.7831     6.7085
  586.5000   -27.4114     4.8345   211.5330    38.3703     6.1803
