~VERSION INFORMATION
 VERS.                2.0:   CWLS LOG ASCII STANDARD - VERSION 2.0
 WRAP.                 NO:   ONE LINE PER DEPTH STEP
~WELL INFORMATION
#MNEM.UNIT      DATA TYPE    INFORMATION
#----------   ------------   ------------------------------
 STRT.F           11.0000:   START DEPTH
 STOP.F          685.0000:   STOP DEPTH
 STEP.F            0.5000:   STEP LENGTH
 NULL.          -999.2500:   NO VALUE
 COMP. BROWN JOHN E&C INC:   COMPANY
 WELL. 78-1 STX-34 #78-34:   WELL
 FLD .             TEAPOT:   FIELD
 LOC .      S34 T39N R78W:   LOCATION
 CNTY.            NATRONA:   COUNTY
 STAT.            WYOMING:   STATE
 CTRY. UNITED STATES OF AMERICA:   COUNTRY
 SRVC.     Atlas Wireline:   SERVICE COMPANY
 DATE.        28-JAN-1992:   LOGDATE
 API .       490252250300:   API NUMBER
~CURVE INFORMATION
#MNEM.UNIT       API CODE    CURVE DESCRIPTION
#----------   ------------   ------------------------------
 DEPT.F                  :   
 GRR .GAPI   07 310 01 00:   GAMMA RAY
 RILD.OHMM   07 120 46 00:   INDUCTION LOG DEEP RESISTIVITY
 RILM.OHMM   07 120 44 00:   INDUCTION LOG MEDIUM RESISTIVITY
~PARAMETER INFORMATION
#MNEM.UNIT          VALUE    DESCRIPTION
#----------   ------------   ------------------------------
 PD  .                 GL:   PERMANENT DATUM
 EPD .F              5077:   ELEVATION PERMANENT DATUM
 LMF .                 KB:   LOG MEASURED FROM
 DAPD.F                10:   FEET ABOVE PERMANENT DATUM
 DMF .                 KB:   DRILLING MEASURED FROM
 EKB .F              5087:   KELLING BUSHING
 EDF .F              5086:   DRILLING FLOOR
 EGL .F              5077:   GROUND LEVEL
 DATE.        28-JAN-1992:   RUN DATE
 RUN .                  1:   RUN NUMBER
 DD  .F               693:   DEPTH DRILLER
 DL  .F               693:   DEPTH LOGGER
 BLI .F               691:   BOTTOM LOG INTERVAL
 CS  .IN            9.625:   CASING SIZE
 CBD .F                50:   CASING BOTTOM DRILLER
 CBL .F                60:   CASING BOTTOM LOGGER
 BS  .IN             8.75:   BIT SIZE
 BSD .F               693:   BIT SIZE AT DEPTH
 DFT .                AIR:   DRILLING FLUID TYPE
 MRT .F                90:   MAXIMUM RECORDED TEMPERATURE
 LUN .           HL- 6274:   LOGGING UNIT NUMBER
 LUL .             CASPER:   LOGGING UNIT LOCATION
 ENGI.             RAUTIO:   RECORDING ENGINEER
 WITN.        GARY STRONG:   WITNESSED BY
 CLNT.            A2DTECH:   CLIENT CODE
 ORIG.           5" PRINT:   ORIGIN OF DATA
 UWI .       490252250300:   UNIQUE WELL ID
 DICO. A2D Technologies, Inc.:   DIGITIZING COMPANY
~OTHER INFORMATION
~A   DEPT       GRR      RILD       RILM   
# ...
  466.0000   130.4243     6.2900     6.0911
  466.5000   135.8483     5.7847     5.0698
  467.0000   145.7972     5.7831     5.0330
  467.5000   154.2377     5.8629     5.3934
  468.0000   158.7567     5.9430     6.1543
  468.5000   157.2425     6.0247     6.9253
  469.0000   144.8686     6.0655     7.5261
  469.5000   135.2096     6.4104     8.1222
  470.0000   131.2621     7.6260     8.7047
  470.5000   131.2762     8.8608     9.4599
  471.0000   133.6821    10.2076    10.4335
  471.5000   135.1846    10.6397    10.7899
  472.0000   134.5753    10.7866    10.7096
  472.5000   133.3628    10.5602    10.5571
  473.0000   130.3403    10.6318    10.5527
  473.5000   127.6195    10.8523    10.7712
  474.0000   126.4070    11.0014    10.9942
  474.5000   129.1160    11.7090    11.7009
  475.0000   130.9201    12.5491    12.8049
  475.5000   127.5394    13.4683    13.8192
  476.0000   117.6338    15.1328    15.7773
  476.5000   103.7516    16.4458    16.9730
  477.0000    90.7743    18.8956    19.8264
  477.5000    82.0203    21.1145    21.6970
  478.0000    80.8078    22.9465    22.9313
  478.5000    78.0870    23.5891    23.9005
  479.0000    71.7462    24.2465    24.5658
  479.5000    69.9304    25.0979    25.4263
  480.0000    73.2427    26.1605    26.5009
  480.5000    78.0878    27.3061    27.4291
  481.0000    79.8674    28.8189    28.3898
  481.5000    78.6534    30.2487    31.1673
  482.0000    76.5359    31.7495    34.4734
  482.5000    73.5134    33.5574    35.6809
  483.0000    68.6810    34.9782    36.4233
  483.5000    65.0552    35.9579    36.4048
  484.0000    63.8427    35.9457    35.8864
  484.5000    67.1550    35.9359    35.6227
  485.0000    71.9757    35.9261    35.6081
  485.5000    77.0980    35.6672    35.5936
  486.0000    80.4263    35.6553    35.5791
  486.5000    80.7061    35.6456    36.3298
  487.0000    78.2855    36.3875    39.0455
  487.5000    73.1514    38.1928    42.5880
  488.0000    71.6372    41.2189    44.6982
  488.5000    71.6313    43.5660    46.5872
  489.0000    71.0220    44.4757    48.2190
  489.5000    70.1112    45.0835    49.2174
  490.0000    69.8036    46.0218    49.1973
  490.5000    69.7977    46.3626    48.8358
  491.0000    69.4902    46.6412    48.1404
  491.5000    69.1826    45.6624    47.1178
  492.0000    70.1338    44.3973    45.4552
  492.5000    71.5826    42.2757    41.8234
  493.0000    72.7834    41.3913    38.9928
  493.5000    75.4924    41.0932    37.6425
  494.0000    78.2014    39.4027    37.3659
  494.5000    80.3086    36.7448    36.3242
  495.0000    78.1897    34.7463    34.3410
  495.5000    73.9605    32.1333    31.3546
  496.0000    71.2156    28.7788    28.0357
  496.5000    75.7783    26.8376    26.5051
  497.0000    81.6126    25.2020    24.6521
  497.5000    86.3035    23.0167    21.9400
  498.0000    87.8059    20.5867    20.5981
  498.5000    92.9282    19.4670    19.4735
  499.0000    95.0339    18.5367    18.2825
  499.5000    94.7264    18.0231    17.5268
  500.0000    89.8929    17.6461    17.3985
  500.5000    90.4874    17.6535    17.3961
  501.0000    91.6852    18.1592    18.2630
  501.5000    92.5813    19.0368    19.3072
  502.0000    92.8741    19.9827    20.1323
  502.5000    91.9603    20.4009    20.4083
  503.0000    90.1415    19.9745    19.8440
  503.5000    88.6244    19.5580    19.2960
  504.0000    89.8540    19.2838    19.1594
  504.5000    92.2694    19.5500    19.4256
  505.0000    94.3271    19.5460    19.2881
  505.5000    94.3183    19.1384    18.4959
  506.0000    95.8177    17.4799    17.4909
  506.5000    96.1127    17.6192    17.2465
  507.0000    95.1967    17.3509    17.2441
  507.5000    93.0762    17.2280    17.3643
  508.0000    91.2574    17.7096    17.7266
  508.5000    92.7569    17.8305    17.9729
  509.0000    93.6530    17.8259    17.7212
  509.5000    92.4243    17.6987    17.4736
  510.0000    91.1815    17.4506    17.3499
  510.5000    90.0043    17.4471    17.3476
  511.0000    91.5038    17.5653    17.4671
  511.5000    95.1148    17.8077    17.8329
  512.0000    97.8209    17.9284    17.7067
  512.5000    98.1159    17.4319    17.4593
  513.0000    96.2949    17.3076    17.2146
  513.5000    94.1744    17.0649    16.8569
  514.0000    92.6573    16.8257    16.5055
  514.5000    93.2518    16.5899    16.3887
  515.0000    95.0826    16.4715    16.1597
  515.5000    97.7958    16.2406    16.0453
  516.0000    97.1446    16.2373    15.8212
  516.5000    95.6274    16.0097    15.6001
  517.0000    95.6186    15.4528    15.3821
  517.5000    97.1180    15.1368    15.2733
  518.0000    98.9191    15.1330    15.1652
  518.5000    98.3069    15.3419    15.2691
  519.0000    96.7898    15.6622    15.4906
  519.5000    95.5743    15.8792    15.6066
  520.0000    95.2638    15.9868    15.8039
  520.5000    96.4760    15.9828    15.8012
  521.0000    98.3311    15.9795    15.7991
  521.5000   100.3633    15.8655    15.6872
  522.0000   100.0527    15.8622    15.6851
  522.5000    99.4406    15.8590    15.6830
  523.0000    99.1301    15.7457    15.6808
  523.5000   102.4395    15.6327    15.5698
  524.0000   103.0361    15.5212    15.3523
  524.5000   101.8184    15.0921    15.0327
  525.0000    99.3963    14.8806    14.7197
  525.5000    96.6725    14.6720    14.6151
  526.0000    96.6637    14.5673    14.5116
  526.5000    99.1300    14.5643    14.5097
  527.0000    98.7554    14.5614    14.5077
  527.5000    96.3333    14.5584    14.5057
  528.0000    95.1178    14.5554    14.3030
  528.5000    96.6172    14.5524    14.2018
  529.0000    97.5155    14.2483    14.1013
  529.5000    97.8084    14.0485    14.0993
  530.0000    97.4956    13.8516    13.9931
  530.5000    97.4868    13.5628    13.5981
  531.0000    99.2879    13.2799    13.2366
  531.5000   100.7894    13.3706    13.5143
  532.0000   101.3818    13.6498    13.5124
  532.5000    98.9575    13.3645    13.3237
  533.0000    96.8370    13.2691    13.1375
  533.5000    96.5287    13.2664    13.1357
  534.0000    98.0259    13.1716    13.1339
  534.5000    99.5254    13.1684    13.1321
  535.0000    98.9132    13.1657    13.1303
  535.5000    97.6977    13.0717    13.0374
  536.0000    95.5773    13.0691    13.0355
  536.5000    94.3618    12.9758    12.9429
  537.0000    95.5596    12.9732    12.9412
  537.5000    97.0590    12.9705    12.9394
  538.0000    97.4037    12.8780    12.8478
  538.5000    99.1507    12.7861    12.7569
  539.0000   100.0490    12.5178    12.4913
  539.5000    98.5297    12.3439    12.3168
  540.0000    97.6159    12.2553    12.1447
  540.5000    97.9087    12.0835    12.1430
  541.0000    97.2965    11.9973    12.1414
  541.5000    96.6843    12.0792    12.1396
  542.0000    99.0888    12.0761    12.1377
  542.5000    98.7782    12.0736    12.1360
  543.0000    97.5626    12.0712    12.1344
  543.5000    97.9541    12.1531    12.0485
  544.0000   101.7661    12.1505    12.0468
  544.5000   104.7738    12.0638    12.0452
  545.0000   105.3705    12.0612    12.1282
  545.5000   104.1528    12.1424    12.1261
  546.0000   103.5406    12.1399    12.2092
  546.5000   105.0401    12.1375    12.2075
  547.0000   106.2379    12.2203    12.2912
  547.5000   105.9273    12.3031    12.2891
  548.0000   103.5052    12.3865    12.3738
  548.5000   100.7427    12.4704    12.3717
  549.0000    99.5196    12.5542    12.4569
  549.5000   100.1582    12.5517    12.5423
  550.0000    99.7489    12.4620    12.4532
  550.5000    99.5421    12.4611    12.2809
  551.0000   101.9480    12.2881    12.1956
  551.5000   101.3388    12.1175    12.1110
  552.0000    99.8245    11.9493    12.0247
  552.5000    98.9137    11.8656    11.9337
  553.0000    98.8578    11.7009    11.8604
  553.5000    99.2036    11.6182    11.6963
  554.0000    98.8959    11.5292    11.6151
  554.5000    99.2670    11.3773    11.4544
  555.0000   103.5594    11.2193    11.2959
  555.5000   110.3398    11.2186    11.2959
  556.0000   110.6370    11.1401    11.1396
  556.5000   107.0097    11.0621    11.0623
