~VERSION INFORMATION
 VERS.                2.0:   CWLS LOG ASCII STANDARD - VERSION 2.0
 WRAP.                 NO:   ONE LINE PER DEPTH STEP
~WELL INFORMATION
#MNEM.UNIT      DATA TYPE    INFORMATION
#----------   ------------   ------------------------------
 STRT.F           42.0000:   START DEPTH
 STOP.F          866.0000:   STOP DEPTH
 STEP.F            0.5000:   STEP LENGTH
 NULL.          -999.2500:   NO VALUE
 COMP. FENIX & SCISSON INC:   COMPANY
 WELL.      NPR-SX #47-11:   WELL
 FLD .             TEAPOT:   FIELD
 LOC .      S11 T38N R78W:   LOCATION
 CNTY.            NATRONA:   COUNTY
 STAT.            WYOMING:   STATE
 CTRY. UNITED STATES OF AMERICA:   COUNTRY
 SRVC.            Unknown:   SERVICE COMPANY
 DATE.        25-FEB-1978:   LOGDATE
 API .       490251058700:   API NUMBER
~CURVE INFORMATION
#MNEM.UNIT       API CODE    CURVE DESCRIPTION
#----------   ------------   ------------------------------
 DEPT.F                  :   
 SPR .MV     07 010 01 00:   SPONTANEOUS POTENTIAL
 SN  .OHMM   07 040 16 00:   SHORT NORMAL 16'
 ILD .OHMM   07 120 46 00:   INDUCTION LOG DEEP
 CORR.G/C3   45 356 01 00:   DENSITY CORRECTION
 RHOB.G/C3   45 350 01 00:   BULK DENSITY
 DPHI.DEC    45 890 12 00:   DENSITY POROSITY SANDSTONE
 CALD.IN     45 280 60 00:   CALIPER FROM DENSITY LOG
 GRD .GAPI   45 310 01 00:   GAMMA RAY FROM DENSITY LOG
~PARAMETER INFORMATION
#MNEM.UNIT          VALUE    DESCRIPTION
#----------   ------------   ------------------------------
 PD  .                 GL:   PERMANENT DATUM
 EPD .F              5202:   ELEVATION PERMANENT DATUM
 LMF .                 KB:   LOG MEASURED FROM
 DAPD.F                 4:   FEET ABOVE PERMANENT DATUM
 DMF .                 KB:   DRILLING MEASURED FROM
 EKB .F              5206:   KELLING BUSHING
 EGL .F              5202:   GROUND LEVEL
 DATE.            2-25-78:   RUN DATE
 RUN .                  1:   RUN NUMBER
 DD  .F               870:   DEPTH DRILLER
 DL  .F               870:   DEPTH LOGGER
 BLI .F               865:   BOTTOM LOG INTERVAL
 TLI .F                47:   TOP LOG INTERVAL
 CS  .IN            8.625:   CASING SIZE
 CBD .F                40:   CASING BOTTOM DRILLER
 CBL .F                47:   CASING BOTTOM LOGGER
 BS  .IN            7.875:   BIT SIZE
 BSD .F               870:   BIT SIZE AT DEPTH
 DFT .                KCL:   DRILLING FLUID TYPE
 DFD .                8.7:   DRILLING FLUID DENSITY
 DFV .                 35:   DRILLING FLUID VISCOSITY
 DFL .                4.8:   DRILLING FLUID LOSS
 MSS .         CIRCULATED:   MUD SAMPLE SOURCE
 RMS .OHMM            1.5:   RESISTIVITY MUD SAMPLE
 MST .F                70:   MUD SAMPLE TEMPERATURE
 RMF .OHMM            .75:   RESISTIVITY MUD FILTRATE SAMPLE
 MFST.F                74:   MUD FILTRATE SAMPLE TEMPERATURE
 RMC .OHMM            1.8:   RESISTIVITY MUD CAKE
 MCST.F                68:   MUD CAKE SAMPLE TEMPERATURE
 MFSS.              PRESS:   MUD FILTRATE SAMPLE SOURCE
 RMB .OHMM            1.5:   RESISTIVITY MUD AT BHT
 BHT .F                70:   BOTTOM HOLE TEMPERATURE
 TCS .HRS               2:   TIME CURCULATED STOPPED
 MRT .F                70:   MAXIMUM RECORDED TEMPERATURE
 LUN .               2958:   LOGGING UNIT NUMBER
 LUL .               CASP:   LOGGING UNIT LOCATION
 CLNT.            A2DTECH:   CLIENT CODE
 ORIG.        2" 5" PRINT:   ORIGIN OF DATA
 UWI .       490251058700:   UNIQUE WELL ID
 DICO. A2D Technologies, Inc.:   DIGITIZING COMPANY
~OTHER INFORMATION
~A   DEPT      SPR         SN        ILD       CORR       RHOB       DPHI         CALD      GRD   
# ...
  244.5000   -22.5713    11.0644    10.5224     0.0198     2.3972     0.1568     8.5309    77.6293
  245.0000   -22.6142    11.2120    10.7749     0.0179     2.3990     0.1568     8.4920    81.2604
  245.5000   -22.6111    11.2974    10.9281     0.0118     2.3969     0.1567     8.4950    79.1594
  246.0000   -22.6079    11.3835    11.0225     0.0057     2.3948     0.1555     8.4978    76.9721
  246.5000   -22.6083    11.4702    11.1176     0.0070     2.3942     0.1512     8.5011    80.5672
  247.0000   -22.6476    11.5576    11.2136     0.0095     2.3987     0.1455     8.5043    85.2237
  247.5000   -23.0200    11.6599    11.3104     0.0111     2.4038     0.1485     8.5075    87.6666
  248.0000   -23.0110    11.7734    11.4080     0.0134     2.4092     0.1537     8.5107    89.3005
  248.5000   -23.0143    11.8881    11.5065     0.0067     2.4043     0.1605     8.5140    82.5026
  249.0000   -23.0268    12.0040    11.6059     0.0048     2.3929     0.1709     8.5172    80.7730
  249.5000   -23.0390    12.1209    11.7060    -0.0017     2.3845     0.1648     8.5204    81.4251
  250.0000   -23.0511    12.2390    11.8071    -0.0045     2.3749     0.1707     8.5236    82.6670
  250.5000   -23.0633    12.3582    11.9090    -0.0044     2.3756     0.1679     8.5268    83.5655
  251.0000   -23.0755    12.4786    12.0118    -0.0023     2.3698     0.1647     8.5298    83.4292
  251.5000   -23.0876    12.6002    12.1155     0.0028     2.3767     0.1609     8.5304    83.3676
  252.0000   -23.0998    12.7229    12.2201     0.0081     2.3836     0.1570     8.5310    84.8759
  252.5000   -23.1120    12.8468    12.3256     0.0082     2.3894     0.1532     8.5316    85.1356
  253.0000   -23.1241    12.9720    12.4317     0.0065     2.3985     0.1526     8.5322    85.5991
  253.5000   -23.1363    13.0984    12.5381     0.0058     2.4025     0.1568     8.5328    87.1982
  254.0000   -23.1485    13.3180    12.5961     0.0037     2.4016     0.1500     8.5334    86.0940
  254.5000   -23.1606    13.6674    12.5999     0.0024     2.3970     0.1347     8.5340    84.4749
  255.0000   -23.1731    14.0133    12.7168     0.0116     2.4003     0.1193     8.5346    83.9846
  255.5000   -23.1860    14.3474    13.1152     0.0179     2.4348     0.1010     8.5352    79.6624
  256.0000   -23.1965    15.0201    13.8966     0.0208     2.4593     0.0791     8.5358    78.5569
  256.5000   -23.1262    15.7243    14.7242     0.0264     2.4955     0.0758     8.5364    77.9947
  257.0000   -22.6294    16.4707    15.6019     0.0265     2.5342     0.0748     8.5370    77.7002
  257.5000   -22.1254    17.9400    16.5317     0.0247     2.5384     0.0835     8.5376    76.4538
  258.0000   -22.0887    20.1173    17.5173     0.0199     2.5359     0.0943     8.5382    75.0116
  258.5000   -22.6236    22.5588    18.5604     0.0152     2.5234     0.1115     8.5388    73.5507
  259.0000   -23.2221    25.2967    19.6663     0.0104     2.5038     0.1295     8.5394    72.0767
  259.5000   -23.4006    26.9940    20.7495     0.0056     2.4843     0.1413     8.5400    71.4642
  260.0000   -23.4076    29.4755    20.7495     0.0050     2.4491     0.1687     8.5406    70.3595
  260.5000   -23.2364    28.3138    20.0048     0.0057     2.4018     0.1811     8.5412    71.4517
  261.0000   -23.8607    26.2686    19.0380     0.0065     2.3564     0.1833     8.5418    73.6591
  261.5000   -24.4701    23.8472    18.1180     0.0050     2.3470     0.1857     8.5424    75.0767
  262.0000   -24.7662    20.6659    17.2424     0.0055     2.3408     0.1864     8.5430    73.6055
  262.5000   -24.6293    19.1826    16.4091     0.0069     2.3389     0.1873     8.5436    72.1030
  263.0000   -24.4971    16.7817    15.6161     0.0083     2.3370     0.1885     8.5442    72.0361
  263.5000   -24.3619    16.4707    14.8614     0.0094     2.3351     0.1889     8.5448    72.4044
  264.0000   -24.2224    15.9098    14.2814     0.0073     2.3345     0.1896     8.5454    74.0311
  264.5000   -24.3288    15.4373    14.0747     0.0022     2.3345     0.1920     8.5460    76.3529
  265.0000   -24.4765    15.4402    13.8710    -0.0012     2.3332     0.1892     8.5466    77.7297
  265.5000   -24.6043    14.7447    13.6703    -0.0026     2.3317     0.1857     8.5472    78.0368
  266.0000   -24.4295    14.5521    13.4726    -0.0028     2.3373     0.1868     8.5478    78.3737
  266.5000   -24.1443    14.3315    13.4054    -0.0013     2.3429     0.1706     8.5484    77.5671
  267.0000   -23.8567    14.1143    13.2525     0.0003     2.3484     0.1587     8.5491    77.0448
  267.5000   -23.5712    13.9004    13.1010     0.0000     2.3592     0.1591     8.5494    78.3498
  268.0000   -23.3050    13.6897    12.9522    -0.0006     2.3730     0.1568     8.5442    82.2702
  268.5000   -23.1743    13.4822    12.8348     0.0013     2.3766     0.1569     8.5389    86.2778
  269.0000   -23.2151    13.2778    12.8348     0.0036     2.3794     0.1576     8.5335    89.5608
  269.5000   -23.4301    13.1557    12.7669     0.0039     2.3805     0.1531     8.5282    87.5547
  270.0000   -23.3506    13.0889    12.4144     0.0034     2.3806     0.1445     8.5229    87.1077
  270.5000   -23.2628    12.6998    12.0716     0.0096     2.3956     0.1356     8.5174    89.2636
  271.0000   -23.0863    12.2555    11.7383     0.0202     2.4176     0.1344     8.5119    91.3711
  271.5000   -22.6080    12.0311    10.9297     0.0223     2.4299     0.1329     8.5139    90.0798
  272.0000   -22.1427    10.7365     9.8365     0.0206     2.4361     0.1323     8.5491    92.1363
  272.5000   -21.6701     9.5307     8.8526     0.0203     2.4345     0.1318     8.5854    96.1765
  273.0000   -21.2551     8.4604     7.9672     0.0179     2.4355     0.1324     8.6096   100.2860
  273.5000   -21.2120     7.4420     7.2386     0.0155     2.4370     0.1324     8.6091   100.6160
  274.0000   -21.1947     7.2548     7.0192     0.0151     2.4385     0.1316     8.6091    97.8675
  274.5000   -21.1673     7.0383     6.7892     0.0115     2.4380     0.1326     8.6091    96.4214
  275.0000   -21.1379     7.0417     6.7035     0.0101     2.4372     0.1271     8.6091    96.0837
  275.5000   -21.1084     6.9640     6.6652     0.0095     2.4367     0.1288     8.6091    94.0874
  276.0000   -21.0790     6.9507     6.6272     0.0070     2.4504     0.1333     8.6091    97.0647
  276.5000   -21.0495     6.9375     6.5890     0.0046     2.4433     0.1296     8.6091    98.8541
  277.0000   -21.0201     6.9242     6.5501     0.0067     2.4386     0.1215     8.6091    99.8425
  277.5000   -20.9907     6.9118     6.5115     0.0150     2.4441     0.1237     8.6091   101.3246
  278.0000   -20.9612     6.8422     6.4732     0.0201     2.4515     0.1281     8.6091   105.9262
  278.5000   -20.9318     6.7772     6.4350     0.0190     2.4505     0.1298     8.6091   109.3901
  279.0000   -20.9024     6.7128     6.3971     0.0167     2.4532     0.1220     8.6091   108.2759
  279.5000   -20.8724     6.6491     6.3608     0.0146     2.4618     0.1322     8.6091   105.7917
  280.0000   -20.8421     6.5998     6.4230     0.0151     2.4599     0.1300     8.6091   101.4202
  280.5000   -20.8251     6.7304     6.4839     0.0155     2.4563     0.1292     8.6091    96.0632
  281.0000   -21.0455     6.8392     6.5457     0.0155     2.4515     0.1261     8.6091    93.6312
  281.5000   -21.2621     6.9506     6.6080     0.0176     2.4467     0.1193     8.6091    93.1589
  282.0000   -21.1478     7.0401     6.6709     0.0200     2.4534     0.1182     8.6091    94.5510
  282.5000   -21.0151     7.0188     6.7229     0.0202     2.4598     0.1242     8.6091    92.6550
  283.0000   -21.2407     6.9995     6.7853     0.0127     2.4546     0.1242     8.6094    91.0937
  283.5000   -21.5011     6.9805     6.7350     0.0088     2.4497     0.1258     8.6100    88.6376
  284.0000   -21.7748     6.9617     6.6862     0.0109     2.4459     0.1287     8.6106    89.9437
  284.5000   -21.5870     6.9432     6.6371     0.0124     2.4416     0.1291     8.6113    92.5760
