~VERSION INFORMATION
 VERS.                2.0:   CWLS LOG ASCII STANDARD - VERSION 2.0
 WRAP.                 NO:   ONE LINE PER DEPTH STEP
~WELL INFORMATION
#MNEM.UNIT      DATA TYPE    INFORMATION
#----------   ------------   ------------------------------
 STRT.F           35.0000:   START DEPTH
 STOP.F          977.0000:   STOP DEPTH
 STEP.F            0.5000:   STEP LENGTH
 NULL.          -999.2500:   NO VALUE
 COMP. FENIX & SCISSON INC:   COMPANY
 WELL.  NPR-3 "SX" #52-14:   WELL
 FLD .             TEAPOT:   FIELD
 LOC .      S14 T38N R78W:   LOCATION
 CNTY.            NATRONA:   COUNTY
 STAT.            WYOMING:   STATE
 CTRY. UNITED STATES OF AMERICA:   COUNTRY
 SRVC.            Unknown:   SERVICE COMPANY
 DATE.        13-MAR-1978:   LOGDATE
 API .       490251059900:   API NUMBER
~CURVE INFORMATION
#MNEM.UNIT       API CODE    CURVE DESCRIPTION
#----------   ------------   ------------------------------
 DEPT.F                  :   
 CALD.IN     45 280 60 00:   CALIPER FROM DENSITY LOG
 GRD .GAPI   45 310 01 00:   GAMMA RAY FROM DENSITY LOG
 CORR.G/C3   45 356 01 00:   DENSITY CORRECTION
 RHOB.G/C3   45 350 01 00:   BULK DENSITY
 DPHI.DEC    45 890 12 00:   DENSITY POROSITY SANDSTONE
 SPR .MV     07 010 01 00:   SPONTANEOUS POTENTIAL FROM RES. LOG
 ILD .OHMM   07 120 46 00:   INDUCTION LOG DEEP
 SN  .OHMM   07 040 16 00:   SHORT NORMAL 16'
~PARAMETER INFORMATION
#MNEM.UNIT          VALUE    DESCRIPTION
#----------   ------------   ------------------------------
 PD  .                 GL:   PERMANENT DATUM
 EPD .F              5223:   ELEVATION PERMANENT DATUM
 LMF .                 KB:   LOG MEASURED FROM
 DAPD.F                 4:   FEET ABOVE PERMANENT DATUM
 DMF .                 KB:   DRILLING MEASURED FROM
 EKB .F              5227:   KELLING BUSHING
 EGL .F              5223:   GROUND LEVEL
 DATE.            3-13-78:   RUN DATE
 RUN .                  1:   RUN NUMBER
 DD  .F               975:   DEPTH DRILLER
 DL  .F               977:   DEPTH LOGGER
 BLI .F               971:   BOTTOM LOG INTERVAL
 TLI .F                50:   TOP LOG INTERVAL
 CS  .IN            8.625:   CASING SIZE
 CBD .F                40:   CASING BOTTOM DRILLER
 CBL .F                40:   CASING BOTTOM LOGGER
 BS  .IN            7.875:   BIT SIZE
 BSD .F               975:   BIT SIZE AT DEPTH
 DFT .                KCL:   DRILLING FLUID TYPE
 DFD .                8.6:   DRILLING FLUID DENSITY
 DFV .                 33:   DRILLING FLUID VISCOSITY
 DFPH.               10.5:   DRILLING FLUID PH
 DFL .               11.6:   DRILLING FLUID LOSS
 MSS .          FLOW LINE:   MUD SAMPLE SOURCE
 RMS .OHMM            .34:   RESISTIVITY MUD SAMPLE
 MST .F                60:   MUD SAMPLE TEMPERATURE
 RMF .OHMM            .36:   RESISTIVITY MUD FILTRATE SAMPLE
 MFST.F                62:   MUD FILTRATE SAMPLE TEMPERATURE
 RMC .OHMM            .75:   RESISTIVITY MUD CAKE
 MCST.F                59:   MUD CAKE SAMPLE TEMPERATURE
 MFSS.               MEAS:   MUD FILTRATE SAMPLE SOURCE
 MCSS.               MEAS:   MUD CAKE SAMPLE SOURCE
 RMB .OHMM            .27:   RESISTIVITY MUD AT BHT
 BHT .F                75:   BOTTOM HOLE TEMPERATURE
 TCS .HRS               4:   TIME CURCULATED STOPPED
 MRT .F                75:   MAXIMUM RECORDED TEMPERATURE
 LUN .               2958:   LOGGING UNIT NUMBER
 LUL .               CASP:   LOGGING UNIT LOCATION
 ENGI.             MILLER:   RECORDING ENGINEER
 WITN.            RHOADES:   WITNESSED BY
 CLNT.            A2DTECH:   CLIENT CODE
 ORIG.       2", 5" PRINT:   ORIGIN OF DATA
 UWI .       490251059900:   UNIQUE WELL ID
 DICO. A2D Technologies, Inc.:   DIGITIZING COMPANY
~OTHER INFORMATION
~A   DEPT     CALD         GRD      CORR       RHOB       DPHI        SPR        ILD         SN   
# ...
  156.5000     8.0361    75.4282     0.0307     2.4449     0.1202   -52.5623     6.6722     7.6521
  157.0000     8.0361    77.8975     0.0302     2.4367     0.1294   -52.6777     6.7237     7.6521
  157.5000     8.0361    80.3767     0.0261     2.4285     0.1333   -52.2016     6.6529     7.6521
  158.0000     8.0361    82.8488     0.0247     2.4153     0.1365   -52.8852     6.5892     7.6521
  158.5000     8.0365    83.5913     0.0234     2.4131     0.1384   -53.1853     6.5261     7.6521
  159.0000     8.0370    81.8974     0.0208     2.4101     0.1399   -52.4316     6.4636     7.3745
  159.5000     8.0374    81.9899     0.0152     2.4037     0.1437   -52.9751     6.4202     7.2807
  160.0000     8.0378    80.4628     0.0096     2.3975     0.1493   -52.9048     6.2655     7.1780
  160.5000     8.0383    80.1780     0.0065     2.3930     0.1461   -53.8001     6.1278     7.0767
  161.0000     8.0387    80.2008     0.0065     2.3951     0.1493   -54.6054     5.9933     6.9768
  161.5000     8.0392    82.0861     0.0068     2.3876     0.1561   -54.5039     5.8609     6.8784
  162.0000     8.0396    84.5256     0.0076     2.3827     0.1530   -54.3909     5.6918     6.8258
  162.5000     8.0400    83.3838     0.0087     2.3862     0.1518   -53.6135     5.7024     6.7927
  163.0000     8.0405    81.6438     0.0147     2.3878     0.1477   -53.6071     5.7241     6.7598
  163.5000     8.0409    76.9316     0.0206     2.4007     0.1431   -53.9077     5.7454     6.7237
  164.0000     8.0413    75.3373     0.0262     2.4153     0.1384   -53.4909     5.7663     6.7875
  164.5000     8.0418    77.6304     0.0207     2.4188     0.1348   -53.1992     5.7873     6.8592
  165.0000     8.0422    80.6872     0.0147     2.4131     0.1385   -53.4044     5.8083     6.9316
  165.5000     8.0427    83.3413     0.0116     2.4019     0.1432   -53.3197     5.8293     7.0416
  166.0000     8.0431    84.1641     0.0158     2.4055     0.1404   -52.0533     5.8505     7.0366
  166.5000     8.0435    83.9941     0.0161     2.4056     0.1424   -52.7997     5.8717     7.0265
  167.0000     8.0440    84.5926     0.0156     2.4022     0.1456   -53.0614     5.8931     7.0166
  167.5000     8.0444    85.1448     0.0151     2.3991     0.1446   -53.0018     5.9080     7.0066
  168.0000     8.0449    83.2586     0.0146     2.4021     0.1411   -53.3428     5.8832     6.9967
  168.5000     8.0453    78.9193     0.0141     2.4040     0.1431   -52.3013     5.8641     6.9868
  169.0000     8.0457    77.7492     0.0136     2.4034     0.1449   -52.7235     5.8451     6.9768
  169.5000     8.0462    77.0372     0.0131     2.3954     0.1519   -53.4596     5.8262     6.9669
  170.0000     8.0466    75.7232     0.0126     2.3876     0.1600   -53.8985     5.8074     6.9570
  170.5000     8.0471    75.9418     0.0125     2.3799     0.1609   -53.4883     5.7886     6.9471
  171.0000     8.0475    79.4723     0.0125     2.3727     0.1624   -53.1000     5.7698     6.9373
  171.5000     8.0479    82.5296     0.0140     2.3673     0.1625   -52.6781     5.7512     6.9275
  172.0000     8.0484    82.4900     0.0163     2.3744     0.1607   -53.4121     5.7325     6.9128
  172.5000     8.0488    79.7590     0.0187     2.3719     0.1590   -53.9846     5.7139     6.9357
  173.0000     8.0492    76.9783     0.0208     2.3826     0.1572   -53.9865     5.6936     6.9815
  173.5000     8.0497    74.2390     0.0222     2.4002     0.1555   -53.9881     5.7373     7.0276
  174.0000     8.0501    72.3614     0.0160     2.4105     0.1537   -53.6327     5.8006     7.0742
  174.5000     8.0506    73.0150     0.0069     2.3993     0.1496   -53.0008     5.8644     7.1210
  175.0000     8.0510    74.9582     0.0101     2.3890     0.1533   -53.2803     5.9289     7.1682
  175.5000     8.0514    76.9703     0.0140     2.3872     0.1512   -53.7997     5.9941     7.2156
  176.0000     8.0519    76.8453     0.0135     2.3841     0.1542   -53.2626     6.0600     7.2634
  176.5000     8.0523    76.4923     0.0123     2.3822     0.1553   -52.6199     6.1267     7.3067
  177.0000     8.0528    76.4182     0.0111     2.3784     0.1573   -52.9791     6.1873     7.2792
  177.5000     8.0532    77.8936     0.0099     2.3751     0.1597   -52.7376     6.1971     7.2543
  178.0000     8.0536    81.1174     0.0087     2.3739     0.1581   -52.3702     6.2061     7.2296
  178.5000     8.0541    81.4120     0.0075     2.3761     0.1566   -51.9980     6.2151     7.2049
  179.0000     8.0545    81.7817     0.0066     2.3802     0.1575   -51.6052     6.2240     7.1803
  179.5000     8.0549    80.4794     0.0079     2.3779     0.1584   -51.9941     6.2330     7.1701
  180.0000     8.0554    78.9056     0.0119     2.3851     0.1530   -52.3906     6.2420     7.1661
  180.5000     8.0558    78.9259     0.0194     2.3947     0.1476   -52.2045     6.2510     7.1621
  181.0000     8.0563    81.1193     0.0236     2.4030     0.1456   -52.4669     6.2601     7.1581
  181.5000     8.0567    83.2999     0.0204     2.3963     0.1472   -52.5935     6.2691     7.1542
  182.0000     8.0571    84.6247     0.0173     2.3891     0.1498   -52.4572     6.2782     7.1502
  182.5000     8.0576    83.6774     0.0147     2.3850     0.1506   -52.2939     6.2875     7.1462
  183.0000     8.0580    82.4201     0.0193     2.3920     0.1468   -51.9340     6.2970     7.1422
  183.5000     8.0585    81.1537     0.0237     2.4001     0.1429   -51.4476     6.3022     7.1382
  184.0000     8.0589    81.0811     0.0281     2.4154     0.1391   -52.5239     6.1839     7.1343
  184.5000     8.0593    81.2244     0.0301     2.4209     0.1352   -52.6823     6.0935     7.1303
  185.0000     8.0598    79.7441     0.0291     2.4275     0.1325   -52.6341     6.0048     7.1263
  185.5000     8.0602    75.9647     0.0264     2.4339     0.1300   -53.5585     5.9080     7.1224
  186.0000     8.0607    71.7182     0.0207     2.4360     0.1317   -54.1425     5.9080     7.1184
  186.5000     8.0611    74.6399     0.0220     2.4247     0.1378   -53.1087     5.9080     7.1144
  187.0000     8.0615    79.0910     0.0235     2.4135     0.1437   -53.1122     5.9080     7.1103
  187.5000     8.0620    81.1292     0.0250     2.3996     0.1471   -53.3662     5.9080     7.1070
  188.0000     8.0624    80.2213     0.0265     2.3957     0.1439   -52.5951     5.9080     7.1253
  188.5000     8.0628    80.3372     0.0280     2.3997     0.1393   -52.6006     5.9080     7.1420
  189.0000     8.0633    80.4836     0.0276     2.4114     0.1432   -52.9916     5.9080     7.1589
  189.5000     8.0637    80.3343     0.0262     2.4053     0.1400   -53.1877     5.9080     7.1757
  190.0000     8.0642    78.8129     0.0248     2.4070     0.1412   -53.1177     5.9080     7.1926
  190.5000     8.0646    80.1943     0.0256     2.4126     0.1371   -53.0495     5.9080     7.2095
  191.0000     8.0651    82.7736     0.0271     2.4180     0.1341   -52.9800     5.9080     7.2264
  191.5000     8.0655    82.9132     0.0284     2.4171     0.1424   -52.9105     5.9080     7.2434
  192.0000     8.0659    81.4475     0.0220     2.4096     0.1412   -52.8450     5.9080     7.2603
  192.5000     8.0664    81.0418     0.0205     2.4076     0.1390   -52.8745     5.9080     7.2769
  193.0000     8.0668    80.8652     0.0205     2.4149     0.1367   -53.1861     6.0092     7.2934
  193.5000     8.0672    80.3190     0.0183     2.4220     0.1344   -53.3914     6.1564     7.3640
  194.0000     8.0677    79.4021     0.0137     2.4295     0.1320   -52.6279     6.3077     7.5641
  194.5000     8.0681    78.4910     0.0092     2.4280     0.1308   -52.6317     6.4626     7.7696
  195.0000     8.0686    78.0330     0.0065     2.4242     0.1369   -53.3745     6.6213     7.9802
  195.5000     8.0690    78.2322     0.0065     2.4206     0.1424   -52.3903     6.7841     8.1146
  196.0000     8.0694    79.3413     0.0079     2.4124     0.1416   -51.4542     6.9512     8.1686
  196.5000     8.0699    81.7257     0.0099     2.4071     0.1400   -52.4806     7.1744     8.2390
