~VERSION INFORMATION
 VERS.                2.0:   CWLS LOG ASCII STANDARD - VERSION 2.0
 WRAP.                 NO:   ONE LINE PER DEPTH STEP
~WELL INFORMATION
#MNEM.UNIT      DATA TYPE    INFORMATION
#----------   ------------   ------------------------------
 STRT.F           99.0000:   START DEPTH
 STOP.F          750.0000:   STOP DEPTH
 STEP.F            0.5000:   STEP LENGTH
 NULL.          -999.2500:   NO VALUE
 COMP. U S NAVY/INTEX OIL CO:   COMPANY
 WELL.    NRP #3 #43-S-11:   WELL
 FLD .             TEAPOT:   FIELD
 LOC .      S11 T38N R78W:   LOCATION
 CNTY.            NATRONA:   COUNTY
 STAT.            WYOMING:   STATE
 CTRY. UNITED STATES OF AMERICA:   COUNTRY
 SRVC.       Schlumberger:   SERVICE COMPANY
 DATE.        12-JUL-1962:   LOGDATE
 API .       490250636100:   API NUMBER
~CURVE INFORMATION
#MNEM.UNIT       API CODE    CURVE DESCRIPTION
#----------   ------------   ------------------------------
 DEPT.F                  :   
 SPR .MV     05 010 01 00:   SPONTANEOUS POTENTIAL FROM RES.
 CILD.MMHO   05 110 46 00:   CONDUCTIVITY INDUCTION LOG DEEP
 ILD .OHMM   05 120 46 00:   INDUCTION LOG DEEP
 ASN .OHMM   05 041 16 00:   AMPLIFIED SHORT NORMAL 16"
 GR  .GAPI   30 310 01 00:   GAMMA RAY
~PARAMETER INFORMATION
#MNEM.UNIT          VALUE    DESCRIPTION
#----------   ------------   ------------------------------
 EPD .F              5177:   ELEVATION PERMANENT DATUM
 LMF .                 KB:   LOG MEASURED FROM
 DAPD.F                 5:   FEET ABOVE PERMANENT DATUM
 DMF .                 KB:   DRILLING MEASURED FROM
 EKB .F              5182:   KELLING BUSHING
 EGL .F              5177:   GROUND LEVEL
 DATE.          7-12-1962:   RUN DATE
 RUN .                  1:   RUN NUMBER
 DD  .F               750:   DEPTH DRILLER
 DL  .F               751:   DEPTH LOGGER
 BLI .F               750:   BOTTOM LOG INTERVAL
 TLI .F               100:   TOP LOG INTERVAL
 CBD .F                10:   CASING BOTTOM DRILLER
 BS  .IN             6.75:   BIT SIZE
 BSD .F               750:   BIT SIZE AT DEPTH
 DFT .           OIL EMUL:   DRILLING FLUID TYPE
 DFD .               10.2:   DRILLING FLUID DENSITY
 DFV .                 40:   DRILLING FLUID VISCOSITY
 DFL .                4.6:   DRILLING FLUID LOSS
 RMS .OHMM            5.2:   RESISTIVITY MUD SAMPLE
 MST .F                82:   MUD SAMPLE TEMPERATURE
 RMF .OHMM            3.7:   RESISTIVITY MUD FILTRATE SAMPLE
 MFST.F                82:   MUD FILTRATE SAMPLE TEMPERATURE
 RMC .OHMM            5.8:   RESISTIVITY MUD CAKE
 MCST.F                80:   MUD CAKE SAMPLE TEMPERATURE
 TCS .HRS              .5:   TIME CURCULATED STOPPED
 LUN .               2523:   LOGGING UNIT NUMBER
 LUL .               CSPR:   LOGGING UNIT LOCATION
 ENGI.           ELLERMAN:   RECORDING ENGINEER
 WITN.          JORGENSON:   WITNESSED BY
 CLNT.            A2DTECH:   CLIENT CODE
 ORIG.       2", 5" PRINT:   ORIGIN OF DATA
 UWI .       490250636100:   UNIQUE WELL ID
 DICO. A2D Technologies, Inc.:   DIGITIZING COMPANY
~OTHER INFORMATION
~A   DEPT      SPR       CILD        ILD          ASN       GR   
# ...
  709.0000   -54.8632    64.6038    16.8168    15.9389    71.7433
  709.5000   -54.0533    64.1771    17.0169    16.2386    67.8543
  710.0000   -53.2350    63.7989    17.0359    16.2918    72.3995
  710.5000   -53.0545    63.4213    16.9289    15.7436    64.8826
  711.0000   -53.3697    63.0436    16.8193    15.3873    74.7513
  711.5000   -54.4718    62.6660    16.7098    15.3245    81.2879
  712.0000   -55.2379    62.2884    16.6097    15.2083    83.6005
  712.5000   -54.3639    61.9107    16.3413    15.0872    78.7617
  713.0000   -53.3310    62.4693    16.0192    14.9230    81.4170
  713.5000   -53.5208    64.4184    15.6950    14.6675    76.1480
  714.0000   -54.0876    66.3675    15.3421    14.3900    79.5254
  714.5000   -54.2126    68.3166    14.9889    14.1102    78.1864
  715.0000   -53.3862    70.2656    14.6348    13.8308    79.6421
  715.5000   -51.8548    72.2147    14.3017    13.5488    77.8511
  716.0000   -53.9232    73.8028    14.2438    13.3139    68.9937
  716.5000   -56.8787    74.1625    14.1720    13.2438    64.1352
  717.0000   -57.2195    74.5221    14.0982    13.1761    67.2659
  717.5000   -56.7973    74.8818    14.0240    13.1073    70.8442
  718.0000   -57.0249    75.2414    13.9499    13.0378    72.3230
  718.5000   -57.7282    75.6011    13.8757    12.9684    70.8537
  719.0000   -58.4346    75.9607    13.8015    12.8983    63.8305
  719.5000   -59.0380    76.3204    13.7274    12.8666    69.1577
  720.0000   -58.4260    76.6800    13.6532    12.7643    77.3160
  720.5000   -57.4488    77.0397    13.5791    12.6653    75.0678
  721.0000   -57.5031    77.3993    13.5049    12.5663    64.0384
  721.5000   -58.0815    77.7590    13.4307    12.4672    66.3227
  722.0000   -58.6524    78.1186    13.3566    12.3681    66.2004
  722.5000   -59.1982    78.4783    13.2824    12.2691    61.6933
  723.0000   -58.9539    78.8379    13.2082    12.1700    55.3836
  723.5000   -58.1548    79.1976    13.1341    12.0710  -999.2500
  724.0000   -56.8313    79.5572    13.0599    11.9719  -999.2500
  724.5000   -56.3179    79.7392    12.9858    11.8728  -999.2500
  725.0000   -55.2457    81.0158    12.9116    11.7738  -999.2500
  725.5000   -53.8340    81.5649    12.8374    11.6721  -999.2500
  726.0000   -52.4473    82.1156    12.7633    11.5792  -999.2500
  726.5000   -52.2842    82.6636    12.6891    11.4834  -999.2500
  727.0000   -56.0794    83.2129    12.6150    11.3874  -999.2500
  727.5000   -59.2480    83.7622    12.5408    11.2915  -999.2500
  728.0000   -58.9229    84.3115    12.4665    11.1956  -999.2500
  728.5000   -58.9496    84.8608    12.3895    11.0997  -999.2500
  729.0000   -58.6859    85.4100    12.2971    11.0036  -999.2500
  729.5000   -58.1556    85.9593    12.2005    10.9043  -999.2500
  730.0000   -57.6058    86.5086    12.1036    10.8879  -999.2500
  730.5000   -57.2455    86.7648    12.0066    10.8943  -999.2500
  731.0000   -58.0291    86.7041    11.9068    10.9015  -999.2500
  731.5000   -58.6144    86.6440    11.8922    10.9084  -999.2500
  732.0000   -58.6425    86.5838    11.9109    10.9153  -999.2500
  732.5000   -59.0419    86.5239    11.9300    10.9222  -999.2500
  733.0000   -59.5926    86.4639    11.9489    10.9291  -999.2500
  733.5000   -60.1271    86.4040    11.9678    10.9360  -999.2500
  734.0000   -60.0504    86.3440    11.9867    10.9429  -999.2500
  734.5000   -57.6867    86.2841    12.0056    10.9498  -999.2500
  735.0000   -56.2476    86.2242    12.0245    10.9567  -999.2500
  735.5000   -56.7607    86.1642    12.0433    10.9636  -999.2500
  736.0000   -55.1748    86.1043    12.0622    10.9706  -999.2500
  736.5000   -53.5844    86.0443    12.0811    10.9777  -999.2500
  737.0000   -52.2934    85.9844    12.1000    10.9827  -999.2500
  737.5000   -55.6981    85.9241    12.1189    10.9178  -999.2500
  738.0000   -58.5237    85.8645    12.1378    10.6835  -999.2500
  738.5000   -56.5991    85.8046    12.1567    10.4853  -999.2500
  739.0000   -54.2139    85.9699    12.1752    10.4810  -999.2500
  739.5000   -53.6676    86.9769    12.1749    10.4811  -999.2500
  740.0000   -56.9400    87.9839    12.1458    10.4814  -999.2500
  740.5000   -59.3636    88.9910    12.1171    10.4814  -999.2500
  741.0000   -59.7976    89.9980    12.0883    10.4814  -999.2500
  741.5000   -61.6657    91.0050    12.0596    10.4814  -999.2500
  742.0000   -62.8201    92.0120    12.0308    10.4814  -999.2500
  742.5000   -58.5018    93.7813    12.0020    10.4816  -999.2500
  743.0000   -58.7604    94.0994    11.9732    10.4806  -999.2500
  743.5000   -57.9526    94.7843    11.9445    10.4782  -999.2500
  744.0000   -56.8605  -999.2500    11.9157    10.3742  -999.2500
  744.5000   -56.2025  -999.2500    11.8869    10.3809  -999.2500
  745.0000   -53.4174  -999.2500    11.8581    10.3889  -999.2500
  745.5000   -44.8642  -999.2500    11.8294    10.2873  -999.2500
  746.0000   -42.0057  -999.2500    11.8009    10.3887  -999.2500
  746.5000   -42.7045  -999.2500    11.7980    10.3827  -999.2500
  747.0000   -42.4882  -999.2500    11.8254    10.3810  -999.2500
  747.5000   -44.0354  -999.2500    11.8525    10.3811  -999.2500
  748.0000   -40.3525  -999.2500    11.8798    10.3811  -999.2500
  748.5000   -45.4157  -999.2500    11.9071    10.3811  -999.2500
  749.0000   -47.1028  -999.2500    11.9349    10.3811  -999.2500
  749.5000   -47.0087  -999.2500    11.9646    10.3811  -999.2500
  750.0000   -46.9960  -999.2500    11.9323  -999.2500  -999.2500
