~VERSION INFORMATION
 VERS.                2.0:   CWLS LOG ASCII STANDARD - VERSION 2.0
 WRAP.                 NO:   ONE LINE PER DEPTH STEP
~WELL INFORMATION
#MNEM.UNIT      DATA TYPE    INFORMATION
#----------   ------------   ------------------------------
 STRT.F          664.0000:   START DEPTH
 STOP.F         1880.0000:   STOP DEPTH
 STEP.F            0.5000:   STEP LENGTH
 NULL.          -999.2500:   NO VALUE
 COMP. LAWRENCE/ALLISON INC:   COMPANY
 WELL.     NPR 3 TX #42-3:   WELL
 FLD .             TEAPOT:   FIELD
 LOC .       S3 T38N R78W:   LOCATION
 CNTY.            NATRONA:   COUNTY
 STAT.            WYOMING:   STATE
 CTRY. UNITED STATES OF AMERICA:   COUNTRY
 SRVC.            Unknown:   SERVICE COMPANY
 DATE.        23-JUN-1984:   LOGDATE
 API .       490251096800:   API NUMBER
~CURVE INFORMATION
#MNEM.UNIT       API CODE    CURVE DESCRIPTION
#----------   ------------   ------------------------------
 DEPT.F                  :   
 ROP .MIN/FT 91 810 01 00:   RAT OF DRILLING PENETRATION
 TGAS.UNITS  91 830 01 00:   TOTAL GAS FROM HOTWIRE
~PARAMETER INFORMATION
#MNEM.UNIT          VALUE    DESCRIPTION
#----------   ------------   ------------------------------
 EKB .F              5142:   KELLING BUSHING
 EGL .F              5132:   GROUND LEVEL
 DATE.            6-23-84:   RUN DATE
 BLI .F              1180:   BOTTOM LOG INTERVAL
 TLI .F               660:   TOP LOG INTERVAL
 CS  .IN            8.625:   CASING SIZE
 CBD .F               653:   CASING BOTTOM DRILLER
 LUN .               T-63:   LOGGING UNIT NUMBER
 ENGI.            JOHNSON:   RECORDING ENGINEER
 WITN.           SCHERGER:   WITNESSED BY
 CLNT.            A2DTECH:   CLIENT CODE
 ORIG.           5" PRINT:   ORIGIN OF DATA
 UWI .       490251096800:   UNIQUE WELL ID
 DICO. A2D Technologies, Inc.:   DIGITIZING COMPANY
~OTHER INFORMATION
~A   DEPT        ROP       TGAS 
# ...
 1636.0000     1.9153    86.2407
 1636.5000     1.5869    90.5382
 1637.0000     1.3364    91.6889
 1637.5000     1.0859    93.8885
 1638.0000     1.0740    95.0392
 1638.5000     1.0602    96.1898
 1639.0000     1.0463    96.2937
 1639.5000     1.0325    96.4187
 1640.0000     1.0833    92.3248
 1640.5000     1.1889    91.3786
 1641.0000     1.3149    88.3345
 1641.5000     1.4417    89.4862
 1642.0000     1.4833    89.5890
 1642.5000     1.3377    90.7407
 1643.0000     1.1719    96.0882
 1643.5000     1.0894    97.2399
 1644.0000     1.0917    96.2937
 1644.5000     1.1552    96.3986
 1645.0000     1.1996    96.5035
 1645.5000     1.2861    96.6277
 1646.0000     1.5187    97.7794
 1646.5000     1.7495    96.8075
 1647.0000     2.0219    96.9359
 1647.5000     2.1901    97.0387
 1648.0000     2.4833    93.9946
 1648.5000     2.5177    90.9505
 1649.0000     2.1647    85.8085
 1649.5000     1.8324    83.8133
 1650.0000     1.5207    82.8671
 1650.5000     1.5220    82.9720
 1651.0000     1.5019    83.0769
 1651.5000     1.5032    82.1521
 1652.0000     1.5043    81.1802
 1652.5000     1.6720    78.1361
 1653.0000     1.7980    78.2646
 1653.5000     1.9449    78.3673
 1654.0000     2.0918    78.4701
 1654.5000     2.0095    81.7197
 1655.0000     1.7189    81.8225
 1655.5000     1.5948    81.9252
 1656.0000     1.5722    83.0769
 1656.5000     1.7011    82.1307
 1657.0000     1.8271    82.2378
 1657.5000     1.9740    89.7046
 1658.0000     2.0375   273.3737
 1658.5000     2.0385   448.6513
 1659.0000     2.0396   448.7541
 1659.5000     2.0615   448.8654
 1660.0000     2.0210    95.4717
 1660.5000     2.0225    92.4019
 1661.0000     2.0240    90.4324
 1661.5000     2.0255    91.5841
 1662.0000     2.0482   124.2043
 1662.5000     2.1122   141.0903
 1663.0000     2.2804   139.0952
 1663.5000     2.3861   133.9511
 1664.0000     2.4293   135.1049
 1664.5000     2.2849   136.2587
 1665.0000     2.0990   137.4126
 1665.5000     1.9283   138.5600
 1666.0000     1.8520   133.4437
 1666.5000     1.7910   126.2038
 1667.0000     1.6887   120.0128
 1667.5000     1.6274   115.9198
 1668.0000     1.5876   114.9479
 1668.5000     1.4641   115.0764
 1669.0000     1.3601   115.1791
 1669.5000     1.2592   115.2819
 1670.0000     1.1978   114.3357
 1670.5000     1.3038   112.3405
 1671.0000     1.3887   111.2239
 1671.5000     1.4735   111.5228
 1672.0000     1.5168   111.6255
 1672.5000     1.5392   110.6537
 1673.0000     1.5612   110.7821
 1673.5000     1.5422   110.8848
 1674.0000     1.5215   110.9876
 1674.5000     1.4827   111.0903
 1675.0000     1.5055   111.1931
 1675.5000     1.5278   111.2958
 1676.0000     1.5293   111.3986
 1676.5000     1.5096   111.5035
 1677.0000     1.5115   111.6084
 1677.5000     1.5130   111.7326
 1678.0000     1.5174   111.8353
 1678.5000     1.5789   111.9381
 1679.0000     1.6638   112.0408
 1679.5000     1.7486   112.1436
 1680.0000     1.6668   111.1803
 1680.5000     1.5647   114.3357
 1681.0000     1.4001   114.3357
 1681.5000     1.2772   114.3357
 1682.0000     1.1959   114.3357
 1682.5000     1.0938   114.3357
 1683.0000     1.0333   114.3357
 1683.5000     0.9934   114.3357
 1684.0000     0.9541   114.3357
 1684.5000     0.9354   114.3357
 1685.0000     0.9375   114.3357
 1685.5000     0.9400   114.3357
 1686.0000     0.9420   114.3357
 1686.5000     0.9441   113.2867
 1687.0000     0.9462   123.1435
 1687.5000     0.9482   188.1192
 1688.0000     0.9503   423.7762
 1688.5000     0.9523   450.0000
 1689.0000     0.9544   450.0000
 1689.5000     0.9564   446.8531
 1690.0000     0.9585   415.3846
 1690.5000     0.9606   370.2797
 1691.0000     0.9626   315.7343
 1691.5000     0.9647   274.8252
 1692.0000     0.9667   231.4717
 1692.5000     1.0105   211.3652
 1693.0000     1.1375   166.7832
 1693.5000     1.1611   137.4126
 1694.0000     1.2680   126.9231
 1694.5000     1.3337   115.3846
 1695.0000     1.4167   106.9930
 1695.5000     1.4817    98.6014
 1696.0000     1.5045    95.4546
 1696.5000     1.5691    92.3077
 1697.0000     1.5712    89.1608
 1697.5000     1.5732    89.1608
 1698.0000     1.5539    88.1119
 1698.5000     1.4940    88.1119
 1699.0000     1.4330    88.1119
 1699.5000     1.3314    88.1119
 1700.0000     1.2705    91.2756
 1700.5000     1.2057    91.3772
 1701.0000     1.1250    90.4043
 1701.5000     1.0625    91.5802
 1702.0000     1.0208    91.6817
 1702.5000     0.9792    91.7832
 1703.0000     0.9792    91.8881
 1703.5000     0.9792    93.0605
 1704.0000     0.9792    93.1621
 1704.5000     0.9792    94.3125
 1705.0000     0.9792    96.5120
 1705.5000     1.0000    96.6135
 1706.0000     1.0000    96.7832
 1706.5000     1.0000    97.8671
 1707.0000     1.0000    99.0413
 1707.5000     1.0000   100.1917
 1708.0000     1.0000    99.2189
 1708.5000     1.0469    98.2715
 1709.0000     1.2083    99.4474
 1709.5000     1.2917   100.5978
 1710.0000     1.2917   101.7483
 1710.5000     1.2708   100.8008
 1711.0000     1.1250   100.9277
 1711.5000     1.0625   101.0292
 1712.0000     1.0833   101.1307
 1712.5000     1.1250   101.2322
 1713.0000     1.1875   102.3827
 1713.5000     1.2500   107.7290
 1714.0000     1.2917   112.1677
 1714.5000     1.3333   116.3490
 1715.0000     1.4375   122.7442
 1715.5000     1.5000   131.2373
 1716.0000     1.5417   137.6325
 1716.5000     1.5417   142.9788
 1717.0000     1.5208   149.3740
 1717.5000     1.3750   151.5734
 1718.0000     1.2917   150.6260
 1718.5000     1.3958   144.4423
 1719.0000     1.4583   141.3969
 1719.5000     1.5000   162.5028
 1720.0000     1.5002   447.9021
 1720.5000     1.5012   446.9549
 1721.0000     1.4397   447.0820
 1721.5000     1.3990   446.1093
 1722.0000     1.3584   446.2365
 1722.5000     1.2969   424.3102
 1723.0000     1.2129   377.2091
 1723.5000     1.1322   340.5976
 1724.0000     1.0502   315.5245
 1724.5000     0.9678   285.0798
 1725.0000     0.8855   243.3757
 1725.5000     0.8449   208.8620
 1726.0000     0.7834   176.4463
 1726.5000     0.7844   158.7158
 1727.0000     0.8722   139.9364
 1727.5000     0.9742   130.5976
 1728.0000     1.0377   125.4546
 1728.5000     1.0595   120.1837
 1729.0000     1.0605   116.2428
 1729.5000     1.0615   115.2702
 1730.0000     1.0625   113.2740
 1730.5000     1.1052   113.4012
 1731.0000     1.2104   113.5029
 1731.5000     1.2742   113.6046
 1732.0000     1.3585   114.7552
 1732.5000     1.2762   113.8080
 1733.0000     1.2144   113.9352
 1733.5000     1.1324   114.0369
 1734.0000     1.0708   114.1386
 1734.5000     1.0510   115.2893
 1735.0000     1.1372   115.3910
 1735.5000     1.2408   114.4406
 1736.0000     1.3252   114.5454
 1736.5000     1.2845   114.6503
 1737.0000     1.0564   114.7743
 1737.5000     0.9115   114.8760
 1738.0000     0.7875   114.9778
 1738.5000     0.8302   115.0795
 1739.0000     0.9163   115.1812
 1739.5000     0.9992   114.2308
 1740.0000     1.1042   110.1483
 1740.5000     1.1889   110.2588
 1741.0000     1.3153   110.3607
 1741.5000     1.4813   111.5116
 1742.0000     1.5833   112.6624
 1742.5000     1.4305   112.7644
 1743.0000     1.2917   112.8671
 1743.5000     1.2292   112.9720
 1744.0000     1.1458   113.0956
 1744.5000     1.0833   113.1975
 1745.0000     1.0625   113.2994
 1745.5000     1.0625   113.4014
 1746.0000     1.0417   113.5033
 1746.5000     1.1042   113.6052
 1747.0000     1.2708   113.7072
 1747.5000     1.5625   113.8112
 1748.0000     1.7292   113.9365
 1748.5000     1.7292   112.9640
 1749.0000     1.7292   113.0914
 1749.5000     1.5833   113.1933
 1750.0000     1.5625   113.2952
 1750.5000     1.6042   113.3972
 1751.0000     1.6667   113.4991
 1751.5000     1.7500   120.3431
 1752.0000     1.7500   450.0000
 1752.5000     1.7917   450.0000
 1753.0000     1.7292   450.0000
 1753.5000     1.6458   450.0000
 1754.0000     1.5833   450.0000
 1754.5000     1.5826   450.0000
 1755.0000     1.6250   420.6336
 1755.5000     1.7500   373.5327
 1756.0000     1.8972   255.5972
 1756.5000     2.1792   214.3215
 1757.0000     2.5556   174.5633
