~VERSION INFORMATION
 VERS.                2.0:   CWLS LOG ASCII STANDARD - VERSION 2.0
 WRAP.                 NO:   ONE LINE PER DEPTH STEP
~WELL INFORMATION
#MNEM.UNIT      DATA TYPE    INFORMATION
#----------   ------------   ------------------------------
 STRT.F          779.5000:   START DEPTH
 STOP.F         2194.0000:   STOP DEPTH
 STEP.F            0.5000:   STEP LENGTH
 NULL.          -999.2500:   NO VALUE
 COMP. LAWRENCE/ALLISON INC:   COMPANY
 WELL.        27 X #10-10:   WELL
 FLD .             TEAPOT:   FIELD
 LOC .      S10 T38N R78W:   LOCATION
 CNTY.            NATRONA:   COUNTY
 STAT.            WYOMING:   STATE
 CTRY. UNITED STATES OF AMERICA:   COUNTRY
 SRVC.            Unknown:   SERVICE COMPANY
 DATE.        21-AUG-1987:   LOGDATE
 API .       490251118900:   API NUMBER
~CURVE INFORMATION
#MNEM.UNIT       API CODE    CURVE DESCRIPTION
#----------   ------------   ------------------------------
 DEPT.F                  :   
 ROP .MIN/FT 91 810 01 00:   RATE OF DRILLING PENETRATION
 TGAS.UNITS  91 830 01 00:   TOTAL GAS FROM HOTWIRE
~PARAMETER INFORMATION
#MNEM.UNIT          VALUE    DESCRIPTION
#----------   ------------   ------------------------------
 EKB .F              5237:   KELLING BUSHING
 EGL .F              5236:   GROUND LEVEL
 DATE.        21-AUG-1987:   RUN DATE
 BLI .F              2180:   BOTTOM LOG INTERVAL
 TLI .F               780:   TOP LOG INTERVAL
 LUN .              T-148:   LOGGING UNIT NUMBER
 ENGI.            R. HUSK:   RECORDING ENGINEER
 WITN.           C. TOWER:   WITNESSED BY
 CLNT.            A2DTECH:   CLIENT CODE
 ORIG.           5" PRINT:   ORIGIN OF DATA
 UWI .       490251118900:   UNIQUE WELL ID
 DICO. A2D Technologies, Inc.:   DIGITIZING COMPANY
~OTHER INFORMATION
~A   DEPT      ROP         TGAS 
# ...
 1751.5000     0.6199    62.1898
 1752.0000     0.6133    62.1898
 1752.5000     0.5966    63.9416
 1753.0000     0.5924    65.2555
 1753.5000     0.5841    67.8832
 1754.0000     0.5833    71.8248
 1754.5000     0.5868    75.7664
 1755.0000     0.5925    78.3942
 1755.5000     0.5917    78.4161
 1756.0000     0.5909    77.9562
 1756.5000     0.5901    76.6423
 1757.0000     0.5893    75.3285
 1757.5000     0.5885    74.4526
 1758.0000     0.5877    72.7007
 1758.5000     0.5869    70.9489
 1759.0000     0.5860    69.1971
 1759.5000     0.5783    67.0073
 1760.0000     0.5627    65.2555
 1760.5000     0.5730    63.0832
 1761.0000     0.5725    63.1095
 1761.5000     0.5503    63.1358
 1762.0000     0.5051    63.1568
 1762.5000     0.4704    63.1778
 1763.0000     0.4389    63.1988
 1763.5000     0.4291    63.2216
 1764.0000     0.4259    63.2409
 1764.5000     0.4139    63.2672
 1765.0000     0.4020    63.2882
 1765.5000     0.3945    63.3110
 1766.0000     0.3939    63.3302
 1766.5000     0.3934    63.3512
 1767.0000     0.3989    62.9343
 1767.5000     0.4231    63.3985
 1768.0000     0.4711    63.4196
 1768.5000     0.5353    63.4406
 1769.0000     0.6198    63.4616
 1769.5000     0.7147    63.4826
 1770.0000     0.7683    63.5037
 1770.5000     0.7570    63.5299
 1771.0000     0.7240    63.9889
 1771.5000     0.6677    64.0099
 1772.0000     0.6111    64.0310
 1772.5000     0.5680    64.0537
 1773.0000     0.5467    64.0730
 1773.5000     0.5399    64.5372
 1774.0000     0.5508    64.5582
 1774.5000     0.5691    64.5793
 1775.0000     0.6070    64.1571
 1775.5000     0.6520    63.7454
 1776.0000     0.7024    63.7664
 1776.5000     0.7707    63.7927
 1777.0000     0.8499    63.8137
 1777.5000     0.9362    63.8347
 1778.0000     0.9424    63.8558
 1778.5000     0.8994    63.8768
 1779.0000     0.8451    63.8978
 1779.5000     0.8230    63.9241
 1780.0000     0.8009    63.9399
 1780.5000     0.8009    63.9165
 1781.0000     0.8009    63.8949
 1781.5000     0.7792    63.8732
 1782.0000     0.7570    63.8516
 1782.5000     0.7238    63.8300
 1783.0000     0.6898    63.8083
 1783.5000     0.6474    63.7867
 1784.0000     0.6264    63.7651
 1784.5000     0.6154    63.7434
 1785.0000     0.6061    63.7218
 1785.5000     0.6081    63.7002
 1786.0000     0.6169    63.6785
 1786.5000     0.6143    63.6569
 1787.0000     0.6061    63.6353
 1787.5000     0.6061    63.6136
 1788.0000     0.6061    63.5920
 1788.5000     0.6061    63.5704
 1789.0000     0.6061    63.5487
 1789.5000     0.6018    63.5271
 1790.0000     0.5907    63.5055
 1790.5000     0.5844    63.4839
 1791.0000     0.5844    63.4622
 1791.5000     0.5844    63.4406
 1792.0000     0.5844    63.4190
 1792.5000     0.5786    63.3973
 1793.0000     0.5675    63.3757
 1793.5000     0.5436    63.3541
 1794.0000     0.5236    63.3324
 1794.5000     0.5195    63.3108
 1795.0000     0.5195    63.2892
 1795.5000     0.5195    63.2675
 1796.0000     0.5195    63.2459
 1796.5000     0.5195    63.2243
 1797.0000     0.5195    63.2026
 1797.5000     0.5195    63.1810
 1798.0000     0.5195    63.1594
 1798.5000     0.5195    63.1377
 1799.0000     0.5195    63.1161
 1799.5000     0.5195    63.0945
 1800.0000     0.5411    63.0693
 1800.5000     0.6052    62.8920
 1801.0000     0.7126    62.6511
 1801.5000     0.7768    62.2213
 1802.0000     0.7413    61.7968
 1802.5000     0.6838    61.3696
 1803.0000     0.6195    61.3804
 1803.5000     0.5852    61.3912
 1804.0000     0.5563    61.4020
 1804.5000     0.5555    61.8507
 1805.0000     0.5571    61.8624
 1805.5000     0.5647    62.3112
 1806.0000     0.5670    62.3229
 1806.5000     0.5739    62.7707
 1807.0000     0.5692    62.7815
 1807.5000     0.5614    62.7932
 1808.0000     0.5606    62.8049
 1808.5000     0.5598    62.8157
 1809.0000     0.5590    62.8265
 1809.5000     0.5582    62.8373
 1810.0000     0.5632    62.8467
 1810.5000     0.5674    62.8589
 1811.0000     0.5731    62.8696
 1811.5000     0.5766    62.8804
 1812.0000     0.5758    62.4506
 1812.5000     0.5749    62.4650
 1813.0000     0.5741    62.4749
 1813.5000     0.5733    62.4856
 1814.0000     0.5725    62.4964
 1814.5000     0.5716    62.5073
 1815.0000     0.5708    62.5182
 1815.5000     0.5700    62.5292
 1816.0000     0.5692    62.5423
 1816.5000     0.5792    62.1124
 1817.0000     0.6650    62.1259
 1817.5000     0.7185    62.5747
 1818.0000     0.7284    63.0234
 1818.5000     0.7020    63.4722
 1819.0000     0.6442    63.9209
 1819.5000     0.5823    64.8076
 1820.0000     0.5498    65.2571
 1820.5000     0.5386    65.2779
 1821.0000     0.5406    65.2995
 1821.5000     0.5403    65.7591
 1822.0000     0.5292    66.2230
 1822.5000     0.5289    66.2442
 1823.0000     0.5070    66.7033
 1823.5000     0.4958    66.7244
 1824.0000     0.4848    66.7456
 1824.5000     0.4846    66.7667
 1825.0000     0.4843    67.2263
 1825.5000     0.4858    67.2523
 1826.0000     0.4946    66.8302
 1826.5000     0.4943    66.8566
 1827.0000     0.4940    66.8778
 1827.5000     0.4904    66.8989
 1828.0000     0.4827    66.9201
 1828.5000     0.4824    66.9412
 1829.0000     0.4821    66.5244
 1829.5000     0.4819    66.5508
 1830.0000     0.4816    66.5720
 1830.5000     0.4813    66.5931
 1831.0000     0.4811    66.6143
 1831.5000     0.4808    66.6354
 1832.0000     0.4805    66.2186
 1832.5000     0.4802    66.2451
 1833.0000     0.4800    66.2662
 1833.5000     0.4797    65.8441
 1834.0000     0.4794    65.8706
 1834.5000     0.4791    65.8917
 1835.0000     0.4789    65.4745
 1835.5000     0.4786    65.4964
 1836.0000     0.4783    65.5225
 1836.5000     0.4781    65.5436
 1837.0000     0.4886    65.5648
 1837.5000     0.4884    65.5859
 1838.0000     0.4892    65.1638
 1838.5000     0.5016    64.7518
 1839.0000     0.5219    64.7737
 1839.5000     0.5306    64.7999
 1840.0000     0.5302    64.8210
 1840.5000     0.5295    65.3633
 1841.0000     0.5287    65.6934
 1841.5000     0.5170    65.2555
 1842.0000     0.5162    65.2555
 1842.5000     0.5154    65.2555
 1843.0000     0.5146    65.2555
 1843.5000     0.5138    65.2555
 1844.0000     0.5130    65.2555
 1844.5000     0.5122    64.8175
 1845.0000     0.5114    65.2555
 1845.5000     0.5106    64.8175
 1846.0000     0.5097    64.8175
 1846.5000     0.5089    64.8175
 1847.0000     0.5081    64.8175
 1847.5000     0.5073    64.8175
 1848.0000     0.5121    64.8175
 1848.5000     0.5405    65.2555
 1849.0000     0.5846    65.2555
 1849.5000     0.6355    65.2555
 1850.0000     0.6836    65.2555
 1850.5000     0.6972    65.2555
 1851.0000     0.6804    65.2555
 1851.5000     0.6402    65.2555
 1852.0000     0.6081    65.2555
 1852.5000     0.5857    65.2555
 1853.0000     0.5849    65.2555
 1853.5000     0.5733    65.2555
 1854.0000     0.5725    65.2555
 1854.5000     0.5717    64.8175
 1855.0000     0.5709    64.8175
 1855.5000     0.5701    64.3796
 1856.0000     0.5693    64.3796
 1856.5000     0.5685    64.3796
 1857.0000     0.5676    64.3796
 1857.5000     0.5668    64.3796
 1858.0000     0.5660    64.3796
 1858.5000     0.5652    64.3796
 1859.0000     0.5607    64.3796
 1859.5000     0.5528    64.3796
 1860.0000     0.5302    64.3796
 1860.5000     0.5297    64.4010
 1861.0000     0.5400    64.4365
 1861.5000     0.5503    64.4720
 1862.0000     0.5498    64.5075
 1862.5000     0.5492    64.5430
 1863.0000     0.5487    64.5786
 1863.5000     0.5482    64.6141
 1864.0000     0.5476    64.6496
 1864.5000     0.5471    64.6851
 1865.0000     0.5447    64.7206
 1865.5000     0.5352    64.7562
 1866.0000     0.5346    64.7917
 1866.5000     0.5341    64.8272
 1867.0000     0.5335    64.8627
 1867.5000     0.5294    64.8983
 1868.0000     0.5256    64.9338
 1868.5000     0.5363    64.9693
 1869.0000     0.5469    65.0048
 1869.5000     0.5474    65.0404
 1870.0000     0.5411    65.0759
 1870.5000     0.5406    65.1114
 1871.0000     0.5400    65.1469
 1871.5000     0.5395    65.1824
 1872.0000     0.5390    65.2180
 1872.5000     0.5384    65.2535
