~VERSION INFORMATION
 VERS.                2.0:   CWLS LOG ASCII STANDARD - VERSION 2.0
 WRAP.                 NO:   ONE LINE PER DEPTH STEP
~WELL INFORMATION
#MNEM.UNIT      DATA TYPE    INFORMATION
#----------   ------------   ------------------------------
 STRT.F           36.0000:   START DEPTH
 STOP.F          564.0000:   STOP DEPTH
 STEP.F            0.5000:   STEP LENGTH
 NULL.          -999.2500:   NO VALUE
 COMP.    FENIX & SCISSON:   COMPANY
 WELL.        NPR #73-S-3:   WELL
 FLD .             TEAPOT:   FIELD
 LOC .       S3 T38N R78W:   LOCATION
 CNTY.            NATRONA:   COUNTY
 STAT.            WYOMING:   STATE
 CTRY. UNITED STATES OF AMERICA:   COUNTRY
 SRVC.       Schlumberger:   SERVICE COMPANY
 DATE.        19-FEB-1977:   LOGDATE
 API .       490251027900:   API NUMBER
~CURVE INFORMATION
#MNEM.UNIT       API CODE    CURVE DESCRIPTION
#----------   ------------   ------------------------------
 DEPT.F                  :   
 SPR .MV     07 010 01 00:   SPONTANEOUS POTENTIAL
 ILD .OHMM   07 120 46 00:   INDUCTION LOG DEEP
 ILM .OHMM   07 120 44 00:   INDUCTION LOG MEDIUM
 LL8 .OHMM   07 220 08 00:   LATEROLOG-8 RES.
 CALD.IN     45 280 60 00:   CALIPER FROM DENSITY LOG
 CORR.G/C3   45 356 01 00:   DENSITY CORRECTION
 RHOB.G/C3   45 350 01 00:   BULK DENSITY
 DPHI.DEC    45 890 12 00:   DENSITY POROSITY SANDSTONE
 GRD .GAPI   45 310 01 00:   GAMMA RAY FROM DENSITY LOG
~PARAMETER INFORMATION
#MNEM.UNIT          VALUE    DESCRIPTION
#----------   ------------   ------------------------------
 PD  .                 GL:   PERMANENT DATUM
 EPD .F              5128:   ELEVATION PERMANENT DATUM
 LMF .                 GL:   LOG MEASURED FROM
 DAPD.F                 5:   FEET ABOVE PERMANENT DATUM
 DMF .                 KB:   DRILLING MEASURED FROM
 EKB .F              5133:   KELLING BUSHING
 EGL .F              5128:   GROUND LEVEL
 DATE.        19-FEB-1977:   RUN DATE
 RUN .                  1:   RUN NUMBER
 DD  .F               570:   DEPTH DRILLER
 DL  .F               565:   DEPTH LOGGER
 BLI .F               564:   BOTTOM LOG INTERVAL
 TLI .F                36:   TOP LOG INTERVAL
 CS  .IN            8.625:   CASING SIZE
 CBD .F                40:   CASING BOTTOM DRILLER
 CBL .F                41:   CASING BOTTOM LOGGER
 BS  .IN            7.875:   BIT SIZE
 BSD .F               570:   BIT SIZE AT DEPTH
 DFT .                FGM:   DRILLING FLUID TYPE
 DFD .                8.9:   DRILLING FLUID DENSITY
 DFV .                 31:   DRILLING FLUID VISCOSITY
 DFPH.                8.2:   DRILLING FLUID PH
 DFL .                9.2:   DRILLING FLUID LOSS
 MSS .            MUD PIT:   MUD SAMPLE SOURCE
 RMS .OHMM           .244:   RESISTIVITY MUD SAMPLE
 MST .F                78:   MUD SAMPLE TEMPERATURE
 RMF .OHMM           .233:   RESISTIVITY MUD FILTRATE SAMPLE
 MFST.F                68:   MUD FILTRATE SAMPLE TEMPERATURE
 RMC .OHMM            .36:   RESISTIVITY MUD CAKE
 MCST.F                78:   MUD CAKE SAMPLE TEMPERATURE
 MFSS.               MEAS:   MUD FILTRATE SAMPLE SOURCE
 MCSS.               CALC:   MUD CAKE SAMPLE SOURCE
 RMB .OHMM            .35:   RESISTIVITY MUD AT BHT
 BHT .F                55:   BOTTOM HOLE TEMPERATURE
 TCS .HRS               2:   TIME CURCULATED STOPPED
 MRT .F                55:   MAXIMUM RECORDED TEMPERATURE
 LUN .               7711:   LOGGING UNIT NUMBER
 LUL .               CSPR:   LOGGING UNIT LOCATION
 ENGI.                FIX:   RECORDING ENGINEER
 WITN.           VOORHEES:   WITNESSED BY
 CLNT.            A2DTECH:   CLIENT CODE
 ORIG.           5" PRINT:   ORIGIN OF DATA
 UWI .       490251027900:   UNIQUE WELL ID
 DICO. A2D Technologies, Inc.:   DIGITIZING COMPANY
~OTHER INFORMATION
~A   DEPT      SPR        ILD        ILM        LL8       CALD       CORR       RHOB       DPHI        GRD   
   36.0000  -999.2500  -999.2500  -999.2500  -999.2500  -999.2500  -999.2500  -999.2500  -999.2500   104.5314
   36.5000  -999.2500  -999.2500  -999.2500  -999.2500  -999.2500  -999.2500  -999.2500  -999.2500   105.6017
   37.0000  -999.2500  -999.2500  -999.2500  -999.2500  -999.2500  -999.2500  -999.2500  -999.2500   105.0204
   37.5000  -999.2500  -999.2500  -999.2500  -999.2500  -999.2500  -999.2500  -999.2500  -999.2500   103.2543
   38.0000  -999.2500  -999.2500  -999.2500  -999.2500  -999.2500  -999.2500  -999.2500  -999.2500   100.5859
   38.5000  -999.2500  -999.2500  -999.2500  -999.2500  -999.2500  -999.2500  -999.2500  -999.2500   100.3036
   39.0000  -999.2500  -999.2500  -999.2500  -999.2500  -999.2500  -999.2500  -999.2500  -999.2500   100.3313
   39.5000  -999.2500  -999.2500  -999.2500  -999.2500  -999.2500  -999.2500  -999.2500  -999.2500   100.5029
   40.0000  -999.2500  -999.2500  -999.2500  -999.2500  -999.2500  -999.2500  -999.2500  -999.2500   102.0198
   40.5000   -84.0372  -999.2500  -999.2500  -999.2500  -999.2500  -999.2500  -999.2500  -999.2500   110.5621
   41.0000   -83.4258  -999.2500  -999.2500  -999.2500  -999.2500  -999.2500  -999.2500  -999.2500   116.4138
   41.5000   -82.2183  -999.2500  -999.2500  -999.2500  -999.2500  -999.2500  -999.2500  -999.2500   118.2297
   42.0000   -80.2657  -999.2500  -999.2500  2000.0000     8.3265    -0.1081     2.2409     0.2699   123.1846
   42.5000   -78.0150  -999.2500  -999.2500  1660.6837     8.3425    -0.0163     2.2725     0.2518   133.8275
   43.0000   -76.2643  -999.2500  -999.2500  1357.4911     8.5412     0.0827     2.2966     0.2277   142.9598
   43.5000   -74.2126  -999.2500  -999.2500  1242.3159     8.7845     0.0842     2.3282     0.1711   143.7294
   44.0000   -72.3100  -999.2500  -999.2500  1011.1843     9.0459     0.0203     2.2847     0.2233   142.2172
   44.5000   -70.5064     2.1716  -999.2500  1427.3668     9.1364     0.0118     2.2224     0.2638   138.9662
   45.0000   -68.4047     3.0648  -999.2500  1399.2051     9.2269     0.0010     2.1586     0.3011   134.6537
   45.5000   -66.3031     4.6337  -999.2500  1316.1843     9.3174     0.0146     2.0000     0.3158   134.5504
   46.0000   -65.5427    10.0901  -999.2500  1344.5376     9.4972     0.2316     2.0000     0.3952   134.8770
   46.5000   -64.9314    15.3607     7.8539  1133.0448     9.8555     0.2287     2.0005     0.4229   136.5434
   47.0000   -64.0219    12.4906     8.2529  1328.0206    10.5413     0.2205     2.0005     0.4298   138.8077
   47.5000   -63.2616     6.5133     8.1515  1443.2007    10.0961     0.2002     2.0007     0.3687   138.3814
   48.0000   -60.1167     5.9467     7.8329  1302.4960     8.8473     0.0229     2.2578     0.1920   134.4650
   48.5000   -59.8072     5.8674     7.4239  1339.7312     8.5360     0.0156     2.3478     0.1661   129.4552
   49.0000   -59.9410     6.0333     7.0362  1406.7413     8.4628     0.0202     2.4162     0.1414   125.2920
   49.5000   -58.0750     6.5552     6.6688  1332.4000     8.5087     0.0120     2.4147     0.1408   124.7160
   50.0000   -54.0984     7.0733     6.3206  1351.9562     8.5546     0.0098     2.4107     0.1519   123.9910
   50.5000   -52.0435     7.1247     6.0735  1362.3077     8.5102     0.0161     2.4029     0.1519   120.2204
   51.0000   -50.9329     7.0343     5.9968  1363.3356     8.5144     0.0242     2.3976     0.1528   116.4499
   51.5000   -50.9153     6.5725     5.9232  1383.2494     8.5585     0.0309     2.3683     0.1603   113.2859
   52.0000   -52.2623     6.1824     5.9316  1403.4540     8.5746     0.0475     2.3669     0.1711   113.4530
   52.5000   -53.4426     6.1434     6.0221  1453.6206     8.5758     0.0415     2.3722     0.1672   114.6665
   53.0000   -54.9210     6.0233     6.0447  1590.6864     8.5619     0.0371     2.3777     0.1660   115.7304
   53.5000   -56.2295     5.9865     6.0902  1929.7196     8.5336     0.0341     2.4025     0.1503   117.0933
   54.0000   -56.6386     6.0326     6.1360  1983.8578     8.4902     0.0311     2.4281     0.1359   118.7552
   54.5000   -48.2236     6.1208     6.0968  1983.1674     8.4914     0.0266     2.4244     0.1339   118.1749
   55.0000   -44.8251     6.1719     6.0172  1982.4769     8.4927     0.0245     2.4199     0.1393   116.0998
   55.5000   -49.5763     6.0048     5.8584  1981.7865     8.4939     0.0261     2.4313     0.1306   113.6544
   56.0000   -51.4959     5.8864     5.7421  1981.0961     8.5100     0.0313     2.4028     0.1438   111.0515
   56.5000   -51.4781     5.9316     5.7458  1980.4058     8.5261     0.0381     2.3833     0.1648   108.6818
   57.0000   -50.7151     5.9770     5.8290  1556.8160     8.5422     0.0583     2.3736     0.1693   106.0088
   57.5000   -51.4425     5.9823     5.9542   477.6744     8.5732     0.0825     2.3759     0.1645   105.2746
   58.0000   -52.6169     6.0274     6.0404   183.8799     8.5893     0.0555     2.3452     0.1855   108.5851
   58.5000   -53.7914     6.0346     6.0859    81.2153     8.5588     0.0113     2.3911     0.1554   113.0871
   59.0000   -54.5188     6.1662     6.2166    33.2587     8.5322     0.0196     2.4325     0.1223   114.2961
   59.5000   -54.6544     6.3055     6.4825    15.8433     8.5783     0.0234     2.4506     0.1217   112.5200
   60.0000   -53.1419     6.5785     6.7598     8.0288     8.6242     0.0287     2.4499     0.1177   113.1355
   60.5000   -51.3357     6.8633     7.0490     7.2977     8.6552     0.0422     2.4853     0.1066   111.3443
   61.0000   -52.3611     7.1426     7.2004     7.1528     8.6713     0.0407     2.4673     0.1162   112.4277
   61.5000   -54.2808     7.3486     7.3047     7.2587     8.6573     0.0277     2.4463     0.1228   115.1360
   62.0000   -54.8591     7.5076     7.2591     7.4155     8.6288     0.0236     2.4524     0.1200   113.9000
   62.5000   -55.2884     7.6174     7.0664     7.4723     8.6303     0.0274     2.4547     0.1185   111.3810
   63.0000   -55.4241     7.6758     6.7837     7.4267     8.6464     0.0229     2.4398     0.1234   109.0646
   63.5000   -55.5509     7.7347     6.6963     7.3308     8.6625     0.0237     2.4301     0.1339   107.2885
   64.0000   -55.3840     7.7405     6.7952     7.2348     8.7381     0.0403     2.4339     0.1272   106.1103
   64.5000   -55.5197     7.7463     6.8917     7.1907     8.8584     0.0434     2.4355     0.1247   105.2311
   65.0000   -55.6510     7.7522     6.8486     7.3981     8.9340     0.0224     2.4220     0.1307   104.9453
   65.5000   -55.9268     7.7580     6.7556     7.4533     9.0265     0.0202     2.4204     0.1424   105.4158
   66.0000   -56.8032     7.7638     6.4818     6.9648     9.1190     0.0195     2.4161     0.1469   107.2271
   66.5000   -57.3815     7.6109     6.1843     6.6885     9.2207     0.0188     2.3987     0.1493   109.9353
   67.0000   -57.3637     7.3589     6.1079     6.6935     9.2815     0.0323     2.3795     0.1496   110.2519
   67.5000   -57.3459     7.1153     6.1118     6.7448     9.3273     0.0466     2.4179     0.1372   109.6716
   68.0000   -57.6262     6.9751     6.1578     6.7964     9.3732     0.0543     2.4465     0.1246   109.8387
   68.5000   -58.3535     6.9312     6.2110     6.8015     9.4191     0.0581     2.4533     0.1191   110.4544
   69.0000   -58.9319     6.9377     6.3526     6.8067     9.4649     0.0595     2.4474     0.1239   110.9387
   69.5000   -59.0676     7.0392     6.6627     6.9061     9.4959     0.0573     2.4399     0.1257   109.1485
   70.0000   -59.0453     7.1421     6.9875     7.1529     9.4971     0.0521     2.4437     0.1203   107.9703
   70.5000   -59.1773     7.1969     7.0401     7.5112     9.5132     0.0762     2.4829     0.1076   106.9372
   71.0000   -59.1587     7.2521     7.0931     7.8333     9.5144     0.0499     2.4483     0.1268   106.0624
   71.5000   -59.1410     7.3581     7.2454     8.0577     9.5007     0.0222     2.4018     0.1389   105.6272
   72.0000   -59.2727     7.5692     7.5036     8.2886     9.5020     0.0335     2.4387     0.1216   106.5460
