~VERSION INFORMATION
 VERS.                2.0:   CWLS LOG ASCII STANDARD - VERSION 2.0
 WRAP.                 NO:   ONE LINE PER DEPTH STEP
~WELL INFORMATION
#MNEM.UNIT      DATA TYPE    INFORMATION
#----------   ------------   ------------------------------
 STRT.F           32.0000:   START DEPTH
 STOP.F          707.0000:   STOP DEPTH
 STEP.F            0.5000:   STEP LENGTH
 NULL.          -999.2500:   NO VALUE
 COMP. FENIX & SCISSON INC:   COMPANY
 WELL.     NPR 3 #28SX-11:   WELL
 FLD .             TEAPOT:   FIELD
 LOC .      S11 T38N R78W:   LOCATION
 CNTY.            NATRONA:   COUNTY
 STAT.            WYOMING:   STATE
 CTRY. UNITED STATES OF AMERICA:   COUNTRY
 SRVC.              Welex:   SERVICE COMPANY
 DATE.        26-APR-1977:   LOGDATE
 API .       490251034400:   API NUMBER
~CURVE INFORMATION
#MNEM.UNIT       API CODE    CURVE DESCRIPTION
#----------   ------------   ------------------------------
 DEPT.F                  :   
 CALD.IN     45 280 60 00:   CALIPER FROM DENSITY LOG
 GRD .GAPI   45 310 01 00:   GAMMA RAY FROM DENSITY LOG
 CORR.G/C3   45 356 01 00:   DENSITY CORRECTION
 DPHI.DEC    45 890 12 00:   DENSITY POROSITY SANDSTONE
 RHOB.G/C3   45 350 01 00:   BULK DENSITY
~PARAMETER INFORMATION
#MNEM.UNIT          VALUE    DESCRIPTION
#----------   ------------   ------------------------------
 PD  .                 GL:   PERMANENT DATUM
 EPD .F              5203:   ELEVATION PERMANENT DATUM
 LMF .                 GL:   LOG MEASURED FROM
 DMF .                 GL:   DRILLING MEASURED FROM
 EGL .F              5203:   GROUND LEVEL
 DATE.        26-APR-1977:   RUN DATE
 RUN .                  1:   RUN NUMBER
 DD  .F               714:   DEPTH DRILLER
 DL  .F               709:   DEPTH LOGGER
 BLI .F               707:   BOTTOM LOG INTERVAL
 TLI .F                32:   TOP LOG INTERVAL
 CS  .IN            8.625:   CASING SIZE
 BS  .IN               12:   BIT SIZE
 BSD .F               714:   BIT SIZE AT DEPTH
 DFT .            KCL MUD:   DRILLING FLUID TYPE
 DFD .                8.7:   DRILLING FLUID DENSITY
 TCS .HRS            0100:   TIME CURCULATED STOPPED
 MRT .F                74:   MAXIMUM RECORDED TEMPERATURE
 ENGI.            C. DOAK:   RECORDING ENGINEER
 WITN.           ROB LYON:   WITNESSED BY
 CLNT.            A2DTECH:   CLIENT CODE
 ORIG.           5" PRINT:   ORIGIN OF DATA
 UWI .       490251034400:   UNIQUE WELL ID
 DICO. A2D Technologies, Inc.:   DIGITIZING COMPANY
~OTHER INFORMATION
~A   DEPT       CALD      GRD        CORR      DPHI       RHOB   
# ...
  520.0000     8.0118    86.5404     0.0389     0.1372     2.4233
  520.5000     8.0107    83.7446     0.0496     0.1202     2.4532
  521.0000     8.0097    81.0966     0.0573     0.1094     2.4816
  521.5000     8.0087    78.5966     0.0635     0.1043     2.4973
  522.0000     8.0076    76.6883     0.0667     0.1016     2.5078
  522.5000     8.0066    75.0759     0.0683     0.1219     2.5131
  523.0000     8.0350    73.3155     0.0670     0.1207     2.4580
  523.5000     8.0338    76.7327     0.0627     0.1329     2.4528
  524.0000     8.0328    80.7415     0.0569     0.1490     2.4320
  524.5000     8.0318    84.1587     0.0525     0.1570     2.4201
  525.0000     8.0308    85.6490     0.0512     0.1642     2.4083
  525.5000     8.0298    80.9338     0.0468     0.1689     2.3986
  526.0000     8.0287    75.9190     0.0440     0.1638     2.4115
  526.5000     8.0277    78.0048     0.0412     0.1531     2.4234
  527.0000     8.0267    82.7533     0.0384     0.1518     2.4242
  527.5000     8.0257    84.0994     0.0370     0.1638     2.4144
  528.0000     8.0246    85.0018     0.0357     0.1703     2.3944
  528.5000     8.0236    82.9455     0.0344     0.1649     2.4000
  529.0000     8.0226    80.2976     0.0346     0.1604     2.4074
  529.5000     8.0216    77.7976     0.0332     0.1610     2.4049
  530.0000     8.0206    77.0690     0.0349     0.1798     2.3905
  530.5000     8.0195    81.2295     0.0351     0.1842     2.3752
  531.0000     8.0185    80.3567     0.0353     0.1684     2.3852
  531.5000     8.0175    79.3323     0.0355     0.1567     2.4089
  532.0000     7.9871    80.9780     0.0357     0.1477     2.4232
  532.5000     7.9860    82.7679     0.0358     0.1423     2.4369
  533.0000     7.9850    84.7058     0.0360     0.1390     2.4399
  533.5000     7.9840    86.4957     0.0362     0.1402     2.4445
  534.0000     7.9830    87.8419     0.0409     0.1443     2.4341
  534.5000     7.9819    89.0401     0.0456     0.1503     2.4185
  535.0000     7.9809    90.2383     0.0503     0.1455     2.4350
  535.5000     7.9799    91.8803     0.0535     0.1398     2.4433
  536.0000     7.9789    92.6347     0.0507     0.1374     2.4515
  536.5000     7.9779    90.5785     0.0418     0.1406     2.4494
  537.0000     7.9768    88.3743     0.0345     0.1529     2.4256
  537.5000     7.9758    86.1702     0.0361     0.1630     2.4062
  538.0000     7.9748    87.8122     0.0378     0.1582     2.4071
  538.5000     7.9738    92.7086     0.0380     0.1620     2.4108
  539.0000     7.9727    95.9778     0.0366     0.1629     2.4109
  539.5000     7.9717    97.4719     0.0246     0.1593     2.4073
  540.0000     7.9707    94.8240     0.0159     0.1778     2.3887
  540.5000     7.9697    91.1405     0.0101     0.1831     2.3708
  541.0000     7.9687    86.7174     0.0088     0.1804     2.3687
  541.5000     7.9676    81.4068     0.0090     0.1732     2.3844
  542.0000     7.9665    84.5281     0.0203     0.1610     2.4106
  542.5000     7.9655    88.0894     0.0370     0.1526     2.4270
  543.0000     7.9645    84.8535     0.0396     0.1547     2.4249
  543.5000     7.9635    83.3890     0.0351     0.1496     2.4160
  544.0000     7.9624    86.2144     0.0340     0.1376     2.4422
  544.5000     7.9614    89.3357     0.0438     0.1220     2.4586
  545.0000     7.9604    92.7528     0.0585     0.1137     2.4714
  545.5000     7.9594    93.3593     0.0602     0.1125     2.4796
  546.0000     7.9583    89.6759     0.0543     0.1256     2.4715
  546.5000     7.9748    86.4362     0.0470     0.1408     2.4507
  547.0000     7.9856    89.1137     0.0411     0.1521     2.4299
  547.5000     7.9844    90.0124     0.0367     0.1616     2.4061
  548.0000     7.9834    85.5930     0.0400     0.1628     2.4173
  548.5000     7.9824    86.7912     0.0417     0.1478     2.4375
  549.0000     7.9813    89.1729     0.0403     0.1391     2.4436
  549.5000     7.9803    91.2586     0.0375     0.1430     2.4369
  550.0000     7.9793    92.7490     0.0331     0.1538     2.4229
  550.5000     7.9783    91.7221     0.0333     0.1587     2.4147
  551.0000     7.9773    89.8264     0.0259     0.1557     2.4073
  551.5000     7.9762    86.5881     0.0216     0.1471     2.4238
  552.0000     7.9752    89.2669     0.0218     0.1416     2.4418
  552.5000     7.9742    91.2061     0.0268     0.1359     2.4516
  553.0000     7.9732    87.6719     0.0358     0.1290     2.4591
  553.5000     7.9722    83.8418     0.0405     0.1239     2.4667
  554.0000     7.9711    81.7869     0.0467     0.1227     2.4727
  554.5000     7.9701    83.9078     0.0468     0.1301     2.4541
  555.0000     7.9691    86.9528     0.0455     0.1408     2.4453
  555.5000     7.9681    90.6913     0.0426     0.1338     2.4521
  556.0000     7.9670    93.2051     0.0368     0.1359     2.4454
  556.5000     7.9660    95.4809     0.0295     0.1426     2.4373
  557.0000     7.9650    97.1242     0.0236     0.1416     2.4411
  557.5000     7.9640    99.2113     0.0208     0.1332     2.4554
  558.0000     7.9635   100.8546     0.0240     0.1278     2.4651
  558.5000     7.9634   102.0542     0.0287     0.1254     2.4697
  559.0000     7.9633   102.5100     0.0334     0.1316     2.4661
  559.5000     7.9633   101.1988     0.0366     0.1408     2.4505
  560.0000     7.9632    98.9960     0.0353     0.1473     2.4394
  560.5000     7.9631    97.8286     0.0309     0.1589     2.4320
  561.0000     7.9630    96.5134     0.0251     0.1532     2.4209
  561.5000     7.9630    95.0502     0.0207     0.1508     2.4165
  562.0000     7.9629    94.1747     0.0164     0.1600     2.4213
  562.5000     7.9628    98.4847     0.0151     0.1490     2.4302
  563.0000     7.9627    95.5423     0.0183     0.1537     2.4240
  563.5000     7.9627    94.0784     0.0230     0.1567     2.4175
  564.0000     7.9626    97.2017     0.0276     0.1465     2.4211
  564.5000     7.9625    99.7326     0.0323     0.1381     2.4371
  565.0000     7.9624   101.8197     0.0340     0.1333     2.4514
  565.5000     7.9624    99.9054     0.0342     0.1290     2.4627
  566.0000     7.9623    96.4557     0.0326     0.1254     2.4717
  566.5000     7.9622    92.0475     0.0301     0.1224     2.4740
  567.0000     7.9622    91.0852     0.0303     0.1212     2.4696
  567.5000     7.9621    92.9587     0.0289     0.1220     2.4645
  568.0000     7.9620    95.4114     0.0291     0.1289     2.4608
  568.5000     7.9619    97.3506     0.0308     0.1324     2.4587
  569.0000     7.9619    98.6980     0.0340     0.1251     2.4640
  569.5000     7.9618    97.9745     0.0372     0.1165     2.4752
  570.0000     7.9617    96.2154     0.0374     0.1083     2.4873
  570.5000     7.9616    94.3085     0.0376     0.1102     2.4941
  571.0000     7.9616    93.1411     0.0362     0.1173     2.4904
  571.5000     7.9615    91.9738     0.0349     0.1206     2.4763
  572.0000     7.9614    91.2502     0.0351     0.1157     2.4786
  572.5000     7.9613    90.6746     0.0353     0.1136     2.4899
  573.0000     7.9613    90.2429     0.0339     0.1133     2.4877
  573.5000     7.9612    91.2985     0.0341     0.1147     2.4834
  574.0000     7.9611    94.1253     0.0343     0.1171     2.4797
  574.5000     7.9611    97.2479     0.0345     0.1188     2.4783
  575.0000     7.9610   100.0746     0.0362     0.1191     2.4821
  575.5000     7.9609   100.5706     0.0363     0.1155     2.4882
  576.0000     7.9608    98.4796     0.0380     0.1131     2.4920
  576.5000     7.9608    95.9809     0.0367     0.1121     2.4929
  577.0000     7.9607    93.3278     0.0369     0.1118     2.4869
  577.5000     7.9606    90.9763     0.0325     0.1150     2.4810
  578.0000     7.9605    91.3233     0.0235     0.1222     2.4744
  578.5000     7.9605    92.8319     0.0163     0.1233     2.4760
  579.0000     7.9604    94.0443     0.0135     0.1200     2.4775
  579.5000     7.9603    94.3024     0.0169     0.1250     2.4691
  580.0000     7.9603    92.9911     0.0214     0.1284     2.4549
  580.5000     7.9602    91.5279     0.0246     0.1244     2.4567
