~VERSION INFORMATION
 VERS.                2.0:   CWLS LOG ASCII STANDARD - VERSION 2.0
 WRAP.                 NO:   ONE LINE PER DEPTH STEP
~WELL INFORMATION
#MNEM.UNIT      DATA TYPE    INFORMATION
#----------   ------------   ------------------------------
 STRT.F         1500.0000:   START DEPTH
 STOP.F         3480.0000:   STOP DEPTH
 STEP.F            0.5000:   STEP LENGTH
 NULL.          -999.2500:   NO VALUE
 COMP. FLUOR DANIEL (NOPSR). INC.:   COMPANY
 WELL.   22-STX-26 #22-26:   WELL
 FLD .             NPR #3:   FIELD
 LOC .      S26 T38N R78W:   LOCATION
 CNTY.            NATRONA:   COUNTY
 STAT.            WYOMING:   STATE
 CTRY. UNITED STATES OF AMERICA:   COUNTRY
 SRVC.            Unknown:   SERVICE COMPANY
 DATE.        14-JUN-1995:   LOGDATE
 API .       490252272400:   API NUMBER
~CURVE INFORMATION
#MNEM.UNIT       API CODE    CURVE DESCRIPTION
#----------   ------------   ------------------------------
 DEPT.F                  :   
 ROP .MIN/FT 91 810 01 00:   RATE OF DRILLING PENETRATION
 TGAS.UNITS  91 830 01 00:   TOTAL GAS FROM HOTWIRE
~PARAMETER INFORMATION
#MNEM.UNIT          VALUE    DESCRIPTION
#----------   ------------   ------------------------------
 EKB .F              5348:   KELLING BUSHING
 EGL .F              5338:   GROUND LEVEL
 DATE.            6-14-95:   RUN DATE
 DD  .F              3480:   DEPTH DRILLER
 BLI .F              3480:   BOTTOM LOG INTERVAL
 TLI .F              1500:   TOP LOG INTERVAL
 CS  .IN            9.625:   CASING SIZE
 CBD .F                87:   CASING BOTTOM DRILLER
 ENGI.               HUSK:   RECORDING ENGINEER
 WITN.              TOWER:   WITNESSED BY
 CLNT.            A2DTECH:   CLIENT CODE
 ORIG.           5" PRINT:   ORIGIN OF DATA
 UWI .       490252272400:   UNIQUE WELL ID
 DICO. A2D Technologies, Inc.:   DIGITIZING COMPANY
~OTHER INFORMATION
~A  DEPT         ROP       TGAS 
# ...
 1986.0000     0.8088    18.6382
 1986.5000     0.7988    18.8628
 1987.0000     0.7995    19.5049
 1987.5000     0.8000    19.7295
 1988.0000     1.0521    20.3716
 1988.5000     1.0526    20.3858
 1989.0000     1.0424    20.1906
 1989.5000     1.0431    19.7827
 1990.0000     1.0436    19.3829
 1990.5000     1.0440    18.7656
 1991.0000     1.0446    18.5752
 1991.5000     1.0451    18.1708
 1992.0000     0.5108    18.1861
 1992.5000     0.5107    18.2015
 1993.0000     0.5106    18.2156
 1993.5000     0.5105    18.2310
 1994.0000     0.5104    18.2451
 1994.5000     0.5104    18.2593
 1995.0000     0.5103    18.0606
 1995.5000     0.5102    18.0783
 1996.0000     0.5101    18.0948
 1996.5000     0.5100    18.1090
 1997.0000     0.5099    18.1232
 1997.5000     0.5098    18.1373
 1998.0000     0.5097    17.9422
 1998.5000     0.5097    17.9587
 1999.0000     0.5096    17.5519
 1999.5000     0.5095    17.5696
 2000.0000     0.5094    17.5838
 2000.5000     0.5093    17.5979
 2001.0000     0.5092    17.3992
 2001.5000     0.5091    17.3958
 2002.0000     0.5091    17.3703
 2002.5000     0.5090    17.3447
 2003.0000     0.5089    17.3191
 2003.5000     0.5088    17.2935
 2004.0000     0.5087    17.2680
 2004.5000     0.5086    17.2424
 2005.0000     0.5085    17.2168
 2005.5000     0.5084    17.1913
 2006.0000     0.5084    17.1657
 2006.5000     0.5083    17.1401
 2007.0000     0.5082    17.1146
 2007.5000     0.5081    17.0890
 2008.0000     0.5080    17.0634
 2008.5000     0.5079    17.0379
 2009.0000     0.5078    17.0123
 2009.5000     0.5078    16.9867
 2010.0000     0.5077    16.9612
 2010.5000     0.5076    16.9356
 2011.0000     0.5075    16.9100
 2011.5000     0.5074    16.8845
 2012.0000     0.5073    16.8589
 2012.5000     0.5072    16.8333
 2013.0000     0.5071    16.8078
 2013.5000     0.5071    16.7822
 2014.0000     0.5070    16.7566
 2014.5000     0.5069    16.7311
 2015.0000     0.5068    16.7055
 2015.5000     0.5067    16.6799
 2016.0000     0.5066    16.6544
 2016.5000     0.5065    16.6288
 2017.0000     0.5065    16.6032
 2017.5000     0.5064    16.5777
 2018.0000     0.5063    16.5521
 2018.5000     0.5062    16.5265
 2019.0000     0.5061    16.5009
 2019.5000     0.5060    16.4754
 2020.0000     0.5059    16.4498
 2020.5000     0.5059    16.4242
 2021.0000     0.5058    16.3987
 2021.5000     0.5057    16.3731
 2022.0000     0.5056    16.3475
 2022.5000     0.5055    16.3220
 2023.0000     0.5054    16.2964
 2023.5000     0.5053    16.2708
 2024.0000     0.5052    16.2453
 2024.5000     0.5052    16.2197
 2025.0000     0.5051    16.1941
 2025.5000     0.5050    16.1686
 2026.0000     0.5049    16.1430
 2026.5000     0.5048    16.1174
 2027.0000     0.5047    16.0919
 2027.5000     0.5046    16.0663
 2028.0000     0.5046    16.0407
 2028.5000     0.5045    16.0152
 2029.0000     0.5044    15.9896
 2029.5000     0.5043    15.9640
 2030.0000     0.5042    15.9385
 2030.5000     0.5041    15.9129
 2031.0000     0.5040    15.8873
 2031.5000     0.5039    15.8618
 2032.0000     0.5039    15.8362
 2032.5000     0.5038    15.8106
 2033.0000     0.5037    15.7851
 2033.5000     0.5036    15.7595
 2034.0000     0.5035    15.7339
 2034.5000     0.5034    15.7084
 2035.0000     0.5033    15.6828
 2035.5000     0.5033    15.6572
 2036.0000     0.5032    15.6317
 2036.5000     0.5031    15.6061
 2037.0000     0.5030    15.5805
 2037.5000     0.5029    15.5549
 2038.0000     0.5028    15.5294
 2038.5000     0.5027    15.5038
 2039.0000     0.5027    15.4782
 2039.5000     0.5026    15.4527
 2040.0000     0.5025    15.4271
 2040.5000     0.5024    15.4015
 2041.0000     0.5023    15.3760
 2041.5000     0.5022    15.3504
 2042.0000     0.5021    15.3248
 2042.5000     0.5020    15.2993
 2043.0000     0.5020    15.2737
 2043.5000     0.5019    15.2481
 2044.0000     0.5018    15.2226
 2044.5000     0.5017    15.1970
 2045.0000     0.5016    15.1714
 2045.5000     0.5015    15.1459
 2046.0000     0.5014    15.1203
 2046.5000     0.5014    15.0947
 2047.0000     0.5013    15.0692
 2047.5000     0.5012    15.0436
 2048.0000     0.5011    15.0180
 2048.5000     0.5010    14.9925
 2049.0000     0.5009    14.9669
 2049.5000     0.5008    14.9413
 2050.0000     0.5007    14.9158
 2050.5000     0.5007    14.8902
 2051.0000     0.5006    14.8754
 2051.5000     0.5005    14.8695
 2052.0000     0.5004    14.8635
 2052.5000     0.5003    14.8576
 2053.0000     0.5002    14.8517
 2053.5000     0.5001    14.8457
 2054.0000     0.5001    14.8398
 2054.5000     0.5000    14.8339
 2055.0000     0.4999    14.8279
 2055.5000     0.4998    14.8220
 2056.0000     0.4997    14.8161
 2056.5000     0.4996    14.8101
 2057.0000     0.4995    14.8042
 2057.5000     0.4995    14.7982
 2058.0000     0.4994    14.7923
 2058.5000     0.4993    14.7864
 2059.0000     0.4992    14.7804
 2059.5000     0.4991    14.7745
 2060.0000     0.4990    14.7686
 2060.5000     0.4989    14.7626
 2061.0000     0.4988    14.7567
 2061.5000     0.4988    14.7508
 2062.0000     0.4987    14.7448
 2062.5000     0.4986    14.7389
 2063.0000     0.4985    14.7329
 2063.5000     0.4984    14.7270
 2064.0000     0.4983    14.7211
 2064.5000     0.4982    14.7151
 2065.0000     0.4982    14.7092
 2065.5000     0.4981    14.7033
 2066.0000     0.4980    14.6973
 2066.5000     0.4979    14.6914
 2067.0000     0.4978    14.6855
 2067.5000     0.4977    14.6795
 2068.0000     0.4976    14.6736
 2068.5000     0.4975    14.6676
 2069.0000     0.4975    14.6617
 2069.5000     0.4974    14.6558
 2070.0000     0.4973    14.6498
 2070.5000     0.4972    14.6439
 2071.0000     0.4971    14.6380
 2071.5000     0.4970    14.6320
 2072.0000     0.4969    14.6261
 2072.5000     0.4969    14.6202
 2073.0000     0.4968    14.6142
 2073.5000     0.4967    14.6083
 2074.0000     0.4966    14.6023
 2074.5000     0.4965    14.5964
 2075.0000     0.4964    14.5905
 2075.5000     0.4963    14.5845
 2076.0000     0.4962    14.5786
 2076.5000     0.4962    14.5727
 2077.0000     0.4961    14.5667
 2077.5000     0.4960    14.5608
 2078.0000     0.4959    14.5549
 2078.5000     0.4958    14.5489
 2079.0000     0.4957    14.5430
 2079.5000     0.4956    14.5370
 2080.0000     0.4956    14.5311
 2080.5000     0.4955    14.5252
 2081.0000     0.4954    14.5192
 2081.5000     0.4953    14.5133
 2082.0000     0.4952    14.5074
 2082.5000     0.4951    14.5014
 2083.0000     0.4950    14.4955
 2083.5000     0.4950    14.4896
 2084.0000     0.4949    14.4836
 2084.5000     0.4948    14.4777
 2085.0000     0.4947    14.4717
 2085.5000     0.4946    14.4658
 2086.0000     0.4945    14.4599
 2086.5000     0.4944    14.4539
 2087.0000     0.4943    14.4480
 2087.5000     0.4943    14.4421
 2088.0000     0.4942    14.4361
 2088.5000     0.4941    14.4302
 2089.0000     0.4940    14.4243
 2089.5000     0.4939    14.4183
 2090.0000     0.4938    14.4124
 2090.5000     0.4937    14.4064
 2091.0000     0.4937    14.4005
 2091.5000     0.4936    14.3946
 2092.0000     0.4935    14.3886
 2092.5000     0.4934    14.3827
 2093.0000     0.4933    14.3768
 2093.5000     0.4932    14.3708
 2094.0000     0.4931    14.3649
 2094.5000     0.4930    14.3590
 2095.0000     0.4930    14.3530
 2095.5000     0.4929    14.3471
 2096.0000     0.4928    14.3412
 2096.5000     0.4927    14.3352
 2097.0000     0.4926    14.3293
 2097.5000     0.4925    14.3233
 2098.0000     0.4924    14.3174
 2098.5000     0.4924    14.3115
 2099.0000     0.4923    14.3055
 2099.5000     0.5761    14.2996
 2100.0000     0.5766    14.2937
 2100.5000     0.5771    14.2877
 2101.0000     0.5776    14.2818
 2101.5000     0.5780    14.2759
 2102.0000     0.5786    14.2739
 2102.5000     0.5791    14.2737
 2103.0000     0.5796    14.2735
 2103.5000     0.5801    14.2733
 2104.0000     0.5806    14.2731
 2104.5000     0.5807    14.2729
 2105.0000     0.5806    14.2727
 2105.5000     0.5806    14.2725
 2106.0000     0.5805    14.2723
 2106.5000     0.5804    14.2721
 2107.0000     0.5804    14.2719
