~VERSION INFORMATION
 VERS.                2.0:   CWLS LOG ASCII STANDARD - VERSION 2.0
 WRAP.                 NO:   ONE LINE PER DEPTH STEP
~WELL INFORMATION
#MNEM.UNIT      DATA TYPE    INFORMATION
#----------   ------------   ------------------------------
 STRT.F            0.0000:   START DEPTH
 STOP.F          601.0000:   STOP DEPTH
 STEP.F            0.5000:   STEP LENGTH
 NULL.          -999.2500:   NO VALUE
 COMP. Fluor Daniel (NPOSR) Inc:   COMPANY
 WELL.  NPR ##3 84-STX-33:   WELL
 FLD .          N.P.R. #3:   FIELD
 LOC .      S33 T39N R78W:   LOCATION
 CNTY.            NATRONA:   COUNTY
 STAT.            WYOMING:   STATE
 CTRY. UNITED STATES OF AMERICA:   COUNTRY
 SRVC.      Western Atlas:   SERVICE COMPANY
 DATE.        31-JAN-1995:   LOGDATE
 API .       490252269500:   API NUMBER
~CURVE INFORMATION
#MNEM.UNIT       API CODE    CURVE DESCRIPTION
#----------   ------------   ------------------------------
 DEPT.F                  :   
 GRR .GAPI   07 310 01 00:   GAMMA RAY FROM RES. LOG.
 RILD.OHMM   07 120 46 00:   INDUCTION LOG DEEP RESISTIVITY
 RILM.OHMM   07 120 44 00:   INDUCTION LOG MEDIUM RESISTIVITY
 RFOC.OHMM   07 220 04 00:   RESISTIVITY FOCUSED LOG
~PARAMETER INFORMATION
#MNEM.UNIT          VALUE    DESCRIPTION
#----------   ------------   ------------------------------
 PD  .                 GL:   PERMANENT DATUM
 EPD .F              5105:   ELEVATION PERMANENT DATUM
 LMF .                 KB:   LOG MEASURED FROM
 DAPD.F                10:   FEET ABOVE PERMANENT DATUM
 DMF .                 KB:   DRILLING MEASURED FROM
 EKB .F              5115:   KELLING BUSHING
 EDF .F              5114:   DRILLING FLOOR
 EGL .F              5105:   GROUND LEVEL
 DATE.        31-JAN-1995:   RUN DATE
 RUN .                  1:   RUN NUMBER
 DD  .F               615:   DEPTH DRILLER
 DL  .F               609:   DEPTH LOGGER
 BLI .F               601:   BOTTOM LOG INTERVAL
 CS  .IN            9.625:   CASING SIZE
 CBD .F                54:   CASING BOTTOM DRILLER
 CBL .F                52:   CASING BOTTOM LOGGER
 BS  .IN             8.75:   BIT SIZE
 BSD .F               615:   BIT SIZE AT DEPTH
 DFT .              WATER:   DRILLING FLUID TYPE
 MRT .F                92:   MAXIMUM RECORDED TEMPERATURE
 LUN .            HL-6274:   LOGGING UNIT NUMBER
 LUL .             CASPER:   LOGGING UNIT LOCATION
 ENGI.             RAUTIO:   RECORDING ENGINEER
 WITN.             STRONG:   WITNESSED BY
 CLNT.            A2DTECH:   CLIENT CODE
 ORIG.       2", 5" PRINT:   ORIGIN OF DATA
 UWI .       490252269500:   UNIQUE WELL ID
 DICO. A2D Technologies, Inc.:   DIGITIZING COMPANY
~OTHER INFORMATION
~A    DEPT      GRR      RILD       RILM       RFOC   
# ...
  365.0000   123.9126     4.7400     5.0018     7.9771
  365.5000   127.9974     4.7704     4.9212     6.6613
  366.0000   127.1338     4.8051     5.0059     5.9925
  366.5000   123.9453     4.8568     5.0852     6.4242
  367.0000   124.9875     4.9493     5.3269     7.0673
  367.5000   126.0821     5.0878     5.6540     7.4555
  368.0000   125.6390     5.3336     6.0012     7.8650
  368.5000   122.9534     5.6117     6.3991     8.2444
  369.0000   122.2450     5.9548     6.6392     8.2083
  369.5000   121.4628     6.3505     6.9096     8.1664
  370.0000   119.2928     6.5598     7.1069     8.4338
  370.5000   114.0492     6.6988     7.1957     8.9558
  371.0000   109.6778     6.8408     7.2856     9.3123
  371.5000   108.9126     6.9666     7.3766     9.3123
  372.0000   110.8324     6.9817     7.4352     9.4726
  372.5000   112.9981     6.9984     7.4352     9.9441
  373.0000   111.8228     7.0148     7.4352     9.7530
  373.5000   109.9789     7.0284     7.4352     9.5107
  374.0000   110.3536     7.0684     7.4348     9.2253
  374.5000   114.5644     7.1198     7.4787     9.5041
  375.0000   117.0017     7.1613     7.5229    10.5977
  375.5000   117.1266     7.1315     7.5674    11.7677
  376.0000   117.1152     7.1066     7.6122    11.2883
  376.5000   117.0155     7.0819     7.6474    10.7201
  377.0000   116.9137     7.0571     7.5556    10.3870
  377.5000   117.2712     7.0325     7.4809    10.0913
  378.0000   117.3281     7.0284     7.4070     9.1262
  378.5000   116.3100     7.0966     7.3658     8.3829
  379.0000   115.9532     7.1446     7.4744     8.1348
  379.5000   117.9243     7.1615     7.5733     8.0901
  380.0000   120.0479     7.1615     7.6791     8.7379
  380.5000   119.8004     7.0542     7.7864     9.2142
  381.0000   115.5006     6.7459     7.8657     9.6568
  381.5000   111.6738     6.4181     7.4022     9.9542
  382.0000   110.9924     6.0532     6.6107    10.2607
  382.5000   111.0847     5.6114     5.9925    10.4216
  383.0000   113.0597     5.6496     5.7180     8.4686
  383.5000   115.6585     5.7082     5.8402     6.7243
  384.0000   118.0547     5.7709     6.0784     6.0938
  384.5000   114.7182     5.9256     6.4887     6.7952
  385.0000   110.2883     6.0997     6.9628     8.8201
  385.5000   106.0808     6.3497     7.6312    10.9258
  386.0000   106.8373     7.0383     8.3886    11.2337
  386.5000   108.1365     7.9193     8.9224    11.2337
  387.0000   107.1340     8.5677     9.4902    11.8840
  387.5000   106.1469     9.0751     9.7726    11.6631
  388.0000   106.5229     9.2253     9.7969    11.3069
  388.5000   107.9014     9.4004     9.8213    10.9192
  389.0000   109.0077     9.5870     9.8457    10.9201
  389.5000   109.3662     9.7729    10.2686    11.4477
  390.0000   108.9546    10.2151    11.1799    11.5218
  390.5000   106.9411    10.9442    12.8124    11.7576
  391.0000    97.6020    11.8394    14.2459    13.2997
  391.5000    84.7010    12.7591    15.1644    15.8247
  392.0000    71.4658    13.8739    17.0500    22.0252
  392.5000    63.9394    15.0924    18.5862    29.7952
  393.0000    62.3033    16.4163    19.2210    28.4235
  393.5000    65.1377    17.8566    19.8739    26.0172
  394.0000    68.7040    18.8171    20.5291    23.8147
  394.5000    71.5379    18.6976    21.2058    21.8503
  395.0000    70.6725    18.5096    21.4575    21.8459
  395.5000    66.8059    18.3234    20.9377    25.1793
  396.0000    62.8142    18.2950    20.4745    28.6981
  396.5000    60.5975    18.6945    20.5650    28.0415
  397.0000    62.2781    19.3222    21.3832    21.7330
  397.5000    63.2689    19.6185    23.3475    19.7206
  398.0000    63.6181    19.7423    23.9440    20.2834
  398.5000    60.9210    19.9064    24.4685    25.0285
  399.0000    58.4540    19.0426    22.4737    27.1277
  399.5000    59.4795    17.9551    21.3342    25.5305
  400.0000    60.6669    16.1950    18.9161    24.3540
  400.5000    61.4780    14.7368    16.1745    23.1295
  401.0000    59.0372    13.3099    13.9354    19.1767
  401.5000    57.8305    12.3435    12.7867    15.5687
  402.0000    57.6250    11.3720    11.7327    13.0360
  402.5000    57.6647    10.6626    10.7655    11.5542
  403.0000    59.2329    10.0895    10.3909    10.7649
  403.5000    60.9333     9.7771    10.2173    10.4216
  404.0000    61.4080     9.4715    10.0384    10.4170
  404.5000    59.9449     9.3769    10.0069    10.5800
  405.0000    57.4332     9.3436     9.9756    10.9380
  405.5000    54.9274     9.3123     9.9441    11.5620
  406.0000    52.8915     9.4728    10.3243    12.2231
  406.5000    51.4000     9.6348    10.2447    11.9950
  407.0000    51.4689     9.7605    10.1325    11.6978
  407.5000    52.2931     9.7600    10.2279    11.4052
  408.0000    52.5998     9.7582    10.0379    11.1734
  408.5000    52.5970     9.9819    10.2284    11.0249
  409.0000    54.4144    10.1721    10.4726    11.1679
  409.5000    56.8592    10.3243    10.7190    11.3126
  410.0000    57.6040    10.4880    10.7190    11.6695
  410.5000    56.9670    10.6595    11.1232    11.9254
  411.0000    57.3760    11.2011    11.8049    11.9822
  411.5000    58.1449    11.8822    12.5284    12.3683
  412.0000    59.0019    12.3823    13.2963    12.8305
  412.5000    60.8110    13.8981    14.0696    13.3101
  413.0000    62.8503    15.4530    14.2609    13.8075
  413.5000    62.9460    15.3700    14.4455    14.3236
  414.0000    62.9330    15.2736    14.5563    14.7854
  414.5000    62.9460    15.1778    14.6856    15.1753
  415.0000    63.4004    15.0826    14.8161    15.5755
  415.5000    63.8780    14.9881    15.1406    15.9862
  416.0000    64.1875    14.8840    15.6859    16.4078
  416.5000    63.1759    15.3078    16.1950    16.8404
  417.0000    61.0400    16.6446    16.6072    17.6214
  417.5000    58.8037    18.2950    17.2939    20.1353
  418.0000    57.3745    17.2939    16.8583    23.1295
  418.5000    58.4673    17.3469    16.3363    21.4480
  419.0000    60.2694    17.4495    15.8305    18.5444
  419.5000    60.2084    17.5527    15.5013    16.1950
  420.0000    59.6164    17.6214    15.3774    16.0438
  420.5000    58.9861    16.9725    15.1558    16.0438
  421.0000    59.6907    16.3223    14.9374    16.0438
  421.5000    60.8937    15.8940    14.7451    15.6874
  422.0000    62.9451    16.1950    14.5464    15.3217
  422.5000    64.2181    15.8642    14.3344    15.1396
  423.0000    64.8746    15.5986    14.3368    15.0683
  423.5000    65.5181    15.7340    14.3388    14.9974
  424.0000    65.5730    15.8333    14.3423    14.9261
  424.5000    64.6804    15.8940    14.2075    14.8844
  425.0000    62.8336    15.7054    14.0769    14.9591
  425.5000    61.3223    15.5623    13.9722    15.0243
  426.0000    62.9709    15.3861    13.8690    14.9292
  426.5000    65.6618    15.2119    13.7266    14.8123
  427.0000    68.1279    15.0396    13.5342    14.6375
  427.5000    67.0767    14.8694    13.4024    14.3852
  428.0000    65.9025    14.7010    13.3499    14.1374
  428.5000    67.0362    14.5799    13.2997    13.8938
  429.0000    67.4593    14.5175    13.2441    13.7873
  429.5000    66.7069    14.4388    13.1785    13.7570
  430.0000    66.2546    14.3116    13.1132    13.7262
  430.5000    68.2224    14.1856    13.0525    13.6955
  431.0000    70.5619    14.0696    13.0192    13.6648
  431.5000    70.4643    14.2021    12.9809    13.6341
  432.0000    68.6375    14.1322    12.9426    13.6035
  432.5000    67.8414    14.0300    12.9046    13.5729
  433.0000    67.5932    13.9382    12.8667    13.5530
  433.5000    67.3438    13.7238    12.8290    13.4032
  434.0000    67.2331    13.5515    12.7239    13.2663
  434.5000    68.6038    13.5515    12.5730    13.1691
  435.0000    67.9053    13.5515    12.5335    13.1029
  435.5000    66.9485    13.5515    12.4798    13.0379
  436.0000    67.2405    13.6175    12.4539    12.9734
  436.5000    67.9478    13.6890    12.5329    12.9307
  437.0000    68.2409    13.7618    12.5922    13.1053
  437.5000    68.5204    13.8077    12.6517    13.2607
