~VERSION INFORMATION
 VERS.                2.0:   CWLS LOG ASCII STANDARD - VERSION 2.0
 WRAP.                 NO:   ONE LINE PER DEPTH STEP
~WELL INFORMATION
#MNEM.UNIT      DATA TYPE    INFORMATION
#----------   ------------   ------------------------------
 STRT.F           40.0000:   START DEPTH
 STOP.F          684.0000:   STOP DEPTH
 STEP.F            0.5000:   STEP LENGTH
 NULL.          -999.2500:   NO VALUE
 COMP.    FENIX & SCISSON:   COMPANY
 WELL.   N P R-3 #26SX2-2:   WELL
 FLD .             TEAPOT:   FIELD
 LOC .       S2 T38N R78W:   LOCATION
 CNTY.            NATRONA:   COUNTY
 STAT.            WYOMING:   STATE
 CTRY. UNITED STATES OF AMERICA:   COUNTRY
 SRVC.            Unknown:   SERVICE COMPANY
 DATE.        26-JAN-1978:   LOGDATE
 API .       490251056400:   API NUMBER
~CURVE INFORMATION
#MNEM.UNIT       API CODE    CURVE DESCRIPTION
#----------   ------------   ------------------------------
 DEPT.F                  :   
 ILD .OHMM   05 120 46 00:   INDUCTION LOG DEEP
 SN  .OHMM   05 040 16 00:   SHORT NORMAL 16"
 SPR .MV     05 010 01 00:   SPONTANEOUS POTENTIAL FROM RES.
 CALD.IN     45 280 60 00:   CALIPER FROM DENSITY LOG
 CORR.G/C3   45 356 01 00:   DENSITY CORRECTION
 DPHI.DEC    45 890 12 00:   DENSITY POROSITY SANDSTONE
 GRD .GAPI   45 310 01 00:   GAMMA RAY FROM DENSITY LOG
 RHOB.G/C3   45 350 01 00:   BULK DENSITY
~PARAMETER INFORMATION
#MNEM.UNIT          VALUE    DESCRIPTION
#----------   ------------   ------------------------------
 PD  .                 GL:   PERMANENT DATUM
 EPD .F              5142:   ELEVATION PERMANENT DATUM
 LMF .                 KB:   LOG MEASURED FROM
 DMF .                 KB:   DRILLING MEASURED FROM
 EKB .F              5146:   KELLING BUSHING
 EGL .F              5142:   GROUND LEVEL
 DATE.        26-JAN-1978:   RUN DATE
 RUN .                  1:   RUN NUMBER
 DD  .F               690:   DEPTH DRILLER
 DL  .F               684:   DEPTH LOGGER
 BLI .F               684:   BOTTOM LOG INTERVAL
 TLI .F                50:   TOP LOG INTERVAL
 CS  .IN            8.625:   CASING SIZE
 CBD .F                39:   CASING BOTTOM DRILLER
 CBL .F                40:   CASING BOTTOM LOGGER
 BS  .IN            7.875:   BIT SIZE
 BSD .F               690:   BIT SIZE AT DEPTH
 DFT .                KCL:   DRILLING FLUID TYPE
 DFD .                8.5:   DRILLING FLUID DENSITY
 DFV .                 33:   DRILLING FLUID VISCOSITY
 DFPH.                  9:   DRILLING FLUID PH
 MSS .           FLOWLINE:   MUD SAMPLE SOURCE
 RMS .OHMM           0.48:   RESISTIVITY MUD SAMPLE
 MST .F                75:   MUD SAMPLE TEMPERATURE
 RMF .OHMM           0.46:   RESISTIVITY MUD FILTRATE SAMPLE
 MFST.F                75:   MUD FILTRATE SAMPLE TEMPERATURE
 RMC .OHMM              1:   RESISTIVITY MUD CAKE
 MCST.F                75:   MUD CAKE SAMPLE TEMPERATURE
 MFSS.               MEAS:   MUD FILTRATE SAMPLE SOURCE
 MCSS.               MEAS:   MUD CAKE SAMPLE SOURCE
 RMB .OHMM           0.47:   RESISTIVITY MUD AT BHT
 BHT .F                76:   BOTTOM HOLE TEMPERATURE
 TCS .HRS               1:   TIME CURCULATED STOPPED
 MRT .F                76:   MAXIMUM RECORDED TEMPERATURE
 LUN .               2958:   LOGGING UNIT NUMBER
 LUL .             CASPER:   LOGGING UNIT LOCATION
 ENGI.           REYNOLDS:   RECORDING ENGINEER
 WITN.       MR. MCGINLEY:   WITNESSED BY
 CLNT.            A2DTECH:   CLIENT CODE
 ORIG.      2.5" 5" PRINT:   ORIGIN OF DATA
 UWI .       490251056400:   UNIQUE WELL ID
 DICO. A2D Technologies, Inc.:   DIGITIZING COMPANY
~OTHER INFORMATION
~A   DEPT      ILD         SN        SPR       CALD       CORR       DPHI         GRD        RHOB 
# ...
  607.0000    18.5858    20.8612   -54.1408     8.9657     0.1675     0.2250    71.5953     2.2759
  607.5000    18.5951    20.8724   -54.2826     8.9818     0.1709     0.2274    72.4038     2.2774
  608.0000    18.6026    20.5980   -54.2717     9.0122     0.1791     0.2292    72.1101     2.2789
  608.5000    18.6101    20.3273   -54.2630     9.0122     0.2023     0.2298    71.1729     2.2803
  609.0000    18.6176    20.0601   -54.2543     9.0122     0.2107     0.2304    70.1139     2.2752
  609.5000    18.3706    19.7965   -54.2456     9.0122     0.2169     0.2316    70.4160     2.2712
  610.0000    18.1269    19.5389   -54.2369     9.0122     0.2231     0.2297    74.3878     2.2716
  610.5000    17.8861    19.0185   -54.2282     9.0122     0.2218     0.2234    75.0695     2.2827
  611.0000    17.6491    18.6397   -54.0712     9.0122     0.2077     0.2173    74.6862     2.2976
  611.5000    17.5301    18.2661   -54.0623     9.0122     0.1915     0.2115    74.6825     2.3061
  612.0000    17.4220    17.7820   -54.2016     9.0108     0.1854     0.2133    75.2904     2.3039
  612.5000    17.3095    17.5482   -54.1913     8.9818     0.1794     0.2156    76.2041     2.3015
  613.0000    17.1978    17.3176   -54.1826     8.9818     0.1763     0.2177    76.2003     2.3015
  613.5000    17.0868    17.2080   -54.1739     8.9818     0.1763     0.2165    76.5024     2.3030
  614.0000    16.9765    16.8676   -54.3135     8.9818     0.1763     0.2120    76.1162     2.3030
  614.5000    16.8669    16.7609   -54.3048     8.9717     0.1763     0.2132    74.9114     2.3015
  615.0000    16.5307    16.6526   -54.2961     8.9514     0.1763     0.2150    74.2101     2.3015
  615.5000    16.0886    16.6638   -54.2874     8.9514     0.1764     0.2159    73.6487     2.3015
  616.0000    15.7663    16.6728   -54.2787     8.9514     0.1793     0.2129    73.1193     2.3015
  616.5000    15.6645    16.6817   -54.2699     8.9514     0.1598     0.1995    73.1154     2.3182
  617.0000    15.4567    16.6907   -54.2524     8.9514     0.1484     0.1979    73.8570     2.3258
  617.5000    15.3570    16.6996   -54.1022     8.9514     0.1422     0.2044    74.9427     2.3212
  618.0000    15.3647    16.7087   -54.0949     8.9514     0.1399     0.2110    75.1045     2.3166
  618.5000    15.3709    16.7179   -54.0848     8.9514     0.1429     0.2153    75.2408     2.3119
  619.0000    15.3770    16.7288   -54.0761     8.9514     0.1442     0.2177    75.8480     2.3073
  619.5000    15.2778    16.7378   -54.0674     8.9514     0.1459     0.2176    76.4559     2.3015
  620.0000    15.2839    16.6319   -54.0587     8.9514     0.1489     0.2061    77.3696     2.3070
  620.5000    15.2901    16.5267   -54.0500     8.9514     0.1519     0.2078    77.6716     2.3136
  621.0000    15.0872    16.5355   -54.0413     8.9514     0.1610     0.2132    78.2795     2.3132
  621.5000    14.6618    16.2063   -54.0326     8.9514     0.1731     0.2162    78.5818     2.3086
  622.0000    14.1944    15.6664   -54.0237     8.9514     0.1821     0.2177    78.8837     2.3040
  622.5000    14.0047    14.8349   -54.0131     8.9514     0.1912     0.2183    79.1890     2.3015
  623.0000    13.7256    14.1364   -54.1527     8.9514     0.1881     0.2189    79.4879     2.3073
  623.5000    13.6356    13.6734   -54.2922     8.9514     0.1760     0.2136    79.1081     2.3250
  624.0000    13.4547    13.3110   -54.4340     8.9514     0.1609     0.2026    78.5627     2.3225
  624.5000    13.3679    13.2268   -54.7197     8.9514     0.1518     0.2072    78.4920     2.3197
  625.0000    13.1918    13.1413   -54.8614     8.9514     0.1762     0.2111    78.0835     2.3167
  625.5000    13.0168    13.0582   -55.1493     8.9514     0.1854     0.2092    77.1305     2.3136
  626.0000    13.0221    12.9756   -55.1384     8.9514     0.1880     0.1983    75.8716     2.3121
  626.5000    12.8493    12.9843   -55.1297     8.9514     0.1873     0.1917    74.8739     2.3273
  627.0000    12.7664    12.9020   -55.1209     8.9514     0.1820     0.1880    74.7235     2.3424
  627.5000    12.6840    12.9091   -55.1120     8.9514     0.1778     0.1856    74.2546     2.3485
  628.0000    12.6021    12.7291   -55.1015     8.9514     0.1759     0.1893    73.7665     2.3500
  628.5000    12.3509    12.4017   -55.0928     8.9514     0.1729     0.1953    73.3288     2.3409
  629.0000    12.2712    12.2387   -55.0853     8.9514     0.1713     0.1983    72.7135     2.3347
  629.5000    12.0254    11.9950   -55.0754     8.9514     0.1728     0.2021    72.4039     2.3299
  630.0000    11.9478    11.9175   -55.0667     8.9210     0.1758     0.2064    74.2351     2.3254
  630.5000    11.8706    11.7625   -55.0580     8.9210     0.1758     0.2037    76.9837     2.3212
  631.0000    11.7073    11.6079   -55.1997     8.9210     0.1728     0.1911    78.5090     2.3399
  631.5000    11.5440    11.4553   -55.1889     8.9210     0.1697     0.1838    79.7285     2.3512
  632.0000    11.4045    11.3827   -55.1802     8.9210     0.1697     0.1854    80.6422     2.3561
  632.5000    11.2532    11.2332   -55.1713     8.9210     0.1758     0.1871    81.5877     2.3525
  633.0000    11.1039    11.0856   -55.1624     8.9210     0.1757     0.1887    82.5332     2.3509
  633.5000    11.0322    11.0154   -55.1535     8.9210     0.1726     0.1890    83.3833     2.3521
  634.0000    10.9610    10.8721   -55.1432     8.9210     0.1636     0.1795    83.7487     2.3652
  634.5000    10.8902    10.8019   -55.2850     8.9210     0.1606     0.1733    84.2933     2.3682
  635.0000    10.8209    10.7350   -55.2741     8.9210     0.1606     0.1766    84.1934     2.3652
  635.5000    10.8254    10.6656   -55.4159     8.9210     0.1643     0.1790    83.6735     2.3636
  636.0000    10.7555    10.5982   -55.7015     8.9210     0.1726     0.1802    83.3639     2.3636
  636.5000    10.7598    10.5325   -55.8433     8.9210     0.1716     0.1778    83.0543     2.3667
  637.0000    10.6907    10.5382   -56.1292     8.9210     0.1666     0.1687    82.5853     2.3758
  637.5000    10.6951    10.5439   -56.2685     8.9210     0.1643     0.1620    82.1292     2.3833
  638.0000    10.6995    10.5509   -56.5700     8.9210     0.1635     0.1590    81.5131     2.3909
  638.5000    10.7043    10.5566   -56.8421     8.9210     0.1635     0.1578    80.5919     2.3955
  639.0000    10.7087    10.5622   -57.1299     8.9210     0.1635     0.1621    79.6708     2.3924
  639.5000    10.7130    10.5679   -57.2716     8.9210     0.1635     0.1683    78.4438     2.3878
  640.0000    10.6437    10.5736   -57.2608     8.9210     0.1634     0.1719    79.0517     2.3831
  640.5000    10.7216    10.5793   -57.2521     8.9210     0.1634     0.1741    80.5770     2.3786
  641.0000    10.6524    10.5849   -56.9469     8.9210     0.1695     0.1749    80.8792     2.3742
  641.5000    10.6577    10.5906   -56.9382     8.9210     0.1725     0.1766    80.8754     2.3724
  642.0000    10.6620    10.5963   -56.9295     8.9210     0.1724     0.1786    79.2916     2.3693
  642.5000    10.5921    10.4570   -56.9208     8.9210     0.1755     0.1801    77.1980     2.3677
  643.0000    10.5238    10.3196   -56.9120     8.9210     0.1758     0.1817    78.5958     2.3646
  643.5000    10.4558    10.3265   -56.9031     8.8906     0.1886     0.1841    80.0032     2.3621
  644.0000    10.3182    10.2589   -57.0430     8.8906     0.2067     0.1857    80.5509     2.3615
  644.5000    10.3223    10.2504   -57.1804     8.8906     0.2214     0.1862    79.8426     2.3584
  645.0000    10.2556    10.2418   -57.1717     8.8906     0.2246     0.1826    79.2113     2.3561
  645.5000    10.2599    10.2332   -57.1630     8.8906     0.2267     0.1808    78.5799     2.3585
  646.0000    10.2641    10.2247   -57.1543     8.8906     0.2195     0.1796    78.2543     2.3621
  646.5000    10.1987    10.2161   -57.4421     8.8906     0.2163     0.1790    77.6229     2.3667
  647.0000    10.2028    10.2075   -57.7322     8.8906     0.2131     0.1766    77.1636     2.3697
