~VERSION INFORMATION
 VERS.                2.0:   CWLS LOG ASCII STANDARD - VERSION 2.0
 WRAP.                 NO:   ONE LINE PER DEPTH STEP
~WELL INFORMATION
#MNEM.UNIT      DATA TYPE    INFORMATION
#----------   ------------   ------------------------------
 STRT.F           86.0000:   START DEPTH
 STOP.F          770.0000:   STOP DEPTH
 STEP.F            0.5000:   STEP LENGTH
 NULL.          -999.2500:   NO VALUE
 COMP.           U S NAVY:   COMPANY
 WELL. NPR 3 TEAPOT DOM #85-S-34:   WELL
 FLD .        TEAPOT DOME:   FIELD
 LOC .      S34 T39N R78W:   LOCATION
 CNTY.            NATRONA:   COUNTY
 STAT.            WYOMING:   STATE
 CTRY. UNITED STATES OF AMERICA:   COUNTRY
 SRVC. Schlumberger Well Surveying Corp:   SERVICE COMPANY
 DATE.        31-JUL-1963:   LOGDATE
 API .       490250652800:   API NUMBER
~CURVE INFORMATION
#MNEM.UNIT       API CODE    CURVE DESCRIPTION
#----------   ------------   ------------------------------
 DEPT.F                  :   
 ASN .OHMM   05 041 16 00:   AMPLIFIED SHORT NORMAL 16"
 CILD.MMHO   05 110 46 00:   CONDUCTIVITY INDUCTION LOG DEEP
 ILD .OHMM   05 120 46 00:   INDUCTION LOG DEEP
 SPR .MV     05 010 01 00:   SPONTANEOUS POTENTIAL FROM RES.
 GR  .GAPI   30 310 01 00:   GAMMA RAY
~PARAMETER INFORMATION
#MNEM.UNIT          VALUE    DESCRIPTION
#----------   ------------   ------------------------------
 PD  .                 GL:   PERMANENT DATUM
 EPD .F              5071:   ELEVATION PERMANENT DATUM
 LMF .                 KB:   LOG MEASURED FROM
 DAPD.F                 5:   FEET ABOVE PERMANENT DATUM
 DMF .                 KB:   DRILLING MEASURED FROM
 EKB .F              5076:   KELLING BUSHING
 EGL .F              5071:   GROUND LEVEL
 DATE.        31-JUL-1963:   RUN DATE
 RUN .                  1:   RUN NUMBER
 DD  .F               770:   DEPTH DRILLER
 DL  .F               771:   DEPTH LOGGER
 BLI .F               770:   BOTTOM LOG INTERVAL
 TLI .F                86:   TOP LOG INTERVAL
 CS  .IN            8.625:   CASING SIZE
 CBD .F                10:   CASING BOTTOM DRILLER
 BS  .IN             6.75:   BIT SIZE
 BSD .F               770:   BIT SIZE AT DEPTH
 DFT .          GEL & OIL:   DRILLING FLUID TYPE
 DFD .                9.6:   DRILLING FLUID DENSITY
 DFV .                 39:   DRILLING FLUID VISCOSITY
 DFPH.                9.0:   DRILLING FLUID PH
 DFL .                8.8:   DRILLING FLUID LOSS
 MSS .           FLOWLINE:   MUD SAMPLE SOURCE
 RMS .OHMM           3.06:   RESISTIVITY MUD SAMPLE
 MST .F                94:   MUD SAMPLE TEMPERATURE
 RMF .OHMM           2.64:   RESISTIVITY MUD FILTRATE SAMPLE
 MFST.F                94:   MUD FILTRATE SAMPLE TEMPERATURE
 MFSS.               MEAS:   MUD FILTRATE SAMPLE SOURCE
 TCS .HRS               1:   TIME CURCULATED STOPPED
 MRT .F           LESS 80:   MAXIMUM RECORDED TEMPERATURE
 LUN .               4507:   LOGGING UNIT NUMBER
 LUL .               CSPR:   LOGGING UNIT LOCATION
 ENGI.            WINKLER:   RECORDING ENGINEER
 WITN.          JORGENSON:   WITNESSED BY
 CLNT.            A2DTECH:   CLIENT CODE
 ORIG.           5" PRINT:   ORIGIN OF DATA
 UWI .       490250652800:   UNIQUE WELL ID
 DICO. A2D Technologies, Inc.:   DIGITIZING COMPANY
~OTHER INFORMATION
~A   DEPT        ASN      CILD         ILD      SPR         GR   
# ...
  696.0000    13.6011    77.2871    12.2856   -33.4875    63.5898
  696.5000    13.6019    78.0757    12.2095   -33.6399    61.5761
  697.0000    13.4450    78.8644    12.1334   -33.4754    62.9836
  697.5000    13.4458    80.4416    12.1357   -32.8414    63.4572
  698.0000    13.5251    80.3785    12.1379   -32.0209    63.9308
  698.5000    13.5257    79.6530    12.1408   -31.2579    64.7151
  699.0000    13.6051    79.6530    12.0641   -31.5658    66.8975
  699.5000    13.6057    79.6530    12.0669   -31.4027    68.9245
  700.0000    13.6063    80.4441    11.9902   -30.9272    69.7087
  700.5000    13.6219    80.4732    11.9870   -31.7046    71.1115
  701.0000    13.7005    79.7132    11.9841   -32.0126    71.5829
  701.5000    13.6216    78.9535    12.0596   -32.4774    70.9661
  702.0000    13.5427    79.7792    12.0560   -32.6283    73.3007
  702.5000    13.5425    79.8145    12.0531   -32.3068    73.6159
  703.0000    13.5424    79.8434    12.0502   -31.9867    70.3582
  703.5000    13.6997    79.0837    12.0466   -31.6667    67.5666
  704.0000    13.6995    78.3312    12.0437   -31.5165    66.2725
  704.5000    13.9356    77.5710    12.2069   -31.6692    64.9349
  705.0000    14.2504    77.6076    12.3514   -31.5067    67.7366
  705.5000    14.4077    77.6365    12.3478   -31.1826    67.4293
  706.0000    14.5650    77.6656    12.3442   -30.7120    66.0369
  706.5000    14.6436    77.7016    12.3413   -30.5507    62.0025
  707.0000    14.6434    77.7305    12.3385   -30.5463    61.9819
  707.5000    14.6433    77.7603    12.3348   -30.5409    67.2311
  708.0000    14.3282    78.5842    12.2536   -30.8516    68.8510
  708.5000    14.0131    80.9790    12.0940   -31.4742    66.6807
  709.0000    13.6980    82.5925    11.9336   -31.7838    65.1330
  709.5000    13.4616    84.1987    11.8524   -32.0934    64.2043
  710.0000    13.3827    84.2276    11.6927   -32.0670    69.9575
  710.5000    13.3038    84.2638    11.6891   -31.1406    70.5926
  711.0000    13.2249    84.2927    11.6863   -30.9793    69.1775
  711.5000    13.2247    84.3402    11.6050   -30.9749    69.8168
  712.0000    13.2246    85.9350    11.6014   -31.1276    70.1320
  712.5000    13.2244    85.9640    11.5985   -31.9071    69.8247
  713.0000    13.2242    86.0828    11.5956   -33.3428    68.4323
  713.5000    13.2241    86.8177    11.5136   -34.5672    67.3494
  714.0000    13.2239    87.6352    11.5108   -35.3467    62.6937
  714.5000    13.2238    86.8755    11.5078   -36.1424    62.3875
  715.0000    13.3811    86.9116    11.5043   -37.0637    63.4805
  715.5000    13.4597    86.9406    11.5014   -37.6873    64.2617
  716.0000    13.5383    86.1808    11.4984   -38.0136    64.4216
  716.5000    13.6956    83.8511    11.6516   -38.6195    64.2696
  717.0000    14.0104    77.5399    12.0406   -38.7732    64.2752
  717.5000    14.6402    71.2978    12.8207   -38.9430    64.4351
  718.0000    15.8998    67.3835    13.6799   -38.7624    64.2842
  718.5000    17.3957    64.1718    14.8525   -38.6010    63.3578
  719.0000    18.5767    60.3508    16.3380   -38.1256    63.0505
  719.5000    19.2852    57.2252    17.5890   -38.2773    61.0367
  720.0000    21.4110    51.7408    18.5265   -38.7439    56.6917
  720.5000    24.0947    48.6151    19.4634   -41.4072    55.4524
  721.0000    25.0328    47.0662    19.9314   -44.8566    55.4765
  721.5000    23.6153    48.6802    19.2225   -46.2651    52.3526
  722.0000    23.0587    51.8637    18.5136   -47.3586    52.3604
  722.5000    22.9063    53.4831    18.0405   -47.8252    53.4532
  723.0000    22.3550    55.0833    17.7241   -47.3499    55.7878
  723.5000    21.4703    55.9009    17.3286   -46.4025    57.1904
  724.0000    20.9373    56.7192    17.0906   -46.0842    57.9704
  724.5000    20.7009    55.9587    17.0094   -45.7670    54.7139
  725.0000    20.3858    56.7835    16.9274   -47.6443    54.7184
  725.5000    20.3069    56.8197    16.9245   -47.6400    55.5868
  726.0000    20.3068    57.6372    16.8433   -45.4378    57.6800
  726.5000    20.3066    58.4548    16.7613   -44.9614    61.2573
  727.0000    20.3064    58.4910    16.7584   -45.1152    60.1745
  727.5000    20.3063    57.7312    16.7555   -45.4237    61.1110
  728.0000    20.3849    57.7603    16.7519   -45.4183    62.0476
  728.5000    20.5422    57.7963    16.7490   -45.2569    61.4275
  729.0000    20.7783    57.0366    16.7461   -44.4677    63.9206
  729.5000    20.7781    57.0662    16.7426   -42.7354    58.1787
  730.0000    20.7779    57.1016    16.7397   -42.5741    56.3191
  730.5000    20.7778    57.1306    16.7361   -42.5697    56.1672
  731.0000    20.7776    57.1667    16.7332   -42.5643    56.3281
  731.5000    20.3050    57.1956    16.5736   -42.5599    57.5754
  732.0000    19.6697    58.8018    16.2565   -42.3986    60.3760
  732.5000    19.5961    59.6266    16.0968   -39.7244    56.1398
  733.0000    20.0683    60.4442    15.9372   -37.3653    60.5414
  733.5000    19.6653    62.0505    15.7769   -37.5179    62.4089
  734.0000    19.4381    62.0865    15.6172   -38.1415    59.9280
  734.5000    19.3592    61.3268    15.5360   -37.5082    60.7103
  735.0000    19.5165    60.5671    15.6115   -36.5619    60.2476
  735.5000    19.5951    59.0187    15.8430   -37.0274    62.4280
  736.0000    19.8312    58.2662    16.2319   -37.4940    60.4131
  736.5000    20.0672    57.5065    16.6986   -37.9607    65.2343
  737.0000    19.8309    57.5427    16.8531   -37.4843    63.0640
  737.5000    19.3583    56.7823    16.9279   -35.5961    61.8247
  738.0000    19.7518    56.8191    16.6892   -33.7079    63.5390
  738.5000    20.1454    57.6367    16.3728   -32.2896    62.3008
  739.0000    19.9877    58.4543    15.8997   -32.1283    66.1888
  739.5000    19.2789    60.0676    15.5826   -32.1239    65.6718
  740.0000    18.7275    62.4625    15.2663   -32.1185    64.0242
  740.5000    18.1736    65.6467    14.9436   -32.1142    63.5627
  741.0000    17.6249    67.2594    14.4761   -32.1098    62.7905
  741.5000    17.3885    68.8656    14.1597   -32.1044    64.3484
  742.0000    17.1521    68.9018    14.0000   -32.1001    65.9063
  742.5000    16.8370    68.9307    13.9965   -33.3516    65.9108
  743.0000    16.9943    68.9596    14.0727   -34.6021    66.2323
  743.5000    17.1517    68.9958    14.0684   -34.4407    66.6976
  744.0000    16.7578    69.0247    13.9871   -34.1224    64.6823
  744.5000    16.5214    69.0536    13.9842   -33.6460    64.3750
  745.0000    16.4425    69.0898    13.8239   -33.9567    64.2252
  745.5000    16.3636    69.1187    13.6643   -34.1083    64.3853
  746.0000    16.1272    69.9369    13.5046   -33.7889    66.8747
  746.5000    15.8908    70.7610    13.3443   -32.9996  -999.2500
  747.0000    15.7332    72.3672    13.1847   -32.2103  -999.2500
  747.5000    15.4968    73.9807    13.0250   -32.6759  -999.2500
  748.0000    15.1817    75.5869    12.7863   -32.9866  -999.2500
  748.5000    15.0241    77.1931    12.7051   -32.9812  -999.2500
  749.0000    14.9452    78.8065    12.5454   -32.9757  -999.2500
  749.5000    14.7875    79.6241    12.3067   -32.8144  -999.2500
  750.0000    14.5512    80.4416    12.2255   -32.6531  -999.2500
  750.5000    14.4094    79.6530    12.3041   -31.9937  -999.2500
  751.0000    14.3307    79.6530    12.1473   -30.7692  -999.2500
  751.5000    14.2520    78.8644    12.0690   -30.1413  -999.2500
  752.0000    14.2520    79.6530    12.0690   -29.9843  -999.2500
  752.5000    14.2520    79.6530    12.0690   -29.8273  -999.2500
  753.0000    14.2520    79.6530    12.0690   -29.8273  -999.2500
  753.5000    14.3307    80.4416    12.0690   -29.5133  -999.2500
  754.0000    14.2520    80.4416    12.0690   -29.5133  -999.2500
  754.5000    14.2520    80.4416    12.0690   -29.1994  -999.2500
  755.0000    14.2520    79.6530    12.0690   -29.0424  -999.2500
  755.5000    14.0945    79.6530    12.0690   -28.8854  -999.2500
  756.0000    14.0945    79.6530    12.0690   -28.8854  -999.2500
  756.5000    14.0945    79.6530    12.0690   -28.8854  -999.2500
