~VERSION INFORMATION
 VERS.                2.0:   CWLS LOG ASCII STANDARD - VERSION 2.0
 WRAP.                 NO:   ONE LINE PER DEPTH STEP
~WELL INFORMATION
#MNEM.UNIT      DATA TYPE    INFORMATION
#----------   ------------   ------------------------------
 STRT.F           36.0000:   START DEPTH
 STOP.F          700.0000:   STOP DEPTH
 STEP.F            0.5000:   STEP LENGTH
 NULL.          -999.2500:   NO VALUE
 COMP. FENIX & SCISSON INC:   COMPANY
 WELL. NPR #3 13SX14 #13-14:   WELL
 FLD .             TEAPOT:   FIELD
 LOC .      S14 T38N R78W:   LOCATION
 CNTY.            NATRONA:   COUNTY
 STAT.            WYOMING:   STATE
 CTRY. UNITED STATES OF AMERICA:   COUNTRY
 SRVC.              Welex:   SERVICE COMPANY
 DATE.        28-FEB-1977:   LOGDATE
 API .       490251029600:   API NUMBER
~CURVE INFORMATION
#MNEM.UNIT       API CODE    CURVE DESCRIPTION
#----------   ------------   ------------------------------
 DEPT.F                  :   
 CALD.IN     45 280 60 00:   CALIPER FROM DENSITY LOG
 GRD .GAPI   45 310 01 00:   GAMMA RAY FROM DENSITY LOG
 CORR.G/C3   45 356 01 00:   DENSITY CORRECTION
 RHOB.G/C3   45 350 01 00:   BULK DENSITY
 DPHI.DEC    45 890 12 00:   DENSITY POROSITY SANDSTONE
 SPR .MV     07 010 01 00:   SPONTANEOUS POTENTIAL
 SGRD.OHMM   07 220 05 00:   SHALLOW RESISTIVITY
 ILD .OHMM   07 120 46 00:   INDUCTION LOG DEEP
 ILM .OHMM   07 120 44 00:   INDUCTION LOG MEDIUM
~PARAMETER INFORMATION
#MNEM.UNIT          VALUE    DESCRIPTION
#----------   ------------   ------------------------------
 PD  .                 GL:   PERMANENT DATUM
 EPD .F              5238:   ELEVATION PERMANENT DATUM
 LMF .                 GL:   LOG MEASURED FROM
 DMF .                 GL:   DRILLING MEASURED FROM
 EGL .F              5238:   GROUND LEVEL
 DATE.            2-28-77:   RUN DATE
 RUN .                  1:   RUN NUMBER
 DD  .F               710:   DEPTH DRILLER
 DL  .F               706:   DEPTH LOGGER
 BLI .F               704:   BOTTOM LOG INTERVAL
 TLI .F                42:   TOP LOG INTERVAL
 CS  .IN            8.625:   CASING SIZE
 CBD .F                42:   CASING BOTTOM DRILLER
 CBL .F                42:   CASING BOTTOM LOGGER
 BS  .IN            7.875:   BIT SIZE
 BSD .F               710:   BIT SIZE AT DEPTH
 DFT .           CHEM-GEL:   DRILLING FLUID TYPE
 DFD .                8.7:   DRILLING FLUID DENSITY
 DFV .                 33:   DRILLING FLUID VISCOSITY
 DFPH.                  7:   DRILLING FLUID PH
 DFL .                  8:   DRILLING FLUID LOSS
 MSS .          FLOW LINE:   MUD SAMPLE SOURCE
 RMS .OHMM           .382:   RESISTIVITY MUD SAMPLE
 MST .F                54:   MUD SAMPLE TEMPERATURE
 RMF .OHMM           .342:   RESISTIVITY MUD FILTRATE SAMPLE
 MFST.F                54:   MUD FILTRATE SAMPLE TEMPERATURE
 RMC .OHMM           .821:   RESISTIVITY MUD CAKE
 MCST.F                54:   MUD CAKE SAMPLE TEMPERATURE
 MFSS.           MEASURED:   MUD FILTRATE SAMPLE SOURCE
 MCSS.           MEASURED:   MUD CAKE SAMPLE SOURCE
 RMB .OHMM           .333:   RESISTIVITY MUD AT BHT
 BHT .F                62:   BOTTOM HOLE TEMPERATURE
 TCS .HRS               3:   TIME CURCULATED STOPPED
 MRT .F                62:   MAXIMUM RECORDED TEMPERATURE
 LUN .               8611:   LOGGING UNIT NUMBER
 LUL .           GILLETTE:   LOGGING UNIT LOCATION
 ENGI.               DOAK:   RECORDING ENGINEER
 WITN.               JAPP:   WITNESSED BY
 CLNT.            A2DTECH:   CLIENT CODE
 ORIG.       2", 5" PRINT:   ORIGIN OF DATA
 UWI .       490251029600:   UNIQUE WELL ID
 DICO. A2D Technologies, Inc.:   DIGITIZING COMPANY
~OTHER INFORMATION
~A   DEPT       CALD       GRD       CORR        RHOB     DPHI         SPR        SGRD      ILD        ILM   
# ...
   72.5000     7.9546   117.3714     0.0302     2.4791     0.0993   -10.4144     9.0211     6.2017     7.0640
   73.0000     7.9566   118.4219     0.0283     2.4753     0.1003   -11.2325     8.8039     6.3354     7.1495
   73.5000     7.9585   119.5480     0.0264     2.4717     0.1018   -12.0506     8.8802     6.5558     7.2361
   74.0000     7.9605   118.7960     0.0245     2.4680     0.1054   -12.8727     9.0708     6.6140     7.3963
   74.5000     7.9625   116.9113     0.0227     2.4645     0.1090   -13.6983     9.3046     6.5944     7.5778
   75.0000     7.9644   117.8772     0.0208     2.4587     0.1125   -14.6170     9.1435     6.5656     7.7629
   75.5000     7.9664   119.5833     0.0189     2.4525     0.1161   -15.3727     8.9464     6.5371     7.9531
   76.0000     7.9684   120.6043     0.0170     2.4464     0.1186   -16.0655     8.7535     6.5093     7.6845
   76.5000     7.9704   119.6250     0.0152     2.4402     0.1211   -16.7638     8.4851     6.4817     7.3214
   77.0000     7.9723   120.0536     0.0133     2.4368     0.1236   -17.4608     8.6339     6.4542     7.3878
   77.5000     7.9743   121.2574     0.0134     2.4384     0.1225   -18.1606     8.8251     6.4269     7.5267
   78.0000     7.9763   122.4973     0.0140     2.4411     0.1205   -18.8610     9.0206     6.3997     7.4041
   78.5000     7.9783   121.9995     0.0146     2.4439     0.1185   -18.9616     9.2204     6.3726     7.3214
   79.0000     7.9802   120.5105     0.0152     2.4468     0.1173   -19.4484     9.3046     6.3456     7.4287
   79.5000     7.9822   119.7012     0.0158     2.4496     0.1158   -19.8666     9.0670     6.3186     7.5204
   80.0000     7.9842   121.5237     0.0164     2.4524     0.1131   -20.2938     8.9677     6.2919     7.6668
   80.5000     7.9862   123.3787     0.0169     2.4552     0.1114   -20.7186     9.1346     6.2652     7.5547
   81.0000     7.9881   124.5028     0.0151     2.4555     0.1123   -21.1426     8.8167     6.2258     7.4444
   81.5000     7.9901   123.6926     0.0132     2.4523     0.1125   -21.5669     8.5682     6.1830     7.3351
   82.0000     7.9921   122.9832     0.0113     2.4485     0.1162   -21.9911     8.9626     6.1405     7.2269
   82.5000     7.9941   123.1893     0.0095     2.4447     0.1193   -22.4153     8.4667     6.0982     7.1206
   83.0000     7.9960   124.5294     0.0078     2.4417     0.1197   -22.8400     8.2064     6.0327     6.9915
   83.5000     7.9980   126.2489     0.0056     2.4439     0.1188   -23.2644     8.5122     6.0327     7.0338
   84.0000     8.0000   126.9649     0.0084     2.4491     0.1163   -23.6768     8.7231     6.0327     7.1503
   84.5000     8.0019   126.1020     0.0111     2.4542     0.1132   -24.1291     8.0285     6.0885     7.2688
   85.0000     7.9998   124.4023     0.0139     2.4594     0.1099   -24.5695     8.5025     6.1662     7.3892
   85.5000     7.9975   121.8978     0.0167     2.4645     0.1068   -25.0132     9.6541     6.3006     7.5116
   86.0000     7.9952   119.3419     0.0194     2.4696     0.1035   -25.4551     8.9677     6.4380     7.6361
   86.5000     7.9930   116.8017     0.0222     2.4749     0.1002   -25.8953     9.1476     6.5783     7.7625
   87.0000     7.9907   115.2259     0.0249     2.4755     0.1003   -26.2719     9.2881     6.7217     7.8911
   87.5000     7.9884   116.0605     0.0277     2.4764     0.0998   -26.5665     9.0508     6.8689     8.0287
   88.0000     7.9861   117.4269     0.0305     2.4769     0.0980   -26.8600     9.1890     7.0573     8.1035
   88.5000     7.9839   116.4494     0.0285     2.4755     0.1010   -27.1400     9.4462     7.0559     8.0197
   89.0000     7.9816   115.0105     0.0249     2.4735     0.1033   -27.3471     9.7106     7.0570     7.9098
   89.5000     7.9793   113.5555     0.0214     2.4702     0.1071   -27.5465     9.8338     7.0563     7.8013
   90.0000     7.9770   112.1157     0.0178     2.4579     0.1123   -27.7346     8.5632     7.0163     7.6944
   90.5000     7.9748   111.4315     0.0140     2.4457     0.1174   -27.8420     8.6567     6.9627     7.5964
   91.0000     7.9725   111.8282     0.0130     2.4357     0.1225   -27.9441     8.9390     6.9095     7.5964
   91.5000     7.9702   111.8375     0.0130     2.4322     0.1257   -28.0462     9.1531     6.8469     7.1957
   92.0000     7.9679   110.2273     0.0129     2.4202     0.1293   -28.1483     8.6931     6.5546     6.8327
   92.5000     7.9657   108.6424     0.0154     2.4079     0.1336   -28.2505     8.2551     5.7335     6.4881
   93.0000     7.9635   107.0657     0.0224     2.4097     0.1352   -28.3526     7.8095     5.1499     6.2018
   93.5000     7.9671   105.7675     0.0294     2.4131     0.1335   -28.4549     7.9779     4.6257     5.8681
   94.0000     7.9782   107.3498     0.0364     2.4130     0.1357   -28.5562     8.0285     4.1344     5.0611
   94.5000     7.9894   110.3970     0.0434     2.4005     0.1456   -28.6591     6.9161     3.5684     4.3942
   95.0000     8.0005   114.2558     0.0504     2.3901     0.1532   -28.7611     5.9283     3.0799     3.8151
   95.5000     7.9970   118.1574     0.0565     2.3664     0.1661   -28.8631     4.6308     2.6583     3.3124
   96.0000     7.9913   123.0723     0.0527     2.3364     0.1803   -28.9652     3.5379     2.3262     2.8759
   96.5000     7.9855   127.8400     0.0488     2.3017     0.2052   -29.0673     2.9859     2.2603     2.4667
   97.0000     7.9797   130.3160     0.0445     2.2672     0.2281   -29.1694     2.7655     2.1962     2.3513
   97.5000     7.9740   128.9249     0.0396     2.2387     0.2421   -29.2714     2.5831     2.1284     2.2913
   98.0000     7.9682   126.2672     0.0348     2.2301     0.2496   -29.3735     2.6776     2.1284     2.3538
   98.5000     7.9624   122.9824     0.0299     2.2297     0.2492   -29.4756     2.8905     2.2913     2.5310
   99.0000     7.9566   117.5326     0.0251     2.2410     0.2425   -29.5776     3.1768     2.4617     2.8147
   99.5000     7.9509   112.2014     0.0202     2.2630     0.2261   -29.6797     3.5834     2.6811     3.2497
  100.0000     7.9452   106.8704     0.0152     2.2926     0.2005   -29.7818     5.1338     3.2228     3.8933
  100.5000     7.9438   101.3752     0.0149     2.3467     0.1749   -29.8838    10.1096     3.8740     4.6656
  101.0000     7.9498    99.0747     0.0185     2.4115     0.1442   -29.9858    10.2032     4.6567     5.5648
  101.5000     7.9556    97.8109     0.0258     2.4704     0.1050   -30.0899     9.8338     5.5978     6.6057
  102.0000     7.9615    96.7137     0.0330     2.4761     0.1011   -30.1788    10.3130     6.7293     7.6526
  102.5000     7.9673    96.9547     0.0378     2.4788     0.0998   -30.2655    11.3540     8.0901     8.3580
  103.0000     7.9731    97.3182     0.0398     2.4781     0.1002   -30.3517    12.4031     8.7345     9.1284
  103.5000     7.9790    97.6782     0.0417     2.4679     0.1048   -30.4379    13.4640     9.1383     9.7518
  104.0000     7.9848    98.0396     0.0413     2.4578     0.1105   -30.5242    13.4679     8.4073    10.2032
  104.5000     7.9907    98.5101     0.0380     2.4479     0.1162   -30.6105    12.6337     7.5957     9.6555
  105.0000     7.9965    99.3792     0.0347     2.4376     0.1213   -30.6968    11.8948     6.9180     9.0711
  105.5000     8.0023   100.1833     0.0349     2.4273     0.1299   -30.7828    11.0706     6.3002     8.5637
  106.0000     8.0082   103.5403     0.0361     2.4113     0.1405   -30.8686    10.3931     5.7376     7.0226
  106.5000     8.0140   108.4071     0.0373     2.3943     0.1510   -30.9140     9.3046     5.2252     5.8422
  107.0000     8.0199   112.2843     0.0385     2.3776     0.1612   -30.9145     5.8965     4.7442     5.2353
  107.5000     8.0201   115.8342     0.0346     2.3561     0.1732   -30.9152     3.7008     4.7967     4.9732
  108.0000     8.0160   119.2001     0.0280     2.3352     0.1847   -30.9836     3.6669     4.9964     5.0592
  108.5000     8.0118   119.3344     0.0214     2.3195     0.1939   -31.1306     7.1851     5.2052     5.6470
