~VERSION INFORMATION
 VERS.                2.0:   CWLS LOG ASCII STANDARD - VERSION 2.0
 WRAP.                 NO:   ONE LINE PER DEPTH STEP
~WELL INFORMATION
#MNEM.UNIT      DATA TYPE    INFORMATION
#----------   ------------   ------------------------------
 STRT.F           30.0000:   START DEPTH
 STOP.F          580.0000:   STOP DEPTH
 STEP.F            0.5000:   STEP LENGTH
 NULL.          -999.2500:   NO VALUE
 COMP. FENIX & SCISSON INC:   COMPANY
 WELL.      87 SX 3 #87-3:   WELL
 FLD .             TEAPOT:   FIELD
 LOC .       S3 T38N R78W:   LOCATION
 CNTY.            NATRONA:   COUNTY
 STAT.            WYOMING:   STATE
 CTRY. UNITED STATES OF AMERICA:   COUNTRY
 SRVC.            Unknown:   SERVICE COMPANY
 DATE.        16-NOV-1978:   LOGDATE
 API .       490251074200:   API NUMBER
~CURVE INFORMATION
#MNEM.UNIT       API CODE    CURVE DESCRIPTION
#----------   ------------   ------------------------------
 DEPT.F                  :   
 CALD.IN     45 280 60 00:   CALIPER
 GRD .GAPI   45 310 01 00:   GAMMA RAY FROM DENSITY LOG
 RHOB.G/C3   45 350 01 00:   BULK DENSITY
 DPHI.DEC    45 890 12 00:   DENSITY POROSITY SANDSTONE
 CORR.G/C3   45 356 01 00:   DENSITY CORRECTION
 SFL .OHMM   05 221 01 00:   AMP. SHALLOW FOCUSED LOG RESISTIVITY
 ILD .OHMM   05 120 46 00:   INDUCTION LOG DEEP
 SPR .MV     05 010 01 00:   SPONTANEOUS POTENTIAL FROM RES.
~PARAMETER INFORMATION
#MNEM.UNIT          VALUE    DESCRIPTION
#----------   ------------   ------------------------------
 PD  .                 GL:   PERMANENT DATUM
 EPD .F              5120:   ELEVATION PERMANENT DATUM
 LMF .                 KB:   LOG MEASURED FROM
 DAPD.F                 4:   FEET ABOVE PERMANENT DATUM
 DMF .                 KB:   DRILLING MEASURED FROM
 EKB .F              5124:   KELLING BUSHING
 EGL .F              5120:   GROUND LEVEL
 DATE.           11-16-78:   RUN DATE
 RUN .                  1:   RUN NUMBER
 DD  .F               580:   DEPTH DRILLER
 DL  .F               574:   DEPTH LOGGER
 BLI .F               574:   BOTTOM LOG INTERVAL
 TLI .F                50:   TOP LOG INTERVAL
 CS  .IN            8.625:   CASING SIZE
 CBD .F                50:   CASING BOTTOM DRILLER
 CBL .F                50:   CASING BOTTOM LOGGER
 BS  .IN            7.875:   BIT SIZE
 BSD .F               580:   BIT SIZE AT DEPTH
 DFT .            SEA MUD:   DRILLING FLUID TYPE
 DFD .                8.7:   DRILLING FLUID DENSITY
 DFV .                 54:   DRILLING FLUID VISCOSITY
 DFPH.                9.8:   DRILLING FLUID PH
 MSS .           FLOWLINE:   MUD SAMPLE SOURCE
 RMS .OHMM            1.1:   RESISTIVITY MUD SAMPLE
 MST .F                56:   MUD SAMPLE TEMPERATURE
 RMF .OHMM             .9:   RESISTIVITY MUD FILTRATE SAMPLE
 MFST.F                60:   MUD FILTRATE SAMPLE TEMPERATURE
 RMC .OHMM            .95:   RESISTIVITY MUD CAKE
 MCST.F                60:   MUD CAKE SAMPLE TEMPERATURE
 MFSS.           MEASURED:   MUD FILTRATE SAMPLE SOURCE
 MCSS.           MEASURED:   MUD CAKE SAMPLE SOURCE
 RMB .OHMM            .93:   RESISTIVITY MUD AT BHT
 BHT .F                66:   BOTTOM HOLE TEMPERATURE
 TCS .HRS               1:   TIME CURCULATED STOPPED
 MRT .F                66:   MAXIMUM RECORDED TEMPERATURE
 LUN .               2958:   LOGGING UNIT NUMBER
 LUL .                CPR:   LOGGING UNIT LOCATION
 ENGI.             MILLER:   RECORDING ENGINEER
 WITN.           DINSMORE:   WITNESSED BY
 CLNT.            A2DTECH:   CLIENT CODE
 ORIG.       2", 5" PRINT:   ORIGIN OF DATA
 UWI .       490251074200:   UNIQUE WELL ID
 DICO. A2D Technologies, Inc.:   DIGITIZING COMPANY
~OTHER INFORMATION
~A   DEPT     CALD         GRD      RHOB       DPHI       CORR        SFL        ILD        SPR   
# ...
  192.0000     7.8515    96.3316     2.4256     0.1565     0.0043     8.1882     7.2517    -8.0954
  192.5000     7.8515    96.3330     2.4214     0.1593     0.0056     8.0683     7.0729    -7.1950
  193.0000     7.8513    96.3397     2.4172     0.1621     0.0095     7.8471     6.7060    -7.0503
  193.5000     7.8516    96.5957     2.4131     0.1649     0.0134     7.4919     6.3580    -6.8885
  194.0000     7.8651    97.7341     2.4089     0.1677     0.0172     7.1527     6.0282    -6.7241
  194.5000     7.9238    98.1095     2.4024     0.1703     0.0211     6.8289     5.8463    -6.5596
  195.0000     7.9309    97.6588     2.3909     0.1797     0.0250     6.5197     5.8486    -6.3951
  195.5000     7.9308    97.5269     2.3727     0.1867     0.0255     6.2355     5.8996    -6.2306
  196.0000     7.9307    97.5228     2.3681     0.1853     0.0255     6.2363     5.9431    -6.0661
  196.5000     7.9307    97.5298     2.3875     0.1740     0.0255     6.4489     6.0597    -5.9016
  197.0000     7.9305    97.6794     2.4070     0.1612     0.0255     6.8818     6.2245    -5.7371
  197.5000     7.9318    98.5281     2.4262     0.1484     0.0237     7.5773     6.3854    -5.5726
  198.0000     7.9533    99.4354     2.4416     0.1445     0.0216     8.3366     6.9314    -5.4078
  198.5000     7.9743    99.7907     2.4447     0.1448     0.0195     9.0998     7.5711    -5.2436
  199.0000     7.9952    99.5638     2.4392     0.1477     0.0175     9.1995     7.9907    -5.0736
  199.5000     8.0110    99.3422     2.4336     0.1504     0.0154     9.3139     8.1227    -5.3579
  200.0000     8.0141    99.1182     2.4281     0.1544     0.0133     9.4413     8.2571    -5.7876
  200.5000     8.0173    98.6972     2.4223     0.1579     0.0116     9.4747     8.3940    -6.2211
  201.0000     8.0205    96.8286     2.4256     0.1543     0.0152     9.5108     8.5335    -5.6483
  201.5000     8.0241    95.0579     2.4388     0.1436     0.0293     9.6559     8.6753    -5.0393
  202.0000     8.0269    94.7242     2.4583     0.1364     0.0404     9.9059     8.7706    -5.0104
  202.5000     8.0009    94.7333     2.4590     0.1377     0.0350    10.0937     8.7651    -4.9709
  203.0000     7.7828    95.6255     2.4550     0.1392     0.0226    10.1681     8.7281    -4.9291
  203.5000     7.7701    97.8149     2.4535     0.1397     0.0101    10.2407     8.6913    -4.8889
  204.0000     7.7645    99.9981     2.4528     0.1396     0.0089    10.3142     8.6546    -4.9235
  204.5000     7.7587    99.6593     2.4521     0.1410     0.0084    10.3880     8.6181    -5.1043
  205.0000     7.7524    98.9521     2.4514     0.1418     0.0080    10.4479     8.5819    -5.2826
  205.5000     7.7332    99.2466     2.4548     0.1378     0.0075    10.3772     8.5453    -5.4614
  206.0000     7.7126    96.9904     2.4615     0.1338     0.0065    10.3185     8.4760    -5.6406
  206.5000     7.6920    95.3205     2.4667     0.1319     0.0036    10.2601     8.3851    -5.8236
  207.0000     7.6712    95.7921     2.4686     0.1320     0.0008    10.2021     8.2956    -5.7889
  207.5000     7.6508    98.8306     2.4704     0.1315    -0.0015    10.1444     8.2070    -5.7094
  208.0000     7.6429   101.8679     2.4721     0.1284    -0.0033    10.0870     8.1194    -5.6288
  208.5000     7.7077   104.8936     2.4672     0.1344    -0.0050    10.0299     8.0327    -5.5487
  209.0000     7.7716   107.9225     2.4587     0.1396    -0.0055     9.9777     7.9469    -5.4687
  209.5000     7.8307   109.3570     2.4543     0.1393     0.0017     9.6817     7.8621    -5.3887
  210.0000     7.8805   107.8921     2.4520     0.1407     0.0209     9.4388     7.6238    -5.3087
  210.5000     7.9293   103.3720     2.4455     0.1447     0.0348     9.0732     7.3747    -5.2287
  211.0000     7.9222   101.9060     2.4390     0.1487     0.0378     8.7142     7.1337    -5.1487
  211.5000     7.9107   101.7945     2.4344     0.1505     0.0410     8.2835     6.9015    -5.0687
  212.0000     7.8994   101.7131     2.4330     0.1506     0.0432     7.8764     6.6734    -4.9887
  212.5000     7.8881   100.7867     2.4317     0.1535     0.0411     7.4894     6.4277    -4.9087
  213.0000     7.8769    98.4925     2.4187     0.1603     0.0369     7.1214     5.7384    -4.8286
  213.5000     7.8656    96.8626     2.4027     0.1748     0.0230     6.6627     5.1267    -4.7477
  214.0000     7.8543    96.2311     2.3760     0.1893     0.0096     6.1562     4.5798    -4.6671
  214.5000     7.8431    96.7035     2.3489     0.2035     0.0026     5.4907     4.0911    -4.7324
  215.0000     7.8318    97.4027     2.3218     0.2183     0.0015     4.7756     3.6543    -4.8118
  215.5000     7.8206    97.4318     2.2948     0.2329     0.0015     4.2730     3.2660    -5.0153
  216.0000     7.8108    97.9603     2.2679     0.2475     0.0015     3.9841     3.1189    -5.4733
  216.5000     7.8063   100.5467     2.2406     0.2607     0.0015     3.7162     3.1068    -5.8587
  217.0000     7.8018   100.4952     2.2352     0.2642     0.0015     3.5226     3.0976    -5.8184
  217.5000     7.7973   100.4543     2.2420     0.2493     0.0015     3.5228     3.2390    -5.7857
  218.0000     7.7928   102.0245     2.2756     0.2315     0.0015     3.5843     3.3811    -5.7543
  218.5000     7.7883   103.8446     2.3082     0.2136     0.0015     3.8657     3.6097    -5.7231
  219.0000     7.7837   105.1664     2.3408     0.1958     0.0015     4.4446     3.9536    -5.6927
  219.5000     7.7792   105.8578     2.3707     0.1779     0.0015     5.0470     4.3320    -5.6670
  220.0000     7.7750   106.5389     2.3938     0.1611     0.0015     5.3831     4.7458    -5.3837
  220.5000     7.7860   106.2011     2.4150     0.1589     0.0015     6.3831     5.2032    -5.0515
  221.0000     7.8159   104.2316     2.4208     0.1568     0.0015     7.2016     5.6430    -4.8167
  221.5000     7.8457   102.5054     2.4260     0.1547     0.0015     7.3626     6.1284    -4.7190
  222.0000     7.8755   102.6552     2.4313     0.1520     0.0015     7.3563     6.1221    -4.7141
  222.5000     7.9054   102.8185     2.4366     0.1479     0.0015     7.3025     6.1239    -4.8161
  223.0000     7.9353   103.6929     2.4420     0.1438     0.0015     7.2287     6.1239    -5.8557
  223.5000     7.9496   105.5741     2.4473     0.1396     0.0009     7.3069     6.1239    -7.0148
  224.0000     7.9307   107.5192     2.4520     0.1388    -0.0016     7.4502     6.1239    -8.1711
  224.5000     7.9123   109.4606     2.4471     0.1447    -0.0040     7.5683     5.9181    -9.2915
  225.0000     7.8939   111.4127     2.4263     0.1573    -0.0064     7.4781     5.6889    -8.0763
  225.5000     7.8756   112.7178     2.4037     0.1729    -0.0084     7.3364     5.4304    -6.1605
  226.0000     7.8573   113.3046     2.3758     0.1886    -0.0071     7.0223     5.1835    -5.1751
  226.5000     7.8391   112.5907     2.3477     0.2042    -0.0032     6.3934     4.9474    -5.1090
  227.0000     7.8207   114.1793     2.3344     0.2091     0.0033     5.8267     4.8464    -5.2746
  227.5000     7.8120   116.2094     2.3501     0.1952     0.0099     5.5606     4.7717    -5.4373
  228.0000     7.8119   115.6209     2.3719     0.1828     0.0115     5.5100     4.6882    -5.6002
  228.5000     7.8119   112.1592     2.3904     0.1715     0.0115     5.4802     4.7094    -5.7630
  229.0000     7.8119   109.6790     2.3996     0.1677     0.0115     5.7705     4.7318    -5.9258
  229.5000     7.8119   107.1780     2.4085     0.1639     0.0116     6.0618     5.0005    -6.0887
  230.0000     7.8119   106.0281     2.4155     0.1601     0.0069     6.2449     5.2628    -6.2520
  230.5000     7.8119   107.5175     2.4226     0.1563     0.0013     6.4537     5.5393    -6.4197
  231.0000     7.8119   109.4769     2.4299     0.1523     0.0009     6.8288     5.8300    -6.3780
  231.5000     7.8119   110.8415     2.4378     0.1481     0.0004     7.2293     6.1361    -6.2893
  232.0000     7.8119   110.9107     2.4458     0.1437    -0.0002     7.6522     6.4582    -6.1994
