~VERSION INFORMATION
 VERS.                2.0:   CWLS LOG ASCII STANDARD - VERSION 2.0
 WRAP.                 NO:   ONE LINE PER DEPTH STEP
~WELL INFORMATION
#MNEM.UNIT      DATA TYPE    INFORMATION
#----------   ------------   ------------------------------
 STRT.F            2.0000:   START DEPTH
 STOP.F          670.5000:   STOP DEPTH
 STEP.F            0.5000:   STEP LENGTH
 NULL.          -999.2500:   NO VALUE
 COMP. BROWN JOHN E&C INC:   COMPANY
 WELL. 27-26 STX-11 #26-11:   WELL
 FLD .             TEAPOT:   FIELD
 LOC .      S11 T38N R78W:   LOCATION
 CNTY.            NATRONA:   COUNTY
 STAT.            WYOMING:   STATE
 CTRY. UNITED STATES OF AMERICA:   COUNTRY
 SRVC.           Gearhart:   SERVICE COMPANY
 DATE.        07-JUL-1987:   LOGDATE
 API .       490251114800:   API NUMBER
~CURVE INFORMATION
#MNEM.UNIT       API CODE    CURVE DESCRIPTION
#----------   ------------   ------------------------------
 DEPT.F                  :   
 GRR .GAPI   07 310 01 00:   GAMMA RAY FROM RES. LOG
 RILD.OHMM   07 120 46 00:   INDUCTION LOG DEEP RESISTIVITY
 RILM.OHMM   07 120 44 00:   INDUCTION LOG MEDIUM RESISTIVITY
~PARAMETER INFORMATION
#MNEM.UNIT          VALUE    DESCRIPTION
#----------   ------------   ------------------------------
 PD  .                 GL:   PERMANENT DATUM
 EPD .F              5199:   ELEVATION PERMANENT DATUM
 LMF .                 KB:   LOG MEASURED FROM
 DAPD.F                 8:   FEET ABOVE PERMANENT DATUM
 DMF .                 KB:   DRILLING MEASURED FROM
 EKB .F              5207:   KELLING BUSHING
 EDF .F              5205:   DRILLING FLOOR
 EGL .F              5199:   GROUND LEVEL
 DATE.             7-7-87:   RUN DATE
 RUN .                  1:   RUN NUMBER
 DD  .F               680:   DEPTH DRILLER
 DL  .F               679:   DEPTH LOGGER
 BLI .F               671:   BOTTOM LOG INTERVAL
 CS  .IN            8.625:   CASING SIZE
 CBD .F                50:   CASING BOTTOM DRILLER
 CBL .F                50:   CASING BOTTOM LOGGER
 BS  .IN             7.87:   BIT SIZE
 BSD .F               680:   BIT SIZE AT DEPTH
 DFT .                AIR:   DRILLING FLUID TYPE
 TCS .HRS            1800:   TIME CURCULATED STOPPED
 TLAB.HRS            1954:   TIME LOGGER AT BOTTOM
 LUN .               7597:   LOGGING UNIT NUMBER
 LUL .           GILLETTE:   LOGGING UNIT LOCATION
 ENGI. JOHNSTON/HUCKFELDT:   RECORDING ENGINEER
 WITN.             STRONG:   WITNESSED BY
 CLNT.            A2DTECH:   CLIENT CODE
 ORIG.       2", 5" PRINT:   ORIGIN OF DATA
 UWI .       490251114800:   UNIQUE WELL ID
 DICO. A2D Technologies, Inc.:   DIGITIZING COMPANY
~OTHER INFORMATION
~A    DEPT      GRR      RILD       RILM   
# ...
  457.0000    67.4589    22.6622    24.6682
  457.5000    66.8963    24.4041    28.2207
  458.0000    66.4517    25.5640    32.2850
  458.5000    62.8236    26.8992    34.5315
  459.0000    57.8605    26.5183    34.3244
  459.5000    54.3352    26.2538    33.6539
  460.0000    54.3134    25.9947    31.8541
  460.5000    58.6764    25.7487    30.1506
  461.0000    62.9751    25.1938    28.5382
  461.5000    66.6854    24.6499    27.0121
  462.0000    69.4884    24.1175    25.5675
  462.5000    72.3042    23.8458    24.2002
  463.0000    75.1053    24.7224    23.8300
  463.5000    76.7735    25.4185    23.5689
  464.0000    74.5840    26.1343    23.3106
  464.5000    72.3092    26.5734    22.9790
  465.0000    69.9743    25.5601    23.1391
  465.5000    69.6516    24.7541    22.6307
  466.0000    73.4504    24.0524    22.2499
  466.5000    77.4768    23.4035    21.8755
  467.0000    81.5446    22.7721    21.5074
  467.5000    82.2336    22.1577    21.1455
  468.0000    80.6427    21.7376    20.7897
  468.5000    79.0004    21.8707    20.4682
  469.0000    77.2703    22.1422    20.2127
  469.5000    78.6235    22.4177    20.5360
  470.0000    81.2159    22.9436    20.8300
  470.5000    83.8664    23.7357    21.7416
  471.0000    83.0350    24.5551    22.6966
  471.5000    78.5351    25.1145    24.5269
  472.0000    74.0604    25.3950    27.4294
  472.5000    69.4208    25.6787    30.3343
  473.0000    68.3536    25.9655    29.9161
  473.5000    69.5524    26.3753    29.0160
  474.0000    71.9307    25.9540    27.9613
  474.5000    74.2999    25.0765    26.9449
  475.0000    76.6698    24.2278    25.9655
  475.5000    79.0383    23.4084    25.0217
  476.0000    81.4076    22.6172    24.1120
  476.5000    83.7815    21.8528    23.2351
  477.0000    86.1965    21.1143    22.3906
  477.5000    86.7350    20.4564    21.6955
  478.0000    83.6658    20.1044    21.2166
  478.5000    80.7755    19.7585    20.7478
  479.0000    80.3807    19.4185    20.2894
  479.5000    82.5244    19.0844    19.8405
  480.0000    84.9443    18.7560    19.4023
  480.5000    87.3702    18.4333    19.0938
  481.0000    87.7953    18.3205    19.0956
  481.5000    87.9919    18.2313    18.9185
  482.0000    88.1443    18.1428    18.9194
  482.5000    89.0594    18.0721    18.9193
  483.0000    89.9786    18.1881    18.9201
  483.5000    89.6786    18.3025    18.9217
  484.0000    87.4618    18.4174    19.1229
  484.5000    85.2801    18.5330    19.5296
  485.0000    84.8588    18.6493    19.9472
  485.5000    85.7442    18.7663    20.3737
  486.0000    86.6385    18.8840    20.8094
  486.5000    87.5483    19.3848    21.2544
  487.0000    87.6512    20.0695    21.7088
  487.5000    87.2515    20.7149    22.4934
  488.0000    85.3005    21.2287    23.6429
  488.5000    83.2737    21.7553    24.8512
  489.0000    81.2575    22.2950    24.9754
  489.5000    80.3901    21.6281    23.9564
  490.0000    83.3329    20.8536    22.8729
  490.5000    88.2846    20.1069    21.8384
  491.0000    90.0190    19.3869    20.8930
  491.5000    89.3382    18.6927    20.0058
  492.0000    88.9559    18.0222    19.1563
  492.5000    91.0619    17.5157    18.6524
  493.0000    92.6733    17.3434    18.4684
  493.5000    92.8869    17.1728    18.2859
  494.0000    90.7505    17.0233    18.0791
  494.5000    88.4370    16.8098    17.7775
  495.0000    86.5609    16.5987    17.4806
  495.5000    87.6464    16.3901    17.1888
  496.0000    89.7803    16.1733    16.9372
  496.5000    91.9346    16.2487    17.0045
  497.0000    92.7824    16.3430    17.0721
  497.5000    91.6319    16.4381    17.1399
  498.0000    90.4320    16.5337    17.2081
  498.5000    88.9204    16.6300    17.2765
  499.0000    87.2692    16.7656    17.3451
  499.5000    86.0694    16.6512    17.4003
  500.0000    86.5191    16.4075    17.2219
  500.5000    86.9906    16.1673    17.0546
  501.0000    87.4624    15.9307    16.8876
  501.5000    87.4642    15.7220    16.6833
  502.0000    86.6218    15.5954    16.3884
  502.5000    85.7873    15.4570    16.0986
  503.0000    84.9700    15.3197    16.0158
  503.5000    85.2099    15.1837    16.0158
  504.0000    86.3710    15.0489    16.0158
  504.5000    86.8770    14.8315    15.7707
  505.0000    86.5989    14.5826    15.5066
  505.5000    86.3256    14.3388    15.2464
  506.0000    86.2420    14.0990    14.9922
  506.5000    87.6678    13.9356    14.8525
  507.0000    89.0968    13.9236    14.8143
  507.5000    89.7251    13.9116    14.7762
  508.0000    89.2029    13.8997    14.7381
  508.5000    88.5454    13.8878    14.7002
  509.0000    89.8285    13.8759    14.6624
  509.5000    91.3198    13.8639    14.6247
  510.0000    92.7897    13.8520    14.5870
  510.5000    91.9401    13.8402    14.5496
  511.0000    89.9212    13.8282    14.5122
  511.5000    87.8981    13.8169    14.4749
  512.0000    86.8999    13.7237    14.3761
  512.5000    88.0265    13.5655    14.2576
  513.0000    89.2887    13.4092    14.1400
  513.5000    90.5629    13.2545    14.0234
  514.0000    90.5768    13.1010    13.9087
  514.5000    89.3545    12.9456    13.8101
  515.0000    88.1415    12.8863    13.6071
  515.5000    87.2903    12.8099    13.5149
  516.0000    88.9763    12.7339    13.4572
  516.5000    90.8515    12.6584    13.4008
  517.0000    92.7282    12.5834    13.3444
  517.5000    94.6032    12.5088    13.2883
  518.0000    96.4676    12.4341    13.2324
  518.5000    97.8318    12.3594    13.1864
  519.0000    96.5538    12.4135    13.2360
  519.5000    94.8141    12.4707    13.2784
  520.0000    93.0406    12.5279    13.3209
  520.5000    93.4783    12.5851    13.3636
  521.0000    95.3487    12.6427    13.4064
  521.5000    97.1687    12.7005    13.4493
  522.0000    95.1256    12.7585    13.4924
  522.5000    92.5988    12.8169    13.5356
  523.0000    92.0693    12.8755    13.5792
  523.5000    93.5223    12.9343    13.6233
  524.0000    93.9313    12.9935    13.6830
  524.5000    91.2570    13.0649    13.5083
  525.0000    88.6025    12.8120    13.2143
  525.5000    86.9257    12.5023    12.9282
  526.0000    88.0267    12.2000    12.6484
  526.5000    91.2756    11.9050    12.3747
  527.0000    94.5412    11.6171    12.1069
  527.5000    96.2529    11.3363    11.8450
  528.0000    96.5422    10.9578    11.5887
  528.5000    96.9283    11.2737    11.3374
  529.0000    97.3494    11.8088    11.0919
  529.5000    99.4892    12.3693    10.8533
  530.0000   101.8462    12.9565    11.2515
  530.5000   102.4904    13.5614    11.7524
  531.0000   101.4103    14.9360    12.2780
  531.5000   100.3401    16.4286    13.2155
  532.0000    97.0901    18.0669    14.8122
  532.5000    91.6665    19.8677    16.6018
  533.0000    86.2605    21.8480    18.6076
  533.5000    81.5144    24.0256    20.8557
  534.0000    78.5309    26.4204    23.3755
  534.5000    76.3614    29.0538    26.1997
  535.0000    76.6577    29.7817    29.2317
  535.5000    78.9886    30.1170    30.3170
  536.0000    81.3830    30.4560    31.6613
  536.5000    80.3004    30.7988    33.0651
  537.0000    76.8055    31.1486    34.5330
  537.5000    73.3016    31.4772    36.0697
  538.0000    69.7328    31.0649    38.2420
  538.5000    69.7712    30.6729    37.5448
  539.0000    71.1819    29.3341    35.1886
  539.5000    72.6442    27.9010    32.3432
  540.0000    75.7672    26.5379    29.7278
  540.5000    79.0875    25.2392    27.3240
  541.0000    82.4139    24.0112    25.4639
  541.5000    83.6422    23.2171    24.6648
  542.0000    82.7750    22.5102    23.8908
  542.5000    81.8982    21.8249    23.1927
  543.0000    81.9062    21.6254    22.8501
  543.5000    82.2571    21.4972    22.5575
  544.0000    82.6114    21.3697    22.4353
  544.5000    82.7891    21.2431    22.3221
  545.0000    82.5060    21.1171    22.2094
  545.5000    82.2297    20.9920    22.0974
  546.0000    81.9546    20.8675    21.9858
  546.5000    81.6813    20.7544    21.8749
  547.0000    82.3944    20.5942    21.7645
  547.5000    83.8822    20.4478    21.6547
