~VERSION INFORMATION
 VERS.                2.0:   CWLS LOG ASCII STANDARD - VERSION 2.0
 WRAP.                 NO:   ONE LINE PER DEPTH STEP
~WELL INFORMATION
#MNEM.UNIT      DATA TYPE    INFORMATION
#----------   ------------   ------------------------------
 STRT.F           20.0000:   START DEPTH
 STOP.F          678.0000:   STOP DEPTH
 STEP.F            0.5000:   STEP LENGTH
 NULL.          -999.2500:   NO VALUE
 COMP. FENIX & SCISSON INC:   COMPANY
 WELL. 27-42 SX 11 WO #27-11:   WELL
 FLD .        TEAPOT DOME:   FIELD
 LOC .      S11 T38N R78W:   LOCATION
 CNTY.            NATRONA:   COUNTY
 STAT.            WYOMING:   STATE
 CTRY. UNITED STATES OF AMERICA:   COUNTRY
 SRVC.      Dresser Atlas:   SERVICE COMPANY
 DATE.        13-AUG-1985:   LOGDATE
 API .       490251083800:   API NUMBER
~CURVE INFORMATION
#MNEM.UNIT       API CODE    CURVE DESCRIPTION
#----------   ------------   ------------------------------
 DEPT.F                  :   
 RHOB.G/C3   45 350 01 00:   BULK DENSITY
 CORR.G/C3   45 356 01 00:   DENSITY CORRECTION
 CALD.IN     45 280 60 00:   CALIPER
 GRD .GAPI   45 310 01 00:   GAMMA RAY FROM DENSITY LOG
 DPOR.DEC    45 890 12 00:   DENSITY POROSITY SANDSTONE
 NPOR.DEC    42 890 03 00:   NEUTRON POROSITY SANDSTONE
 SPR .MV     07 010 01 00:   SPONTANEOUS POTENTIAL
 SFL .OHMM   07 220 01 00:   SHALLOW FOCUSED LOG RESISTIVITY
 ILD .OHMM   07 120 46 00:   INDUCTION LOG DEEP
 ILM .OHMM   07 120 44 00:   INDUCTION LOG MEDIUM
~PARAMETER INFORMATION
#MNEM.UNIT          VALUE    DESCRIPTION
#----------   ------------   ------------------------------
 PD  .                 GL:   PERMANENT DATUM
 EPD .F              5188:   ELEVATION PERMANENT DATUM
 LMF .                 KB:   LOG MEASURED FROM
 DAPD.F                 5:   FEET ABOVE PERMANENT DATUM
 DMF .                 KB:   DRILLING MEASURED FROM
 EKB .F              5193:   KELLING BUSHING
 EGL .F              5188:   GROUND LEVEL
 DATE.          8-13-1985:   RUN DATE
 RUN .                  8:   RUN NUMBER
 DD  .F               632:   DEPTH DRILLER
 BLI .F               598:   BOTTOM LOG INTERVAL
 TLI .F               303:   TOP LOG INTERVAL
 CBL .F               303:   CASING BOTTOM LOGGER
 BS  .IN              .75:   BIT SIZE
 BSD .F               632:   BIT SIZE AT DEPTH
 DFT .          KCL WATER:   DRILLING FLUID TYPE
 LUN .            HL-6274:   LOGGING UNIT NUMBER
 LUL .           GILLETTE:   LOGGING UNIT LOCATION
 ENGI.             RAUTIO:   RECORDING ENGINEER
 WITN.            SCHULTE:   WITNESSED BY
 CLNT.            A2DTECH:   CLIENT CODE
 ORIG.           2" PRINT:   ORIGIN OF DATA
 UWI .       490251083800:   UNIQUE WELL ID
 DICO. A2D Technologies, Inc.:   DIGITIZING COMPANY
~OTHER INFORMATION
~A   DEPT     RHOB       CORR       CALD        GRD       DPOR       NPOR        SPR        SFL        ILD          ILM 
# ...
  321.5000     2.4396     0.0149     8.9357   115.0151     0.1457     0.3146    -8.9667     8.1460     6.8509     6.7145
  322.0000     2.4343     0.0092     8.9401   113.2604     0.1503     0.3131    -8.9642     8.1846     6.8121     6.6442
  322.5000     2.4362     0.0077     8.9445   112.2533     0.1456     0.3131    -8.9546     8.2144     6.7735     6.5879
  323.0000     2.4449     0.0101     8.9489   113.5598     0.1415     0.3117    -8.7649     8.1327     6.7351     6.5320
  323.5000     2.4560     0.0188     8.9533   114.6265     0.1366     0.3103    -8.5845     8.0370     6.6969     6.4765
  324.0000     2.4704     0.0242     8.9577   114.4177     0.1267     0.3136    -8.3946     7.9425     6.6589     6.4210
  324.5000     2.4641     0.0181     8.9621   113.6255     0.1216     0.3180    -8.2081     7.8490     6.6212     6.3659
  325.0000     2.4592     0.0113     8.9667   114.0701     0.1335     0.3162    -8.0212     7.7745     6.5909     6.3114
  325.5000     2.4669     0.0112     8.9663   116.3156     0.1294     0.3146    -7.8364     7.7745     6.5654     6.2573
  326.0000     2.4690     0.0184     8.9576   115.4303     0.1265     0.3132    -7.6472     7.7607     6.5345     6.2381
  326.5000     2.4617     0.0251     8.9490   114.7716     0.1287     0.3189    -7.4568     7.7083     6.5035     6.2381
  327.0000     2.4657     0.0280     8.9404   116.4970     0.1272     0.3288    -7.3721     7.6341     6.4705     5.9559
  327.5000     2.4657     0.0246     8.9318   117.4617     0.1272     0.3323    -7.5532     7.6729     6.2600     5.7089
  328.0000     2.4653     0.0201     8.9232   115.5760     0.1272     0.3323    -7.7085     7.7736     6.0412     5.4722
  328.5000     2.4682     0.0159     8.9146   113.7487     0.1272     0.3362    -7.8719     7.7290     5.8298     5.2453
  329.0000     2.4615     0.0129     8.9058   110.4880     0.1284     0.3413    -8.0357     7.5124     5.6257     5.0278
  329.5000     2.4470     0.0097     8.8975   109.1398     0.1336     0.3463    -8.1967     7.3103     5.4289     4.8193
  330.0000     2.4338     0.0075     8.8890   111.9525     0.1435     0.3513    -8.3576     6.9179     5.2427     4.6194
  330.5000     2.4234     0.0107     8.8910   114.3390     0.1517     0.3539    -8.5218     6.3484     5.0981     4.5666
  331.0000     2.4315     0.0161     8.8932   116.8579     0.1480     0.3435    -8.5686     5.8257     5.0981     4.7011
  331.5000     2.4415     0.0211     8.8959   119.3825     0.1415     0.3488    -8.5669     5.2031     5.0981     4.8463
  332.0000     2.4444     0.0263     8.8984   121.5392     0.1407     0.3585    -8.4538     5.7766     5.2166     4.9961
  332.5000     2.4645     0.0238     8.9009   123.0926     0.1316     0.3699    -8.3103     6.8741     5.3361     5.1504
  333.0000     2.4670     0.0174     8.9034   123.5616     0.1231     0.3699    -8.1744     7.7234     5.4582     5.3096
  333.5000     2.4685     0.0216     8.9060   119.4042     0.1279     0.3640    -8.1687     7.6021     5.5832     5.4385
  334.0000     2.4859     0.0291     8.9085   116.3810     0.1198     0.3583    -8.1670     7.4724     5.7111     5.5384
  334.5000     2.4906     0.0356     8.9110   117.4017     0.1136     0.3523    -8.0424     7.3449     5.8418     5.6402
  335.0000     2.4832     0.0371     8.9135   116.8640     0.1164     0.3528    -7.8580     7.2243     5.9756     5.7446
  335.5000     2.4777     0.0396     8.9160   116.2278     0.1216     0.3539    -7.6750     7.2802     6.1124     5.8501
  336.0000     2.4875     0.0376     8.9186   117.0805     0.1120     0.3500    -7.4966     7.3669     6.2381     5.9274
  336.5000     2.4820     0.0310     8.9211   119.4414     0.1148     0.3461    -7.3133     7.4546     6.2381     5.9741
  337.0000     2.4715     0.0278     8.9236   120.9711     0.1214     0.3422    -7.1306     7.4944     6.2381     6.0134
  337.5000     2.4767     0.0311     8.9261   118.6315     0.1248     0.3383    -6.9796     7.4748     6.2381     6.0132
  338.0000     2.4785     0.0336     8.9282   118.5293     0.1176     0.3344    -6.9848     7.4244     6.2381     5.9476
  338.5000     2.4769     0.0366     8.9295   120.0883     0.1195     0.3305    -7.2627     7.3743     6.2381     5.8829
  339.0000     2.4830     0.0402     8.9313   121.6856     0.1208     0.3252    -7.5759     7.3432     6.2381     5.8195
  339.5000     2.4893     0.0439     8.9330   121.7134     0.1164     0.3280    -7.9007     7.2912     6.2381     5.7563
  340.0000     2.4863     0.0359     8.9347   119.6774     0.1138     0.3331    -8.1993     7.2396     6.0421     5.6913
  340.5000     2.4599     0.0284     8.9365   117.5645     0.1333     0.3381    -8.5496     7.1884     5.8729     5.5381
  341.0000     2.4592     0.0237     8.9382   117.8494     0.1312     0.3431    -8.4542     7.1375     5.7085     5.3830
  341.5000     2.4682     0.0290     8.9399   117.5878     0.1261     0.3481    -8.1758     7.0870     5.5486     5.2322
  342.0000     2.4746     0.0340     8.9416   116.0612     0.1217     0.3563    -8.2944     7.0369     5.3932     5.0857
  342.5000     2.4620     0.0357     8.9433   116.1903     0.1264     0.3545    -8.5599     6.9871     5.2115     4.9433
  343.0000     2.4515     0.0290     8.9451   114.6048     0.1328     0.3467    -8.8233     6.8983     4.9706     4.8250
  343.5000     2.4440     0.0208     8.9468   115.7401     0.1392     0.3489    -9.0695     6.7769     4.7408     4.4880
  344.0000     2.4383     0.0124     8.9485   116.9019     0.1439     0.3547    -9.3299     6.6576     4.5216     4.2135
  344.5000     2.4243     0.0076     8.9502   115.7184     0.1514     0.3542    -9.6116     6.2290     4.4021     3.8715
  345.0000     2.4113     0.0076     8.9519   114.3131     0.1601     0.3527    -9.6882     5.4687     4.3221     3.9216
  345.5000     2.4000     0.0134     8.9537   116.0292     0.1688     0.3539    -9.3740     4.4103     4.3221     4.1117
  346.0000     2.3876     0.0264     8.9554   114.3446     0.1751     0.3551    -9.0862     4.6411     4.3965     4.3110
  346.5000     2.4272     0.0389     8.9571   112.7646     0.1485     0.3564    -8.7899     5.4794     4.4836     4.5199
  347.0000     2.4732     0.0519     8.9588   112.1324     0.1214     0.3527    -8.5063     6.4709     4.7100     4.7390
  347.5000     2.4903     0.0533     8.9605   113.3912     0.1130     0.3421    -8.1859     7.3535     4.9124     4.9688
  348.0000     2.4784     0.0398     8.9623   115.5440     0.1179     0.3315    -8.1721     7.1831     5.1235     5.2096
  348.5000     2.4729     0.0358     8.9640   117.7897     0.1231     0.3254    -8.1671     6.9618     5.3436     5.4125
  349.0000     2.4765     0.0364     8.9657   118.2641     0.1215     0.3292    -8.3443     6.9641     5.5733     5.5017
  349.5000     2.4822     0.0444     8.9675   117.9862     0.1140     0.3331    -8.5324     7.0714     5.8128     5.5924
  350.0000     2.4945     0.0519     8.9682   117.1137     0.0962     0.3293    -8.7271     7.1676     6.0134     5.6845
  350.5000     2.5132     0.0553     8.9681   116.5469     0.0963     0.3228    -8.9200     7.2243     6.0815     5.7782
  351.0000     2.5186     0.0526     8.9681   116.9262     0.0968     0.3180    -9.1103     7.2243     6.1391     5.8734
  351.5000     2.5156     0.0504     8.9681   115.9402     0.0952     0.3180    -9.3061     7.2243     6.1973     5.9701
  352.0000     2.5193     0.0483     8.9681   115.4585     0.0958     0.3254    -9.3673     7.2243     6.2560     6.0685
  352.5000     2.5161     0.0461     8.9681   120.2929     0.0976     0.3321    -9.3660     7.3641     6.3153     6.1685
  353.0000     2.5147     0.0439     8.9681   118.9754     0.0993     0.3387    -9.3630     7.5201     6.4746     6.2702
  353.5000     2.5154     0.0417     8.9681   115.0351     0.1030     0.3371    -9.3625     7.6793     6.4684     6.3536
  354.0000     2.5101     0.0399     8.9681   116.5811     0.1056     0.3303    -9.3767     7.7745     6.4740     6.3708
  354.5000     2.4993     0.0402     8.9681   117.1965     0.1024     0.3235    -9.2345     7.7745     6.4699     6.3923
