~VERSION INFORMATION
 VERS.                2.0:   CWLS LOG ASCII STANDARD - VERSION 2.0
 WRAP.                 NO:   ONE LINE PER DEPTH STEP
~WELL INFORMATION
#MNEM.UNIT      DATA TYPE    INFORMATION
#----------   ------------   ------------------------------
 STRT.F           50.0000:   START DEPTH
 STOP.F         1020.0000:   STOP DEPTH
 STEP.F            0.5000:   STEP LENGTH
 NULL.          -999.2500:   NO VALUE
 COMP. LAWRENCE/ALLISON INC:   COMPANY
 WELL.      28 STX #14-14:   WELL
 FLD .             TEAPOT:   FIELD
 LOC .      S14 T38N R78W:   LOCATION
 CNTY.            NATRONA:   COUNTY
 STAT.            WYOMING:   STATE
 CTRY. UNITED STATES OF AMERICA:   COUNTRY
 SRVC.            Unknown:   SERVICE COMPANY
 DATE.        22-OCT-1984:   LOGDATE
 API .       490251099000:   API NUMBER
~CURVE INFORMATION
#MNEM.UNIT       API CODE    CURVE DESCRIPTION
#----------   ------------   ------------------------------
 DEPT.F                  :   
 SPR .MV     07 010 01 00:   SPONTANEOUS POTENTIAL
 RILD.OHMM   07 120 46 00:   INDUCTION LOG DEEP RESISTIVITY
 RILM.OHMM   07 120 44 00:   INDUCTION LOG MEDIUM RESISTIVITY
 RFOC.OHMM   07 220 04 00:   RESISTIVITY FOCUSED LOG
 GRD .GAPI   45 310 01 00:   GAMMA RAY FROM DENSITY LOG
 CALD.IN     45 280 60 00:   CALIPER
 DEN .G/C3   45 350 01 00:   COMPENSATED BULK DENSTIY
 CORR.G/C3   45 356 01 00:   DENSITY CORRECTION
 PORD.DEC    45 890 12 00:   POROSITY DENSITY SANDSTONE
 CNC .DEC    42 890 03 00:   NEUTRON POROSITY SANDSTONE
 AC  .US/F   60 520 00 00:   ACOUSTIC SONIC
~PARAMETER INFORMATION
#MNEM.UNIT          VALUE    DESCRIPTION
#----------   ------------   ------------------------------
 PD  .                 GL:   PERMANENT DATUM
 EPD .F              5257:   ELEVATION PERMANENT DATUM
 LMF .                 KB:   LOG MEASURED FROM
 DAPD.F                12:   FEET ABOVE PERMANENT DATUM
 DMF .                 KB:   DRILLING MEASURED FROM
 EKB .F              5269:   KELLING BUSHING
 EGL .F              5257:   GROUND LEVEL
 DATE.           10-22-84:   RUN DATE
 RUN .                  1:   RUN NUMBER
 DD  .F              1020:   DEPTH DRILLER
 DL  .F              1019:   DEPTH LOGGER
 BLI .F              1017:   BOTTOM LOG INTERVAL
 TLI .F                52:   TOP LOG INTERVAL
 CS  .IN               16:   CASING SIZE
 CBD .F                40:   CASING BOTTOM DRILLER
 CBL .F                52:   CASING BOTTOM LOGGER
 BS  .IN            12.25:   BIT SIZE
 BSD .F              1020:   BIT SIZE AT DEPTH
 DFT .          GEL/WATER:   DRILLING FLUID TYPE
 DFD .                9.1:   DRILLING FLUID DENSITY
 DFV .                 35:   DRILLING FLUID VISCOSITY
 MSS .           FLOWLINE:   MUD SAMPLE SOURCE
 RMS .OHMM           2.04:   RESISTIVITY MUD SAMPLE
 MST .F                76:   MUD SAMPLE TEMPERATURE
 RMF .OHMM           1.53:   RESISTIVITY MUD FILTRATE SAMPLE
 MFST.F                76:   MUD FILTRATE SAMPLE TEMPERATURE
 RMC .OHMM           2.55:   RESISTIVITY MUD CAKE
 MCST.F                76:   MUD CAKE SAMPLE TEMPERATURE
 MFSS.               CALC:   MUD FILTRATE SAMPLE SOURCE
 MCSS.               CALC:   MUD CAKE SAMPLE SOURCE
 TCS .HRS               3:   TIME CURCULATED STOPPED
 MRT .F               100:   MAXIMUM RECORDED TEMPERATURE
 LUN .            HL 6307:   LOGGING UNIT NUMBER
 LUL .           GILLETTE:   LOGGING UNIT LOCATION
 ENGI.          CROSSBERG:   RECORDING ENGINEER
 WITN.            JOHNSON:   WITNESSED BY
 CLNT.            A2DTECH:   CLIENT CODE
 ORIG.       2", 5" PRINT:   ORIGIN OF DATA
 UWI .       490251099000:   UNIQUE WELL ID
 DICO. A2D Technologies, Inc.:   DIGITIZING COMPANY
~OTHER INFORMATION
~A   DEPT      SPR       RILD       RILM       RFOC        GRD        CALD       DEN       CORR       PORD          CNC       AC   
# ...
  172.0000   -63.7110     5.4841     4.0699     4.7347    81.2565    12.3663     2.3933     0.0095     0.1697     0.3265   112.1017
  172.5000   -63.4769     5.4470     4.0218     4.5584    79.1138    12.3668     2.3904     0.0198     0.1704     0.3323   112.7424
  173.0000   -63.2344     5.4470     4.0704     4.4497    78.8467    12.3673     2.3820     0.0297     0.1721     0.3378   112.8968
  173.5000   -62.8697     5.4470     4.1110     4.4497    81.3448    12.3677     2.3728     0.0280     0.1787     0.3433   113.2196
  174.0000   -61.9012     5.4973     4.1519     4.5389    86.4732    12.3682     2.3750     0.0271     0.1813     0.3471   113.9022
  174.5000   -60.9617     5.5278     4.1933     4.6900    90.5095    12.3687     2.3897     0.0248     0.1757     0.3441   115.0644
  175.0000   -59.9951     5.5788     4.2351     4.8781    91.9929    12.3691     2.4030     0.0225     0.1683     0.3305   115.7984
  175.5000   -59.6965     5.6302     4.2773     4.8603    93.5138    12.3696     2.4048     0.0201     0.1615     0.3169   115.5044
  176.0000   -59.6170     5.6821     4.3200     4.8380    95.0183    12.3701     2.3974     0.0159     0.1623     0.3066   114.5935
  176.5000   -59.5397     5.7345     4.3468     4.8159    96.2462    12.3706     2.3900     0.0055     0.1697     0.3064   113.6028
  177.0000   -59.7536     5.7874     4.3697     4.7893    95.0648    12.3710     2.3825    -0.0037     0.1760     0.3151   113.2771
  177.5000   -60.0533     5.8200     4.3926     4.8219    91.5974    12.3715     2.3807     0.0053     0.1774     0.3203   113.1936
  178.0000   -60.3547     5.8384     4.4157     4.8775    87.9187    12.3720     2.3861     0.0153     0.1761     0.3160   113.1038
  178.5000   -60.6558     5.8568     4.4389     4.9337    84.0836    12.3724     2.3916     0.0184     0.1724     0.3088   112.6407
  179.0000   -60.9566     5.8752     4.4623     5.0146    83.4960    12.3729     2.3970     0.0184     0.1687     0.3044   112.0401
  179.5000   -61.2575     5.8933     4.4857     4.9728    84.4238    12.3734     2.4024     0.0186     0.1650     0.3149   111.4025
  180.0000   -61.5583     5.9115     4.6029     4.9020    86.7904    12.3739     2.4046     0.0219     0.1617     0.3178   111.0654
  180.5000   -61.8591     6.0578     4.7504     4.8323    87.6664    12.3743     2.4032     0.0254     0.1634     0.3028   111.0683
  181.0000   -62.1599     6.2436     4.9025     4.7893    85.8944    12.3748     2.4017     0.0299     0.1662     0.2998   111.1802
  181.5000   -62.4608     6.4350     5.0596     4.8656    85.9139    12.3753     2.4041     0.0320     0.1639     0.3006   111.2940
  182.0000   -62.7616     6.6324     5.2217     5.0539    88.1599    12.3757     2.4083     0.0235     0.1608     0.3066   111.4067
  182.5000   -63.0626     6.8358     5.3890     5.2494    88.5524    12.3762     2.4121     0.0147     0.1581     0.3214   110.6364
  183.0000   -63.3638     7.0454     5.5058     5.4525    87.6746    12.3767     2.4115     0.0061     0.1590     0.3198   109.7500
  183.5000   -63.6633     7.2614     5.5490     5.6634    86.7732    12.3772     2.4108    -0.0024     0.1600     0.3114   108.6767
  184.0000   -63.9630     7.5835     5.5309     5.8848    85.8720    12.3776     2.4114     0.0012     0.1582     0.3025   106.2318
  184.5000   -64.0069     7.4862     5.4229     6.0852    85.0781    12.3781     2.4169     0.0218     0.1553     0.2914   103.0379
  185.0000   -63.7953     7.3098     5.3171     6.0547    84.9541    12.3786     2.4222     0.0424     0.1523     0.3011    98.6764
  185.5000   -63.5866     7.1659     5.2134     5.9584    84.8060    12.3782     2.4163     0.0619     0.1558     0.3132    94.1792
  186.0000   -63.1059     7.0191     5.1114     5.5404    84.0917    12.3729     2.4068     0.0430     0.1630     0.3253    91.2475
  186.5000   -62.5180     6.8750     5.0111     5.0609    82.2486    12.3677     2.3983     0.0186     0.1681     0.3374    92.6247
  187.0000   -61.9282     6.7339     4.9191     5.0814    80.3141    12.3625     2.4010     0.0167     0.1648     0.3457    98.2610
  187.5000   -61.3386     6.5953     4.9026     5.1547    80.0198    12.3573     2.4053     0.0180     0.1605     0.3399   103.8972
  188.0000   -60.7541     6.4608     4.8785     5.1403    83.7066    12.3521     2.4136     0.0172     0.1562     0.3348   109.9102
  188.5000   -60.3198     6.4271     4.9287     5.1142    86.4689    12.3469     2.4167     0.0163     0.1552     0.3270   110.8044
  189.0000   -60.1348     6.5156     5.0215     5.0609    88.2892    12.3417     2.4140     0.0153     0.1571     0.3273   111.5743
  189.5000   -59.9445     6.6267     5.1160     5.1699    89.8342    12.3403     2.4112     0.0148     0.1593     0.3323   111.8931
  190.0000   -59.7431     6.7685     5.2125     5.3202    90.8527    12.3432     2.4138     0.0242     0.1568     0.3060   112.2056
  190.5000   -60.0078     6.9133     5.3108     5.4749    89.5708    12.3461     2.4180     0.0324     0.1539     0.3002   110.9281
  191.0000   -60.3841     7.0613     5.4024     5.5481    86.7739    12.3490     2.4223     0.0228     0.1513     0.3038   109.6757
  191.5000   -60.7654     7.2123     5.4406     5.5481    85.6292    12.3519     2.4226     0.0128     0.1524     0.3011   108.4231
  192.0000   -61.5490     7.3667     5.4792     5.5481    90.6446    12.3548     2.4180     0.0028     0.1562     0.2934   108.2136
  192.5000   -62.3009     7.5243     5.5408     5.6320    95.5979    12.3578     2.4140    -0.0013     0.1578     0.2860   108.8523
  193.0000   -63.0471     7.6852     5.6237     5.7235    93.7483    12.3582     2.4188     0.0036     0.1551     0.2740   109.4689
  193.5000   -63.7913     7.8139     5.7077     5.8165    91.3782    12.3567     2.4234     0.0089     0.1523     0.2690   109.8127
  194.0000   -64.5378     7.9612     5.7931     5.9110    90.3344    12.3551     2.4261     0.0141     0.1505     0.2777   109.2570
  194.5000   -65.3085     8.1107     5.8797     6.0071    92.7695    12.3535     2.4174     0.0176     0.1539     0.2873   108.5114
  195.0000   -65.6965     8.2633     5.9676     6.1047    94.6309    12.3519     2.4089     0.0203     0.1609     0.2969   107.8782
  195.5000   -66.0852     8.4190     6.0823     6.2518    91.1712    12.3503     2.4003     0.0231     0.1678     0.3081   107.3154
  196.0000   -66.4830     8.5770     6.0535     6.2184    87.3576    12.3487     2.3942     0.0187     0.1708     0.2809   107.3111
  196.5000   -66.2127     8.7851     5.9982     6.1546    85.9861    12.3471     2.3927     0.0082     0.1702     0.2988   107.6690
  197.0000   -65.9470     8.6752     5.9434     6.0914    86.8001    12.3455     2.3937    -0.0022     0.1696     0.2991   107.6457
  197.5000   -65.6269     8.5235     5.8890     6.0286    87.6510    12.3439     2.3948    -0.0096     0.1689     0.2994   107.3952
  198.0000   -64.9486     8.3744     5.8108     5.9662    89.4489    12.3423     2.3965    -0.0094     0.1672     0.2997   107.1447
  198.5000   -64.2361     8.2280     5.7107     5.9043    91.7234    12.3407     2.3987    -0.0074     0.1660     0.2999   107.5905
  199.0000   -63.5194     8.0841     5.6122     5.8632    92.2345    12.3391     2.4001    -0.0005     0.1650     0.3002   108.1273
  199.5000   -62.8016     7.9427     5.5153     5.9638    90.4681    12.3375     2.3984     0.0062     0.1660     0.2943   108.6128
  200.0000   -62.0911     7.8039     5.4198     6.0424    88.6870    12.3359     2.3968     0.0130     0.1676     0.2758   108.2888
  200.5000   -61.5163     7.6674     5.2982     6.0823    91.9892    12.3343     2.3955     0.0158     0.1694     0.2603   107.6809
  201.0000   -61.3862     7.6536     5.2991     5.8566    96.0805    12.3327     2.3977     0.0137     0.1665     0.2902   107.8822
  201.5000   -61.1818     7.6536     5.3179     5.5490    99.1353    12.3311     2.4018     0.0187     0.1627     0.3023   108.6558
  202.0000   -60.9748     7.6536     5.3566     5.3950    95.1676    12.3295     2.4102     0.0289     0.1585     0.3058   109.6089
