~VERSION INFORMATION
 VERS.                2.0:   CWLS LOG ASCII STANDARD - VERSION 2.0
 WRAP.                 NO:   ONE LINE PER DEPTH STEP
~WELL INFORMATION
#MNEM.UNIT      DATA TYPE    INFORMATION
#----------   ------------   ------------------------------
 STRT.F           32.0000:   START DEPTH
 STOP.F          707.0000:   STOP DEPTH
 STEP.F            0.5000:   STEP LENGTH
 NULL.          -999.2500:   NO VALUE
 COMP. FENIX & SCISSON INC:   COMPANY
 WELL.     NPR 3 #28SX-11:   WELL
 FLD .             TEAPOT:   FIELD
 LOC .      S11 T38N R78W:   LOCATION
 CNTY.            NATRONA:   COUNTY
 STAT.            WYOMING:   STATE
 CTRY. UNITED STATES OF AMERICA:   COUNTRY
 SRVC.              Welex:   SERVICE COMPANY
 DATE.        26-APR-1977:   LOGDATE
 API .       490251034400:   API NUMBER
~CURVE INFORMATION
#MNEM.UNIT       API CODE    CURVE DESCRIPTION
#----------   ------------   ------------------------------
 DEPT.F                  :   
 CALD.IN     45 280 60 00:   CALIPER FROM DENSITY LOG
 GRD .GAPI   45 310 01 00:   GAMMA RAY FROM DENSITY LOG
 CORR.G/C3   45 356 01 00:   DENSITY CORRECTION
 DPHI.DEC    45 890 12 00:   DENSITY POROSITY SANDSTONE
 RHOB.G/C3   45 350 01 00:   BULK DENSITY
~PARAMETER INFORMATION
#MNEM.UNIT          VALUE    DESCRIPTION
#----------   ------------   ------------------------------
 PD  .                 GL:   PERMANENT DATUM
 EPD .F              5203:   ELEVATION PERMANENT DATUM
 LMF .                 GL:   LOG MEASURED FROM
 DMF .                 GL:   DRILLING MEASURED FROM
 EGL .F              5203:   GROUND LEVEL
 DATE.        26-APR-1977:   RUN DATE
 RUN .                  1:   RUN NUMBER
 DD  .F               714:   DEPTH DRILLER
 DL  .F               709:   DEPTH LOGGER
 BLI .F               707:   BOTTOM LOG INTERVAL
 TLI .F                32:   TOP LOG INTERVAL
 CS  .IN            8.625:   CASING SIZE
 BS  .IN               12:   BIT SIZE
 BSD .F               714:   BIT SIZE AT DEPTH
 DFT .            KCL MUD:   DRILLING FLUID TYPE
 DFD .                8.7:   DRILLING FLUID DENSITY
 TCS .HRS            0100:   TIME CURCULATED STOPPED
 MRT .F                74:   MAXIMUM RECORDED TEMPERATURE
 ENGI.            C. DOAK:   RECORDING ENGINEER
 WITN.           ROB LYON:   WITNESSED BY
 CLNT.            A2DTECH:   CLIENT CODE
 ORIG.           5" PRINT:   ORIGIN OF DATA
 UWI .       490251034400:   UNIQUE WELL ID
 DICO. A2D Technologies, Inc.:   DIGITIZING COMPANY
~OTHER INFORMATION
~A   DEPT       CALD      GRD        CORR      DPHI       RHOB   
# ...
   93.0000     7.9678    97.7653     0.0377     0.2077     2.3301
   93.5000     7.9676   100.4397     0.0380     0.2139     2.3167
   94.0000     7.9673   102.2267     0.0397     0.2085     2.3332
   94.5000     7.9671   102.8272     0.0383     0.1873     2.3698
   95.0000     7.9669    99.7354     0.0401     0.1747     2.3863
   95.5000     7.9667    96.6407     0.0403     0.1645     2.4013
   96.0000     7.9665    95.3181     0.0405     0.1618     2.4036
   96.5000     7.9663    98.1435     0.0392     0.1674     2.3932
   97.0000     7.9661   100.0783     0.0394     0.1719     2.3873
   97.5000     7.9659   101.7173     0.0396     0.1736     2.3844
   98.0000     7.9657   102.7646     0.0353     0.1688     2.3920
   98.5000     7.9655   102.0367     0.0325     0.1652     2.4017
   99.0000     7.9653   100.7171     0.0267     0.1666     2.3958
   99.5000     7.9650    99.3975     0.0254     0.1702     2.3914
  100.0000     7.9648    97.2498     0.0289     0.1737     2.3873
  100.5000     7.9644    93.5060     0.0318     0.1734     2.3848
  101.0000     7.9639    94.5619     0.0395     0.1668     2.3954
  101.5000     7.9635    96.0574     0.0427     0.1617     2.4044
  102.0000     7.9630    97.1092     0.0429     0.1629     2.4090
  102.5000     7.9626    98.4569     0.0446     0.1664     2.4008
  103.0000     7.9622    98.3252     0.0448     0.1712     2.3860
  103.5000     7.9617    96.8622     0.0359     0.1762     2.3764
  104.0000     7.9613    95.8429     0.0270     0.1795     2.3712
  104.5000     7.9609    96.3030     0.0363     0.1770     2.3847
  105.0000     7.9604    98.0944     0.0455     0.1663     2.3997
  105.5000     7.9600   100.1817     0.0532     0.1570     2.4117
  106.0000     7.9595   101.0815     0.0609     0.1525     2.4200
  106.5000     7.9591    99.9184     0.0641     0.1530     2.4163
  107.0000     7.9587   100.5264     0.0612     0.1670     2.4075
  107.5000     7.9582   101.1344     0.0554     0.1661     2.4008
  108.0000     7.9578    99.9672     0.0511     0.1706     2.3934
  108.5000     7.9574    95.1018     0.0497     0.1738     2.3883
  109.0000     7.9569    91.1240     0.0500     0.1711     2.3936
  109.5000     7.9565    90.9883     0.0501     0.1657     2.4004
  110.0000     7.9560    90.5648     0.0503     0.1639     2.4072
  110.5000     7.9556    89.2498     0.0505     0.1612     2.4095
  111.0000     7.9552    88.3785     0.0507     0.1581     2.4133
  111.5000     7.9547    89.5782     0.0524     0.1545     2.4186
  112.0000     7.9543    91.6654     0.0556     0.1512     2.4231
  112.5000     7.9539    92.8651     0.0542     0.1491     2.4277
  113.0000     7.9534    94.2128     0.0529     0.1512     2.4225
  113.5000     7.9530    95.2645     0.0486     0.1592     2.4107
  114.0000     7.9525    96.0205     0.0457     0.1681     2.3936
  114.5000     7.9521    95.7409     0.0444     0.1702     2.3892
  115.0000     7.9516    93.2424     0.0430     0.1639     2.3997
  115.5000     7.9512    91.1876     0.0508     0.1579     2.4125
  116.0000     7.9508    89.7246     0.0540     0.1528     2.4237
  116.5000     7.9503    88.4095     0.0497     0.1462     2.4327
  117.0000     7.9499    87.6861     0.0453     0.1429     2.4380
  117.5000     7.9494    87.4025     0.0410     0.1530     2.4113
  118.0000     7.9490    87.7187     0.0397     0.1676     2.3897
  118.5000     7.9486    88.4746     0.0383     0.1735     2.3831
  119.0000     7.9481    89.8222     0.0370     0.1708     2.3899
  119.5000     7.9477    92.2054     0.0342     0.1663     2.3981
  120.0000     7.9472    95.6240     0.0328     0.1642     2.4049
  120.5000     7.9468    97.7113     0.0315     0.1662     2.4072
  121.0000     7.9463    96.8400     0.0317     0.1701     2.3946
  121.5000     7.9459    94.7853     0.0319     0.1727     2.3865
  122.0000     7.9455    93.7620     0.0351     0.1691     2.3940
  122.5000     7.9450    94.9657     0.0383     0.1613     2.4038
  123.0000     7.9446    98.9761     0.0430     0.1538     2.4181
  123.5000     7.9441   102.2468     0.0462     0.1501     2.4301
  124.0000     7.9437   104.9258     0.0388     0.1499     2.4264
  124.5000     7.9433   105.9776     0.0330     0.1521     2.4220
  125.0000     7.9428   106.8814     0.0362     0.1538     2.4183
  125.5000     7.9424   107.4894     0.0394     0.1555     2.4199
  126.0000     7.9419   107.9495     0.0395     0.1539     2.4260
  126.5000     7.9415   108.5574     0.0322     0.1506     2.4268
  127.0000     7.9410   110.2009     0.0263     0.1494     2.4239
  127.5000     7.9406   112.2882     0.0250     0.1490     2.4284
  128.0000     7.9402   114.2276     0.0267     0.1420     2.4367
  128.5000     7.9397   117.0545     0.0314     0.1385     2.4435
  129.0000     7.9393   118.4021     0.0346     0.1327     2.4570
  129.5000     7.9388   117.6787     0.0393     0.1245     2.4705
  130.0000     7.9384   117.0992     0.0425     0.1151     2.4877
  130.5000     7.9380   117.5634     0.0442     0.1110     2.4952
  131.0000     7.9375   118.6151     0.0428     0.1095     2.5013
  131.5000     7.9371   118.7753     0.0415     0.1086     2.5036
  132.0000     7.9366   117.1684     0.0401     0.1109     2.4970
  132.5000     7.9362   115.4095     0.0358     0.1157     2.4784
  133.0000     7.9357   113.0589     0.0345     0.1231     2.4673
  133.5000     7.9353   112.4794     0.0302     0.1299     2.4547
  134.0000     7.9349   116.0500     0.0259     0.1371     2.4495
  134.5000     7.9344   118.4332     0.0351     0.1302     2.4615
  135.0000     7.9340   120.9642     0.0428     0.1254     2.4701
  135.5000     7.9335   123.0515     0.0399     0.1224     2.4766
  136.0000     7.9331   123.9513     0.0341     0.1217     2.4697
  136.5000     7.9327   121.6048     0.0283     0.1259     2.4593
  137.0000     7.9322   119.5500     0.0254     0.1312     2.4525
  137.5000     7.9318   117.6432     0.0241     0.1354     2.4435
  138.0000     7.9313   116.7719     0.0243     0.1395     2.4404
  138.5000     7.9309   116.3404     0.0245     0.1392     2.4480
  139.0000     7.9305   115.7690     0.0246     0.1365     2.4510
  139.5000     7.9300   114.3060     0.0248     0.1358     2.4511
  140.0000     7.9296   112.5471     0.0250     0.1364     2.4496
  140.5000     7.9291   111.2320     0.0207     0.1388     2.4473
  141.0000     7.9287   110.3607     0.0193     0.1420     2.4413
  141.5000     7.9283   110.8208     0.0150     0.1462     2.4348
  142.0000     7.9278   112.3163     0.0152     0.1488     2.4290
  142.5000     7.9274   112.6285     0.0184     0.1455     2.4362
  143.0000     7.9269   112.0530     0.0201     0.1425     2.4451
  143.5000     7.9265   109.8490     0.0218     0.1377     2.4472
  144.0000     7.9261   106.9067     0.0189     0.1350     2.4421
  144.5000     7.9256   104.5561     0.0146     0.1388     2.4499
  145.0000     7.9252   103.5369     0.0117     0.1322     2.4640
  145.5000     7.9247   103.7011     0.0119     0.1244     2.4745
  146.0000     7.9243   105.1966     0.0136     0.1193     2.4804
  146.5000     7.9239   106.8401     0.0138     0.1232     2.4684
  147.0000     7.9234   109.2233     0.0140     0.1282     2.4604
  147.5000     7.9230   112.1981     0.0157     0.1315     2.4560
  148.0000     7.9225   115.3209     0.0219     0.1288     2.4614
  148.5000     7.9221   116.5206     0.0281     0.1231     2.4688
  149.0000     7.9217   115.3534     0.0298     0.1272     2.4726
  149.5000     7.9212   113.8904     0.0330     0.1188     2.4757
  150.0000     7.9208   112.8613     0.0346     0.1234     2.4750
  150.5000     7.9203   111.9388     0.0288     0.1276     2.4643
  151.0000     7.9199   111.4148     0.0320     0.1338     2.4543
  151.5000     7.9195   111.1354     0.0352     0.1332     2.4491
  152.0000     7.9190   110.8528     0.0399     0.1283     2.4597
  152.5000     7.9186   110.5695     0.0416     0.1237     2.4694
  153.0000     7.9181   110.1396     0.0433     0.1189     2.4814
  153.5000     7.9177   108.9693     0.0465     0.1147     2.4882
