~VERSION INFORMATION
 VERS.                2.0:   CWLS LOG ASCII STANDARD - VERSION 2.0
 WRAP.                 NO:   ONE LINE PER DEPTH STEP
~WELL INFORMATION
#MNEM.UNIT      DATA TYPE    INFORMATION
#----------   ------------   ------------------------------
 STRT.F            0.0000:   START DEPTH
 STOP.F         2694.5000:   STOP DEPTH
 STEP.F            0.5000:   STEP LENGTH
 NULL.          -999.2500:   NO VALUE
 COMP. FENIX & SCISSON INC:   COMPANY
 WELL.       102 A #20-20:   WELL
 FLD .        TEAPOT DOME:   FIELD
 LOC .      S20 T39N R78W:   LOCATION
 CNTY.            NATRONA:   COUNTY
 STAT.            WYOMING:   STATE
 CTRY. UNITED STATES OF AMERICA:   COUNTRY
 SRVC.            Unknown:   SERVICE COMPANY
 DATE.        17-AUG-1965:   LOGDATE
 API .       490251022200:   API NUMBER
~CURVE INFORMATION
#MNEM.UNIT       API CODE    CURVE DESCRIPTION
#----------   ------------   ------------------------------
 DEPT.F                  :   
 CALI.IN     30 280 01 00:   CALIPER FROM GAMMA RAY LOG
 GR  .GAPI   30 310 01 00:   GAMMA RAY
~PARAMETER INFORMATION
#MNEM.UNIT          VALUE    DESCRIPTION
#----------   ------------   ------------------------------
 PD  .                 GL:   PERMANENT DATUM
 LMF .                 GL:   LOG MEASURED FROM
 DMF .                 GL:   DRILLING MEASURED FROM
 DATE.            8-17-65:   RUN DATE
 RUN .                  1:   RUN NUMBER
 DD  .F            2696.5:   DEPTH DRILLER
 DL  .F              2697:   DEPTH LOGGER
 BLI .F              2695:   BOTTOM LOG INTERVAL
 TLI .F              2000:   TOP LOG INTERVAL
 CS  .IN                7:   CASING SIZE
 CBD .F              2678:   CASING BOTTOM DRILLER
 DFT .                OIL:   DRILLING FLUID TYPE
 TCS .HRS               1:   TIME CURCULATED STOPPED
 ENGI.            JACKSON:   RECORDING ENGINEER
 WITN.          JORGENSEN:   WITNESSED BY
 CLNT.            A2DTECH:   CLIENT CODE
 ORIG.           5" PRINT:   ORIGIN OF DATA
 UWI .       490251022200:   UNIQUE WELL ID
 DICO. A2D Technologies, Inc.:   DIGITIZING COMPANY
~OTHER INFORMATION
~A    DEPT      CALI       GR   
# ...
 1215.0000     6.4742  -999.2500
 1215.5000     6.4790  -999.2500
 1216.0000     6.4833  -999.2500
 1216.5000     6.4847  -999.2500
 1217.0000     6.4863  -999.2500
 1217.5000     6.4878  -999.2500
 1218.0000     6.4894  -999.2500
 1218.5000     6.4910  -999.2500
 1219.0000     6.4926  -999.2500
 1219.5000     6.4931  -999.2500
 1220.0000     6.4931  -999.2500
 1220.5000     6.4931  -999.2500
 1221.0000     6.4931  -999.2500
 1221.5000     6.4931  -999.2500
 1222.0000     6.4932  -999.2500
 1222.5000     6.5004  -999.2500
 1223.0000     6.5212  -999.2500
 1223.5000     6.5401  -999.2500
 1224.0000     6.5088  -999.2500
 1224.5000     6.5022  -999.2500
 1225.0000     6.5027  -999.2500
 1225.5000     6.5030  -999.2500
 1226.0000     6.5029  -999.2500
 1226.5000     6.5030  -999.2500
 1227.0000     6.5069  -999.2500
 1227.5000     6.5105  -999.2500
 1228.0000     6.5073  -999.2500
 1228.5000     6.5039  -999.2500
 1229.0000     6.5006  -999.2500
 1229.5000     6.4972  -999.2500
 1230.0000     6.4935  -999.2500
 1230.5000     6.5034  -999.2500
 1231.0000     6.5166  -999.2500
 1231.5000     6.5136  -999.2500
 1232.0000     6.5033  -999.2500
 1232.5000     6.5057  -999.2500
 1233.0000     6.5077  -999.2500
 1233.5000     6.5097  -999.2500
 1234.0000     6.5117  -999.2500
 1234.5000     6.5113  -999.2500
 1235.0000     6.5050  -999.2500
 1235.5000     6.4988  -999.2500
 1236.0000     6.4939  -999.2500
 1236.5000     6.5107  -999.2500
 1237.0000     6.4988  -999.2500
 1237.5000     6.4873  -999.2500
 1238.0000     6.4754  -999.2500
 1238.5000     6.4823  -999.2500
 1239.0000     6.4934  -999.2500
 1239.5000     6.5038  -999.2500
 1240.0000     6.5070  -999.2500
 1240.5000     6.5104  -999.2500
 1241.0000     6.5121  -999.2500
 1241.5000     6.5055  -999.2500
 1242.0000     6.4988  -999.2500
 1242.5000     6.4946  -999.2500
 1243.0000     6.5216  -999.2500
 1243.5000     6.5143  -999.2500
 1244.0000     6.5318  -999.2500
 1244.5000     6.5242  -999.2500
 1245.0000     6.5159  -999.2500
 1245.5000     6.5076  -999.2500
 1246.0000     6.4998  -999.2500
 1246.5000     6.5022  -999.2500
 1247.0000     6.5126  -999.2500
 1247.5000     6.5129  -999.2500
 1248.0000     6.5128  -999.2500
 1248.5000     6.5128  -999.2500
 1249.0000     6.5129  -999.2500
 1249.5000     6.5219  -999.2500
 1250.0000     6.5319  -999.2500
 1250.5000     6.5178  -999.2500
 1251.0000     6.5036  -999.2500
 1251.5000     6.5146  -999.2500
 1252.0000     6.5226  -999.2500
 1252.5000     6.5178  -999.2500
 1253.0000     6.5134  -999.2500
 1253.5000     6.5212  -999.2500
 1254.0000     6.5310  -999.2500
 1254.5000     6.5411  -999.2500
 1255.0000     6.5340  -999.2500
 1255.5000     6.5243  -999.2500
 1256.0000     6.5145  -999.2500
 1256.5000     6.5107  -999.2500
 1257.0000     6.5081  -999.2500
 1257.5000     6.5054  -999.2500
 1258.0000     6.5033  -999.2500
 1258.5000     6.5169  -999.2500
 1259.0000     6.5150  -999.2500
 1259.5000     6.5032  -999.2500
 1260.0000     6.4962  -999.2500
 1260.5000     6.5074  -999.2500
 1261.0000     6.5202  -999.2500
 1261.5000     6.5123  -999.2500
 1262.0000     6.5046  -999.2500
 1262.5000     6.5030  -999.2500
 1263.0000     6.5030  -999.2500
 1263.5000     6.5021  -999.2500
 1264.0000     6.5268  -999.2500
 1264.5000     6.5187  -999.2500
 1265.0000     6.4751  -999.2500
 1265.5000     6.4796  -999.2500
 1266.0000     6.4903  -999.2500
 1266.5000     6.5045  -999.2500
 1267.0000     6.5057  -999.2500
 1267.5000     6.4918  -999.2500
 1268.0000     6.4774  -999.2500
 1268.5000     6.4758  -999.2500
 1269.0000     6.4788  -999.2500
 1269.5000     6.4823  -999.2500
 1270.0000     6.4743  -999.2500
 1270.5000     6.4905  -999.2500
 1271.0000     6.4833  -999.2500
 1271.5000     6.4727  -999.2500
 1272.0000     6.4798  -999.2500
 1272.5000     6.4930  -999.2500
 1273.0000     6.4933  -999.2500
 1273.5000     6.4927  -999.2500
 1274.0000     6.4904  -999.2500
 1274.5000     6.4882  -999.2500
 1275.0000     6.4859  -999.2500
 1275.5000     6.4835  -999.2500
 1276.0000     6.4889  -999.2500
 1276.5000     6.4959  -999.2500
 1277.0000     6.5026  -999.2500
 1277.5000     6.4981  -999.2500
 1278.0000     6.4935  -999.2500
 1278.5000     6.5065  -999.2500
 1279.0000     6.5086  -999.2500
 1279.5000     6.5014  -999.2500
 1280.0000     6.4941  -999.2500
 1280.5000     6.4867  -999.2500
 1281.0000     6.4763  -999.2500
 1281.5000     6.4633  -999.2500
 1282.0000     6.4503  -999.2500
 1282.5000     6.4439  -999.2500
 1283.0000     6.4441  -999.2500
 1283.5000     6.4658  -999.2500
 1284.0000     6.4831  -999.2500
 1284.5000     6.4806  -999.2500
 1285.0000     6.4786  -999.2500
 1285.5000     6.4766  -999.2500
 1286.0000     6.4746  -999.2500
 1286.5000     6.4785  -999.2500
 1287.0000     6.4899  -999.2500
 1287.5000     6.4894  -999.2500
 1288.0000     6.4841  -999.2500
 1288.5000     6.4833  -999.2500
 1289.0000     6.4833  -999.2500
 1289.5000     6.4832  -999.2500
 1290.0000     6.4832  -999.2500
 1290.5000     6.4837  -999.2500
 1291.0000     6.4974  -999.2500
 1291.5000     6.5113  -999.2500
 1292.0000     6.5213  -999.2500
 1292.5000     6.5168  -999.2500
 1293.0000     6.5279  -999.2500
 1293.5000     6.5151  -999.2500
 1294.0000     6.5210  -999.2500
 1294.5000     6.5316  -999.2500
 1295.0000     6.5416  -999.2500
 1295.5000     6.5212  -999.2500
 1296.0000     6.4983  -999.2500
 1296.5000     6.4932  -999.2500
 1297.0000     6.4931  -999.2500
 1297.5000     6.4930  -999.2500
 1298.0000     6.4845  -999.2500
 1298.5000     6.4752  -999.2500
 1299.0000     6.4658  -999.2500
 1299.5000     6.4559  -999.2500
 1300.0000     6.4654  -999.2500
 1300.5000     6.4815  -999.2500
 1301.0000     6.4966  -999.2500
 1301.5000     6.5032  -999.2500
 1302.0000     6.5017  -999.2500
 1302.5000     6.4716  -999.2500
 1303.0000     6.4639  -999.2500
 1303.5000     6.4691  -999.2500
 1304.0000     6.4922  -999.2500
 1304.5000     6.4903  -999.2500
 1305.0000     6.4355  -999.2500
 1305.5000     6.4211  -999.2500
 1306.0000     6.4144  -999.2500
 1306.5000     6.4143  -999.2500
 1307.0000     6.4143  -999.2500
 1307.5000     6.4144  -999.2500
 1308.0000     6.4168  -999.2500
 1308.5000     6.4268  -999.2500
 1309.0000     6.4366  -999.2500
 1309.5000     6.4466  -999.2500
 1310.0000     6.4641  -999.2500
 1310.5000     6.5068  -999.2500
 1311.0000     6.5129  -999.2500
 1311.5000     6.4881  -999.2500
 1312.0000     6.4752  -999.2500
 1312.5000     6.4649  -999.2500
 1313.0000     6.4636  -999.2500
 1313.5000     6.4635  -999.2500
 1314.0000     6.4636  -999.2500
 1314.5000     6.4631  -999.2500
 1315.0000     6.4776  -999.2500
 1315.5000     6.4800  -999.2500
 1316.0000     6.4752  -999.2500
 1316.5000     6.4703  -999.2500
 1317.0000     6.4654  -999.2500
 1317.5000     6.4605  -999.2500
 1318.0000     6.4555  -999.2500
 1318.5000     6.4538  -999.2500
 1319.0000     6.4537  -999.2500
 1319.5000     6.4537  -999.2500
 1320.0000     6.4536  -999.2500
 1320.5000     6.4695  -999.2500
 1321.0000     6.4660  -999.2500
 1321.5000     6.4571  -999.2500
 1322.0000     6.4590  -999.2500
 1322.5000     6.4867  -999.2500
 1323.0000     6.5423  -999.2500
 1323.5000     6.5022  -999.2500
 1324.0000     6.4947  -999.2500
 1324.5000     6.4960  -999.2500
 1325.0000     6.4977  -999.2500
 1325.5000     6.4993  -999.2500
 1326.0000     6.5010  -999.2500
 1326.5000     6.5028  -999.2500
 1327.0000     6.4985  -999.2500
 1327.5000     6.4932  -999.2500
 1328.0000     6.4934  -999.2500
 1328.5000     6.5050  -999.2500
 1329.0000     6.5092  -999.2500
 1329.5000     6.4993  -999.2500
 1330.0000     6.4985  -999.2500
 1330.5000     6.5134  -999.2500
 1331.0000     6.5176  -999.2500
 1331.5000     6.5033  -999.2500
 1332.0000     6.4893  -999.2500
 1332.5000     6.4890  -999.2500
 1333.0000     6.4987  -999.2500
 1333.5000     6.4965  -999.2500
 1334.0000     6.4613  -999.2500
 1334.5000     6.4449  -999.2500
 1335.0000     6.4791  -999.2500
 1335.5000     6.5080  -999.2500
 1336.0000     6.5211  -999.2500
