~VERSION INFORMATION
 VERS.                2.0:   CWLS LOG ASCII STANDARD - VERSION 2.0
 WRAP.                 NO:   ONE LINE PER DEPTH STEP
~WELL INFORMATION
#MNEM.UNIT      DATA TYPE    INFORMATION
#----------   ------------   ------------------------------
 STRT.F           28.0000:   START DEPTH
 STOP.F          551.0000:   STOP DEPTH
 STEP.F            0.5000:   STEP LENGTH
 NULL.          -999.2500:   NO VALUE
 COMP. FENIX & SCISSON, INC.:   COMPANY
 WELL.        NPR #85-S-3:   WELL
 FLD .             TEAPOT:   FIELD
 LOC .       S3 T38N R78W:   LOCATION
 CNTY.            NATRONA:   COUNTY
 STAT.            WYOMING:   STATE
 CTRY. UNITED STATES OF AMERICA:   COUNTRY
 SRVC.            Unknown:   SERVICE COMPANY
 DATE.        22-JAN-1977:   LOGDATE
 API .       490251055800:   API NUMBER
~CURVE INFORMATION
#MNEM.UNIT       API CODE    CURVE DESCRIPTION
#----------   ------------   ------------------------------
 DEPT.F                  :   
 ILD .OHMM   05 120 46 00:   INDUCTION LOG DEEP
 SN  .OHMM   05 040 16 00:   SHORT NORMAL 16"
 SPR .MV     05 010 01 00:   SPONTANEOUS POTENTIAL FROM RES.
 CALD.IN     45 280 60 00:   CALIPER FROM DENSITY LOG
 CORR.G/C3   45 356 01 00:   DENSITY CORRECTION
 DPHI.DEC    45 890 12 00:   DENSITY POROSITY SANDSTONE
 GRD .GAPI   45 310 01 00:   GAMMA RAY FROM DENSITY LOG
 RHOB.G/C3   45 350 01 00:   BULK DENSITY
~PARAMETER INFORMATION
#MNEM.UNIT          VALUE    DESCRIPTION
#----------   ------------   ------------------------------
 PD  .                 GL:   PERMANENT DATUM
 EPD .F              5132:   ELEVATION PERMANENT DATUM
 LMF .                 KB:   LOG MEASURED FROM
 DAPD.F                 4:   FEET ABOVE PERMANENT DATUM
 DMF .                 KB:   DRILLING MEASURED FROM
 EKB .F              5136:   KELLING BUSHING
 EGL .F              5132:   GROUND LEVEL
 DATE.          1-22-1977:   RUN DATE
 RUN .                  1:   RUN NUMBER
 DD  .F               550:   DEPTH DRILLER
 DL  .F               550:   DEPTH LOGGER
 BLI .F               545:   BOTTOM LOG INTERVAL
 TLI .F                50:   TOP LOG INTERVAL
 CS  .IN            8.625:   CASING SIZE
 CBD .F                40:   CASING BOTTOM DRILLER
 CBL .F                40:   CASING BOTTOM LOGGER
 BS  .IN            7.875:   BIT SIZE
 BSD .F               550:   BIT SIZE AT DEPTH
 DFT .                KCL:   DRILLING FLUID TYPE
 DFD .                8.6:   DRILLING FLUID DENSITY
 DFV .                 36:   DRILLING FLUID VISCOSITY
 DFPH.                 10:   DRILLING FLUID PH
 DFL .                7.2:   DRILLING FLUID LOSS
 MSS .           FLOWLINE:   MUD SAMPLE SOURCE
 RMS .OHMM             .3:   RESISTIVITY MUD SAMPLE
 MST .F                56:   MUD SAMPLE TEMPERATURE
 RMF .OHMM             .3:   RESISTIVITY MUD FILTRATE SAMPLE
 MFST.F                58:   MUD FILTRATE SAMPLE TEMPERATURE
 RMC .OHMM             .3:   RESISTIVITY MUD CAKE
 MCST.F                58:   MUD CAKE SAMPLE TEMPERATURE
 MFSS.           MEASURED:   MUD FILTRATE SAMPLE SOURCE
 MCSS.           MEASURED:   MUD CAKE SAMPLE SOURCE
 RMB .OHMM            .25:   RESISTIVITY MUD AT BHT
 BHT .F                68:   BOTTOM HOLE TEMPERATURE
 TCS .HRS               3:   TIME CURCULATED STOPPED
 MRT .F                68:   MAXIMUM RECORDED TEMPERATURE
 LUN .               2958:   LOGGING UNIT NUMBER
 LUL .             CASPER:   LOGGING UNIT LOCATION
 ENGI.           REYNOLDS:   RECORDING ENGINEER
 WITN.             GINLEY:   WITNESSED BY
 CLNT.            A2DTECH:   CLIENT CODE
 ORIG.           5" PRINT:   ORIGIN OF DATA
 UWI .       490251055800:   UNIQUE WELL ID
 DICO. A2D Technologies, Inc.:   DIGITIZING COMPANY
~OTHER INFORMATION
~A   DEPT      ILD         SN        SPR       CALD       CORR       DPHI         GRD      RHOB   
# ...
  190.0000    11.5830    10.3569   -42.3021     7.8453     0.1941     0.1524    99.6374     2.4138
  190.5000    11.5071    10.3591   -42.5936     7.8458     0.1927     0.1539   100.2595     2.4093
  191.0000    11.4308    10.3614   -42.5859     7.8465     0.1927     0.1557    99.9673     2.4056
  191.5000    11.2786    10.3635   -42.5785     7.8471     0.1927     0.1569    98.7809     2.4033
  192.0000    11.2825    10.1991   -42.5816     7.8625     0.1927     0.1581    99.0850     2.4026
  192.5000    11.2077    10.0848   -42.5941     7.8780     0.1923     0.1569    99.5380     2.4041
  193.0000    11.1969    10.0869   -42.6066     7.8786     0.1920     0.1542   100.2911     2.4064
  193.5000    11.0613    10.0192   -42.6191     7.8792     0.1917     0.1572   101.6453     2.4072
  194.0000    10.9889    10.0213   -42.6317     7.8798     0.1913     0.1584   102.7014     2.4034
  194.5000    10.9936     9.9539   -42.6442     7.8804     0.1910     0.1584   103.7347     2.4027
  195.0000    10.9207     9.8873   -42.6567     7.8810     0.1906     0.1584   103.8897     2.4027
  195.5000    10.9254     9.8215   -42.6692     7.8667     0.1903     0.1584   104.5285     2.4027
  196.0000    10.8529     9.6886   -42.6817     7.8673     0.1900     0.1587   104.6466     2.4027
  196.5000    10.8576     9.5574   -42.6943     7.8658     0.1896     0.1587   103.1371     2.4035
  197.0000    10.7855     9.4280   -42.7068     7.8642     0.1893     0.1590   102.7210     2.4043
  197.5000    10.7158     9.3004   -42.7193     7.8626     0.1889     0.1586   102.8775     2.4050
  198.0000    10.7195     9.3023   -42.7318     7.8610     0.1886     0.1545   103.9266     2.4058
  198.5000    10.6484     9.3042   -42.7444     7.8594     0.1886     0.1587   104.6762     2.4058
  199.0000    10.6530     9.2419   -42.7569     7.8578     0.1902     0.1563   100.9578     2.4066
  199.5000    10.6566     9.2126   -42.9079     7.8565     0.1932     0.1539   101.5599     2.4081
  200.0000    10.6603     9.1820   -43.0499     7.8572     0.1947     0.1521   102.4600     2.4104
  200.5000    10.6640     9.1839   -43.1920     7.8578     0.1963     0.1488   100.9756     2.4134
  201.0000    10.7416     9.1858   -43.1827     7.8584     0.1963     0.1434    99.1932     2.4211
  201.5000    10.6704     9.2515   -43.1752     7.8590     0.1963     0.1386    97.4107     2.4355
  202.0000    10.6005     9.2535   -43.1696     7.8596     0.1964     0.1400    97.1171     2.4389
  202.5000    10.4594     9.2554   -43.2511     7.8602     0.1964     0.1424    98.7639     2.4254
  203.0000    10.4630     9.2573   -43.3036     7.8607     0.1964     0.1445   101.0053     2.4254
  203.5000    10.3943     9.2592   -43.2961     7.8613     0.1965     0.1457    97.5835     2.4262
  204.0000    10.3263     9.2509   -43.4539     7.8470     0.1980     0.1460    96.5447     2.4247
  204.5000    10.1880     9.1878   -43.7474     7.8476     0.1980     0.1463    97.8934     2.4232
  205.0000    10.0516     9.0745   -43.8730     7.8482     0.1995     0.1466   100.4328     2.4210
  205.5000     9.8486     9.0138   -43.9112     7.8488     0.2011     0.1469   102.5252     2.4188
  206.0000     9.4517     9.0162   -43.9495     7.8494     0.2041     0.1472   100.2957     2.4181
  206.5000     9.0707     8.8941   -43.9878     7.8500     0.2102     0.1481    99.8530     2.4204
  207.0000     8.7654     8.8341   -44.0007     7.8506     0.2147     0.1483   100.9036     2.4212
  207.5000     8.5293     8.6548   -44.0060     7.8512     0.2193     0.1492   101.9528     2.4189
  208.0000     8.4150     8.4788   -44.0112     7.8518     0.2223     0.1477   103.0019     2.4175
  208.5000     8.3599     8.1917   -44.0164     7.8524     0.2238     0.1477   103.6040     2.4182
  209.0000     8.3825     8.2507   -44.0216     7.8530     0.2239     0.1480   104.2060     2.4213
  209.5000     8.4115     8.3097   -44.0268     7.8537     0.2239     0.1433   105.5532     2.4280
  210.0000     8.4405     8.3112   -44.0320     7.8543     0.2290     0.1399   107.0495     2.4341
  210.5000     8.4635     8.3706   -44.0372     7.8641     0.2150     0.1381   105.8093     2.4350
  211.0000     8.4652     8.3726   -44.0424     7.8801     0.2111     0.1438   104.6274     2.4311
  211.5000     8.4670     8.4325   -44.0476     7.8513     0.2112     0.1489   104.1881     2.4244
  212.0000     8.5275     8.4481   -44.0528     7.8375     0.2112     0.1509   107.0326     2.4199
  212.5000     8.5884     8.5535   -44.0580     7.8236     0.2113     0.1494   106.2979     2.4162
  213.0000     8.6514     8.6385   -44.0632     7.8247     0.2113     0.1461   103.6257     2.4154
  213.5000     8.8329     8.7364   -44.0684     7.8257     0.2114     0.1437   101.8477     2.4245
  214.0000     9.0200     8.7784   -44.0737     7.8267     0.2130     0.1425   102.1561     2.4290
  214.5000     9.1542     8.8619   -44.0789     7.8261     0.2115     0.1416   104.5510     2.4290
  215.0000     9.2853     8.9253   -44.0841     7.8255     0.2116     0.1413   105.6046     2.4298
  215.5000     9.4079     8.9891   -44.0893     7.8249     0.2071     0.1485   106.3602     2.4291
  216.0000     9.5532     8.9910   -44.0945     7.8243     0.2012     0.1527   109.5002     2.4243
  216.5000     9.6761     8.9928   -44.0997     7.8237     0.1982     0.1542   108.0203     2.4101
  217.0000     9.7453     8.9327   -44.1049     7.8231     0.1998     0.1536   106.0932     2.4059
  217.5000     9.7473     8.9345   -44.1101     7.8225     0.1999     0.1517   105.0604     2.4130
  218.0000     9.7493     8.9363   -44.1153     7.8218     0.2000     0.1511   107.1572     2.4134
  218.5000     9.7513     8.8974   -44.1195     7.8212     0.2002     0.1514   109.5521     2.4104
  219.0000     9.6861     8.8784   -44.1473     7.8206     0.2004     0.1520   110.3076     2.4097
  219.5000     9.5551     8.8802   -44.1787     7.8200     0.2006     0.1532   110.7651     2.4090
  220.0000     9.3608     8.8683   -44.2101     7.8194     0.2009     0.1544   111.6697     2.4068
  220.5000     9.2337     8.8226   -44.2415     7.8188     0.2011     0.1556   112.7233     2.4045
  221.0000     9.1719     8.8245   -44.2729     7.8182     0.2013     0.1565   112.7452     2.4030
  221.5000     9.1743     8.7654   -44.3043     7.8176     0.2015     0.1568   112.2969     2.4031
  222.0000     9.1762     8.7672   -44.3357     7.8170     0.2018     0.1559   111.7112     2.4038
  222.5000     9.1148     8.7086   -44.3573     7.8164     0.2020     0.1550   111.1255     2.4046
  223.0000     9.1167     8.7104   -44.3428     7.8158     0.2020     0.1540   110.3907     2.4061
  223.5000     9.0373     8.7123   -44.1928     7.8151     0.2021     0.1534   109.8049     2.4069
  224.0000     8.9948     8.7143   -44.2013     7.8145     0.2021     0.1537   109.8153     2.4069
  224.5000     8.9351     8.7158   -44.3519     7.8139     0.2022     0.1531   110.5708     2.4070
  225.0000     8.8753     8.7176   -44.3908     7.8133     0.2038     0.1534   111.7735     2.4062
  225.5000     8.7948     8.6851   -44.4297     7.8127     0.2038     0.1549   110.2847     2.4055
  226.0000     8.6963     8.6610   -44.4685     7.8121     0.2054     0.1558   109.4097     2.4048
  226.5000     8.6386     8.6629   -44.5074     7.8115     0.2055     0.1552   110.1833     2.4048
  227.0000     8.6403     8.6647   -44.5462     7.8109     0.2057     0.1552   111.0939     2.4048
  227.5000     8.5826     8.6066   -44.5821     7.8103     0.2060     0.1558   112.1684     2.4048
  228.0000     8.5251     8.4905   -44.5728     7.8097     0.2062     0.1567   114.3457     2.4041
  228.5000     8.4681     8.4923   -44.5665     7.8091     0.2064     0.1579   116.1680     2.4026
  229.0000     8.4699     8.4937   -44.5598     7.8084     0.2067     0.1578   111.9821     2.3997
  229.5000     8.4717     8.4958   -44.5953     7.8078     0.2069     0.1572   112.1922     2.4004
  230.0000     8.4150     8.4387   -44.6275     7.8072     0.2071     0.1560   112.0289     2.4012
