~VERSION INFORMATION
 VERS.                2.0:   CWLS LOG ASCII STANDARD - VERSION 2.0
 WRAP.                 NO:   ONE LINE PER DEPTH STEP
~WELL INFORMATION
#MNEM.UNIT      DATA TYPE    INFORMATION
#----------   ------------   ------------------------------
 STRT.F            0.0000:   START DEPTH
 STOP.F         1283.5000:   STOP DEPTH
 STEP.F            0.5000:   STEP LENGTH
 NULL.          -999.2500:   NO VALUE
 COMP.      U.S. NAVY NPR:   COMPANY
 WELL. NAVAL PETROLEUM RESERVE 3 ST-11 #88-11:   WELL
 FLD .             TEAPOT:   FIELD
 LOC .      S11 T38N R78W:   LOCATION
 CNTY.            NATRONA:   COUNTY
 STAT.            WYOMING:   STATE
 CTRY. UNITED STATES OF AMERICA:   COUNTRY
 SRVC.       Schlumberger:   SERVICE COMPANY
 DATE.        01-NOV-1958:   LOGDATE
 API .       490250632600:   API NUMBER
~CURVE INFORMATION
#MNEM.UNIT       API CODE    CURVE DESCRIPTION
#----------   ------------   ------------------------------
 DEPT.F                  :   
 GRN .GAPI   35 310 01 00:   GAMMA RAY
 NEUT.NAPI   35 330 01 00:   NEUTRON
 ASN .OHMM   01 041 16 00:   AMPLIFIED SHORT NORMAL
 LAT .OHMM   01 070 18 00:   LATERAL 18"
 LN  .OHMM   01 060 64 00:   LONG NORMAL 64"
 SPR .MV     01 010 01 00:   SPONTANEOUS POTENTIAL
 CALM.IN     15 280 01 00:   CALIPER FROM MICRO LOG
~PARAMETER INFORMATION
#MNEM.UNIT          VALUE    DESCRIPTION
#----------   ------------   ------------------------------
 LMF .                 KB:   LOG MEASURED FROM
 DMF .                 KB:   DRILLING MEASURED FROM
 EKB .F              5289:   KELLING BUSHING
 EGL .F              5279:   GROUND LEVEL
 DATE.        01-NOV-1958:   RUN DATE
 RUN .                  1:   RUN NUMBER
 DD  .F              1280:   DEPTH DRILLER
 DL  .F              1283:   DEPTH LOGGER
 BLI .F              1282:   BOTTOM LOG INTERVAL
 TLI .F               150:   TOP LOG INTERVAL
 CBD .F                45:   CASING BOTTOM DRILLER
 BS  .IN            7.875:   BIT SIZE
 BSD .F              1280:   BIT SIZE AT DEPTH
 DFT .                GEL:   DRILLING FLUID TYPE
 DFD .                9.1:   DRILLING FLUID DENSITY
 DFV .                 63:   DRILLING FLUID VISCOSITY
 DFL .                2.1:   DRILLING FLUID LOSS
 RMS .OHMM            2.4:   RESISTIVITY MUD SAMPLE
 MST .F                56:   MUD SAMPLE TEMPERATURE
 RMF .OHMM           1.45:   RESISTIVITY MUD FILTRATE SAMPLE
 MFST.F                79:   MUD FILTRATE SAMPLE TEMPERATURE
 RMC .OHMM            1.7:   RESISTIVITY MUD CAKE
 MCST.F                79:   MUD CAKE SAMPLE TEMPERATURE
 MFSS.               MEAS:   MUD FILTRATE SAMPLE SOURCE
 MCSS.               MEAS:   MUD CAKE SAMPLE SOURCE
 RMB .OHMM            1.6:   RESISTIVITY MUD AT BHT
 BHT .F                79:   BOTTOM HOLE TEMPERATURE
 TCS .HRS               1:   TIME CURCULATED STOPPED
 MRT .F                79:   MAXIMUM RECORDED TEMPERATURE
 LUN .               2544:   LOGGING UNIT NUMBER
 LUL .                 NC:   LOGGING UNIT LOCATION
 ENGI.            EARNEST:   RECORDING ENGINEER
 WITN.             MARTIN:   WITNESSED BY
 CLNT.            A2DTECH:   CLIENT CODE
 ORIG.         2.5" PRINT:   ORIGIN OF DATA
 UWI .       490250632600:   UNIQUE WELL ID
 DICO. A2D Technologies, Inc.:   DIGITIZING COMPANY
~OTHER INFORMATION
~A    DEPT       GRN     NEUT        ASN        LAT         LN        SPR       CALM   
# ...
 1137.5000     5.4608   347.0497     8.1499     5.4971     5.9479   -14.8401     8.0638
 1138.0000     5.1916   326.9226     8.3449     5.5897     6.0852   -14.5638     8.0642
 1138.5000     4.9062   322.3340     8.4149     5.5917     6.2225   -14.0140     8.0374
 1139.0000     5.0856   328.6387     8.4420     5.5938     6.2239   -13.7378     8.0106
 1139.5000     5.4681   331.2036     8.4692     5.5958     6.2252   -13.4616     8.0020
 1140.0000     5.6107   328.3155     8.5109     5.5978     6.2266   -13.4589     7.9863
 1140.5000     5.6816   327.3752     8.5378     5.5999     6.2279   -13.4562     7.9706
 1141.0000     5.5722   327.3304     8.5243     5.6023     6.2293   -13.4535     7.9548
 1141.5000     5.7618   328.7700     8.4694     5.7402     6.2307   -13.1772     7.9391
 1142.0000     5.4811   338.4292     8.4007     5.7422     6.2320   -13.4481     7.9234
 1142.5000     5.4804   342.1177     8.3052     5.7442     6.2334   -13.4453     7.9077
 1143.0000     5.6398   344.3135     8.2232     5.8820     6.2347   -13.4426     7.8919
 1143.5000     5.7392   352.4800     8.1557     5.8840     6.2361   -13.7136     7.8762
 1144.0000     5.7784   353.9301     8.2272     5.8860     6.2375   -13.9845     7.8605
 1144.5000     5.7978   353.8862     8.3908     6.0239     6.2388   -14.3271     7.8448
 1145.0000     5.3230   359.7625     8.5118     6.0259     6.0272   -14.5262     7.8402
 1145.5000     5.2564   367.9803     8.6636     6.0279     5.5620   -14.7971     7.8405
 1146.0000     5.3757   355.9955     8.8112     6.0299     5.5634   -14.7939     7.8407
 1146.5000     5.3271   364.9084     8.8010     5.8960     5.7007   -15.0647     7.8410
 1147.0000     5.2126   352.9150     8.4255     5.7621     6.1098   -15.0620     7.8413
 1147.5000     5.1734   351.0978     7.5828     5.4745     6.2471   -15.0593     7.8416
 1148.0000     5.4127   344.9540     6.4684     5.1993     6.5204   -15.0565     7.8418
 1148.5000     5.2720   342.3236     6.0062     4.9241     6.6576   -15.0538     7.8149
 1149.0000     5.1113   337.8024     5.8429     4.6490     6.6590   -14.5034     7.8152
 1149.5000     4.9107   351.9396     5.8062     4.3739     6.6603   -14.2272     7.8426
 1150.0000     4.7300   351.7755     6.2228     4.2796     6.5257   -13.9509     7.8429
 1150.5000     4.9077   359.3166     7.0377     4.6044     6.3852   -13.9482     7.8432
 1151.0000     5.2532   363.0051     7.7712     4.8274     6.2564   -14.2191     7.8434
 1151.5000     5.4955   362.0696     8.6404     4.9654     6.2579   -14.7635     7.8437
 1152.0000     5.7073   356.9479     9.1021     5.1033     6.2828   -15.3080     7.8440
 1152.5000     5.2466   370.4467     9.4008     5.1053     6.5914   -15.0317     7.8443
 1153.0000     5.3934   373.2809     9.5907     5.1073     6.9770   -14.7555     7.8445
 1153.5000     5.5373   361.2822     9.8350     5.1098     7.3509   -14.4792     7.8448
 1154.0000     5.7243   350.1635     9.9434     5.2476     7.5589   -14.2030     7.8451
 1154.5000     5.7836   342.2479     9.9975     5.2496     7.9505   -14.2003     7.8453
 1155.0000     5.6029   353.9143    10.0245     5.2516     8.2296   -14.4804     7.8456
 1155.5000     5.4822   345.4285     9.9698     5.2536     8.5087   -14.7611     7.8731
 1156.0000     5.3416   340.9072     9.8065     5.2556     8.7879   -15.0129     7.8734
 1156.5000     5.2009   352.8055     9.9693     5.2576     9.0671   -15.3228     7.8737
 1157.0000     4.9714   359.8339    10.0699     5.2596     9.5359   -15.8772     7.8739
 1157.5000     4.7445   358.2817    10.1856     5.2616     9.6732   -16.3726     7.8742
 1158.0000     4.9924   385.5148    10.3014     5.3995     9.9464   -16.9860     7.8745
 1158.5000     5.0582   392.1886    10.7973     5.9467    10.0837   -17.5405     7.8747
 1159.0000     4.8842   390.3737    11.5677     6.2405    10.3569   -18.3684     7.8750
 1159.5000     4.6802   386.1314    12.3746     7.0866    10.4942   -18.8239     7.8732
 1160.0000     4.3600   408.9200    13.0544     7.9077    10.6315   -19.2036     7.7867
 1160.5000     3.9352   415.9026    13.5984     8.5582    10.6328   -19.4845     7.7075
 1161.0000     3.5945   409.6668    14.0066     9.0022    10.4982   -20.0389     7.6723
 1161.5000     3.3938   384.7034    14.6864     9.4228    10.4995   -20.1802     7.6234
 1162.0000     3.5731   371.3098    15.0946     9.9792    10.6423   -17.7884     7.6047
 1162.5000     3.5925   364.9529    15.5027    10.5808    10.9214   -15.9119     7.6050
 1163.0000     3.6718   352.9682    15.9290    11.2278    11.0647   -16.8889     7.6053
 1163.5000     3.5585   346.2079    16.3552    11.5922    11.4798   -17.7068     7.6199
 1164.0000     3.2157   364.8232    16.6457    12.0073    11.8949   -18.2513     7.6330
 1164.5000     3.0498   369.2580    16.9995    12.2864    12.3100   -18.2486     7.6333
 1165.0000     3.4510   372.2001    17.1359    12.4932    12.5891   -18.2459     7.6336
 1165.5000     3.7184   354.8664    17.0004    12.6311    12.8216   -18.2432     7.6610
 1166.0000     3.7967   352.7088    16.7384    12.2259    13.0115   -18.2405     7.6613
 1166.5000     3.8163   365.7930    16.3857    11.8203    13.3681   -18.2378     7.6616
 1167.0000     3.5261   370.9319    16.0512    11.4147    13.7057   -18.2351     7.6618
 1167.5000     3.6054   376.0011    16.0517    11.1450    13.9849   -17.9589     7.6893
 1168.0000     3.7047   391.3861    15.9164    10.8752    14.4000   -17.4091     7.7439
 1168.5000     3.5440   394.2550    15.9169    10.6055    14.4614   -17.1264     7.7740
 1169.0000     3.6034   398.4641    15.9174    10.1999    14.3268   -16.8402     7.8030
 1169.5000     3.5627   409.1065    15.7821     9.9301    14.1922   -16.5804     7.7390
 1170.0000     3.3420   430.7072    15.5109     9.6604    14.0576   -16.8512     7.6906
 1170.5000     3.5213   432.2012    15.2306     9.6624    14.0589   -16.8483     7.6637
 1171.0000     3.5206   415.6939    14.9684     9.6644    14.0602   -16.5155     7.7287
 1171.5000     3.5577   405.9482    14.8059     9.6737    14.0616   -15.9556     7.7730
 1172.0000     3.7915   396.2025    14.6978     9.8043    14.0629   -15.6693     7.8005
 1172.5000     3.9675   399.1447    14.6984     9.6342    14.0642   -15.1960     7.8008
 1173.0000     3.7724   395.6281    14.5629     9.2179    13.9296   -15.1933     7.8011
 1173.5000     3.7212   386.2086    14.5636     8.8304    13.7950   -15.5709     7.7741
 1174.0000     3.8763   380.8930    14.4283     8.7253    13.6604   -15.7350     7.7472
 1174.5000     3.9957   378.0407    14.2930     8.8635    13.5257   -16.0058     7.7475
 1175.0000     3.7149   377.0272    14.1577     8.8655    13.3911   -16.1399     7.7478
 1175.5000     3.8143   393.4941    14.0224     8.8675    13.2281   -16.4206     7.7480
 1176.0000     3.8936   401.6069    13.8870     8.8696    12.9517   -16.7015     7.7483
 1176.5000     3.7329   385.3431    13.7517     8.8716    12.6753   -17.0885     7.7485
 1177.0000     3.8550   392.0169    13.6163     9.0095    12.3988   -17.3599     7.7488
 1177.5000     3.8142   393.6392    13.4810     9.0115    12.3104   -17.3567     7.7763
 1178.0000     3.8343   385.2134    13.4725     9.0136    12.3698   -17.0805     7.7766
 1178.5000     3.9923   376.9604    13.3462     8.8798    12.4491   -16.5307     7.7768
 1179.0000     4.1073   373.1855    13.2108     8.8821    12.4505   -15.9809     7.7771
 1179.5000     4.2096   383.9581    13.1752     8.7480    12.4518   -15.7046     7.7774
 1180.0000     4.3079   374.2899    13.0308     8.4785    12.4534   -15.1548     7.7776
 1180.5000     4.2272   372.3094    12.8864     8.4805    12.3188   -14.8786     7.7779
 1181.0000     4.2167   386.8065    12.7420     8.4825    12.1842   -14.8759     7.7782
 1181.5000     4.3258   398.3714    12.5342     8.8921    12.0496   -14.8732     7.7785
 1182.0000     3.9252   395.6379    12.3989     9.3017    11.9150   -14.5970     7.7788
 1182.5000     3.9652   376.9958    12.2636     9.8472    11.7803   -14.5942     7.7790
