~VERSION INFORMATION
 VERS.                2.0:   CWLS LOG ASCII STANDARD - VERSION 2.0
 WRAP.                 NO:   ONE LINE PER DEPTH STEP
~WELL INFORMATION
#MNEM.UNIT      DATA TYPE    INFORMATION
#----------   ------------   ------------------------------
 STRT.F            6.0000:   START DEPTH
 STOP.F          640.0000:   STOP DEPTH
 STEP.F            0.5000:   STEP LENGTH
 NULL.          -999.2500:   NO VALUE
 COMP. LAWRENCE/ALLISON INC:   COMPANY
 WELL. NPR 3 #81-11-SX-15:   WELL
 FLD .             TEAPOT:   FIELD
 LOC .      S15 T38N R78W:   LOCATION
 CNTY.            NATRONA:   COUNTY
 STAT.            WYOMING:   STATE
 CTRY. UNITED STATES OF AMERICA:   COUNTRY
 SRVC.           Gearhart:   SERVICE COMPANY
 DATE.        15-JUL-1987:   LOGDATE
 API .       490251115100:   API NUMBER
~CURVE INFORMATION
#MNEM.UNIT       API CODE    CURVE DESCRIPTION
#----------   ------------   ------------------------------
 DEPT.F                  :   
 GRR .GAPI   07 310 01 00:   GAMMA RAY
 RILD.OHMM   07 120 46 00:   INDUCTION LOG DEEP RESISTIVITY
 RILM.OHMM   07 120 44 00:   INDUCTION LOG MEDIUM RESISTIVITY
~PARAMETER INFORMATION
#MNEM.UNIT          VALUE    DESCRIPTION
#----------   ------------   ------------------------------
 PD  .                 GL:   PERMANENT DATUM
 EPD .F            5265.4:   ELEVATION PERMANENT DATUM
 LMF .                 KB:   LOG MEASURED FROM
 DAPD.F                 8:   FEET ABOVE PERMANENT DATUM
 DMF .                 KB:   DRILLING MEASURED FROM
 EKB .F            5273.4:   KELLING BUSHING
 EDF .F            5271.4:   DRILLING FLOOR
 EGL .F            5265.4:   GROUND LEVEL
 DATE.        15-JUL-1987:   RUN DATE
 RUN .                  1:   RUN NUMBER
 DD  .F               646:   DEPTH DRILLER
 DL  .F               648:   DEPTH LOGGER
 BLI .F               640:   BOTTOM LOG INTERVAL
 TLI .F                 6:   TOP LOG INTERVAL
 CS  .IN            8.625:   CASING SIZE
 CBD .F                50:   CASING BOTTOM DRILLER
 CBL .F                50:   CASING BOTTOM LOGGER
 BS  .IN             7.87:   BIT SIZE
 BSD .F               646:   BIT SIZE AT DEPTH
 DFT .                AIR:   DRILLING FLUID TYPE
 TCS .HRS            2400:   TIME CURCULATED STOPPED
 TLAB.HRS            0112:   TIME LOGGER AT BOTTOM
 LUN .               7597:   LOGGING UNIT NUMBER
 LUL .           GILLETTE:   LOGGING UNIT LOCATION
 ENGI.           JOHNSTON:   RECORDING ENGINEER
 WITN.         MR. STRONG:   WITNESSED BY
 CLNT.            A2DTECH:   CLIENT CODE
 ORIG.      2" , 5" PRINT:   ORIGIN OF DATA
 UWI .       490251115100:   UNIQUE WELL ID
 DICO. A2D Technologies, Inc.:   DIGITIZING COMPANY
~OTHER INFORMATION
~A    DEPT     GRR       RILD       RILM   
# ...
   97.0000   111.5766     8.0409     7.6369
   97.5000   112.7988     8.1410     7.6902
   98.0000   114.0212     8.2780     7.7438
   98.5000   114.9431     8.3701     7.8522
   99.0000   114.9548     8.4630     7.8522
   99.5000   114.0588     8.4871     7.9621
  100.0000   113.1629     8.5562     7.9070
  100.5000   111.6617     8.6058     7.8522
  101.0000   109.8580     8.4284     7.8522
  101.5000   109.9031     8.2548     7.8522
  102.0000   112.9561     8.0287     7.7438
  102.5000   114.7374     7.9181     7.6369
  103.0000   115.9594     7.8813     7.4793
  103.5000   116.8788     7.8327     7.3249
  104.0000   114.7726     7.7485     7.3760
  104.5000   112.3637     7.7013     7.3249
  105.0000   114.1909     7.7013     7.2742
  105.5000   117.2426     7.8089     7.3249
  106.0000   118.7978     7.8633     7.2680
  106.5000   119.3728     8.0287     7.4207
  107.0000   119.0790     8.1977     7.4720
  107.5000   117.5808     8.3723     7.6821
  108.0000   115.7772     8.5233     7.9533
  108.5000   114.5786     8.7261     8.1769
  109.0000   114.2874     8.8481     8.4655
  109.5000   114.2996     8.9717     8.7036
  110.0000   114.6142     9.0531     8.9484
  110.5000   115.2337     9.1833     9.0102
  111.0000   115.5480     9.2885     9.0096
  111.5000   118.8880     9.2924     8.7618
  112.0000   123.1357     9.1571     8.5804
  112.5000   124.0523     8.9717     8.4028
  113.0000   119.2258     8.7869     8.2862
  113.5000   115.3041     8.4871     8.1147
  114.0000   115.9213     8.2548     7.9466
  114.5000   115.3305     7.8633     7.6214
  115.0000   112.3165     7.7013     7.4120
  115.5000   110.8154     7.7294     7.2585
  116.0000   108.4066     7.8633     7.3087
  116.5000   106.6029     8.0287     7.4705
  117.0000   107.2198     8.1671     7.6719
  117.5000   109.9547     8.3311     7.7982
  118.0000   112.4196     8.4531     7.9976
  118.5000   114.8222     8.6677     8.1812
  119.0000   116.6494     8.7936     8.2847
  119.5000   116.9608     8.9097     8.4615
  120.0000   113.0420     8.9967     8.6307
  120.5000   111.8405     9.0971     8.7511
  121.0000   112.3336     9.1605     8.8114
  121.5000   116.2757     9.2270     8.9350
  122.0000   120.5285     9.2885     8.9959
  122.5000   119.3209     9.2885     8.9952
  123.0000   113.5807     9.2885     8.9945
  123.5000   111.1666     9.2243     9.0567
  124.0000   113.5980     9.1586     9.0561
  124.5000   113.9093     9.0874     8.7982
  125.0000   113.0124     9.0342     8.6782
  125.5000   111.5082     8.9717     8.5644
  126.0000   109.7014     8.9097     8.5301
  126.5000   108.1972     8.8481     8.4450
  127.0000   107.2980     8.8481     8.3813
  127.5000   111.1145     8.7869     8.2695
  128.0000   117.6051     8.7068     8.1548
  128.5000   121.5472     8.5811     8.0416
  129.0000   120.0430     8.4871     8.0411
  129.5000   115.8157     8.3123     7.9849
  130.0000   113.6863     8.1977     7.9843
  130.5000   112.2043     8.0847     7.9837
  131.0000   113.4233     8.2548     7.9278
  131.5000   114.6422     8.3701     7.9273
  132.0000   115.5586     8.4966     7.9268
  132.5000   115.8699     8.6058     7.8713
  133.0000   114.9730     8.7261     7.9257
  133.5000   114.6769     8.7869     7.9945
  134.0000   113.7778     8.7869     8.0356
  134.5000   113.4839     8.8481     8.1474
  135.0000   113.1921     8.9097     8.2610
  135.5000   113.2486     8.9717     8.3180
  136.0000   114.7246     8.9097     8.3754
  136.5000   118.3641     8.9097     8.4334
  137.0000   121.0959     8.9717     8.4916
  137.5000   122.3149     9.0421     8.4909
  138.0000   121.9566     9.1658     8.5496
  138.5000   120.2163     9.2719     8.6685
  139.0000   120.2250     9.3706     8.7286
  139.5000   120.8388     9.5022     8.7887
  140.0000   120.5449     9.6166     8.8495
  140.5000   119.2920     9.7138     8.9727
  141.0000   115.7233     9.8189     9.0347
  141.5000   113.3114     9.9100     9.0970
  142.0000   115.7406    10.0255     9.0964
  142.5000   121.8007    10.0255     9.1233
  143.0000   125.4463    10.0255     9.2225
  143.5000   128.1742    10.0255     9.2217
  144.0000   125.7623    10.0255     9.2211
  144.5000   119.7195    10.0255     9.2205
  145.0000   116.3999    10.0255     9.2842
  145.5000   120.0394    10.0255     9.2836
  146.0000   123.7236    10.0953     9.4784
  146.5000   124.8979    10.2604     9.6107
  147.0000   122.4882    10.3795     9.8124
  147.5000   123.1020    10.5015    10.0185
  148.0000   124.0184    10.6717    10.0625
  148.5000   123.9980    10.8348    10.2282
  149.0000   122.2224    11.0199    10.3813
  149.5000   121.3212    11.2810    10.6062
  150.0000   121.9350    11.4123    10.8862
  150.5000   118.6176    11.5222    10.9614
  151.0000   114.9954    11.6140    11.1917
  151.5000   116.5191    11.7607    11.4265
  152.0000   118.3431    11.8427    11.5857
  152.5000   117.7445    11.8427    11.7472
  153.0000   118.0579    11.9251    11.8285
  153.5000   120.1846    12.0082    11.8275
  154.0000   119.8928    12.0918    11.8267
  154.5000   117.1784    12.0082    11.6625
  155.0000   115.3716    12.0082    11.5007
  155.5000   114.7751    11.8353    11.3412
  156.0000   115.3889    11.7607    11.1839
  156.5000   116.6495    11.6794    11.0985
  157.0000   118.4341    11.5986    10.8002
  157.5000   121.1659    11.5645    10.6504
  158.0000   122.9901    11.5184    10.6497
  158.5000   123.6039    11.5184    10.5752
  159.0000   123.5340    11.5184    10.6503
  159.5000   121.5053    11.5184    10.7218
  160.0000   120.9089    11.4387    10.7209
  160.5000   119.7073    11.3596    10.6460
  161.0000   118.8082    11.3596    10.7197
  161.5000   116.3963    11.3596    10.6446
  162.0000   116.7097    11.2810    10.4969
  162.5000   117.6261    11.2810    10.5144
  163.0000   117.3322    11.1455    10.4416
  163.5000   117.0361    11.1464    10.4416
  164.0000   117.0469    11.0700    10.5144
  164.5000   122.7173    10.9942    10.5144
  165.0000   126.0817    10.9190    10.5877
  165.5000   128.7818    10.9198    10.6282
  166.0000   128.7875    10.6955    10.6937
  166.5000   127.2805    10.6962    10.8109
  167.0000   126.0759    10.6970    10.8109
  167.5000   124.8714    10.6977    10.7360
  168.0000   125.4838    10.6985    10.7300
  168.5000   123.0690    10.7737    10.5877
  169.0000   119.1413    10.6999    10.4416
  169.5000   116.7265    10.5532    10.3692
  170.0000   118.8503    10.3363    10.2261
  170.5000   123.6974    10.0541     9.9413
  171.0000   123.7045     9.8476     9.7404
  171.5000   124.0128     9.6373     9.4733
  172.0000   126.4392     9.3171     9.2135
  172.5000   128.2604     9.0626     8.8988
  173.0000   130.1039     9.0003     8.5893
  173.5000   132.8120     9.0011     8.3591
  174.0000   135.5409     9.0711     8.3591
  174.5000   136.7570     9.1918     8.4762
  175.0000   134.3421     9.2564     8.7760
  175.5000   130.6889     9.4092     9.0253
  176.0000   124.9754     9.5846     9.2778
  176.5000   121.9555     9.7869     9.4733
  177.0000   119.8432     9.9936     9.6059
  177.5000   118.3362    10.0639     9.7404
  178.0000   117.4342     9.9950     9.8084
  178.5000   116.5323     9.8578     9.7404
  179.0000   115.6303     9.8535     9.7404
  179.5000   114.4273     9.7909     9.7404
  180.0000   112.6176     9.7240     9.6059
  180.5000   110.2028     9.7246     9.3425
  181.0000   110.0572     9.7253     9.2135
  181.5000   114.0477     9.7937     9.2135
  182.0000   116.8782     9.8713     9.2135
  182.5000   116.5814    10.0168     9.3425
  183.0000   114.1664    10.0716     9.6059
  183.5000   115.4211    10.2130     9.8144
  184.0000   118.1130    10.3565    10.0150
  184.5000   119.6317    10.4295    10.1552
  185.0000   119.0323    10.5026    10.2974
  185.5000   116.6175    10.4307    10.4416
  186.0000   114.1947    10.3592    10.5877
  186.5000   110.8816    10.2156    10.2974
  187.0000   114.2157     9.9383    10.0150
  187.5000   121.7858     9.8701     9.7404
