~VERSION INFORMATION
 VERS.                2.0:   CWLS LOG ASCII STANDARD - VERSION 2.0
 WRAP.                 NO:   ONE LINE PER DEPTH STEP
~WELL INFORMATION
#MNEM.UNIT      DATA TYPE    INFORMATION
#----------   ------------   ------------------------------
 STRT.F            7.5000:   START DEPTH
 STOP.F         2886.0000:   STOP DEPTH
 STEP.F            0.5000:   STEP LENGTH
 NULL.          -999.2500:   NO VALUE
 COMP. LAWRENCE/ALLISON INC:   COMPANY
 WELL.     16-1 AX #21-21:   WELL
 FLD .             TEAPOT:   FIELD
 LOC .      S21 T39N R78W:   LOCATION
 CNTY.            NATRONA:   COUNTY
 STAT.            WYOMING:   STATE
 CTRY. UNITED STATES OF AMERICA:   COUNTRY
 SRVC.      Dresser Atlas:   SERVICE COMPANY
 DATE.        05-DEC-1986:   LOGDATE
 API .       490251111900:   API NUMBER
~CURVE INFORMATION
#MNEM.UNIT       API CODE    CURVE DESCRIPTION
#----------   ------------   ------------------------------
 DEPT.F                  :   
 GRR .GAPI   07 310 01 00:   GAMMA RAY FROM RES. LOG.
 SPR .MV     07 010 01 00:   SPONTANEOUS POTENTIAL
 RFOC.OHMM   07 220 04 00:   RESISTIVITY FOCUSED LOG
 RILM.OHMM   07 120 44 00:   INDUCTION LOG MEDIUM RESISTIVITY
 RILD.OHMM   07 120 46 00:   INDUCTION LOG DEEP RESISTIVITY
 CALD.IN     45 280 60 00:   CALIPER
 DEN .G/C3   45 350 01 00:   BULK DENSITY
 CORR.G/C3   45 356 01 00:   DENSITY CORRECTION
 CNC .DEC    42 890 03 00:   NEUTRON POROSITY SANDSTONE
 PORD.DEC    45 890 12 00:   DENSITY POROSITY SANDSTONE
~PARAMETER INFORMATION
#MNEM.UNIT          VALUE    DESCRIPTION
#----------   ------------   ------------------------------
 PD  .                 GL:   PERMANENT DATUM
 EPD .F              4992:   ELEVATION PERMANENT DATUM
 LMF .                 KB:   LOG MEASURED FROM
 DAPD.F                12:   FEET ABOVE PERMANENT DATUM
 DMF .                 KB:   DRILLING MEASURED FROM
 EKB .F              5004:   KELLING BUSHING
 EGL .F              4992:   GROUND LEVEL
 DATE.            12-5-86:   RUN DATE
 RUN .                  1:   RUN NUMBER
 DD  .F              2905:   DEPTH DRILLER
 DL  .F              2890:   DEPTH LOGGER
 BLI .F              2884:   BOTTOM LOG INTERVAL
 TLI .F              2200:   TOP LOG INTERVAL
 CS  .IN            8.625:   CASING SIZE
 CBD .F               300:   CASING BOTTOM DRILLER
 CBL .F               300:   CASING BOTTOM LOGGER
 BS  .IN            7.875:   BIT SIZE
 BSD .F              2905:   BIT SIZE AT DEPTH
 DFT .        KCL POLYMER:   DRILLING FLUID TYPE
 DFD .                  9:   DRILLING FLUID DENSITY
 DFV .                 36:   DRILLING FLUID VISCOSITY
 DFPH.                9.5:   DRILLING FLUID PH
 DFL .               11.8:   DRILLING FLUID LOSS
 MSS .            MUDTANK:   MUD SAMPLE SOURCE
 RMS .OHMM            .43:   RESISTIVITY MUD SAMPLE
 MST .F                63:   MUD SAMPLE TEMPERATURE
 RMF .OHMM           .348:   RESISTIVITY MUD FILTRATE SAMPLE
 MFST.F                63:   MUD FILTRATE SAMPLE TEMPERATURE
 RMC .OHMM           .538:   RESISTIVITY MUD CAKE
 MCST.F                63:   MUD CAKE SAMPLE TEMPERATURE
 MFSS.               MEAS:   MUD FILTRATE SAMPLE SOURCE
 MCSS.               CALC:   MUD CAKE SAMPLE SOURCE
 RMB .OHMM           .233:   RESISTIVITY MUD AT BHT
 BHT .F               116:   BOTTOM HOLE TEMPERATURE
 TCS .HRS             3.5:   TIME CURCULATED STOPPED
 MRT .F               116:   MAXIMUM RECORDED TEMPERATURE
 LUN .            HL-6274:   LOGGING UNIT NUMBER
 LUL .           GILLETTE:   LOGGING UNIT LOCATION
 ENGI.             RAUTIO:   RECORDING ENGINEER
 WITN.             STRONG:   WITNESSED BY
 CLNT.            A2DTECH:   CLIENT CODE
 ORIG.       2", 5" PRINT:   ORIGIN OF DATA
 UWI .       490251111900:   UNIQUE WELL ID
 DICO. A2D Technologies, Inc.:   DIGITIZING COMPANY
~OTHER INFORMATION
~A    DEPT     GRR        SPR       RFOC       RILM       RILD       CALD        DEN       CORR        CNC       PORD   
# ...
 1213.5000    87.1995   -53.6696     8.8270     7.9816     7.7212  -999.2500  -999.2500  -999.2500  -999.2500  -999.2500
 1214.0000    87.3509   -53.8037     8.5656     7.8901     7.6288  -999.2500  -999.2500  -999.2500  -999.2500  -999.2500
 1214.5000    88.5867   -53.8997     8.3063     7.8614     7.5457  -999.2500  -999.2500  -999.2500  -999.2500  -999.2500
 1215.0000    89.7451   -53.7684     7.9696     7.8228     7.4679  -999.2500  -999.2500  -999.2500  -999.2500  -999.2500
 1215.5000    90.3288   -53.6400     7.9967     7.8403     7.5341  -999.2500  -999.2500  -999.2500  -999.2500  -999.2500
 1216.0000    90.5694   -53.5124     8.0388     7.8675     7.6076  -999.2500  -999.2500  -999.2500  -999.2500  -999.2500
 1216.5000    90.3637   -53.3859     8.2699     7.8948     7.6008  -999.2500  -999.2500  -999.2500  -999.2500  -999.2500
 1217.0000    89.3145   -53.3421     8.5053     7.9221     7.5931  -999.2500  -999.2500  -999.2500  -999.2500  -999.2500
 1217.5000    88.2337   -53.4111     8.4765     7.9496     7.5852  -999.2500  -999.2500  -999.2500  -999.2500  -999.2500
 1218.0000    86.8461   -53.4789     8.4507     7.9772     7.5774  -999.2500  -999.2500  -999.2500  -999.2500  -999.2500
 1218.5000    86.0940   -53.5469     8.4249     8.0048     7.5696  -999.2500  -999.2500  -999.2500  -999.2500  -999.2500
 1219.0000    88.9806   -53.6149     8.3992     8.0326     7.5618  -999.2500  -999.2500  -999.2500  -999.2500  -999.2500
 1219.5000    92.2137   -53.6828     8.3736     8.0440     7.5541  -999.2500  -999.2500  -999.2500  -999.2500  -999.2500
 1220.0000    90.5565   -53.8521     8.3486     7.9720     7.5463  -999.2500  -999.2500  -999.2500  -999.2500  -999.2500
 1220.5000    84.7147   -54.1071     8.1891     7.9206     7.5384  -999.2500  -999.2500  -999.2500  -999.2500  -999.2500
 1221.0000    80.5334   -54.0316     8.0440     7.8697     7.5373  -999.2500  -999.2500  -999.2500  -999.2500  -999.2500
 1221.5000    82.8052   -53.8776     8.0039     7.8228     7.5373  -999.2500  -999.2500  -999.2500  -999.2500  -999.2500
 1222.0000    88.9851   -53.7243     7.9696     7.8789     7.5373  -999.2500  -999.2500  -999.2500  -999.2500  -999.2500
 1222.5000    95.2306   -53.5713     8.1022     7.9434     7.5373  -999.2500  -999.2500  -999.2500  -999.2500  -999.2500
 1223.0000    95.2066   -53.5941     8.2257     8.0085     7.5373  -999.2500  -999.2500  -999.2500  -999.2500  -999.2500
 1223.5000    89.9472   -53.7789     8.3517     8.0740     7.5372  -999.2500  -999.2500  -999.2500  -999.2500  -999.2500
 1224.0000    87.3670   -53.9063     8.4782     8.1402     7.5372  -999.2500  -999.2500  -999.2500  -999.2500  -999.2500
 1224.5000    88.1822   -53.8479     8.5838     8.1949     7.5374  -999.2500  -999.2500  -999.2500  -999.2500  -999.2500
 1225.0000    90.0801   -53.7943     8.3484     7.9696     7.6048  -999.2500  -999.2500  -999.2500  -999.2500  -999.2500
 1225.5000    93.3215   -53.7397     8.1517     7.9847     7.6626  -999.2500  -999.2500  -999.2500  -999.2500  -999.2500
 1226.0000    96.9689   -53.8683     8.0441     8.0036     7.7208  -999.2500  -999.2500  -999.2500  -999.2500  -999.2500
 1226.5000    95.2690   -54.1597     8.1810     8.0226     7.7795  -999.2500  -999.2500  -999.2500  -999.2500  -999.2500
 1227.0000    88.8735   -54.4627     8.5211     8.0440     7.8228  -999.2500  -999.2500  -999.2500  -999.2500  -999.2500
 1227.5000    83.8668   -54.3440     9.0433     8.0071     7.7709  -999.2500  -999.2500  -999.2500  -999.2500  -999.2500
 1228.0000    82.4613   -54.1187     9.8661     7.9651     7.7301  -999.2500  -999.2500  -999.2500  -999.2500  -999.2500
 1228.5000    83.8720   -53.8906     9.5035     7.9233     7.6896  -999.2500  -999.2500  -999.2500  -999.2500  -999.2500
 1229.0000    86.0693   -53.6637     8.8166     7.8815     7.6493  -999.2500  -999.2500  -999.2500  -999.2500  -999.2500
 1229.5000    87.6584   -53.4387     8.0440     7.8230     7.6077  -999.2500  -999.2500  -999.2500  -999.2500  -999.2500
 1230.0000    86.8818   -53.3636     8.0857     7.8666     7.6948  -999.2500  -999.2500  -999.2500  -999.2500  -999.2500
 1230.5000    84.8797   -53.4788     8.1405     7.9460     7.7863  -999.2500  -999.2500  -999.2500  -999.2500  -999.2500
 1231.0000    83.0082   -53.5604     8.1949     8.0256     7.8790  -999.2500  -999.2500  -999.2500  -999.2500  -999.2500
 1231.5000    81.7603   -53.6281     8.5206     8.1059     7.9696  -999.2500  -999.2500  -999.2500  -999.2500  -999.2500
 1232.0000    80.9108   -53.6938     9.3109     8.1191     7.9533  -999.2500  -999.2500  -999.2500  -999.2500  -999.2500
 1232.5000    82.1015   -53.9434     9.6042     8.1192     7.9377  -999.2500  -999.2500  -999.2500  -999.2500  -999.2500
 1233.0000    86.1189   -54.2636     9.1489     8.1191     7.9220  -999.2500  -999.2500  -999.2500  -999.2500  -999.2500
 1233.5000    90.9441   -54.6786     8.8094     8.1191     7.9064  -999.2500  -999.2500  -999.2500  -999.2500  -999.2500
 1234.0000    95.5719   -54.7152     8.4789     8.1193     7.8760  -999.2500  -999.2500  -999.2500  -999.2500  -999.2500
 1234.5000    94.6247   -54.3861     8.2681     8.0699     7.8142  -999.2500  -999.2500  -999.2500  -999.2500  -999.2500
 1235.0000    89.0174   -54.0432     8.2709     8.0028     7.7528  -999.2500  -999.2500  -999.2500  -999.2500  -999.2500
 1235.5000    84.9612   -53.7000     8.5494     7.9362     7.6919  -999.2500  -999.2500  -999.2500  -999.2500  -999.2500
 1236.0000    86.8168   -53.3483     8.8486     7.8813     7.6077  -999.2500  -999.2500  -999.2500  -999.2500  -999.2500
 1236.5000    89.0180   -53.5983     8.9098     7.8441     7.6222  -999.2500  -999.2500  -999.2500  -999.2500  -999.2500
 1237.0000    90.8902   -53.7827     8.4832     7.8228     7.6462  -999.2500  -999.2500  -999.2500  -999.2500  -999.2500
 1237.5000    92.0898   -53.9503     8.1461     7.8479     7.6704  -999.2500  -999.2500  -999.2500  -999.2500  -999.2500
 1238.0000    92.0193   -54.0809     7.9696     7.8656     7.6862  -999.2500  -999.2500  -999.2500  -999.2500  -999.2500
 1238.5000    90.0932   -54.2086     8.4555     7.8834     7.6975  -999.2500  -999.2500  -999.2500  -999.2500  -999.2500
 1239.0000    88.3029   -54.3356     8.9098     7.9011     7.7089  -999.2500  -999.2500  -999.2500  -999.2500  -999.2500
 1239.5000    89.7127   -54.4647     8.7911     7.9190     7.7203  -999.2500  -999.2500  -999.2500  -999.2500  -999.2500
 1240.0000    91.3013   -54.4334     8.6263     7.9368     7.7316  -999.2500  -999.2500  -999.2500  -999.2500  -999.2500
 1240.5000    92.6873   -54.2893     8.5053     7.9547     7.7433  -999.2500  -999.2500  -999.2500  -999.2500  -999.2500
 1241.0000    93.1464   -54.1435     8.4648     7.9820     7.7497  -999.2500  -999.2500  -999.2500  -999.2500  -999.2500
 1241.5000    93.6065   -53.9982     8.4227     8.0542     7.6787  -999.2500  -999.2500  -999.2500  -999.2500  -999.2500
 1242.0000    92.9158   -53.9150     8.3809     8.1271     7.8257  -999.2500  -999.2500  -999.2500  -999.2500  -999.2500
 1242.5000    88.7174   -53.9157     8.3486     8.2007     8.0050  -999.2500  -999.2500  -999.2500  -999.2500  -999.2500
 1243.0000    84.6097   -53.9156     8.6481     8.2712     8.1191  -999.2500  -999.2500  -999.2500  -999.2500  -999.2500
 1243.5000    82.7741   -53.9158     8.9817     8.2229     8.0690  -999.2500  -999.2500  -999.2500  -999.2500  -999.2500
 1244.0000    84.2231   -53.9159     9.3281     8.1759     7.9930  -999.2500  -999.2500  -999.2500  -999.2500  -999.2500
 1244.5000    87.2273   -53.9080     9.5088     8.1295     7.9177  -999.2500  -999.2500  -999.2500  -999.2500  -999.2500
 1245.0000    90.1985   -53.8440     9.1069     8.0835     7.8432  -999.2500  -999.2500  -999.2500  -999.2500  -999.2500
 1245.5000    91.9074   -53.7783     8.5273     8.0440     7.7504  -999.2500  -999.2500  -999.2500  -999.2500  -999.2500
 1246.0000    89.7850   -53.7234     8.2654     8.1134     7.8752  -999.2500  -999.2500  -999.2500  -999.2500  -999.2500
 1246.5000    85.3554   -53.9851     8.2670     8.1750     8.0463  -999.2500  -999.2500  -999.2500  -999.2500  -999.2500
