~VERSION INFORMATION
 VERS.                2.0:   CWLS LOG ASCII STANDARD - VERSION 2.0
 WRAP.                 NO:   ONE LINE PER DEPTH STEP
~WELL INFORMATION
#MNEM.UNIT      DATA TYPE    INFORMATION
#----------   ------------   ------------------------------
 STRT.F           29.0000:   START DEPTH
 STOP.F          462.0000:   STOP DEPTH
 STEP.F            0.5000:   STEP LENGTH
 NULL.          -999.2500:   NO VALUE
 COMP.    FENIX & SCISSON:   COMPANY
 WELL.      NPR #71-SX-10:   WELL
 FLD .             TEAPOT:   FIELD
 LOC .      S10 T38N R78W:   LOCATION
 CNTY.            NATRONA:   COUNTY
 STAT.            WYOMING:   STATE
 CTRY. UNITED STATES OF AMERICA:   COUNTRY
 SRVC.              Welex:   SERVICE COMPANY
 DATE.        01-APR-1977:   LOGDATE
 API .       490251032300:   API NUMBER
~CURVE INFORMATION
#MNEM.UNIT       API CODE    CURVE DESCRIPTION
#----------   ------------   ------------------------------
 DEPT.F                  :   
 SPR .MV     07 010 01 00:   SPONTANEOUS POTENTIAL
 ILD .OHMM   07 120 46 00:   INDUCTION LOG DEEP
 ILM .OHMM   07 120 44 00:   INDUCTION LOG MEDIUM
 SGRD.OHMM   07 221 05 00:   SHALLOW SHORT GUARD RESISTIVITY
 CALD.IN     45 280 60 00:   CALIPER FROM DENSITY LOG
 GRD .GAPI   45 310 01 00:   GAMMA RAY FROM DENSITY LOG
 CORR.G/C3   45 356 01 00:   DENSITY CORRECTION
 RHOB.G/C3   45 350 01 00:   BULK DENSITY
 DPHI.DEC    45 890 12 00:   DENSITY POROSITY SANDSTONE
~PARAMETER INFORMATION
#MNEM.UNIT          VALUE    DESCRIPTION
#----------   ------------   ------------------------------
 PD  .                 GL:   PERMANENT DATUM
 EPD .F              5157:   ELEVATION PERMANENT DATUM
 LMF .                 GL:   LOG MEASURED FROM
 DMF .                 GL:   DRILLING MEASURED FROM
 EGL .F              5157:   GROUND LEVEL
 DATE.        01-APR-1977:   RUN DATE
 RUN .                  1:   RUN NUMBER
 DD  .F               475:   DEPTH DRILLER
 DL  .F               466:   DEPTH LOGGER
 BLI .F               463:   BOTTOM LOG INTERVAL
 TLI .F                30:   TOP LOG INTERVAL
 CS  .IN            8.625:   CASING SIZE
 BS  .IN            7.875:   BIT SIZE
 BSD .F               475:   BIT SIZE AT DEPTH
 DFT .                KCL:   DRILLING FLUID TYPE
 DFD .                8.5:   DRILLING FLUID DENSITY
 TCS .HRS               3:   TIME CURCULATED STOPPED
 MRT .F                67:   MAXIMUM RECORDED TEMPERATURE
 ENGI.            C. DOAK:   RECORDING ENGINEER
 WITN.   R. B. HARRINGTON:   WITNESSED BY
 CLNT.            A2DTECH:   CLIENT CODE
 ORIG.           5" PRINT:   ORIGIN OF DATA
 UWI .       490251032300:   UNIQUE WELL ID
 DICO. A2D Technologies, Inc.:   DIGITIZING COMPANY
~OTHER INFORMATION
~A   DEPT      SPR        ILD        ILM       SGRD         CALD      GRD       CORR       RHOB       DPHI   
# ...
  284.5000   -31.7192    10.6629    14.3510    14.1312     8.9214   107.9063     0.0107     2.4938     0.1002
  285.0000   -31.2609    11.2007    14.8644    15.4698     8.9081   103.2990     0.0155     2.4870     0.1080
  285.5000   -30.5059    11.8472    16.9623    19.9974     8.9095    90.7812     0.0141     2.4740     0.1167
  286.0000   -29.8991    12.7940    22.8534    25.3185     8.9110    72.6801     0.0127     2.4509     0.1232
  286.5000   -29.2814    14.3028    25.8991    25.3306     8.8976    61.5561     0.0144     2.4364     0.1256
  287.0000   -28.5015    15.8792    27.7700    26.6016     8.8992    52.2508     0.0161     2.4305     0.1266
  287.5000   -27.7572    17.2673    28.1725    59.4276     8.9007    50.1489     0.0193     2.4261     0.1312
  288.0000   -26.8757    18.7766    28.3837    47.6383     8.8872    56.8437     0.0225     2.4097     0.1519
  288.5000   -26.5658    20.4179    27.8159    31.8955     8.8740    63.2150     0.0196     2.3797     0.1724
  289.0000   -26.2559    21.2997    27.0677    26.4689     8.8754    66.3472     0.0153     2.3415     0.1837
  289.5000   -26.0943    21.6129    27.6545    28.9762     8.8620    69.4821     0.0094     2.3431     0.1813
  290.0000   -25.7844    21.9308    32.2196    36.1819     8.8636    72.0299     0.0050     2.3521     0.1791
  290.5000   -25.6228    22.5635    34.0676    34.4863     8.8651    71.1523     0.0006     2.3447     0.1808
  291.0000   -25.6096    23.0544    31.8118    30.6710     8.8667    69.9763    -0.0007     2.3335     0.1933
  291.5000   -25.5964    23.0719    30.5348    29.8438     8.8680    70.8898    -0.0021     2.3246     0.1944
  292.0000   -25.5832    23.0895    30.3368    33.8260     8.8695    72.5496    -0.0019     2.3239     0.1875
  292.5000   -26.0151    23.1071    30.9944    32.9177     8.8710    71.9705    -0.0002     2.3442     0.1710
  293.0000   -26.2986    22.8068    32.5506    29.8905     8.8725    70.0482     0.0015     2.3743     0.1614
  293.5000   -26.4338    22.6625    33.9493    28.0979     8.8740    67.2304     0.0062     2.3848     0.1493
  294.0000   -26.4206    22.5233    35.4080    33.4250     8.8755    62.7707     0.0097     2.4074     0.1235
  294.5000   -26.5564    22.3851    36.1706    49.6279     8.8776    62.9380     0.0174     2.4795     0.1046
  295.0000   -26.5426    22.2476    35.9409    42.0489     8.8934    64.1500     0.0266     2.4825     0.0999
  295.5000   -26.3810    22.1110    34.9790    52.1430     8.8917    65.2128     0.0340     2.4758     0.1123
  296.0000   -26.2195    21.9753    33.3434    42.6763     8.8770    66.2755     0.0310     2.4526     0.1279
  296.5000   -26.0579    21.8403    31.3474    37.4283     8.8623    67.6368     0.0251     2.3844     0.1591
  297.0000   -26.0366    22.1658    30.7196    34.7039     8.8476    68.8488     0.0175     2.3440     0.1837
  297.5000   -25.5861    22.8052    32.4867    32.8487     8.8264    68.5683     0.0042     2.3305     0.1939
  298.0000   -25.4026    23.3014    35.3189    40.1748     8.8124    65.6012    -0.0014     2.3186     0.1990
  298.5000   -24.8148    23.4810    38.1333    39.9168     8.7700    62.7834     0.0003     2.3217     0.1953
  299.0000   -24.5049    23.4989    39.4975    39.3501     8.7715    63.6969     0.0035     2.3390     0.1887
  299.5000   -24.1950    23.6801    38.4404    46.8539     8.7582    64.9089     0.0082     2.3495     0.1812
  300.0000   -23.7362    24.3601    37.1536    42.2515     8.7596    66.4194     0.0129     2.3481     0.1815
  300.5000   -23.7199    24.3736    37.1742    35.7999     8.7611    67.9299     0.0115     2.3422     0.1886
  301.0000   -23.5553    24.3871    37.4530    38.1284     8.7775    69.1419     0.0055     2.3362     0.1934
  301.5000   -23.5390    24.4006    38.2652    37.8809     8.7789    70.5032    -0.0034     2.3228     0.2024
  302.0000   -23.3744    24.4141    39.9187    38.7028     8.7804    72.0137    -0.0124     2.3064     0.2075
  302.5000   -23.2122    24.4333    40.4822    42.6665     8.7819    73.8228    -0.0183     2.3117     0.1970
  303.0000   -23.0475    24.6108    39.3881    42.9868     8.7834    75.0348    -0.0106     2.3335     0.1861
  303.5000   -23.0312    24.4546    39.1487    41.8492     8.7849    74.3065     0.0016     2.3464     0.1765
  304.0000   -22.8642    24.4683    41.1607    40.3035     8.7715    71.4887     0.0017     2.3539     0.1951
  304.5000   -23.0004    24.4818    44.1034    39.9733     8.7582    69.8649     0.0003     2.3210     0.1909
  305.0000   -23.1325    24.4963    44.0691    49.8231     8.7448    71.3754    -0.0026     2.3316     0.1822
  305.5000   -22.9638    24.5214    42.3175    46.1942     8.7360    73.0352    -0.0040     2.3504     0.1773
  306.0000   -22.9475    24.6928    40.9213    42.2406     8.7233    74.8442    -0.0054     2.3572     0.1719
  306.5000   -22.9312    24.7062    40.3575    39.7102     8.7106    73.0711    -0.0082     2.3551     0.1803
  307.0000   -23.0674    24.3801    40.1249    40.2862     8.6979    69.9503    -0.0112     2.3394     0.1911
  307.5000   -23.0471    23.8924    40.7071    41.1546     8.6901    71.6146    -0.0156     2.3275     0.1941
  308.0000   -23.0308    23.5600    39.5309    40.8931     8.6770    74.7669    -0.0185     2.3290     0.1922
  308.5000   -23.0145    23.0698    37.4176    37.1351     8.6637    79.4117    -0.0168     2.3344     0.1853
  309.0000   -22.9983    22.4688    35.2307    36.1403     8.6528    81.3700    -0.0137     2.3419     0.1742
  309.5000   -23.1344    21.8475    34.7939    34.6888     8.6394    83.3283    -0.0090     2.3495     0.1592
  310.0000   -23.2665    21.1143    34.0360    33.2953     8.6558    84.6896    -0.0074     2.3713     0.1489
  310.5000   -23.5429    20.5671    32.4416    31.9505     8.6572    84.5538    -0.0043     2.3992     0.1423
  311.0000   -23.8275    20.1548    31.1367    30.4625     8.6587    83.2330    -0.0011     2.4053     0.1363
  311.5000   -24.1039    19.7507    30.3639    30.0499     8.6454    81.0122     0.0005     2.4181     0.1345
  312.0000   -24.2400    19.4891    30.3814    29.8691     8.6468    79.5376     0.0022     2.4272     0.1411
  312.5000   -24.3721    19.2527    30.3982    29.6793     8.6483    81.0481     0.0068     2.4025     0.1500
  313.0000   -24.6486    19.1081    30.1692    29.2872     8.6498    83.6034     0.0100     2.4041     0.1463
  313.5000   -24.9290    18.7250    29.5644    28.8775     8.6216    86.0095     0.0086     2.4042     0.1452
  314.0000   -24.9128    18.5003    27.9864    27.8815     8.6083    87.8150     0.0042     2.3960     0.1463
  314.5000   -25.0489    18.5111    27.4612    27.3730     8.5949    88.1305     0.0012     2.3863     0.1596
  315.0000   -25.0286    18.7815    28.2514    27.5790     8.5816    85.3132    -0.0017     2.3796     0.1614
  315.5000   -25.0123    19.1861    29.6700    28.4784     8.5534    80.2560    -0.0061     2.3714     0.1686
  316.0000   -24.8477    19.3300    30.9449    31.0625     8.5252    81.0806    -0.0075     2.3647     0.1730
  316.5000   -24.6831    19.4750    29.7028    31.2956     8.4970    83.0488    -0.0073     2.3549     0.1820
  317.0000   -24.3701    19.6210    28.9039    30.0384     8.4688    84.8328    -0.0072     2.3453     0.1853
  317.5000   -24.2054    19.6319    28.1304    28.6328     8.4407    86.0124    -0.0041     2.3409     0.1840
  318.0000   -24.1892    19.7791    27.9518    28.0557     8.4273    84.6847    -0.0024     2.3463     0.1807
  318.5000   -24.0245    19.7901    28.3609    28.6644     8.3991    78.8642    -0.0008     2.3497     0.1771
  319.0000   -23.8599    19.9385    28.7721    29.2823     8.3858    79.3522     0.0008     2.3547     0.1738
  319.5000   -23.6952    19.9495    28.9879    29.7071     8.3576    80.7035     0.0055     2.3645     0.1683
  320.0000   -23.6790    20.2387    29.0039    32.2991     8.3294    80.8657     0.0086     2.3788     0.1647
  320.5000   -23.6627    20.8182    28.8158    34.6294     8.3161    77.0030     0.0118     2.3722     0.1620
