~VERSION INFORMATION
 VERS.                2.0:   CWLS LOG ASCII STANDARD - VERSION 2.0
 WRAP.                 NO:   ONE LINE PER DEPTH STEP
~WELL INFORMATION
#MNEM.UNIT      DATA TYPE    INFORMATION
#----------   ------------   ------------------------------
 STRT.F           38.0000:   START DEPTH
 STOP.F          637.0000:   STOP DEPTH
 STEP.F            0.5000:   STEP LENGTH
 NULL.          -999.2500:   NO VALUE
 COMP. FENIX & SCISSON INC:   COMPANY
 WELL.    NPR ##3 57-S-34:   WELL
 FLD .             TEAPOT:   FIELD
 LOC .      S34 T39N R78W:   LOCATION
 CNTY.            NATRONA:   COUNTY
 STAT.            WYOMING:   STATE
 CTRY. UNITED STATES OF AMERICA:   COUNTRY
 SRVC.              Welex:   SERVICE COMPANY
 DATE.        12-MAR-1977:   LOGDATE
 API .       490251030600:   API NUMBER
~CURVE INFORMATION
#MNEM.UNIT       API CODE    CURVE DESCRIPTION
#----------   ------------   ------------------------------
 DEPT.F                  :   
 SPR .MV     07 010 01 00:   SPONTANEOUS POTENTIAL
 ILM .OHMM   07 120 44 00:   INDUCTION LOG MEDIUM
 ILD .OHMM   07 120 46 00:   INDUCTION LOG DEEP
 SGRD.OHMM   07 221 05 00:   SHALLOW SHORT GUARD RESISTIVITY
 CALD.IN     45 280 60 00:   CALIPER FROM DENSITY LOG
 GRD .GAPI   45 310 01 00:   GAMMA RAY FROM DENSITY LOG
 CORR.G/C3   45 356 01 00:   DENSITY CORRECTION
 DPHI.DEC    45 890 12 00:   DENSITY POROSITY SANDSTONE
 RHOB.G/C3   45 350 01 00:   BULK DENSITY
~PARAMETER INFORMATION
#MNEM.UNIT          VALUE    DESCRIPTION
#----------   ------------   ------------------------------
 PD  .                 GL:   PERMANENT DATUM
 EPD .F              5107:   ELEVATION PERMANENT DATUM
 LMF .                 GL:   LOG MEASURED FROM
 DMF .                 GL:   DRILLING MEASURED FROM
 EGL .F              5107:   GROUND LEVEL
 DATE.          3-12-1977:   RUN DATE
 RUN .                  1:   RUN NUMBER
 DD  .F               650:   DEPTH DRILLER
 DL  .F               637:   DEPTH LOGGER
 BLI .F               636:   BOTTOM LOG INTERVAL
 TLI .F                46:   TOP LOG INTERVAL
 CS  .IN            8.625:   CASING SIZE
 CBD .F                45:   CASING BOTTOM DRILLER
 CBL .F                46:   CASING BOTTOM LOGGER
 BS  .IN            7.875:   BIT SIZE
 BSD .F               650:   BIT SIZE AT DEPTH
 DFT .            KCL MUD:   DRILLING FLUID TYPE
 DFD .                8.9:   DRILLING FLUID DENSITY
 DFV .                 35:   DRILLING FLUID VISCOSITY
 MSS .            MUD PIT:   MUD SAMPLE SOURCE
 RMS .OHMM            .53:   RESISTIVITY MUD SAMPLE
 MST .F                68:   MUD SAMPLE TEMPERATURE
 RMF .OHMM            .41:   RESISTIVITY MUD FILTRATE SAMPLE
 MFST.F                69:   MUD FILTRATE SAMPLE TEMPERATURE
 RMC .OHMM            .62:   RESISTIVITY MUD CAKE
 MCST.F                65:   MUD CAKE SAMPLE TEMPERATURE
 MFSS.           MEASURED:   MUD FILTRATE SAMPLE SOURCE
 MCSS.           MEASURED:   MUD CAKE SAMPLE SOURCE
 RMB .OHMM            .60:   RESISTIVITY MUD AT BHT
 BHT .F                60:   BOTTOM HOLE TEMPERATURE
 TCS .HRS               1:   TIME CURCULATED STOPPED
 MRT .F                60:   MAXIMUM RECORDED TEMPERATURE
 LUN .               0716:   LOGGING UNIT NUMBER
 LUL .             VERNAL:   LOGGING UNIT LOCATION
 ENGI.        E. CALLAHAN:   RECORDING ENGINEER
 WITN.         STUEBUNGER:   WITNESSED BY
 CLNT.            A2DTECH:   CLIENT CODE
 ORIG.           5" PRINT:   ORIGIN OF DATA
 UWI .       490251030600:   UNIQUE WELL ID
 DICO. A2D Technologies, Inc.:   DIGITIZING COMPANY
~OTHER INFORMATION
~A   DEPT      SPR        ILM        ILD       SGRD       CALD        GRD       CORR       DPHI       RHOB   
# ...
  147.5000   -35.6861     7.5337     6.5938     8.6062     8.0464   118.7539     0.0700     0.0942     2.4862
  148.0000   -35.6951     7.6370     6.5922     8.6056     8.0457   120.3220     0.0637     0.1084     2.4754
  148.5000   -34.3587     7.7407     6.5455     8.8464     8.0607   121.6950     0.0570     0.1129     2.4629
  149.0000   -32.2732     7.6854     6.4542     9.0311     8.0600   121.5232     0.0512     0.1138     2.4629
  149.5000   -30.1877     7.6832     6.4529     9.0933     8.0594   120.9025     0.0544     0.1100     2.4644
  150.0000   -28.8478     7.5087     6.4516     8.9913     8.0588   120.7430     0.0650     0.1002     2.4791
  150.5000   -34.3864     7.3202     6.5328     8.7488     8.0276   122.6311     0.0758     0.0996     2.4860
  151.0000   -36.0364     7.2651     6.6277     8.6585     8.0272   125.0682     0.0679     0.0999     2.4813
  151.5000   -36.3411     7.2636     6.6721     8.8377     8.0243   124.0557     0.0601     0.1005     2.4712
  152.0000   -36.1974     7.2618     6.6693     9.0826     8.0111   123.0456     0.0725     0.1008     2.4797
  152.5000   -36.2033     7.3614     6.6211     9.0801     8.0108   122.8862     0.0785     0.0990     2.4897
  153.0000   -36.6588     7.4623     6.6189     8.8907     8.0105   123.1912     0.0784     0.0934     2.4920
  153.5000   -36.8141     7.5646     6.6167     8.8271     8.0102   124.8894     0.0767     0.0953     2.4974
  154.0000   -36.9693     7.6683     6.6139     8.8247     8.0099   124.1108     0.0787     0.0894     2.5036
  154.5000   -37.1246     7.7200     6.6576     8.9452     8.0096   123.1775     0.0889     0.0829     2.5074
  155.0000   -37.2798     7.8801     6.7482     9.0679     8.0093   121.9345     0.0887     0.0799     2.5104
  155.5000   -37.2856     7.8781     6.7927     9.0649     8.0089   121.7763     0.0857     0.0808     2.5135
  156.0000   -37.2915     7.8765     6.8857     9.0625     8.0086   122.6993     0.0763     0.0858     2.5026
  156.5000   -37.2986     7.8750     6.9307     9.0595     8.0083   123.0043     0.0764     0.0917     2.4956
  157.0000   -37.4538     7.8192     6.9283     9.1832     7.9926   125.0121     0.0757     0.0954     2.4909
  157.5000   -37.4596     7.8176     6.8776     9.3086     7.9922   124.8528     0.0580     0.1042     2.4855
  158.0000   -37.4487     7.8160     6.8753     9.3713     7.9919   124.2290     0.0496     0.1202     2.4529
  158.5000   -37.4297     7.8201     6.8731     9.4992     7.9762   123.6052     0.0689     0.1084     2.4739
  159.0000   -37.4106     7.8671     6.9190     9.5621     7.9604   123.6006     0.0757     0.1046     2.4894
  159.5000   -37.3916     7.9750     6.9162     9.4244     7.9601   124.7151     0.0704     0.0930     2.4972
  160.0000   -37.3726     8.0843     7.0102     9.4256     7.9598   127.6162     0.0569     0.0955     2.4956
  160.5000   -37.3535     8.1948     7.1055     9.4885     7.9594   126.9913     0.0569     0.0974     2.4860
  161.0000   -37.3345     8.3075     7.1525     9.6841     7.9591   126.6772     0.0599     0.0968     2.4860
  161.5000   -37.3154     8.4210     7.2497     9.8170     7.9743   125.2794     0.0474     0.1042     2.4852
  162.0000   -37.2964     8.5365     7.2467     9.9504     7.9585   124.3460     0.0349     0.1067     2.4666
  162.5000   -37.2774     8.5940     7.2443    10.0864     7.9737   125.5798     0.0364     0.1061     2.4650
  163.0000   -37.2583     8.5918     7.2419    10.0099     7.9733   126.8148     0.0363     0.1058     2.4642
  163.5000   -37.2393     8.5901     7.2898     9.8733     7.9886   126.8091     0.0501     0.1086     2.4657
  164.0000   -37.2203     8.5884     7.2926     9.8026     7.9882   125.5661     0.0361     0.1127     2.4625
  164.5000   -37.2012     8.5867     7.4377     9.8000     7.9879   124.0135     0.0360     0.1161     2.4594
  165.0000   -37.1822     8.6445     7.4868     9.8660     8.0031   124.6281     0.0405     0.1146     2.4679
  165.5000   -37.1632     8.7027     7.5363    10.0694     8.0028   127.8743     0.0435     0.1133     2.4709
  166.0000   -37.1441     8.7612     7.6388    10.3491     8.0179   130.3465     0.0512     0.1124     2.4725
  166.5000   -37.1251     8.8202     7.6887    10.6365     8.0176   130.9613     0.0480     0.1031     2.4716
  167.0000   -37.1241     8.9412     7.6860    10.8565     8.0173   130.9566     0.0402     0.1038     2.4716
  167.5000   -37.1101     9.1262     7.7368    10.9289     8.0170   130.7972     0.0354     0.1041     2.4723
  168.0000   -36.9861     9.2518     7.8414    10.9253     8.0167   129.8452     0.0322     0.1035     2.4793
  168.5000   -36.9934     9.2494     7.9487    10.9224     8.0164   123.5774     0.0399     0.0988     2.4939
  169.0000   -36.9991     9.2548     8.1127    10.9195     8.0161   120.9835     0.0537     0.0906     2.5008
  169.5000   -37.0049     9.5048     8.3369    11.0686     8.0157   120.5610     0.0521     0.0896     2.5009
  170.0000   -37.0107     9.8365     8.5089    11.3027     8.0310   120.0920     0.0412     0.1002     2.4899
  170.5000   -36.8669    10.0410     8.6853    11.6105     8.0306   118.6943     0.0349     0.1011     2.4767
  171.0000   -36.7232    10.0385     8.8637    11.8507     8.0458   113.7361     0.0410     0.1024     2.4775
  171.5000   -36.5795    10.0365     8.9835    11.6848     8.0609   112.4932     0.0425     0.1011     2.4774
  172.0000   -36.2878    10.0345     9.0436    11.7628     8.0606   110.1666     0.0361     0.1021     2.4666
  172.5000   -37.0409    10.0324     9.0515    12.0894     8.0758   109.6976     0.0345     0.1061     2.4721
  173.0000   -37.1962    10.1695     9.1267    12.4251     8.0600   111.7054     0.0437     0.1030     2.4815
  173.5000   -37.0523    10.3804     9.1600    12.0829     8.0597   114.7968     0.0529     0.0984     2.4920
  174.0000   -37.0583    10.3069     9.1562    11.9130     8.0750   115.1030     0.0575     0.0901     2.5097
  174.5000   -36.7665    10.0934     9.1531    11.8278     8.0746   114.9425     0.0589     0.0839     2.5089
  175.0000   -36.6213    10.0219     9.0870    11.8246     8.0743   115.8667     0.0588     0.0882     2.5004
  175.5000   -36.4791    10.0199     9.0213    11.6591     8.0740   116.7909     0.0603     0.0873     2.4980
  176.0000   -36.4848     9.9488     8.9561    11.1823     8.0737   117.8699     0.0648     0.0879     2.4980
  176.5000   -36.3397     9.8780     8.8847    11.1793     8.0734   119.2596     0.0570     0.0942     2.4941
  177.0000   -36.1974     9.8080     8.7655    11.5695     8.0731   122.0495     0.0492     0.1022     2.4786
  177.5000   -36.2033     9.7385     8.5825    11.4859     8.0728   121.8627     0.0460     0.1035     2.4746
  178.0000   -36.3599     9.7366     8.4617    11.1696     8.0724   120.4293     0.0474     0.1035     2.4762
  178.5000   -36.5151     9.7346     8.3427    11.1666     8.0721   120.1690     0.0520     0.1010     2.4823
  179.0000   -36.5209     9.7327     8.3399    11.1637     8.0718   127.1292     0.0565     0.0945     2.4970
  179.5000   -36.6761     9.7306     8.2796    11.0074     8.0560   125.1123     0.0564     0.0939     2.4969
  180.0000   -36.8314     9.7283     8.2121    10.7785     8.0402   122.3213     0.0501     0.0975     2.4814
  180.5000   -36.9866     9.7263     8.0475    11.1547     7.9315   121.6975     0.0392     0.1024     2.4675
  181.0000   -36.9925     9.6574     8.0448    10.7721     7.9467   114.2626     0.0376     0.1017     2.4713
  181.5000   -36.8487     9.5890     8.0421    10.6957     7.9928   111.1620     0.0499     0.0952     2.4906
  182.0000   -36.8559     9.4555     8.0395    11.2224     8.0235   108.5259     0.0606     0.0894     2.4967
  182.5000   -36.7107     9.2597     8.0368    11.0653     8.0542   109.9156     0.0590     0.0947     2.4959
  183.0000   -36.5685     9.1307     8.0341    10.5396     8.0539   122.2950     0.0527     0.0934     2.4913
  183.5000   -36.5742     8.9412     8.0313    10.4642     8.0535   122.7536     0.0510     0.0910     2.4873
