~VERSION INFORMATION
 VERS.                2.0:   CWLS LOG ASCII STANDARD - VERSION 2.0
 WRAP.                 NO:   ONE LINE PER DEPTH STEP
~WELL INFORMATION
#MNEM.UNIT      DATA TYPE    INFORMATION
#----------   ------------   ------------------------------
 STRT.F         1208.5000:   START DEPTH
 STOP.F         3816.0000:   STOP DEPTH
 STEP.F            0.5000:   STEP LENGTH
 NULL.          -999.2500:   NO VALUE
 COMP. BROWN JOHN E&C INC:   COMPANY
 WELL. NPR 3 STX-11 #13-11:   WELL
 FLD .             TEAPOT:   FIELD
 LOC .      S11 T38N R78W:   LOCATION
 CNTY.            NATRONA:   COUNTY
 STAT.            WYOMING:   STATE
 CTRY. UNITED STATES OF AMERICA:   COUNTRY
 SRVC.            Unknown:   SERVICE COMPANY
 DATE.        08-APR-1986:   LOGDATE
 API .       490251105000:   API NUMBER
~CURVE INFORMATION
#MNEM.UNIT       API CODE    CURVE DESCRIPTION
#----------   ------------   ------------------------------
 DEPT.F                  :   
 ROP .MIN/FT 91 810 01 00:   RATE OF DRILLING PENETRATION
 TGAS.UNITS  91 830 01 00:   TOTAL GAS FROM HOTWIRE
 GR  .GAPI   81 310 01 00:   GAMMA RAY
 TT  .US/F   81 520 00 00:   TRANSIT TIME
~PARAMETER INFORMATION
#MNEM.UNIT          VALUE    DESCRIPTION
#----------   ------------   ------------------------------
 PD  .                 GL:   PERMANENT DATUM
 EPD .F              5176:   ELEVATION PERMANENT DATUM
 LMF .                 KB:   LOG MEASURED FROM
 DAPD.F              11.8:   FEET ABOVE PERMANENT DATUM
 DMF .                 KB:   DRILLING MEASURED FROM
 EKB .F            5187.8:   KELLING BUSHING
 EGL .F              5176:   GROUND LEVEL
 DATE.             4-8-86:   RUN DATE
 RUN .                  1:   RUN NUMBER
 DD  .F              4051:   DEPTH DRILLER
 DL  .F              3815:   DEPTH LOGGER
 BLI .F              3815:   BOTTOM LOG INTERVAL
 TLI .F              2200:   TOP LOG INTERVAL
 CS  .IN              5.5:   CASING SIZE
 CBD .F              3861:   CASING BOTTOM DRILLER
 DFT .              WATER:   DRILLING FLUID TYPE
 BHT .F               167:   BOTTOM HOLE TEMPERATURE
 MRT .F               167:   MAXIMUM RECORDED TEMPERATURE
 LUN .            558/374:   LOGGING UNIT NUMBER
 LUL .             CASPER:   LOGGING UNIT LOCATION
 ENGI.             BAILEY:   RECORDING ENGINEER
 WITN.             BARRON:   WITNESSED BY
 CLNT.            A2DTECH:   CLIENT CODE
 ORIG.     2.5", 5" PRINT:   ORIGIN OF DATA
 UWI .       490251105000:   UNIQUE WELL ID
 DICO. A2D Technologies, Inc.:   DIGITIZING COMPANY
~OTHER INFORMATION
~A  DEPT         ROP     TGAS         GR         TT   
# ...
 1865.5000     0.8812    23.2759  -999.2500  -999.2500
 1866.0000     0.8387    23.6897  -999.2500  -999.2500
 1866.5000     0.7962    25.5262  -999.2500  -999.2500
 1867.0000     0.7537    28.0862  -999.2500  -999.2500
 1867.5000     0.7370    29.8707  -999.2500  -999.2500
 1868.0000     0.7072    30.6466  -999.2500  -999.2500
 1868.5000     0.6791    31.4353  -999.2500  -999.2500
 1869.0000     0.6598    31.8621  -999.2500  -999.2500
 1869.5000     0.6597    32.1983  -999.2500  -999.2500
 1870.0000     0.6631    32.3922  -999.2500  -999.2500
 1870.5000     0.6952    32.2888  -999.2500  -999.2500
 1871.0000     0.7513    31.8103  -999.2500  -999.2500
 1871.5000     0.7936    31.4224  -999.2500  -999.2500
 1872.0000     0.8359    31.0345  -999.2500  -999.2500
 1872.5000     0.8514    31.0345  -999.2500  -999.2500
 1873.0000     0.8513    30.9310  -999.2500  -999.2500
 1873.5000     0.8320    30.6466  -999.2500  -999.2500
 1874.0000     0.7740    30.4656  -999.2500  -999.2500
 1874.5000     0.6931    30.2586  -999.2500  -999.2500
 1875.0000     0.6506    30.2586  -999.2500  -999.2500
 1875.5000     0.6081    30.2586  -999.2500  -999.2500
 1876.0000     0.5656    30.2586  -999.2500  -999.2500
 1876.5000     0.5331    30.2586  -999.2500  -999.2500
 1877.0000     0.5118    29.8448  -999.2500  -999.2500
 1877.5000     0.5043    29.4828  -999.2500  -999.2500
 1878.0000     0.5042    29.4828  -999.2500  -999.2500
 1878.5000     0.5426    29.3405  -999.2500  -999.2500
 1879.0000     0.5634    29.0948  -999.2500  -999.2500
 1879.5000     0.6244    28.8750  -999.2500  -999.2500
 1880.0000     0.6936    28.7069  -999.2500  -999.2500
 1880.5000     0.8889    28.7069  -999.2500  -999.2500
 1881.0000     1.0843    28.7069  -999.2500  -999.2500
 1881.5000     1.1486    28.3190  -999.2500  -999.2500
 1882.0000     1.1573    28.2931  -999.2500  -999.2500
 1882.5000     1.1572    27.9310  -999.2500  -999.2500
 1883.0000     1.1571    27.9310  -999.2500  -999.2500
 1883.5000     1.1570    27.7888  -999.2500  -999.2500
 1884.0000     1.1569    27.5431  -999.2500  -999.2500
 1884.5000     1.0679    27.3233  -999.2500  -999.2500
 1885.0000     0.9930    27.1552  -999.2500  -999.2500
 1885.5000     0.9504    26.8577  -999.2500  -999.2500
 1886.0000     0.9079    26.3793  -999.2500  -999.2500
 1886.5000     0.8654    26.3793  -999.2500  -999.2500
 1887.0000     0.8358    25.9654  -999.2500  -999.2500
 1887.5000     0.8145    25.6034  -999.2500  -999.2500
 1888.0000     0.7908    25.6034  -999.2500  -999.2500
 1888.5000     0.7522    25.4612  -999.2500  -999.2500
 1889.0000     0.7299    25.0345  -999.2500  -999.2500
 1889.5000     0.6943    24.6078  -999.2500  -999.2500
 1890.0000     0.6942    24.1810  -999.2500  -999.2500
 1890.5000     0.6867    24.0517  -999.2500  -999.2500
 1891.0000     0.6654    23.2759  -999.2500  -999.2500
 1891.5000     0.6555    23.2759  -999.2500  -999.2500
 1892.0000     0.6554    22.5000  -999.2500  -999.2500
 1892.5000     0.6553    22.4354  -999.2500  -999.2500
 1893.0000     0.6936    22.0086  -999.2500  -999.2500
 1893.5000     0.6936    21.7241  -999.2500  -999.2500
 1894.0000     0.6974    21.5431  -999.2500  -999.2500
 1894.5000     0.7397    21.1164  -999.2500  -999.2500
 1895.0000     0.7761    20.9483  -999.2500  -999.2500
 1895.5000     0.7893    20.6508  -999.2500  -999.2500
 1896.0000     0.7794    20.1724  -999.2500  -999.2500
 1896.5000     0.7699    19.7845  -999.2500  -999.2500
 1897.0000     0.7698    19.3966  -999.2500  -999.2500
 1897.5000     0.7505    19.2672  -999.2500  -999.2500
 1898.0000     0.7696    18.5172  -999.2500  -999.2500
 1898.5000     0.7695    18.0905  -999.2500  -999.2500
 1899.0000     0.7694    17.4827  -999.2500  -999.2500
 1899.5000     0.7693    16.8492  -999.2500  -999.2500
 1900.0000     0.7820    16.4224  -999.2500  -999.2500
 1900.5000     0.8160    15.6983  -999.2500  -999.2500
 1901.0000     0.8474    14.7414  -999.2500  -999.2500
 1901.5000     0.9144    13.9655  -999.2500  -999.2500
 1902.0000     0.9848    13.1380  -999.2500  -999.2500
 1902.5000     1.0764    12.2846  -999.2500  -999.2500
 1903.0000     1.1148    11.4310  -999.2500  -999.2500
 1903.5000     1.1349    10.7199  -999.2500  -999.2500
 1904.0000     1.1531    10.2931  -999.2500  -999.2500
 1904.5000     1.1530    10.0862  -999.2500  -999.2500
 1905.0000     1.1322    10.0862  -999.2500  -999.2500
 1905.5000     1.0508    10.0862  -999.2500  -999.2500
 1906.0000     0.9723    10.0862  -999.2500  -999.2500
 1906.5000     0.8334    10.0862  -999.2500  -999.2500
 1907.0000     0.7589    10.1381  -999.2500  -999.2500
 1907.5000     0.7165    11.1855  -999.2500  -999.2500
 1908.0000     0.6741    13.2155  -999.2500  -999.2500
 1908.5000     0.6317    14.6379  -999.2500  -999.2500
 1909.0000     0.5893    15.6725  -999.2500  -999.2500
 1909.5000     0.5577    16.5129  -999.2500  -999.2500
 1910.0000     0.5577    17.4569  -999.2500  -999.2500
 1910.5000     0.5769    18.1422  -999.2500  -999.2500
 1911.0000     0.6188    19.3966  -999.2500  -999.2500
 1911.5000     0.6612    20.1724  -999.2500  -999.2500
 1912.0000     0.6923    20.5862  -999.2500  -999.2500
 1912.5000     0.6923    20.9483  -999.2500  -999.2500
 1913.0000     0.6923    20.9483  -999.2500  -999.2500
 1913.5000     0.6692    20.9483  -999.2500  -999.2500
 1914.0000     0.6268    20.9483  -999.2500  -999.2500
 1914.5000     0.5577    20.9483  -999.2500  -999.2500
 1915.0000     0.5192    20.9483  -999.2500  -999.2500
 1915.5000     0.5194    20.9483  -999.2500  -999.2500
 1916.0000     0.5428    20.9483  -999.2500  -999.2500
 1916.5000     0.5894    20.9483  -999.2500  -999.2500
 1917.0000     0.6591    20.9483  -999.2500  -999.2500
 1917.5000     0.7196    20.9483  -999.2500  -999.2500
 1918.0000     0.7308    20.9483  -999.2500  -999.2500
 1918.5000     0.7308    20.9483  -999.2500  -999.2500
 1919.0000     0.7308    20.9483  -999.2500  -999.2500
 1919.5000     0.7308    20.9483  -999.2500  -999.2500
 1920.0000     0.7308    20.9483  -999.2500  -999.2500
 1920.5000     0.7287    20.9483  -999.2500  -999.2500
 1921.0000     0.6704    20.9483  -999.2500  -999.2500
 1921.5000     0.6446    20.9483  -999.2500  -999.2500
 1922.0000     0.6022    20.9483  -999.2500  -999.2500
 1922.5000     0.5684    20.9483  -999.2500  -999.2500
 1923.0000     0.5471    20.9483  -999.2500  -999.2500
 1923.5000     0.5134    20.9483  -999.2500  -999.2500
 1924.0000     0.4855    20.9483  -999.2500  -999.2500
 1924.5000     0.4423    20.9483  -999.2500  -999.2500
 1925.0000     0.4231    20.9483  -999.2500  -999.2500
 1925.5000     0.4027    20.9483  -999.2500  -999.2500
 1926.0000     0.3846    20.9483  -999.2500  -999.2500
 1926.5000     0.3897    20.9483  -999.2500  -999.2500
 1927.0000     0.4109    20.9483  -999.2500  -999.2500
 1927.5000     0.4321    20.9483  -999.2500  -999.2500
 1928.0000     0.4644    20.9483  -999.2500  -999.2500
 1928.5000     0.4938    20.9483  -999.2500  -999.2500
 1929.0000     0.5599    20.9483  -999.2500  -999.2500
 1929.5000     0.7115    20.9483  -999.2500  -999.2500
 1930.0000     0.8462    20.9483  -999.2500  -999.2500
 1930.5000     0.9506    20.9483  -999.2500  -999.2500
 1931.0000     1.0493    20.9483  -999.2500  -999.2500
 1931.5000     1.1129    20.9483  -999.2500  -999.2500
 1932.0000     1.1690    20.9483  -999.2500  -999.2500
 1932.5000     1.2209    20.9483  -999.2500  -999.2500
 1933.0000     1.2615    20.9483  -999.2500  -999.2500
 1933.5000     1.2692    20.9483  -999.2500  -999.2500
 1934.0000     1.1923    20.9483  -999.2500  -999.2500
 1934.5000     1.1154    20.9483  -999.2500  -999.2500
 1935.0000     1.0572    20.9483  -999.2500  -999.2500
 1935.5000     0.9872    20.9483  -999.2500  -999.2500
 1936.0000     0.8682    20.9483  -999.2500  -999.2500
 1936.5000     0.7834    20.9483  -999.2500  -999.2500
 1937.0000     0.7147    21.1416  -999.2500  -999.2500
 1937.5000     0.6623    21.3362  -999.2500  -999.2500
 1938.0000     0.6106    21.3362  -999.2500  -999.2500
