~VERSION INFORMATION
 VERS.                2.0:   CWLS LOG ASCII STANDARD - VERSION 2.0
 WRAP.                 NO:   ONE LINE PER DEPTH STEP
~WELL INFORMATION
#MNEM.UNIT      DATA TYPE    INFORMATION
#----------   ------------   ------------------------------
 STRT.F           38.0000:   START DEPTH
 STOP.F          517.0000:   STOP DEPTH
 STEP.F            0.5000:   STEP LENGTH
 NULL.          -999.2500:   NO VALUE
 COMP. FENIX & SCISSON U.S. NAVY:   COMPANY
 WELL.     NPR 3 #88 S -3:   WELL
 FLD .             TEAPOT:   FIELD
 LOC .       S3 T38N R78W:   LOCATION
 CNTY.            NATRONA:   COUNTY
 STAT.            WYOMING:   STATE
 CTRY. UNITED STATES OF AMERICA:   COUNTRY
 SRVC.              Welex:   SERVICE COMPANY
 DATE.        10-APR-1977:   LOGDATE
 API .       490251033000:   API NUMBER
~CURVE INFORMATION
#MNEM.UNIT       API CODE    CURVE DESCRIPTION
#----------   ------------   ------------------------------
 DEPT.F                  :   
 GRD .GAPI   45 310 01 00:   GAMMA RAY FROM DENSITY LOG
 CALD.IN     45 280 60 00:   CALIPER FROM DENSITY LOG
 CORR.G/C3   45 356 01 00:   DENSITY CORRECTION
 RHOB.G/C3   45 350 01 00:   BULK DENSITY
 DPHI.DEC    45 890 12 00:   DENSITY POROSITY SANDSTONE
 SPR .MV     07 010 01 00:   SPONTANEOUS POTENTIAL
 ILD .OHMM   07 120 46 00:   INDUCTION LOG DEEP
 ILM .OHMM   07 120 44 00:   INDUCTION LOG MEDIUM
 SGRD.OHMM   07 221 05 00:   SHALLOW SHORT GUARD RESISTIVITY
~PARAMETER INFORMATION
#MNEM.UNIT          VALUE    DESCRIPTION
#----------   ------------   ------------------------------
 PD  .                 GL:   PERMANENT DATUM
 EPD .F              5120:   ELEVATION PERMANENT DATUM
 LMF .                 GL:   LOG MEASURED FROM
 DMF .                 GL:   DRILLING MEASURED FROM
 EGL .F              5120:   GROUND LEVEL
 DATE.        10-APR-1977:   RUN DATE
 RUN .                  1:   RUN NUMBER
 DD  .F               520:   DEPTH DRILLER
 DL  .F               519:   DEPTH LOGGER
 BLI .F               517:   BOTTOM LOG INTERVAL
 TLI .F                40:   TOP LOG INTERVAL
 CS  .IN            8.625:   CASING SIZE
 CBD .F                40:   CASING BOTTOM DRILLER
 CBL .F                42:   CASING BOTTOM LOGGER
 BS  .IN            7.875:   BIT SIZE
 BSD .F               520:   BIT SIZE AT DEPTH
 DFT .           KCL- GEL:   DRILLING FLUID TYPE
 DFD .                8.8:   DRILLING FLUID DENSITY
 DFV .                 38:   DRILLING FLUID VISCOSITY
 DFPH.                8.0:   DRILLING FLUID PH
 DFL .                6.4:   DRILLING FLUID LOSS
 MSS .            MUD PIT:   MUD SAMPLE SOURCE
 RMS .OHMM            .28:   RESISTIVITY MUD SAMPLE
 MST .F                55:   MUD SAMPLE TEMPERATURE
 RMF .OHMM            .23:   RESISTIVITY MUD FILTRATE SAMPLE
 MFST.F                55:   MUD FILTRATE SAMPLE TEMPERATURE
 RMC .OHMM            .32:   RESISTIVITY MUD CAKE
 MCST.F                55:   MUD CAKE SAMPLE TEMPERATURE
 MFSS.               MEAS:   MUD FILTRATE SAMPLE SOURCE
 MCSS.               MEAS:   MUD CAKE SAMPLE SOURCE
 RMB .OHMM            .24:   RESISTIVITY MUD AT BHT
 BHT .F                65:   BOTTOM HOLE TEMPERATURE
 TCS .HRS            0300:   TIME CURCULATED STOPPED
 MRT .F                65:   MAXIMUM RECORDED TEMPERATURE
 LUN .               0716:   LOGGING UNIT NUMBER
 LUL .             VERNAL:   LOGGING UNIT LOCATION
 ENGI.        E. CALLAHAN:   RECORDING ENGINEER
 WITN.            R. LYON:   WITNESSED BY
 CLNT.            A2DTECH:   CLIENT CODE
 ORIG.           5" PRINT:   ORIGIN OF DATA
 UWI .       490251033000:   UNIQUE WELL ID
 DICO. A2D Technologies, Inc.:   DIGITIZING COMPANY
~OTHER INFORMATION
~A   DEPT       GRD        CALD     CORR         RHOB     DPHI        SPR        ILD        ILM       SGRD   
# ...
  366.5000    88.9935     7.8703     0.0182     2.3805     0.1618   -29.2144    14.7029    17.5026    24.6280
  367.0000    89.6016     7.8564     0.0123     2.3738     0.1626   -29.2322    14.4882    19.5534    25.4825
  367.5000    89.9116     7.8426     0.0080     2.3686     0.1629   -29.0949    14.3765    18.5775    25.8257
  368.0000    90.0725     7.8286     0.0036     2.3642     0.1702   -29.1171    14.2635    19.9329    25.2672
  368.5000    89.7864     7.8147    -0.0008     2.3673     0.1684   -28.9799    14.1537    18.9691    24.5537
  369.0000    88.4570     7.8083    -0.0037     2.3726     0.1652   -28.8470    14.0448    17.1920    23.6946
  369.5000    87.2767     7.8168    -0.0051     2.3704     0.1661   -28.7142    14.0342    17.7885    23.3489
  370.0000    86.5435     7.8328    -0.0049     2.3644     0.1712   -28.5814    13.9262    18.2813    23.1691
  370.5000    86.1083     7.8563    -0.0018     2.3600     0.1709   -28.3024    13.8190    17.6383    22.8311
  371.0000    85.5241     7.8722     0.0028     2.3705     0.1661   -28.0145    13.7127    18.2503    22.8138
  371.5000    85.3870     7.8658     0.0059     2.3758     0.1634   -27.7349    13.7023    17.3679    22.7964
  372.0000    85.5479     7.8668     0.0090     2.3774     0.1615   -27.4518    13.6920    15.6315    22.9388
  372.5000    85.8579     7.8679     0.0121     2.3812     0.1603   -27.1687    13.6817    16.5157    23.0819
  373.0000    86.1679     7.8689     0.0123     2.3876     0.1564   -26.8852    13.5764    16.0493    23.2214
  373.5000    86.4779     7.8625     0.0124     2.3948     0.1519   -26.6018    13.4719    16.4908    23.3662
  374.0000    86.7879     7.8561     0.0065     2.3990     0.1515   -26.4690    13.4617    18.9441    23.3486
  374.5000    87.2469     7.8572     0.0021     2.3829     0.1560   -26.3362    13.4514    17.8667    23.3310
  375.0000    88.0040     7.8507    -0.0022     2.3770     0.1596   -26.2033    13.4411    16.3963    23.6452
  375.5000    88.7611     7.8443    -0.0036     2.3797     0.1617   -25.9244    13.2429    14.8057    23.6229
  376.0000    89.0710     7.8454    -0.0035     2.3853     0.1575   -25.6409    13.1409    14.3904    23.1165
  376.5000    88.6359     7.8464    -0.0019     2.3891     0.1547   -25.3575    13.1310    15.4150    22.3076
  377.0000    87.7536     7.8475    -0.0018     2.3892     0.1553   -25.3753    12.9395    14.7723    21.2290
  377.5000    87.1694     7.8485    -0.0001     2.3877     0.1574   -25.2424    12.7507    14.4583    20.6295
  378.0000    87.4794     7.8496     0.0000     2.3874     0.1538   -25.2602    12.6525    15.2762    20.4707
  378.5000    89.4287     7.8506     0.0031     2.3957     0.1499   -25.2780    12.6430    13.8425    20.4553
  379.0000    90.6329     7.8517     0.0107     2.4022     0.1462   -25.1446    12.5457    13.8320    21.1660
  379.5000    90.4958     7.8676     0.0093     2.4056     0.1453   -25.3136    12.4491    13.9210    22.0525
  380.0000    90.6567     7.8687     0.0050     2.4045     0.1468   -25.1807    12.3533    13.6200    21.5393
  380.5000    92.7551     7.8847     0.0096     2.4102     0.1447   -25.3494    12.1731    13.1434    20.3898
  381.0000    93.8102     7.8857     0.0157     2.4196     0.1380   -25.3669    12.0794    13.6001    20.0922
  381.5000    94.5673     7.9017     0.0218     2.4279     0.1296   -25.2341    12.0701    13.8764    19.9376
  382.0000    94.8773     7.9027     0.0264     2.4302     0.1293   -25.2563    12.0609    12.9186    19.9225
  382.5000    94.7402     7.9038     0.0160     2.4183     0.1353   -25.1190    12.2190    13.3783    20.0506
  383.0000    92.5166     7.8898     0.0072     2.4048     0.1452   -25.1412    12.2953    13.8451    20.3129
  383.5000    90.7402     7.8760     0.0058     2.3989     0.1487   -25.1590    12.3720    12.5457    20.4396
  384.0000    89.2618     7.8621     0.0059     2.3974     0.1520   -25.1768    12.4515    13.6302    20.5710
  384.5000    88.5286     7.8631     0.0060     2.3938     0.1541   -25.1945    12.6144    13.9105    20.8441
  385.0000    87.7953     7.8642     0.0061     2.3953     0.1520   -25.3629    12.6955    13.4238    20.9741
  385.5000    87.0621     7.8652     0.0063     2.3991     0.1502   -25.5313    12.7747    14.6835    21.2492
  386.0000    86.1798     7.8664     0.0064     2.3977     0.1510   -25.5491    12.8544    14.2689    21.0850
  386.5000    86.0427     7.8673     0.0065     2.3947     0.1534   -25.5669    12.8423    13.0226    20.7773
  387.0000    85.7566     7.8684     0.0066     2.3918     0.1546   -25.5846    12.8326    13.0128    20.4741
  387.5000    85.1724     7.8694     0.0067     2.3904     0.1543   -25.6024    12.8229    13.0030    20.6135
  388.0000    84.7372     7.8704     0.0084     2.3979     0.1510   -25.4696    12.6358    13.4542    20.7303
  388.5000    84.6001     7.8715     0.0085     2.4054     0.1473   -25.6386    12.5385    13.2525    20.7108
  389.0000    84.7610     7.8726     0.0086     2.4167     0.1410   -25.6602    12.3445    12.3554    20.5513
  389.5000    85.3691     7.8736     0.0162     2.4310     0.1296   -25.6780    12.0885    12.4304    20.1108
  390.0000    86.5733     7.8747     0.0313     2.4509     0.1214   -25.5407    11.8294    12.3347    19.4071
  390.5000    87.3304     7.8756     0.0270     2.4450     0.1223   -25.5629    11.4953    11.9864    18.9910
  391.0000    86.5971     7.8766     0.0196     2.4195     0.1361   -25.5807    11.3276    11.4867    18.8448
  391.5000    85.7149     7.8777     0.0152     2.4083     0.1433   -25.5985    11.2404    11.3191    18.6998
  392.0000    86.0248     7.8787     0.0153     2.4151     0.1409   -25.6162    11.1539    11.7937    18.6857
  392.5000    87.3780     7.8798     0.0274     2.4182     0.1388   -25.4790    11.0681    12.1204    18.6716
  393.0000    88.5822     7.8808     0.0336     2.4175     0.1405   -25.3461    11.0597    11.2935    18.7916
  393.5000    88.5941     7.8818     0.0382     2.4108     0.1441   -25.2133    11.2066    11.4435    18.7738
  394.0000    87.7119     7.8829     0.0398     2.4004     0.1477   -24.9343    11.4348    11.5954    19.0231
  394.5000    87.5748     7.8839     0.0444     2.3907     0.1531   -24.8012    11.5867    12.1662    19.2757
  395.0000    88.1828     7.8850     0.0505     2.3832     0.1579   -24.6687    11.9054    13.8790    19.4003
  395.5000    89.2380     7.8860     0.0536     2.3735     0.1645   -24.6868    12.3247    13.0965    19.8174
  396.0000    89.8460     7.8721     0.0538     2.3556     0.1755   -24.5536    13.0345    12.3092    20.4998
  396.5000    90.4540     7.8732     0.0449     2.3369     0.1878   -24.5758    13.8989    14.2393    21.6318
  397.0000    89.8699     7.8742     0.0330     2.3046     0.1995   -24.5936    15.3599    15.1472    25.0237
  397.5000    88.6895     7.8753     0.0181     2.2897     0.2151   -24.4608    17.2797    20.8590    33.0480
  398.0000    87.3602     7.8763     0.0093     2.2867     0.2166   -24.6292    19.1704    23.6348    43.9506
  398.5000    86.4779     7.8624     0.0169     2.3116     0.2109   -24.6469    21.1200    23.2680    51.9170
  399.0000    86.1917     7.8486     0.0230     2.3297     0.1937   -24.6647    23.2680    25.4740    50.4510
  399.5000    86.5017     7.8347     0.0276     2.3440     0.1844   -24.5275    24.9294    27.2980    49.0264
  400.0000    87.2835     7.8357     0.0217     2.3426     0.1853   -24.5793    26.3737    26.2993    45.7955
  400.5000    87.4219     7.8376     0.0174     2.3374     0.1865   -24.7873    28.0157    25.7710    44.7130
  401.0000    88.4815     7.8392     0.0220     2.3480     0.1837   -24.8851    29.3865    27.1104    47.5593
  401.5000    88.9449     7.8409     0.0236     2.3623     0.1750   -25.0522    29.7760    31.4217    53.1279
  402.0000    88.9613     7.8425     0.0357     2.3752     0.1663   -25.2193    28.7187    37.6559    58.1200
  402.5000    88.5306     7.8442     0.0343     2.3783     0.1650   -25.2358    27.7060    39.0059    61.4029
