~VERSION INFORMATION
 VERS.                2.0:   CWLS LOG ASCII STANDARD - VERSION 2.0
 WRAP.                 NO:   ONE LINE PER DEPTH STEP
~WELL INFORMATION
#MNEM.UNIT      DATA TYPE    INFORMATION
#----------   ------------   ------------------------------
 STRT.F           32.5000:   START DEPTH
 STOP.F          654.0000:   STOP DEPTH
 STEP.F            0.5000:   STEP LENGTH
 NULL.          -999.2500:   NO VALUE
 COMP. FENIX & SCISSON INC:   COMPANY
 WELL.          NPR #13-2:   WELL
 FLD .             TEAPOT:   FIELD
 LOC .       S2 T38N R78W:   LOCATION
 CNTY.            NATRONA:   COUNTY
 STAT.            WYOMING:   STATE
 CTRY. UNITED STATES OF AMERICA:   COUNTRY
 SRVC.           BIRDWELL:   SERVICE COMPANY
 DATE.        16-JAN-1978:   LOGDATE
 API .       490251055100:   API NUMBER
~CURVE INFORMATION
#MNEM.UNIT       API CODE    CURVE DESCRIPTION
#----------   ------------   ------------------------------
 DEPT.F                  :   
 ILD .OHMM   05 120 46 00:   INDUCTION LOG DEEP
 SN  .OHMM   05 040 16 00:   SHORT NORMAL 16"
 SPR .MV     05 010 01 00:   SPONTANEOUS POTENTIAL FROM RES.
 CALD.IN     45 280 60 00:   CALIPER FROM DENSITY LOG
 CORR.G/C3   45 356 01 00:   DENSITY CORRECTION
 DPHI.DEC    45 890 12 00:   DENSITY POROSITY SANDSTONE
 GRD .GAPI   45 310 01 00:   GAMMA RAY FROM DENSITY LOG
 RHOB.G/C3   45 350 01 00:   BULK DENSITY
~PARAMETER INFORMATION
#MNEM.UNIT          VALUE    DESCRIPTION
#----------   ------------   ------------------------------
 PD  .                 GL:   PERMANENT DATUM
 EPD .F              5091:   ELEVATION PERMANENT DATUM
 LMF .                 KB:   LOG MEASURED FROM
 DAPD.F                 4:   FEET ABOVE PERMANENT DATUM
 DMF .                 KB:   DRILLING MEASURED FROM
 EKB .F              5095:   KELLING BUSHING
 EGL .F              5091:   GROUND LEVEL
 DATE.        16-JAN-1978:   RUN DATE
 RUN .                  1:   RUN NUMBER
 DD  .F               652:   DEPTH DRILLER
 DL  .F               654:   DEPTH LOGGER
 BLI .F               649:   BOTTOM LOG INTERVAL
 TLI .F                30:   TOP LOG INTERVAL
 CS  .IN            8.625:   CASING SIZE
 CBD .F                20:   CASING BOTTOM DRILLER
 CBL .F                34:   CASING BOTTOM LOGGER
 BS  .IN            7.875:   BIT SIZE
 BSD .F               652:   BIT SIZE AT DEPTH
 DFT .                KCL:   DRILLING FLUID TYPE
 DFD .                8.7:   DRILLING FLUID DENSITY
 DFV .                 34:   DRILLING FLUID VISCOSITY
 DFPH.                 10:   DRILLING FLUID PH
 MSS .           FLOWLINE:   MUD SAMPLE SOURCE
 RMS .OHMM            0.3:   RESISTIVITY MUD SAMPLE
 MST .F                62:   MUD SAMPLE TEMPERATURE
 RMF .OHMM           0.26:   RESISTIVITY MUD FILTRATE SAMPLE
 MFST.F                66:   MUD FILTRATE SAMPLE TEMPERATURE
 RMC .OHMM           0.48:   RESISTIVITY MUD CAKE
 MCST.F                66:   MUD CAKE SAMPLE TEMPERATURE
 MFSS.               MEAS:   MUD FILTRATE SAMPLE SOURCE
 MCSS.               MEAS:   MUD CAKE SAMPLE SOURCE
 RMB .OHMM           0.26:   RESISTIVITY MUD AT BHT
 BHT .F                72:   BOTTOM HOLE TEMPERATURE
 TCS .HRS               3:   TIME CURCULATED STOPPED
 MRT .F                72:   MAXIMUM RECORDED TEMPERATURE
 LUN .               3027:   LOGGING UNIT NUMBER
 LUL .                GJT:   LOGGING UNIT LOCATION
 ENGI.           MARTINEZ:   RECORDING ENGINEER
 WITN.         HARRINGTON:   WITNESSED BY
 CLNT.            A2DTECH:   CLIENT CODE
 ORIG.           5" PRINT:   ORIGIN OF DATA
 UWI .       490251055100:   UNIQUE WELL ID
 DICO. A2D Technologies, Inc.:   DIGITIZING COMPANY
~OTHER INFORMATION
~A   DEPT      ILD         SN        SPR       CALD       CORR       DPHI         GRD      RHOB   
# ...
  154.0000    12.7666    13.6374   -25.6155     8.6575     0.0330     0.1057    83.7472     2.4849
  154.5000    12.9453    13.7329   -25.6081     8.6581     0.0405     0.1045    89.0198     2.4894
  155.0000    13.1266    13.7338   -25.7511     8.6587     0.0450     0.1015    89.7743     2.4947
  155.5000    13.3103    13.7347   -25.7419     8.6443     0.0465     0.1028    91.4324     2.4992
  156.0000    13.4035    13.7356   -25.7346     8.6299     0.0450     0.1045    92.6387     2.5037
  156.5000    13.4975    13.7368   -26.1778     8.6456     0.0435     0.1039    92.3389     2.5044
  157.0000    13.5920    13.7377   -26.3225     8.6462     0.0465     0.1030    91.1356     2.5006
  157.5000    13.5929    13.8339   -26.3134     8.6618     0.0480     0.1024    87.3720     2.4944
  158.0000    13.6882    13.9307   -26.1559     8.6623     0.0465     0.1045    84.8132     2.4869
  158.5000    13.7037    14.0283   -26.1486     8.6629     0.0419     0.1072    86.6722     2.4826
  159.0000    13.7852    14.0292   -25.9910     8.6635     0.0388     0.1066    88.4809     2.4826
  159.5000    13.8818    14.0301   -25.8319     8.6641     0.0375     0.1057    89.3361     2.4826
  160.0000    13.8827    14.0311   -25.8246     8.6647     0.0405     0.1060    90.2412     2.4811
  160.5000    13.8837    14.0323   -25.8173     8.6653     0.0405     0.1087    92.3511     2.4773
  161.0000    13.7887    13.9363   -25.8100     8.6659     0.0390     0.1138    93.2562     2.4728
  161.5000    13.7898    13.9375   -25.8027     8.6665     0.0390     0.1147    94.0107     2.4683
  162.0000    13.6957    13.9384   -25.7954     8.6671     0.0405     0.1157    93.7110     2.4645
  162.5000    13.5085    14.0360   -25.9384     8.6827     0.0405     0.1189    89.6462     2.4645
  163.0000    13.3241    14.0370   -25.9309     8.6682     0.0402     0.1183    84.9790     2.4645
  163.5000    13.3250    14.0379   -26.0738     8.6839     0.0369     0.1165    83.9262     2.4623
  164.0000    13.3259    14.0389   -26.3650     8.6845     0.0294     0.1243    82.4217     2.4584
  164.5000    13.3268    14.0398   -26.5097     8.6928     0.0221     0.1267    84.4688     2.4531
  165.0000    13.3277    14.0410   -26.5006     8.7006     0.0161     0.1171    87.5703     2.4525
  165.5000    13.3286    14.0419   -26.3431     8.7012     0.0191     0.1147    84.9867     2.4592
  166.0000    13.4220    14.0428   -26.4878     8.7168     0.0235     0.1117    83.6324     2.4682
  166.5000    13.5162    14.0438   -26.4787     8.7174     0.0280     0.1093    83.9355     2.4735
  167.0000    13.6107    14.0447   -26.4714     8.7180     0.0250     0.1087    84.3887     2.4750
  167.5000    13.5178    14.0457   -26.7644     8.7188     0.0205     0.1096    88.1553     2.4735
  168.0000    13.4258    14.1440   -26.9073     8.7192     0.0175     0.1068    91.6206     2.4765
  168.5000    13.4267    14.1450   -27.0501     8.7198     0.0205     0.1063    91.7723     2.4802
  169.0000    13.4276    14.0485   -27.0410     8.7354     0.0220     0.1057    91.7490     2.4809
  169.5000    13.3360    14.0497   -27.0337     8.7209     0.0219     0.1042    92.3780     2.4809
  170.0000    13.3308    14.0506   -27.0264     8.7216     0.0189     0.0940    92.9819     2.4839
  170.5000    13.3380    14.0516   -27.0191     8.7222     0.0193     0.0871    91.4272     2.4930
  171.0000    13.3389    13.9555   -27.1622     8.7228     0.0264     0.0817    89.1446     2.5097
  171.5000    13.3398    13.8605   -27.3048     8.7234     0.0354     0.0868    85.7578     2.5192
  172.0000    13.2485    13.6713   -27.4477     8.7240     0.0369     0.1012    83.1990     2.5019
  172.5000    13.0676    13.6722   -27.2884     8.7396     0.0188     0.1156    81.0921     2.4719
  173.0000    12.8890    13.5790   -27.4313     8.7401     0.0053     0.1105    78.8345     2.4704
  173.5000    12.6253    13.3937   -27.4240     8.7407     0.0008     0.1051    80.3420     2.4929
  174.0000    12.4527    13.3024   -27.2665     8.7413     0.0308     0.1012    85.6146     2.4989
  174.5000    12.3677    13.3033   -27.4094     8.7419     0.0458     0.1022    88.0257     2.4929
  175.0000    12.3688    13.2124   -27.4021     8.7275     0.0458     0.1046    87.4248     2.4869
  175.5000    12.2844    13.1223   -27.5450     8.7131     0.0458     0.1072    85.4684     2.4808
  176.0000    12.2852    13.0330   -27.5375     8.7139     0.0443     0.1096    84.2651     2.4741
  176.5000    12.1173    13.0339   -27.6805     8.7145     0.0442     0.1120    84.4674     2.4703
  177.0000    11.9516    13.0216   -27.8234     8.7150     0.0459     0.1117    89.2380     2.4733
  177.5000    11.8701    12.9459   -27.8143     8.7156     0.0517     0.1108    92.7036     2.4748
  178.0000    11.7003    12.7693   -27.8070     8.7162     0.0577     0.1117    97.2231     2.4731
  178.5000    11.5478    12.5946   -27.7997     8.7168     0.0652     0.1135   100.8391     2.4688
  179.0000    11.3117    12.3373   -27.7924     8.7174     0.0697     0.1147   102.0450     2.4650
  179.5000    11.1571    12.1688   -28.3857     8.7180     0.0727     0.1159    94.5167     2.4628
  180.0000    11.0044    11.9199   -29.2793     8.7186     0.0727     0.1159    90.7531     2.4628
  180.5000    10.8540    11.7572   -29.4221     8.7192     0.0757     0.1144    90.0012     2.4650
  181.0000    10.7801    11.6770   -29.1127     8.7347     0.0817     0.1126    93.0151     2.4688
  181.5000    10.7065    11.6780   -28.6550     8.7353     0.0861     0.1104    94.9744     2.4755
  182.0000    10.7152    11.7597   -28.3474     8.7360     0.0906     0.1069    95.9548     2.4823
  182.5000    10.7824    11.7605   -27.8896     8.7366     0.0981     0.1039    93.9232     2.4883
  183.0000    10.9333    11.9250   -27.7322     8.7372     0.1028     0.1009    94.4267     2.4927
  183.5000    11.0099    12.0084   -27.8769     8.7378     0.1088     0.0982    95.8843     2.4965
  184.0000    11.3195    12.1764   -27.7176     8.7534     0.1146     0.0964    94.0786     2.4987
  184.5000    11.4779    12.3466   -27.7102     8.7539     0.1176     0.0961    94.5318     2.4987
  185.0000    11.4786    12.5193   -27.7027     8.7545     0.1206     0.0970    95.8887     2.4979
  185.5000    11.4794    12.6071   -27.5437     8.7551     0.1221     0.0979    97.0950     2.4957
  186.0000    11.4802    12.6080   -27.5364     8.7557     0.1205     0.0985    94.5363     2.4942
  186.5000    11.4811    12.6088   -27.5291     8.7563     0.1190     0.0976    93.9350     2.4942
  187.0000    11.4819    12.6097   -27.5219     8.7569     0.1205     0.0964    93.6356     2.4957
  187.5000    11.4827    12.6105   -27.5146     8.7575     0.1220     0.0964    91.0768     2.4987
  188.0000    11.4834    12.6113   -27.5073     8.7581     0.1235     0.0942    87.6145     2.5009
  188.5000    11.4842    12.6122   -27.5000     8.7588     0.1236     0.0922    89.1471     2.5032
  189.0000    11.4850    12.6130   -27.6428     8.7594     0.1205     0.0940    90.1777     2.5039
  189.5000    11.4066    12.6139   -27.4836     8.7600     0.1114     0.0964    87.3180     2.5039
  190.0000    11.4074    12.6149   -27.4763     8.7305     0.1069     0.0973    84.9099     2.5032
  190.5000    11.4083    12.6158   -27.6191     8.7312     0.1054     0.0973    83.4053     2.5016
  191.0000    11.4882    12.6166   -27.6118     8.7318     0.1039     0.0961    85.0634     2.5001
  191.5000    11.4890    12.6175   -27.6045     8.7324     0.1039     0.0916    90.3360     2.4971
  192.0000    11.5695    12.7058   -27.7492     8.7330     0.1053     0.0961    93.9519     2.4956
  192.5000    11.6506    12.7067   -27.5899     8.7336     0.1053     0.0997    95.0076     2.4949
  193.0000    11.6513    12.7956   -27.7328     8.7341     0.1068     0.1018    93.6537     2.4956
  193.5000    11.7330    12.8852   -27.7252     8.7347     0.1083     0.0985    92.7515     2.4986
  194.0000    11.7338    12.8863   -27.7164     8.7203     0.1083     0.0907    94.2590     2.5046
