~VERSION INFORMATION
 VERS.                2.0:   CWLS LOG ASCII STANDARD - VERSION 2.0
 WRAP.                 NO:   ONE LINE PER DEPTH STEP
~WELL INFORMATION
#MNEM.UNIT      DATA TYPE    INFORMATION
#----------   ------------   ------------------------------
 STRT.F           26.0000:   START DEPTH
 STOP.F          484.0000:   STOP DEPTH
 STEP.F            0.5000:   STEP LENGTH
 NULL.          -999.2500:   NO VALUE
 COMP.    FENIX & SCISSON:   COMPANY
 WELL.        NPR #44-S-3:   WELL
 FLD .              NPR-3:   FIELD
 LOC .       S3 T38N R78W:   LOCATION
 CNTY.            NATRONA:   COUNTY
 STAT.            WYOMING:   STATE
 CTRY. UNITED STATES OF AMERICA:   COUNTRY
 SRVC.              Welex:   SERVICE COMPANY
 DATE.        22-APR-1977:   LOGDATE
 API .       490251034000:   API NUMBER
~CURVE INFORMATION
#MNEM.UNIT       API CODE    CURVE DESCRIPTION
#----------   ------------   ------------------------------
 DEPT.F                  :   
 SPR .MV     07 010 01 00:   SPONTANEOUS POTENTIAL
 ILD .OHMM   07 120 46 00:   INDUCTION LOG DEEP
 ILM .OHMM   07 120 44 00:   INDUCTION LOG MEDIUM
 SGRD.OHMM   07 221 05 00:   SHALLOW SHORT GUARD RESISTIVITY
 GRD .GAPI   45 310 01 00:   GAMMA RAY FROM DENSITY LOG
 CALD.IN     45 280 60 00:   CALIPER FROM DENSITY LOG
 CORR.G/C3   45 356 01 00:   DENSITY CORRECTION
 RHOB.G/C3   45 350 01 00:   BULK DENSITY
 DPHI.DEC    45 890 12 00:   DENSITY POROSITY SANDSTONE
~PARAMETER INFORMATION
#MNEM.UNIT          VALUE    DESCRIPTION
#----------   ------------   ------------------------------
 PD  .                 GL:   PERMANENT DATUM
 EPD .F              5160:   ELEVATION PERMANENT DATUM
 LMF .                 GL:   LOG MEASURED FROM
 DMF .                 GL:   DRILLING MEASURED FROM
 EGL .F              5160:   GROUND LEVEL
 DATE.        22-APR-1977:   RUN DATE
 RUN .                  1:   RUN NUMBER
 DD  .F               490:   DEPTH DRILLER
 DL  .F               486:   DEPTH LOGGER
 BLI .F               484:   BOTTOM LOG INTERVAL
 TLI .F                30:   TOP LOG INTERVAL
 CS  .IN            8.625:   CASING SIZE
 CBD .F                40:   CASING BOTTOM DRILLER
 CBL .F                38:   CASING BOTTOM LOGGER
 BS  .IN            7.875:   BIT SIZE
 BSD .F               490:   BIT SIZE AT DEPTH
 DFT .            KCL GEL:   DRILLING FLUID TYPE
 DFD .                8.8:   DRILLING FLUID DENSITY
 DFV .                 36:   DRILLING FLUID VISCOSITY
 DFPH.                8.0:   DRILLING FLUID PH
 DFL .                6.4:   DRILLING FLUID LOSS
 MSS .            MUD PIT:   MUD SAMPLE SOURCE
 RMS .OHMM            .36:   RESISTIVITY MUD SAMPLE
 MST .F                60:   MUD SAMPLE TEMPERATURE
 RMF .OHMM            .30:   RESISTIVITY MUD FILTRATE SAMPLE
 MFST.F                60:   MUD FILTRATE SAMPLE TEMPERATURE
 RMC .OHMM            .42:   RESISTIVITY MUD CAKE
 MCST.F                60:   MUD CAKE SAMPLE TEMPERATURE
 MFSS.               MEAS:   MUD FILTRATE SAMPLE SOURCE
 MCSS.               MEAS:   MUD CAKE SAMPLE SOURCE
 RMB .OHMM            .30:   RESISTIVITY MUD AT BHT
 BHT .F                70:   BOTTOM HOLE TEMPERATURE
 TCS .HRS            0200:   TIME CURCULATED STOPPED
 MRT .F                70:   MAXIMUM RECORDED TEMPERATURE
 LUN .               8611:   LOGGING UNIT NUMBER
 LUL .             CASPER:   LOGGING UNIT LOCATION
 ENGI.          T. JOYNER:   RECORDING ENGINEER
 WITN.           ROB LYON:   WITNESSED BY
 CLNT.            A2DTECH:   CLIENT CODE
 ORIG.           5" PRINT:   ORIGIN OF DATA
 UWI .       490251034000:   UNIQUE WELL ID
 DICO. A2D Technologies, Inc.:   DIGITIZING COMPANY
~OTHER INFORMATION
~A   DEPT      SPR        ILD        ILM       SGRD        GRD       CALD       CORR       RHOB       DPHI   
# ...
   62.5000   -44.4711     7.5180     7.9050    11.5124   117.6998     7.7363     0.0015     2.4834     0.0969
   63.0000   -44.6093     7.7944     7.9660    11.5188   120.2980     7.7529     0.0016     2.4856     0.0951
   63.5000   -44.7443     8.2407     8.0831    11.6050   120.8572     7.7550     0.0017     2.4863     0.0951
   64.0000   -44.7275     8.6534     8.0893    11.6115   117.0171     7.7711     0.0019     2.4862     0.0983
   64.5000   -44.8657     9.0863     8.0955    11.5364   116.7338     7.7876     0.0020     2.4847     0.0980
   65.0000   -44.8813     9.0926     8.1017    11.5444   120.0259     7.7894     0.0021     2.4832     0.0965
   65.5000   -44.9872     8.9121     8.0520    11.3924   121.8275     7.7911     0.0022     2.4802     0.0962
   66.0000   -45.1222     8.4970     8.0011    11.2424   123.3319     7.7928     0.0024     2.4756     0.0997
   66.5000   -45.1083     8.0453     7.9521    11.1713   125.2821     7.7945     0.0010     2.4711     0.1021
   67.0000   -45.2436     7.7773     7.9597    11.0242   126.6379     7.7962     0.0011     2.4696     0.1033
   67.5000   -45.2300     7.6758     7.9658    10.8791   125.0219     7.7983     0.0012     2.4688     0.1056
   68.0000   -45.2166     7.7345     7.9155    10.6620   122.2173     7.8000    -0.0002     2.4702     0.1059
   68.5000   -45.3517     7.7936     7.9230    10.6679   121.6368     7.8017     0.0000     2.4710     0.1029
   69.0000   -45.3382     7.7439     7.9291    10.7478   124.9289     7.7737    -0.0015     2.4717     0.1035
   69.5000   -45.4733     7.4356     7.9352    10.8282   121.6785     7.7602    -0.0013     2.4716     0.1043
   70.0000   -45.6083     7.0892     7.9413    10.9093   119.0178     7.7623    -0.0012     2.4708     0.1034
   70.5000   -45.7433     6.9473     8.0025    10.8388   122.3099     7.7640    -0.0011     2.4708     0.1022
   71.0000   -45.8783     7.0016     8.0086    10.7702   125.7459     7.7657    -0.0009     2.4693     0.1033
   71.5000   -46.1617     7.2030     8.0135    10.8523   130.6679     7.7674    -0.0008     2.4663     0.1063
   72.0000   -46.2962     7.1583     7.9556    10.8584   126.2287     7.7691    -0.0022     2.4632     0.1096
   72.5000   -46.2827     7.0637     7.8066    10.9397   125.3511     7.7708    -0.0021     2.4617     0.1113
   73.0000   -46.4176     7.0199     7.7587    10.9458   125.5228     7.7726    -0.0035     2.4602     0.1095
   73.5000   -46.4042     7.2230     7.7648    11.0277   127.3244     7.7743    -0.0049     2.4594     0.1122
   74.0000   -46.5425     7.4308     7.7707    10.8825   129.1260     7.7760    -0.0047     2.4601     0.1151
   74.5000   -46.6774     7.4359     7.8306    10.7101   126.3214     7.7777    -0.0046     2.4593     0.1133
   75.0000   -46.8123     7.3376     7.8365    10.3675   125.7409     7.7794    -0.0045     2.4603     0.1100
   75.5000   -46.7955     7.2432     7.8969    10.1622   128.4386     7.7811    -0.0044     2.4649     0.1079
   76.0000   -47.0788     7.3491     7.9030    10.1077   131.2803     7.7828    -0.0042     2.4717     0.1073
   76.5000   -47.2171     7.4567     7.9639    10.1903   132.9333     7.7845    -0.0041     2.4717     0.1093
   77.0000   -47.2003     7.6183     8.0253    10.4798   133.3976     7.7862    -0.0040     2.4703     0.1063
   77.5000   -47.3386     7.6765     8.0315    10.7774   129.8500     7.7879    -0.0024     2.4674     0.1087
   78.0000   -47.3218     7.7351     8.0376    11.0835   124.8165     7.7896    -0.0008     2.4644     0.1116
   78.5000   -47.3083     7.7942     8.0996    11.3199   122.3090     7.7913    -0.0006     2.4660     0.1104
   79.0000   -47.2949     7.9082     8.1058    11.4834   120.0987     7.7778    -0.0005     2.4720     0.1074
   79.5000   -47.4332     8.1357     8.2250    11.6496   117.4380     7.7354    -0.0004     2.4810     0.1080
   80.0000   -47.7131     8.1978     8.3459    11.4171   118.9471     7.7371     0.0012     2.4736     0.1118
   80.5000   -47.8480     8.3755     8.4102    11.0358   121.4916     7.7236     0.0013     2.4677     0.1124
   81.0000   -47.8346     8.5570     8.5339    11.0420   125.2248     7.7257     0.0015     2.4678     0.1091
   81.5000   -47.9695     8.6810     8.5997    11.4361   130.4440     7.7274     0.0016     2.4679     0.1067
   82.0000   -48.1078     8.8690     8.6063    11.6820   126.7478     7.7291     0.0017     2.4724     0.1048
   82.5000   -48.3877     8.9461     8.5519    11.5282   123.7945     7.7308     0.0003     2.4732     0.1048
   83.0000   -48.3743     9.1304     8.2692    11.2204   124.5560     7.7474     0.0004     2.4725     0.1060
   83.5000   -48.8060     9.1367     8.1056    11.0727   129.3293     7.7491    -0.0009     2.4726     0.1057
   84.0000   -48.9442     9.1430     8.0004    10.9269   130.2394     7.7508    -0.0008     2.4726     0.1038
   84.5000   -48.9303     9.0202     7.9498    10.9330   128.7720     7.7525    -0.0022     2.4757     0.1017
   85.0000   -49.0657     8.8405     7.9575    11.0148   125.3730     7.7542    -0.0021     2.4802     0.0981
   85.5000   -49.3490     8.4904     7.9635    11.1742   124.9411     7.7559    -0.0020     2.4848     0.0957
   86.0000   -49.4839     8.2081     7.9696    11.2579   125.5586     7.7872    -0.0018     2.4893     0.0948
   86.5000   -49.4703     7.7718     7.9758    10.9573   126.7659     7.7889    -0.0017     2.4879     0.0962
   87.0000   -49.4570     7.5129     7.9253    10.6647   131.5392     7.7906    -0.0016     2.4820     0.1004
   87.5000   -49.4436     7.3131     7.7701    10.4519   133.3408     7.7924    -0.0015     2.4731     0.1046
   88.0000   -49.5786     7.1678     7.6164    10.2433   134.1023     7.7941    -0.0029     2.4657     0.1087
   88.5000   -49.5651     7.0256     7.5175    10.1071   133.8236     7.7958    -0.0028     2.4613     0.1117
   89.0000   -49.5517     6.8862     7.3688    10.0431   132.9506     7.7975    -0.0026     2.4598     0.1131
   89.5000   -49.6869     6.7030     7.3745    10.0501   131.4832     7.7842    -0.0025     2.4614     0.1128
   90.0000   -49.6731     6.5699     7.3790    10.0557   128.3814     7.7863    -0.0024     2.4644     0.1110
   90.5000   -49.6597     6.4831     7.3846    10.0613   125.2796     7.7880    -0.0023     2.4705     0.1092
   91.0000   -49.6463     6.3996     7.3902    10.2775   123.2179     7.7897    -0.0022     2.4713     0.1065
   91.5000   -49.7845     6.3588     7.4472    10.4985   119.8189     7.7914    -0.0020     2.4728     0.1037
   92.0000   -49.7677     6.2759     7.5615    10.6504   118.7171     7.7931    -0.0019     2.4736     0.1019
   92.5000   -49.7543     6.2813     7.6712    10.7286   122.8277     7.7948    -0.0018     2.4737     0.1031
   93.0000   -49.7409     6.2857     7.8344    10.4436   124.6292     7.7965    -0.0017     2.4738     0.1043
   93.5000   -49.8758     6.3337     7.8954    10.2352   126.7280     7.7982    -0.0016     2.4731     0.1046
   94.0000   -49.8623     6.4264     8.0108    10.5277   129.4211     7.7847    -0.0014     2.4739     0.1030
   94.5000   -49.8489     6.5204     8.0725    10.9791   130.0340     7.7720    -0.0013     2.4748     0.1015
   95.0000   -49.9872     6.7079     8.2480    11.0613   127.3779     7.7585    -0.0012     2.4807     0.0997
   95.5000   -50.1187     6.9487     8.3116    11.0674   122.3444     7.7606    -0.0011     2.4824     0.0987
   96.0000   -50.2570     7.1486     8.3757    11.1634   118.0539     7.7623    -0.0010     2.4881     0.0972
   96.5000   -50.2402     7.3542     8.4989    11.7342   117.1574     7.7640    -0.0008     2.4999     0.0924
   97.0000   -50.2268     7.5657     8.5644    11.9590   119.7254     7.7657    -0.0007     2.5019     0.0885
   97.5000   -50.3651     7.7296     8.5709    11.6397   121.8242     7.7378    -0.0006     2.4975     0.0912
   98.0000   -50.3483     7.8971     8.5775    11.7270   122.1528     7.7246    -0.0005     2.4908     0.0950
   98.5000   -50.3348     8.0683     8.5249    11.6526   119.3352     7.7115     0.0011     2.4894     0.0968
