~VERSION INFORMATION
 VERS.                2.0:   CWLS LOG ASCII STANDARD - VERSION 2.0
 WRAP.                 NO:   ONE LINE PER DEPTH STEP
~WELL INFORMATION
#MNEM.UNIT      DATA TYPE    INFORMATION
#----------   ------------   ------------------------------
 STRT.F            4.0000:   START DEPTH
 STOP.F          516.5000:   STOP DEPTH
 STEP.F            0.5000:   STEP LENGTH
 NULL.          -999.2500:   NO VALUE
 COMP. BROWN JOHN E&C INC:   COMPANY
 WELL. NAVAL PETROLEUM RESERVE 3 SX-1 #72-1-10:   WELL
 FLD .             TEAPOT:   FIELD
 LOC .      S10 T38N R78W:   LOCATION
 CNTY.            NATRONA:   COUNTY
 STAT.            WYOMING:   STATE
 CTRY. UNITED STATES OF AMERICA:   COUNTRY
 SRVC.     Atlas Wireline:   SERVICE COMPANY
 DATE.        19-SEP-1991:   LOGDATE
 API .       490252244600:   API NUMBER
~CURVE INFORMATION
#MNEM.UNIT       API CODE    CURVE DESCRIPTION
#----------   ------------   ------------------------------
 DEPT.F                  :   
 GRR .GAPI   07 310 01 00:   GAMMA RAY FROM RESISTIVITY
 RILD.OHMM   07 120 46 00:   RESISTIVITY INDUCTION LOG DEEP
 RILM.OHMM   07 120 44 00:   RESISTIVITY INDUCTION LOG MEDIUM
~PARAMETER INFORMATION
#MNEM.UNIT          VALUE    DESCRIPTION
#----------   ------------   ------------------------------
 PD  .                 GL:   PERMANENT DATUM
 EPD .F              5140:   ELEVATION PERMANENT DATUM
 LMF .                 KB:   LOG MEASURED FROM
 DAPD.F                10:   FEET ABOVE PERMANENT DATUM
 DMF .                 KB:   DRILLING MEASURED FROM
 EKB .F              5150:   KELLING BUSHING
 EGL .F              5140:   GROUND LEVEL
 DATE.        19-SEP-1991:   RUN DATE
 RUN .                  1:   RUN NUMBER
 DD  .F               530:   DEPTH DRILLER
 DL  .F               527:   DEPTH LOGGER
 BLI .F                55:   BOTTOM LOG INTERVAL
 CS  .IN                7:   CASING SIZE
 CBD .F                80:   CASING BOTTOM DRILLER
 CBL .F                90:   CASING BOTTOM LOGGER
 BS  .IN             8.75:   BIT SIZE
 BSD .F               530:   BIT SIZE AT DEPTH
 DFT .                AIR:   DRILLING FLUID TYPE
 LUN .            HL/6272:   LOGGING UNIT NUMBER
 LUL .          CASPER/WY:   LOGGING UNIT LOCATION
 ENGI.            KINNETT:   RECORDING ENGINEER
 WITN.     STRONG/HERMANN:   WITNESSED BY
 CLNT.            A2DTECH:   CLIENT CODE
 ORIG.           5" PRINT:   ORIGIN OF DATA
 UWI .       490252244600:   UNIQUE WELL ID
 DICO. A2D Technologies, Inc.:   DIGITIZING COMPANY
~OTHER INFORMATION
~A    DEPT      GRR      RILD       RILM   
# ...
  186.0000   126.8778     5.1340     6.1545
  186.5000   131.1408     5.2779     6.5062
  187.0000   134.7637     5.5015     6.8305
  187.5000   136.2743     5.8959     7.1215
  188.0000   132.6581     6.3625     7.3227
  188.5000   132.6611     6.6783     7.5821
  189.0000   132.6641     6.9614     7.7987
  189.5000   131.7621     7.1848     7.9635
  190.0000   129.0501     7.4084     8.0733
  190.5000   125.7349     7.5114     8.1871
  191.0000   125.1338     7.5631     8.1884
  191.5000   125.7408     7.6680     8.3039
  192.0000   126.9505     7.6986     8.3050
  192.5000   130.2717     7.7740     8.4221
  193.0000   131.4813     7.7735     8.4818
  193.5000   131.1826     7.7729     8.5420
  194.0000   130.5822     7.8265     8.6624
  194.5000   129.3787     7.8803     8.7845
  195.0000   127.5717     7.8798     8.8468
  195.5000   125.1614     7.9341     8.9095
  196.0000   124.2594     7.9335     8.9107
  196.5000   128.2484     7.9626     8.9739
  197.0000   131.8351     7.9876     8.9751
  197.5000   132.1116     7.9870     9.0388
  198.0000   126.9100     7.9865     9.0401
  198.5000   123.0677     7.9921     9.0413
  199.0000   126.3897     8.0409     8.9801
  199.5000   126.9953     7.9847     8.9813
  200.0000   123.0767     8.0622     8.9826
  200.5000   119.1521     8.0590     8.9217
  201.0000   118.8482     8.0042     8.8613
  201.5000   121.2578     8.0031     8.6802
  202.0000   123.9697     8.0020     8.5619
  202.5000   127.8883     8.0009     8.5042
  203.0000   130.9019     7.9996     8.4464
  203.5000   132.7088     7.9432     8.4478
  204.0000   130.8959     7.9421     8.3373
  204.5000   129.6863     7.7775     8.2213
  205.0000   130.5983     7.5114     8.0509
  205.5000   132.0936     7.3049     7.8296
  206.0000   131.7888     7.0062     7.6673
  206.5000   131.1393     6.6271     7.4049
  207.0000   130.5763     6.2252     6.7656
  207.5000   132.0809     5.5321     6.2678
  208.0000   134.1895     5.1607     5.8470
  208.5000   138.4097     4.6825     5.4525
  209.0000   139.3125     3.9094     4.7353
  209.5000   136.5938     3.4501     3.8671
  210.0000   128.4460     3.0237     3.2940
  210.5000   127.8404     2.8012     2.9746
  211.0000   130.8533     2.6314     2.8008
  211.5000   132.6610     2.5238     2.7811
  212.0000   131.7523     2.4887     2.8196
  212.5000   124.8111     2.5057     2.9594
  213.0000   120.8866     2.5937     3.1278
  213.5000   122.0902     2.6849     3.3753
  214.0000   128.7238     2.9400     3.8236
  214.5000   139.5805     3.3601     4.5154
  215.0000   140.1816     3.8360     5.1151
  215.5000   138.0662     4.2574     5.4062
  216.0000   133.5383     4.8278     5.7138
  216.5000   136.2503     5.5182     5.9973
  217.0000   141.6772     5.8729     6.2947
  217.5000   141.0708     6.1216     6.5613
  218.0000   139.8612     6.2064     6.6063
  218.5000   138.9462     6.1625     6.6512
  219.0000   139.5898     6.1616     6.6502
  219.5000   141.4188     5.9922     6.6493
  220.0000   143.8110     5.8275     6.4665
  220.5000   145.6803     5.6672     6.2021
  221.0000   148.2892     5.2502     5.9062
  221.5000   148.8896     5.0008     5.5450
  222.0000   148.8866     4.8297     5.2421
  222.5000   147.6770     4.7296     5.0693
  223.0000   143.4507     4.5995     5.0747
  223.5000   136.8113     4.5355     5.1032
  224.0000   135.6016     4.5665     5.1736
  224.5000   140.4252     4.6618     5.3554
  225.0000   140.4726     4.8257     5.5436
  225.5000   139.8159     5.0650     5.7783
  226.0000   141.0195     5.2430     6.0650
  226.5000   143.7315     5.5414     6.4101
  227.0000   145.2368     5.8163     6.7281
  227.5000   144.9321     6.0640     7.1109
  228.0000   143.6903     6.3656     7.5156
  228.5000   140.4012     6.6831     7.8339
  229.0000   141.6812     6.9740     7.9975
  229.5000   144.0644     7.2146     8.0523
  230.0000   144.6155     7.5116     8.1634
  230.5000   143.7068     7.5103     8.2193
  231.0000   139.7823     7.5093     8.2179
  231.5000   133.1428     7.4048     8.2168
  232.0000   132.5365     7.2513     8.1589
  232.5000   134.9468     7.0520     7.9898
  233.0000   138.8653     6.9058     7.7164
  233.5000   140.3706     6.7627     7.4517
  234.0000   140.9710     6.6225     7.1947
  234.5000   142.4763     6.4404     6.9466
  235.0000   145.4899     6.1344     6.7009
  235.5000   147.5992     5.8025     6.3639
  236.0000   146.3889     5.4130     5.5267
  236.5000   142.7657     5.0847     5.0846
  237.0000   141.5561     4.8096     4.9448
  237.5000   143.9664     4.7757     4.9442
  238.0000   146.0750     4.7751     4.9779
  238.5000   146.6761     4.8411     5.1172
  239.0000   144.5607     4.9766     5.4084
  239.5000   141.5412     5.1515     5.7162
  240.0000   138.5216     5.3325     6.0415
  240.5000   140.3285     5.6360     6.4297
  241.0000   140.9296     5.8343     6.7956
  241.5000   140.6250     6.1679     7.1823
  242.0000   142.7328     6.5696     7.5386
  242.5000   148.1597     6.8990     7.8578
  243.0000   149.0618     7.1871     8.0222
  243.5000   148.4554     7.3294     8.1329
  244.0000   143.3242     7.3282     8.1884
  244.5000   143.6229     7.4295     8.1872
  245.0000   144.2232     7.5322     8.1861
  245.5000   144.5219     7.5836     8.2419
  246.0000   140.8627     7.5302     8.2400
  246.5000   139.9910     7.5291     8.1827
  247.0000   142.8396     7.5281     8.1816
  247.5000   147.0136     7.3721     8.1804
  248.0000   147.8252     7.2695     8.1793
  248.5000   147.5198     7.2183     8.1780
  249.0000   147.2151     7.2173     8.1203
  249.5000   147.5138     7.1664     8.1760
  250.0000   149.9246     7.0180     8.1181
  250.5000   149.6229     7.0180     8.1729
  251.0000   148.1146     7.1160     8.2271
  251.5000   144.4947     7.1655     8.2869
  252.0000   140.2675     7.2154     8.2798
  252.5000   139.9698     7.2154     8.2775
  253.0000   142.6848     7.0180     8.2085
  253.5000   146.3047     6.8259     7.8804
  254.0000   149.0196     6.4129     7.1493
  254.5000   150.2262     6.1090     6.6684
  255.0000   150.2262     5.7793     6.1770
  255.5000   150.2262     5.5437     5.9648
  256.0000   150.8296     5.4296     5.9224
  256.5000   153.8462     5.3920     6.0035
  257.0000   158.0694     5.3506     6.1277
  257.5000   158.4013     5.2445     6.2983
  258.0000   155.3222     5.1723     6.3404
  258.5000   152.8568     5.1010     6.1616
  259.0000   149.0196     5.0307     5.8579
  259.5000   148.7179     4.9960     5.5143
  260.0000   150.5279     4.9614     5.3249
  260.5000   149.9246     4.9272     5.2138
  261.0000   147.8130     4.9272     5.3963
  261.5000   144.4947     4.9614     5.5470
  262.0000   142.3831     4.9960     5.7011
  262.5000   142.9864     5.1010     5.9417
  263.0000   145.0980     5.2810     6.2356
  263.5000   146.0030     5.5437     6.5441
  264.0000   147.5113     5.9418     6.9155
  264.5000   149.0196     6.6854     7.3166
  265.0000   149.6229     6.8259     7.6253
  265.5000   149.0196     6.9695     7.7208
  266.0000   142.9864     6.8734     7.6649
  266.5000   134.5400     6.4374     7.4531
  267.0000   136.6516     5.6603     7.0002
  267.5000   139.6884     5.4296     5.8436
  268.0000   141.7798     5.2810     5.2284
  268.5000   145.0980     5.1365     5.1550
  269.0000   149.6229     5.1010     5.2256
  269.5000   153.8462     5.1010     5.3340
  270.0000   152.0362     5.1365     5.5207
  270.5000   149.6229     5.2445     5.7604
  271.0000   146.0030     5.3550     6.0944
  271.5000   141.1404     5.5909     6.6058
  272.0000   140.2715     6.0668     7.2271
  272.5000   141.7798     6.5477     7.8522
  273.0000   141.1765     7.0180     8.3556
  273.5000   137.8582     7.4183     8.7083
  274.0000   140.5732     7.6801     8.9508
  274.5000   142.9864     7.8962     9.0740
  275.0000   143.2881     8.0064     9.0709
  275.5000   137.8582     8.1183     9.0685
  276.0000   136.2535     8.1748     9.0660
  276.5000   137.8582     8.1748     9.0008
