~VERSION INFORMATION
 VERS.                2.0:   CWLS LOG ASCII STANDARD - VERSION 2.0
 WRAP.                 NO:   ONE LINE PER DEPTH STEP
~WELL INFORMATION
#MNEM.UNIT      DATA TYPE    INFORMATION
#----------   ------------   ------------------------------
 STRT.F           30.0000:   START DEPTH
 STOP.F         1178.5000:   STOP DEPTH
 STEP.F            0.5000:   STEP LENGTH
 NULL.          -999.2500:   NO VALUE
 COMP. FENIX & SCISSON INC:   COMPANY
 WELL.     64-S-14 #14-14:   WELL
 FLD .        TEAPOT DOME:   FIELD
 LOC .      S14 T38N R78W:   LOCATION
 CNTY.            NATRONA:   COUNTY
 STAT.            WYOMING:   STATE
 CTRY. UNITED STATES OF AMERICA:   COUNTRY
 SRVC.            Unknown:   SERVICE COMPANY
 DATE.        19-APR-1978:   LOGDATE
 API .       490251061400:   API NUMBER
~CURVE INFORMATION
#MNEM.UNIT       API CODE    CURVE DESCRIPTION
#----------   ------------   ------------------------------
 DEPT.F                  :   
 SPR .MV     05 010 01 00:   SPONTANEOUS POTENTIAL
 SN  .OHMM   05 040 16 00:   SHORT NORMAL 16'
 ILD .OHMM   05 120 46 00:   INDUCTION LOG DEEP
 CALD.IN     45 280 60 00:   CALIPER
 GRD .GAPI   45 310 01 00:   GAMMA RAY FROM DENSITY LOG
 RHOB.G/C3   45 350 01 00:   BULK DENSITY
 DPHI.DEC    45 890 12 00:   DENSITY POROSITY SANDSTONE
 CORR.G/C3   45 356 01 00:   DENSITY CORRECTION
~PARAMETER INFORMATION
#MNEM.UNIT          VALUE    DESCRIPTION
#----------   ------------   ------------------------------
 PD  .                 GL:   PERMANENT DATUM
 EPD .F              5235:   ELEVATION PERMANENT DATUM
 LMF .                 KB:   LOG MEASURED FROM
 DMF .                 KB:   DRILLING MEASURED FROM
 EKB .F              5299:   KELLING BUSHING
 EGL .F              5295:   GROUND LEVEL
 DATE.          4-19-1978:   RUN DATE
 RUN .                  1:   RUN NUMBER
 DD  .F              1180:   DEPTH DRILLER
 DL  .F              1182:   DEPTH LOGGER
 BLI .F              1176:   BOTTOM LOG INTERVAL
 TLI .F                50:   TOP LOG INTERVAL
 CS  .IN            8.625:   CASING SIZE
 CBD .F                40:   CASING BOTTOM DRILLER
 CBL .F                50:   CASING BOTTOM LOGGER
 BS  .IN            7.875:   BIT SIZE
 BSD .F              1180:   BIT SIZE AT DEPTH
 DFT .                KCL:   DRILLING FLUID TYPE
 DFD .                8.7:   DRILLING FLUID DENSITY
 DFV .                 33:   DRILLING FLUID VISCOSITY
 DFPH.               10.5:   DRILLING FLUID PH
 DFL .               12.3:   DRILLING FLUID LOSS
 MSS .            MUD PIT:   MUD SAMPLE SOURCE
 RMS .OHMM            .54:   RESISTIVITY MUD SAMPLE
 MST .F                62:   MUD SAMPLE TEMPERATURE
 RMF .OHMM            .65:   RESISTIVITY MUD FILTRATE SAMPLE
 MFST.F                60:   MUD FILTRATE SAMPLE TEMPERATURE
 RMC .OHMM            .35:   RESISTIVITY MUD CAKE
 MCST.F                60:   MUD CAKE SAMPLE TEMPERATURE
 MFSS.           MEASURED:   MUD FILTRATE SAMPLE SOURCE
 RMB .OHMM            .42:   RESISTIVITY MUD AT BHT
 BHT .F                80:   BOTTOM HOLE TEMPERATURE
 TCS .HRS               2:   TIME CURCULATED STOPPED
 MRT .F                80:   MAXIMUM RECORDED TEMPERATURE
 LUN .               2955:   LOGGING UNIT NUMBER
 LUL .               CASP:   LOGGING UNIT LOCATION
 ENGI.             MILLER:   RECORDING ENGINEER
 WITN.           MCGINLEY:   WITNESSED BY
 CLNT.            A2DTECH:   CLIENT CODE
 ORIG.      2" & 5" PRINT:   ORIGIN OF DATA
 UWI .       490251061400:   UNIQUE WELL ID
 DICO. A2D Technologies, Inc.:   DIGITIZING COMPANY
~OTHER INFORMATION
~A   DEPT      SPR         SN        ILD       CALD         GRD      RHOB       DPHI       CORR   
# ...
  354.0000   -44.7841     5.5424     5.2956     7.9745    90.1359     2.4163     0.1502     0.0168
  354.5000   -44.7948     5.5448     5.2956     8.0118    89.0651     2.4205     0.1493     0.0147
  355.0000   -44.8055     5.5439     5.3136     8.0297    87.6132     2.4181     0.1509     0.0126
  355.5000   -44.8162     5.6299     5.3781     8.0299    86.6952     2.4159     0.1521     0.0177
  356.0000   -44.8269     5.6985     5.4434     8.0224    89.3057     2.4147     0.1497     0.0241
  356.5000   -44.8377     5.7678     5.5095     8.0141    93.3496     2.4267     0.1440     0.0302
  357.0000   -44.8484     5.8378     5.5764     8.0059    93.0753     2.4387     0.1388     0.0265
  357.5000   -44.8591     5.9087     5.6441     7.9978    91.8863     2.4435     0.1400     0.0152
  358.0000   -44.8698     5.9804     5.7126     7.9896    90.7182     2.4236     0.1457     0.0084
  358.5000   -44.8805     6.0530     5.7819     7.9814    90.5990     2.4164     0.1485     0.0091
  359.0000   -44.8913     6.1265     5.8521     7.9732    90.5317     2.4186     0.1479     0.0117
  359.5000   -44.9020     6.2009     5.9232     7.9651    89.7583     2.4212     0.1472     0.0144
  360.0000   -44.9127     6.2762     5.9951     7.9569    88.9289     2.4203     0.1464     0.0170
  360.5000   -44.9234     6.3524     6.0679     7.9487    88.1076     2.4177     0.1456     0.0197
  361.0000   -44.9342     6.4296     6.1416     7.9405    86.2595     2.4190     0.1449     0.0223
  361.5000   -44.9449     6.5076     6.2161     7.9324    84.1209     2.4235     0.1440     0.0246
  362.0000   -44.9556     6.5984     6.3029     7.9242    83.0851     2.4268     0.1450     0.0244
  362.5000   -44.9663     6.5569     6.2616     7.9160    83.5628     2.4275     0.1474     0.0184
  363.0000   -44.9770     6.4657     6.1712     7.9078    84.1444     2.4229     0.1519     0.0122
  363.5000   -44.9878     6.3758     6.0820     7.8997    85.3605     2.4091     0.1558     0.0111
  364.0000   -44.9985     6.2872     5.9942     7.8915    86.5537     2.4063     0.1581     0.0174
  364.5000   -45.0092     6.1998     5.9112     7.8833    87.7219     2.4089     0.1574     0.0237
  365.0000   -45.0199     6.1136     5.7775     7.8750    88.4319     2.4116     0.1507     0.0302
  365.5000   -45.0306     6.0286     5.6521     7.8583    87.1207     2.4176     0.1440     0.0313
  366.0000   -45.0414     5.9448     5.5294     7.8264    85.0753     2.4315     0.1410     0.0320
  366.5000   -45.0521     5.8621     5.4095     7.7947    84.0080     2.4340     0.1422     0.0327
  367.0000   -45.0628     5.7806     5.2950     7.7630    86.1396     2.4336     0.1417     0.0335
  367.5000   -45.0735     5.7288     5.3010     7.7313    87.0644     2.4362     0.1399     0.0342
  368.0000   -45.0842     5.6940     5.3130     7.6992    86.3351     2.4392     0.1391     0.0345
  368.5000   -45.0950     5.6594     5.3251     7.6841    89.0552     2.4353     0.1420     0.0345
  369.0000   -45.1057     5.6250     5.3373     7.6755    89.3822     2.4302     0.1448     0.0345
  369.5000   -45.1164     5.5908     5.3444     7.6670    86.6888     2.4253     0.1458     0.0345
  370.0000   -45.1271     5.5567     5.2815     7.6585    85.7374     2.4259     0.1464     0.0346
  370.5000   -45.1378     5.5032     5.1818     7.6499    84.5815     2.4289     0.1432     0.0328
  371.0000   -45.1486     5.4073     5.0840     7.6398    82.9297     2.4249     0.1464     0.0304
  371.5000   -45.1593     5.3130     4.9880     7.6295    84.3981     2.4185     0.1519     0.0279
  372.0000   -45.1700     5.2204     4.8939     7.6193    86.6767     2.4121     0.1533     0.0255
  372.5000   -45.1807     5.1293     4.8015     7.6091    87.1888     2.4084     0.1544     0.0231
  373.0000   -45.1913     5.0576     4.7109     7.5989    85.7134     2.4074     0.1553     0.0154
  373.5000   -45.1942     5.0533     4.6543     7.5880    84.7051     2.4075     0.1551     0.0093
  374.0000   -45.1854     5.0496     4.6371     7.5743    84.7828     2.4075     0.1547     0.0139
  374.5000   -45.1766     5.0458     4.6194     7.5603    84.8433     2.4089     0.1527     0.0183
  375.0000   -45.1678     5.0420     4.6020     7.5463    84.8788     2.4163     0.1489     0.0205
  375.5000   -45.1590     5.0380     4.5847     7.5319    84.2864     2.4236     0.1448     0.0183
  376.0000   -45.1502     5.0341     4.5675     7.5405    83.7236     2.4295     0.1446     0.0141
  376.5000   -45.1413     5.0302     4.5503     7.5532    84.3695     2.4234     0.1489     0.0104
  377.0000   -45.1325     5.0264     4.5332     7.5660    85.8626     2.4151     0.1532     0.0102
  377.5000   -45.1237     5.0224     4.5162     7.5787    86.4971     2.4116     0.1544     0.0099
  378.0000   -45.1149     5.0186     4.4992     7.6007    85.5735     2.4093     0.1540     0.0096
  378.5000   -45.1061     5.0147     4.4823     7.6821    84.8937     2.4076     0.1533     0.0093
  379.0000   -45.0973     4.9803     4.4654     7.7583    87.1068     2.4117     0.1538     0.0090
  379.5000   -45.0885     4.8982     4.4487     7.7980    89.7551     2.4108     0.1549     0.0087
  380.0000   -45.0797     4.8174     4.4319     7.8388    92.3957     2.4104     0.1556     0.0084
  380.5000   -45.0708     4.7379     4.4153     7.8798    93.9155     2.4148     0.1504     0.0081
  381.0000   -45.0620     4.6579     4.3987     7.9206    92.8378     2.4188     0.1475     0.0078
  381.5000   -45.0532     4.6718     4.3820     7.9498    91.8051     2.4201     0.1491     0.0075
  382.0000   -45.0444     4.6861     4.3683     7.9332    90.7180     2.4190     0.1507     0.0072
  382.5000   -45.0356     4.7004     4.3685     7.9172    90.6979     2.4158     0.1521     0.0069
  383.0000   -45.0268     4.7147     4.3685     7.9163    91.1976     2.4145     0.1507     0.0064
  383.5000   -45.0179     4.7291     4.3685     7.9275    91.7397     2.4172     0.1477     0.0086
  384.0000   -45.0090     4.7436     4.3685     7.9387    92.2822     2.4192     0.1497     0.0111
  384.5000   -45.0004     4.7581     4.3686     7.9505    92.7110     2.4141     0.1525     0.0143
  385.0000   -45.0043     4.7726     4.3689     7.9739    92.5440     2.4088     0.1557     0.0174
  385.5000   -45.0089     4.7878     4.3683     7.9974    90.1198     2.4091     0.1553     0.0206
  386.0000   -45.0134     4.7526     4.3070     7.9997    85.7117     2.4114     0.1544     0.0237
  386.5000   -45.0179     4.6555     4.2438     7.9776    81.3186     2.4119     0.1534     0.0269
  387.0000   -45.0225     4.5603     4.1815     7.9546    77.1553     2.4123     0.1524     0.0300
  387.5000   -45.0270     4.4671     4.1200     7.9698    77.1722     2.4163     0.1502     0.0328
  388.0000   -45.0315     4.3757     4.0595     7.9966    82.1148     2.4226     0.1479     0.0340
  388.5000   -45.0361     4.2862     3.9999     8.0237    87.5124     2.4278     0.1456     0.0353
  389.0000   -45.0406     4.2113     3.9493     8.0490    89.4396     2.4285     0.1440     0.0365
  389.5000   -45.0451     4.2113     3.9472     8.0403    90.6112     2.4293     0.1427     0.0377
  390.0000   -45.0497     4.2213     3.9450     8.0304    91.7126     2.4301     0.1421     0.0390
  390.5000   -45.0542     4.2399     3.9429     8.0206    91.6506     2.4317     0.1416     0.0403
  391.0000   -45.0587     4.2586     3.9408     8.0109    90.7066     2.4341     0.1410     0.0400
  391.5000   -45.0633     4.2774     3.9387     8.0012    89.7377     2.4364     0.1407     0.0394
  392.0000   -45.0678     4.2962     3.9366     7.9915    89.0652     2.4365     0.1404     0.0388
  392.5000   -45.0723     4.3151     3.9344     7.9820    88.3895     2.4355     0.1408     0.0345
  393.0000   -45.0768     4.3342     3.9323     7.9745    87.6904     2.4323     0.1426     0.0294
  393.5000   -45.0814     4.3533     3.9302     7.8615    86.1113     2.4260     0.1447     0.0266
  394.0000   -45.0859     4.3725     3.9281     7.7258    83.1391     2.4193     0.1469     0.0296
