~VERSION INFORMATION
 VERS.                2.0:   CWLS LOG ASCII STANDARD - VERSION 2.0
 WRAP.                 NO:   ONE LINE PER DEPTH STEP
~WELL INFORMATION
#MNEM.UNIT      DATA TYPE    INFORMATION
#----------   ------------   ------------------------------
 STRT.F          217.0000:   START DEPTH
 STOP.F         3170.0000:   STOP DEPTH
 STEP.F            0.5000:   STEP LENGTH
 NULL.          -999.2500:   NO VALUE
 COMP. FENIX & SCISSON INC:   COMPANY
 WELL.    51 TX 33 #51-33:   WELL
 FLD .             TEAPOT:   FIELD
 LOC .      S33 T39N R78W:   LOCATION
 CNTY.            NATRONA:   COUNTY
 STAT.            WYOMING:   STATE
 CTRY. UNITED STATES OF AMERICA:   COUNTRY
 SRVC.            Unknown:   SERVICE COMPANY
 DATE.        02-APR-1978:   LOGDATE
 API .       490251068600:   API NUMBER
~CURVE INFORMATION
#MNEM.UNIT       API CODE    CURVE DESCRIPTION
#----------   ------------   ------------------------------
 DEPT.F                  :   
 TGAS.UNITS  91 830 01 00:   TOTAL GAS FROM HOTWIRE
 ROP .MIN/FT 91 810 01 00:   RATE OF DRILLING PENETRATION
~PARAMETER INFORMATION
#MNEM.UNIT          VALUE    DESCRIPTION
#----------   ------------   ------------------------------
 DATE.         2-APR-1978:   RUN DATE
 RUN .                  1:   RUN NUMBER
 BLI .F              3150:   BOTTOM LOG INTERVAL
 TLI .F               250:   TOP LOG INTERVAL
 DFT .       CHEMICAL GEL:   DRILLING FLUID TYPE
 ENGI.            R. CABS:   RECORDING ENGINEER
 CLNT.            A2DTECH:   CLIENT CODE
 ORIG.           5" PRINT:   ORIGIN OF DATA
 UWI .       490251068600:   UNIQUE WELL ID
 DICO. A2D Technologies, Inc.:   DIGITIZING COMPANY
~OTHER INFORMATION
~A   DEPT       TGAS      ROP   
# ...
 3011.5000     2.7487     6.8272
 3012.0000     2.6677     5.0228
 3012.5000     2.6736     5.0238
 3013.0000     2.5921     5.0248
 3013.5000     3.2082     6.2668
 3014.0000     4.4315     7.5148
 3014.5000     4.6113     7.5454
 3015.0000     4.7913     7.5615
 3015.5000     4.9725     7.5775
 3016.0000     5.1424     5.7686
 3016.5000     5.3106     5.7696
 3017.0000     5.3161     5.7704
 3017.5000     5.3217     5.7952
 3018.0000     5.2445     5.7962
 3018.5000     5.1699     7.0667
 3019.0000     4.8400     9.2951
 3019.5000     4.2323     9.2851
 3020.0000     4.0693     9.2750
 3020.5000     4.5115     9.2650
 3021.0000     4.8653     9.2460
 3021.5000     4.9581     3.9036
 3022.0000     4.5293     3.8860
 3022.5000     4.1004     3.8776
 3023.0000     3.8455     3.8692
 3023.5000     3.9384     3.8516
 3024.0000     4.2052     3.8525
 3024.5000     4.3976     3.8714
 3025.0000     4.7402     3.8903
 3025.5000     4.9201     3.5441
 3026.0000     4.8390     3.5448
 3026.5000     4.6711     3.5456
 3027.0000     4.4161     3.5189
 3027.5000     4.2481     3.7296
 3028.0000     4.2541     3.8400
 3028.5000     4.2600     3.8407
 3029.0000     4.3530     3.8415
 3029.5000     4.5337     3.8514
 3030.0000     5.3826     4.4382
 3030.5000     5.3881     4.4390
 3031.0000     5.3122     4.4281
 3031.5000     5.1553     4.4410
 3032.0000     4.9895     4.4658
 3032.5000     4.8301     4.4667
 3033.0000     4.6636     4.4675
 3033.5000     4.6695     5.5042
 3034.0000     4.6755     5.5171
 3034.5000     4.6814     5.5419
 3035.0000     4.6873     5.5667
 3035.5000     4.6061     6.1433
 3036.0000     4.6122     6.1741
 3036.5000     4.6182     6.2050
 3037.0000     4.5371     6.2359
 3037.5000     4.5445     8.4780
 3038.0000     4.5505     8.4793
 3038.5000     4.4679     8.4806
 3039.0000     4.3869     8.5529
 3039.5000     4.1335     7.8602
 3040.0000     4.1394     6.9541
 3040.5000     4.1453     6.9553
 3041.0000     4.2383     6.9564
 3041.5000     4.2443     6.9576
 3042.0000     4.4254     5.0800
 3042.5000     4.5183     5.0810
 3043.0000     4.6112     5.0820
 3043.5000     4.7910     5.0591
 3044.0000     4.8839     5.9885
 3044.5000     4.9768     5.9895
 3045.0000     5.0652     5.9905
 3045.5000     5.1520     6.0053
 3046.0000     5.1577     5.3020
 3046.5000     5.2458     5.1123
 3047.0000     5.3326     5.0895
 3047.5000     5.5008     5.0667
 3048.0000     5.5063     5.5915
 3048.5000     5.5118     5.6163
 3049.0000     5.5174     5.6409
 3049.5000     5.5229     5.6657
 3050.0000     5.5285     5.0238
 3050.5000     5.5655     5.0360
 3051.0000     5.6175     5.0481
 3051.5000     5.6210     5.0364
 3052.0000     5.7059     4.4771
 3052.5000     5.7907     4.4774
 3053.0000     5.7943     4.4776
 3053.5000     5.9606     4.4778
 3054.0000     6.1275     4.5019
 3054.5000     6.1310     4.0022
 3055.0000     6.0524     4.0024
 3055.5000     6.0568     3.9837
 3056.0000     6.0604     4.0862
 3056.5000     6.0639     4.6697
 3057.0000     5.9862     4.6700
 3057.5000     5.9898     4.6226
 3058.0000     5.9942     3.9482
 3058.5000     5.9977     3.9483
 3059.0000     6.0013     3.9485
 3059.5000     6.0048     3.9487
 3060.0000     5.9271     4.7667
 3060.5000     5.9306     4.9812
 3061.0000     5.8529     4.9814
 3061.5000     5.8565     5.0055
 3062.0000     5.8602     5.0057
 3062.5000     5.8645     5.0059
 3063.0000     5.9493     5.0062
 3063.5000     6.0342     5.0540
 3064.0000     6.1190     4.5781
 3064.5000     6.2039     4.5903
 3065.0000     6.2074     4.6024
 3065.5000     6.3736     4.6027
 3066.0000     6.3772     5.4600
 3066.5000     6.3816     5.4602
 3067.0000     6.3851     5.4605
 3067.5000     6.5513     5.4607
 3068.0000     6.7174     5.4728
 3068.5000     6.8023     4.9850
 3069.0000     6.8871     5.0209
 3069.5000     6.8093     5.0331
 3070.0000     6.5690     6.0708
 3070.5000     6.4109     7.1085
 3071.0000     6.4144     7.1087
 3071.5000     6.4180     7.1091
 3072.0000     6.2589     3.9898
 3072.5000     6.2625     3.9900
 3073.0000     6.3474     3.9901
 3073.5000     6.2695     4.0035
 3074.0000     6.1919     7.7327
 3074.5000     6.1036     7.7627
 3075.0000     5.9551     7.7926
 3075.5000     5.8773     8.1123
 3076.0000     5.9631     8.3547
 3076.5000     5.9666     8.4081
 3077.0000     5.9702     8.4970
 3077.5000     5.8111     7.7348
 3078.0000     5.7334     7.7351
 3078.5000     5.5743     7.7650
 3079.0000     5.4966     7.7505
 3079.5000     5.5823     6.4027
 3080.0000     5.6672     6.4325
 3080.5000     5.8333     6.4625
 3081.0000     5.9182     6.4629
 3081.5000     6.0843     6.4631
 3082.0000     6.3318     5.9795
 3082.5000     6.5812     5.9917
 3083.0000     6.8503     5.9920
 3083.5000     7.2376     5.8969
 3084.0000     7.6477     5.5400
 3084.5000     8.2204     5.5164
 3085.0000     8.6304     5.5405
 3085.5000     7.9836     5.5526
 3086.0000     7.0115     5.1362
 3086.5000     6.8524     5.1602
 3087.0000     6.7747     5.1605
 3087.5000     6.8605     5.1607
 3088.0000     7.2705     5.1610
 3088.5000     8.5749     7.5487
 3089.0000    10.2546     7.5639
 3089.5000    12.9510     7.5938
 3090.0000    12.6222     8.1563
 3090.5000    11.9573     8.7543
 3091.0000    11.1180     8.7901
 3091.5000    10.5757     8.8258
 3092.0000     9.8202     8.3765
 3092.5000     9.3359     7.9215
 3093.0000     5.7622     7.9218
 3093.5000     5.6023     7.9517
 3094.0000     5.7693     6.4854
 3094.5000     5.9355     6.4708
 3095.0000     6.5081     6.4711
 3095.5000     1.3728     5.9939
 3096.0000     0.0000     5.5933
 3096.5000     0.0000     5.5935
 3097.0000     0.0000     5.5700
 3097.5000     0.0000     5.5703
 3098.0000     0.0000     6.0581
 3098.5000     0.0000     6.0436
 3099.0000     0.0000     6.0291
 3099.5000     0.8431     6.0146
 3100.0000     2.1739     6.0000
 3100.5000     4.3089     5.9764
 3101.0000     6.3087     5.9886
 3101.5000    13.3009     6.0009
 3102.0000    18.3502     5.1915
 3102.5000    31.8412     5.1917
 3103.0000    60.3857     5.1919
 3103.5000   106.4603     5.1921
 3104.0000    38.6104     5.1923
 3104.5000    14.0184     5.1926
 3105.0000     9.9149     5.1810
 3105.5000     4.7824     5.1931
 3106.0000     3.4818     5.1933
 3106.5000     1.5461     5.1936
 3107.0000     0.1716     5.1938
 3107.5000     0.3637     5.2536
 3108.0000     2.2806     4.6228
 3108.5000     7.8269     4.6230
 3109.0000    29.3493     4.6233
 3109.5000   107.8862     4.6235
 3110.0000   112.0403     4.6238
 3110.5000    71.2365     4.4939
 3111.0000    32.4357     4.6829
 3111.5000    14.4605     4.9672
 3112.0000    10.9384     5.1919
 3112.5000     8.6689     5.2024
 3113.0000     7.2090     5.2009
 3113.5000     6.3114     5.1995
 3114.0000     5.2167     5.1861
 3114.5000     3.6359     6.0076
 3115.0000     2.9441     6.0058
 3115.5000     2.1653     6.0633
 3116.0000     1.4734     4.0494
 3116.5000     0.7816     4.0480
 3117.0000     0.0897     4.0466
 3117.5000     0.0000     4.0692
 3118.0000     0.0000     3.6501
 3118.5000     0.0000     3.6490
 3119.0000     0.0000     3.6662
 3119.5000     0.0000     3.2906
 3120.0000     0.0000     2.6594
 3120.5000     0.0000     2.6583
 3121.0000     0.0000     2.6572
 3121.5000     0.0000     2.6652
 3122.0000     0.0000     3.1846
 3122.5000     0.0000     3.5123
 3123.0000     0.0000     3.5112
 3123.5000     0.0000     3.5283
 3124.0000     0.0000     3.8377
 3124.5000     0.0000     4.1323
 3125.0000     0.0000     4.1189
 3125.5000     0.0000     4.1413
 3126.0000     0.0000     4.5210
 3126.5000     0.0000     4.5435
 3127.0000     0.0000     4.5539
 3127.5000     0.0000     4.5644
 3128.0000     0.0000     4.5629
 3128.5000     0.0000     4.5853
 3129.0000     0.0000     4.5838
 3129.5000     0.0000     4.5824
 3130.0000     0.0000     3.5690
 3130.5000     0.0000     3.5679
 3131.0000     0.1367     3.5668
 3131.5000     3.9428     3.5474
 3132.0000     4.9901     7.3528
 3132.5000     8.0025     7.3955
