~VERSION INFORMATION
 VERS.                2.0:   CWLS LOG ASCII STANDARD - VERSION 2.0
 WRAP.                 NO:   ONE LINE PER DEPTH STEP
~WELL INFORMATION
#MNEM.UNIT      DATA TYPE    INFORMATION
#----------   ------------   ------------------------------
 STRT.F           11.5000:   START DEPTH
 STOP.F          697.0000:   STOP DEPTH
 STEP.F            0.5000:   STEP LENGTH
 NULL.          -999.2500:   NO VALUE
 COMP. FENIX & SCISSON INC:   COMPANY
 WELL.    NPR3 SX-2 #12-2:   WELL
 FLD .             TEAPOT:   FIELD
 LOC .       S2 T38N R78W:   LOCATION
 CNTY.            NATRONA:   COUNTY
 STAT.            WYOMING:   STATE
 CTRY. UNITED STATES OF AMERICA:   COUNTRY
 SRVC.           BIRDWELL:   SERVICE COMPANY
 DATE.        13-JAN-1978:   LOGDATE
 API .       490251055000:   API NUMBER
~CURVE INFORMATION
#MNEM.UNIT       API CODE    CURVE DESCRIPTION
#----------   ------------   ------------------------------
 DEPT.F                  :   
 CALD.IN     45 280 60 00:   CALIPER FROM DENSITY LOG
 CORR.G/C3   45 356 01 00:   DENSITY CORRECTION
 RHOB.G/C3   45 350 01 00:   BULK DENSITY
 GRD .GAPI   45 310 01 00:   GAMMA RAY FROM DENSITY LOG
 DPHI.DEC    45 890 12 00:   DENSITY POROSITY SANDSTONE
 ILD .OHMM   05 120 46 00:   INDUCTION LOG DEEP
 SN  .OHMM   05 040 16 00:   SHORT NORMAL 16"
 SPR .MV     05 010 01 00:   SPONTANEOUS POTENTIAL FROM RES.
~PARAMETER INFORMATION
#MNEM.UNIT          VALUE    DESCRIPTION
#----------   ------------   ------------------------------
 PD  .                 GL:   PERMANENT DATUM
 EPD .F              5094:   ELEVATION PERMANENT DATUM
 LMF .                 KB:   LOG MEASURED FROM
 DAPD.F                 4:   FEET ABOVE PERMANENT DATUM
 DMF .                 KB:   DRILLING MEASURED FROM
 EKB .F              5098:   KELLING BUSHING
 EGL .F              5094:   GROUND LEVEL
 DATE.        13-JAN-1978:   RUN DATE
 RUN .                  1:   RUN NUMBER
 DD  .F               695:   DEPTH DRILLER
 DL  .F               697:   DEPTH LOGGER
 BLI .F               692:   BOTTOM LOG INTERVAL
 TLI .F                30:   TOP LOG INTERVAL
 CS  .IN            8.625:   CASING SIZE
 CBD .F                35:   CASING BOTTOM DRILLER
 CBL .F                35:   CASING BOTTOM LOGGER
 BS  .IN            7.875:   BIT SIZE
 BSD .F               695:   BIT SIZE AT DEPTH
 DFT .                KCL:   DRILLING FLUID TYPE
 DFD .                8.6:   DRILLING FLUID DENSITY
 DFV .                 32:   DRILLING FLUID VISCOSITY
 DFPH.                9.5:   DRILLING FLUID PH
 DFL .                 12:   DRILLING FLUID LOSS
 MSS .           FLOWLINE:   MUD SAMPLE SOURCE
 RMS .OHMM            0.3:   RESISTIVITY MUD SAMPLE
 MST .F                59:   MUD SAMPLE TEMPERATURE
 RMF .OHMM           0.24:   RESISTIVITY MUD FILTRATE SAMPLE
 MFST.F                70:   MUD FILTRATE SAMPLE TEMPERATURE
 RMC .OHMM           0.56:   RESISTIVITY MUD CAKE
 MCST.F                63:   MUD CAKE SAMPLE TEMPERATURE
 MFSS.               MEAS:   MUD FILTRATE SAMPLE SOURCE
 MCSS.               MEAS:   MUD CAKE SAMPLE SOURCE
 RMB .OHMM           0.26:   RESISTIVITY MUD AT BHT
 BHT .F                72:   BOTTOM HOLE TEMPERATURE
 TCS .HRS               2:   TIME CURCULATED STOPPED
 MRT .F                72:   MAXIMUM RECORDED TEMPERATURE
 LUN .               2958:   LOGGING UNIT NUMBER
 LUL .             CASPER:   LOGGING UNIT LOCATION
 ENGI.           MARTINEZ:   RECORDING ENGINEER
 WITN.       MR. MCGINLEY:   WITNESSED BY
 CLNT.            A2DTECH:   CLIENT CODE
 ORIG.           5" PRINT:   ORIGIN OF DATA
 UWI .       490251055000:   UNIQUE WELL ID
 DICO. A2D Technologies, Inc.:   DIGITIZING COMPANY
~OTHER INFORMATION
~A   DEPT     CALD       CORR       RHOB         GRD      DPHI        ILD         SN        SPR   
# ...
  376.0000     8.5862     0.1591     2.4790    95.2800     0.1066     9.3449     9.5301   -22.2900
  376.5000     8.5709     0.1576     2.4731    93.3325     0.1109     9.1518     9.3767   -22.2946
  377.0000     8.5708     0.1560     2.4663    90.7843     0.1159     8.8396     9.2033   -22.4510
  377.5000     8.5857     0.1530     2.4558    90.4873     0.1207     8.5381     9.0755   -22.9085
  378.0000     8.6006     0.1500     2.4386    90.6430     0.1276     8.0730     8.8877   -23.5172
  378.5000     8.6155     0.1439     2.4191    91.3981     0.1339     7.8465     8.5793   -24.2769
  379.0000     8.6304     0.1379     2.3892    90.8019     0.1402     7.3809     8.1765   -24.8855
  379.5000     8.6302     0.1379     2.3719    86.1517     0.1489     6.5162     7.6284   -25.0410
  380.0000     8.6451     0.1378     2.3532    84.2041     0.1648     5.4057     7.0191   -25.1964
  380.5000     8.6600     0.1408     2.3330    85.4805     0.1828     4.6423     6.3258   -25.5095
  381.0000     8.6598     0.1438     2.3146    87.9678     0.1939     4.2720     5.8610   -26.1350
  381.5000     8.6597     0.1498     2.2976    91.1254     0.2041     3.9861     5.6217   -27.0235
  382.0000     8.6445     0.1632     2.2918    93.8325     0.1823     3.7451     5.3922   -27.7832
  382.5000     8.6293     0.1767     2.3068    94.5876     0.1558     3.5924     5.1720   -28.2408
  383.0000     8.6141     0.1692     2.3668    92.4899     0.1381     3.5426     5.0286   -28.3962
  383.5000     8.6140     0.1466     2.4021    89.6415     0.1306     3.5421     4.9602   -28.5517
  384.0000     8.5988     0.1211     2.4313    89.0442     0.1225     3.6915     4.9938   -28.5561
  384.5000     8.5836     0.1030     2.4493    91.0016     0.1134     4.2384     5.1334   -28.5605
  385.0000     8.5779     0.1105     2.4711    93.7087     0.0969     5.2148     5.5007   -28.2578
  385.5000     8.5683     0.1071     2.4876    96.2913     0.0930     5.9052     6.0599   -27.7926
  386.0000     8.5681     0.0894     2.4876    97.4713     0.0936     6.4597     6.7224   -27.0643
  386.5000     8.5379     0.0729     2.4869    95.5249     0.0975     6.9213     7.4057   -26.4644
  387.0000     8.5377     0.0578     2.4854    94.9276     0.1011     7.3139     7.9357   -26.0157
  387.5000     8.5376     0.0413     2.4822    95.6838     0.0987     7.5180     8.3866   -25.8679
  388.0000     8.5374     0.0322     2.4714    97.3399     0.1017     7.7285     8.6873   -25.7213
  388.5000     8.5373     0.0337     2.4659    99.1461     0.1080     7.8947     8.9852   -25.7268
  389.0000     8.5371     0.0367     2.4704    99.4508     0.1101     7.9975     9.1096   -25.5801
  389.5000     8.5370     0.0382     2.4749    99.9057     0.1131     8.0519     9.2351   -25.5846
  390.0000     8.5519     0.0351     2.4757   100.2104     0.1122     8.0506     9.2339   -25.5891
  390.5000     8.5668     0.0321     2.4682   101.5661     0.1110     8.0358     9.2971   -25.7455
  391.0000     8.5666     0.0291     2.4608   104.4725     0.1134     7.9929     9.2955   -25.9010
  391.5000     8.5665     0.0260     2.4458   107.4515     0.1188     7.9368     9.2943   -26.0565
  392.0000     8.5964     0.0260     2.4285   107.5853     0.1227     7.8267     9.2289   -26.2120
  392.5000     8.5962     0.0260     2.4233   105.7890     0.1263     7.6650     9.1191   -26.2164
  393.0000     8.6111     0.0274     2.4301   101.5892     0.1299     7.4035     8.9743   -26.2208
  393.5000     8.6109     0.0319     2.4293    96.3384     0.1311     7.0942     8.7277   -26.2933
  394.0000     8.6108     0.0379     2.4210    94.2407     0.1188     6.7959     8.3713   -26.3807
  394.5000     8.6257     0.0484     2.4361    95.5965     0.1146     6.4445     7.9741   -26.5363
  395.0000     8.6105     0.0529     2.4451   100.2555     0.1146     6.3113     7.7552   -26.5416
  395.5000     8.6254     0.0408     2.4466   103.8635     0.1152     6.2670     7.7542   -26.5460
  396.0000     8.6252     0.0333     2.4632   103.7178     0.1074     6.3098     7.8613   -26.5505
  396.5000     8.6251     0.0347     2.4864   100.8473     0.0945     6.4410     7.9699   -26.5549
  397.0000     8.6250     0.0512     2.5022    99.0531     0.0816     6.7595     8.0814   -26.5593
  397.5000     8.6248     0.0647     2.5112    98.1765     0.0768     7.1430     8.2484   -26.2605
  398.0000     8.6247     0.0662     2.5164    97.5803     0.0738     7.4446     8.4787   -25.9637
  398.5000     8.6245     0.0645     2.5209    95.7829     0.0735     7.8174     8.7762   -25.6662
  399.0000     8.6394     0.0616     2.5225    99.6913     0.0753     8.1584     9.0842   -25.5195
  399.5000     8.6392     0.0511     2.5123   100.8969     0.0800     8.4595     9.3731   -25.3729
  400.0000     8.6376     0.0435     2.4985    97.7889     0.0878     8.7176     9.6275   -25.2262
  400.5000     8.6329     0.0465     2.4940    95.3490     0.0917     8.9098     9.8819   -25.2311
  401.0000     8.6282     0.0502     2.4932    95.2033     0.0923     9.0901    10.1363   -25.2356
  401.5000     8.6234     0.0562     2.4955    96.1098     0.0902     9.1520    10.2788   -25.2402
  402.0000     8.6187     0.0623     2.4969    98.8169     0.0896     9.2778    10.2760   -25.3958
  402.5000     8.6140     0.0689     2.4984   101.2237     0.0902     9.2766    10.2697   -25.7024
  403.0000     8.6092     0.0749     2.4954   102.2863     0.0911     9.2114    10.1202   -25.8580
  403.5000     8.6045     0.0824     2.4812   102.5841     0.0929     9.0837     9.9865   -25.8634
  404.0000     8.5998     0.0898     2.4781   102.6146     0.0973     8.9577     9.9149   -26.0189
  404.5000     8.5951     0.0973     2.4811   103.3447     0.1054     8.8335     9.9122   -26.0233
  405.0000     8.5903     0.1048     2.4759   104.2500     0.1082     8.7110     9.8411   -26.0277
  405.5000     8.5873     0.1123     2.4676   105.4557     0.1094     8.5902     9.7705   -25.8800
  406.0000     8.5717     0.1228     2.4668   105.7604     0.1106     8.4127     9.5670   -25.8856
  406.5000     8.5561     0.1318     2.4600   105.6136     0.1130     8.1774     9.3678   -25.8900
  407.0000     8.5404     0.1394     2.4624   105.9194     0.1169     7.8848     9.2364   -25.8944
  407.5000     8.5398     0.1455     2.4561   106.5245     0.1214     7.4249     9.1069   -26.0499
  408.0000     8.5242     0.1587     2.4180   105.6280     0.1286     6.9759     8.8557   -26.0544
  408.5000     8.5236     0.1752     2.4030   101.7285     0.1367     6.6915     8.6114   -25.9078
  409.0000     8.5379     0.2007     2.3993    99.7810     0.1406     6.4633     8.2533   -25.8872
  409.5000     8.5373     0.2667     2.4502    99.0347     0.1272     6.3736     7.9069   -25.7656
  410.0000     8.5367     0.2967     2.4690   101.1412     0.1051     6.4172     7.5431   -25.6190
  410.5000     8.5362     0.2786     2.4787   102.6471     0.0979     6.5961     7.5410   -25.6245
  411.0000     8.5356     0.2651     2.4794   102.3423     0.0952     6.8272     7.6972   -25.4768
  411.5000     8.5350     0.2621     2.4787   101.7367     0.0967     7.0664     7.9662   -25.3302
  412.0000     8.5389     0.2741     2.4772   101.4314     0.0988     7.5191     8.3597   -25.0325
  412.5000     8.5490     0.2965     2.4741   102.5158     0.0973     8.1827     8.8335   -24.5849
  413.0000     8.5634     0.3040     2.4702   105.2230     0.0961     8.8946     9.3341   -24.1361
  413.5000     8.5777     0.3010     2.4674   108.5307     0.1000     9.5077     9.7275   -24.1406
  414.0000     8.5922     0.3055     2.4696   108.0847     0.1046     9.7730     9.8611   -23.9940
  414.5000     8.5916     0.3144     2.4771   107.9379     0.0967     9.9765     9.9263   -23.9985
  415.0000     8.6060     0.3205     2.4755   110.3458     0.1016    10.1141     9.9926   -24.1541
  415.5000     8.6054     0.3219     2.4679   112.9028     0.1087    10.1832     9.9898   -24.1594
  416.0000     8.6199     0.3204     2.4643   113.2064     0.1058    10.2525     9.9788   -24.1631
