~VERSION INFORMATION
 VERS.                2.0:   CWLS LOG ASCII STANDARD - VERSION 2.0
 WRAP.                 NO:   ONE LINE PER DEPTH STEP
~WELL INFORMATION
#MNEM.UNIT      DATA TYPE    INFORMATION
#----------   ------------   ------------------------------
 STRT.F           50.0000:   START DEPTH
 STOP.F         1561.5000:   STOP DEPTH
 STEP.F            0.5000:   STEP LENGTH
 NULL.          -999.2500:   NO VALUE
 COMP. FENIX & SCISSON INC:   COMPANY
 WELL.  72 SH 3 STX #72-3:   WELL
 FLD .             TEAPOT:   FIELD
 LOC .       S3 T38N R78W:   LOCATION
 CNTY.            NATRONA:   COUNTY
 STAT.            WYOMING:   STATE
 CTRY. UNITED STATES OF AMERICA:   COUNTRY
 SRVC.           BIRDWELL:   SERVICE COMPANY
 DATE.        31-JUL-1979:   LOGDATE
 API .       490251078600:   API NUMBER
~CURVE INFORMATION
#MNEM.UNIT       API CODE    CURVE DESCRIPTION
#----------   ------------   ------------------------------
 DEPT.F                  :   
 CALD.IN     45 280 60 00:   CALIPER FROM DENSITY LOG
 GRD .GAPI   45 310 01 00:   GAMMA RAY FROM DENSITY LOG
 RHOB.G/C3   45 350 01 00:   BULK DENSITY
 CORR.G/C3   45 356 01 00:   DENSITY CORRECTION
 DPHI.DEC    45 890 12 00:   DENSITY POROSITY SANDSTONE
 GR  .GAPI   81 310 01 00:   GAMMA RAY
~PARAMETER INFORMATION
#MNEM.UNIT          VALUE    DESCRIPTION
#----------   ------------   ------------------------------
 PD  .                 GL:   PERMANENT DATUM
 EPD .F              5165:   ELEVATION PERMANENT DATUM
 LMF .                 KB:   LOG MEASURED FROM
 DAPD.F                10:   FEET ABOVE PERMANENT DATUM
 DMF .                 KB:   DRILLING MEASURED FROM
 EKB .F              5175:   KELLING BUSHING
 EGL .F              5165:   GROUND LEVEL
 DATE.            7-31-79:   RUN DATE
 RUN .                  1:   RUN NUMBER
 DD  .F              1564:   DEPTH DRILLER
 DL  .F              1560:   DEPTH LOGGER
 BLI .F              1560:   BOTTOM LOG INTERVAL
 TLI .F               700:   TOP LOG INTERVAL
 CS  .IN            9.625:   CASING SIZE
 CBD .F               691:   CASING BOTTOM DRILLER
 CBL .F               680:   CASING BOTTOM LOGGER
 BS  .IN            7.875:   BIT SIZE
 BSD .F              1564:   BIT SIZE AT DEPTH
 DFT .                OIL:   DRILLING FLUID TYPE
 BHT .F                92:   BOTTOM HOLE TEMPERATURE
 TCS .HRS               2:   TIME CURCULATED STOPPED
 MRT .F                92:   MAXIMUM RECORDED TEMPERATURE
 LUN .               3029:   LOGGING UNIT NUMBER
 LUL .                CPR:   LOGGING UNIT LOCATION
 ENGI.             MILLER:   RECORDING ENGINEER
 WITN.           DINSMORE:   WITNESSED BY
 CLNT.            A2DTECH:   CLIENT CODE
 ORIG.       2", 5" PRINT:   ORIGIN OF DATA
 UWI .       490251078600:   UNIQUE WELL ID
 DICO. A2D Technologies, Inc.:   DIGITIZING COMPANY
~OTHER INFORMATION
~A   DEPT     CALD        GRD       RHOB       CORR       DPHI          GR  
# ...
  934.0000     9.5176    89.5453     2.5114     0.0206     0.0218    91.8736
  934.5000     9.5250    95.1042     2.5249     0.0281     0.0139    91.1564
  935.0000     9.5324    99.0549     2.5212     0.0213     0.0136    90.3635
  935.5000     9.5382   101.1779     2.5356     0.0262     0.0070    89.5192
  936.0000     9.5300   100.3236     2.5518     0.0349     0.0004    88.4313
  936.5000     9.5216    96.4391     2.5540     0.0260    -0.0009    87.3425
  937.0000     9.5132    93.0379     2.5202     0.0160     0.0146    87.5151
  937.5000     9.5048    94.0916     2.5035     0.0070     0.0248    87.6671
  938.0000     9.4965    94.0074     2.5090     0.0097     0.0237    85.8936
  938.5000     9.4880    90.4007     2.5141     0.0135     0.0213    83.9129
  939.0000     9.4799    92.3704     2.5129     0.0170     0.0246    84.7077
  939.5000     9.5007    94.9180     2.5076     0.0147     0.0238    86.0687
  940.0000     9.5251    94.0195     2.5023     0.0100     0.0226    87.0810
  940.5000     9.5494    95.8760     2.4969     0.0053     0.0232    85.7570
  941.0000     9.5737    96.8770     2.4983     0.0030     0.0263    83.9481
  941.5000     9.5980    94.3411     2.5021     0.0110     0.0235    82.1288
  942.0000     9.6222    88.4877     2.5061     0.0192     0.0201    80.3305
  942.5000     9.6386    85.5764     2.5149     0.0273     0.0225    78.7859
  943.0000     9.6347    85.8159     2.5064     0.0355     0.0255    77.8754
  943.5000     9.6311    87.8287     2.5031     0.0486     0.0207    76.9436
  944.0000     9.6275    90.1193     2.5265     0.0747     0.0133    77.1578
  944.5000     9.6239    92.3604     2.5298     0.0933     0.0102    79.9270
  945.0000     9.6199    91.2335     2.5184     0.0929     0.0162    83.5434
  945.5000     9.6400    89.6810     2.5268     0.1024     0.0094    87.1994
  946.0000     9.6693    88.1544     2.5405     0.1162     0.0022    91.1352
  946.5000     9.6987    87.5978     2.5241     0.0866     0.0120    89.9394
  947.0000     9.7191    89.8271     2.5056     0.0651     0.0190    88.0163
  947.5000     9.7115    92.0479     2.5183     0.0637     0.0125    86.1564
  948.0000     9.7042    93.6181     2.5417     0.0621     0.0031    85.3445
  948.5000     9.6969    92.7091     2.5425     0.0608     0.0022    83.3074
  949.0000     9.6896    90.9952     2.5347     0.0562     0.0102    80.7807
  949.5000     9.6823    89.3616     2.5241     0.0462     0.0239    77.6634
  950.0000     9.6750    87.7207     2.5057     0.0232     0.0412    79.0301
  950.5000     9.6678    86.0733     2.4873     0.0025     0.0426    81.0236
  951.0000     9.6605    84.1292     2.4818     0.0103     0.0328    78.6633
  951.5000     9.6532    88.3835     2.4905     0.0203     0.0267    75.6484
  952.0000     9.6459    94.4528     2.5013     0.0304     0.0223    75.8975
  952.5000     9.6386    97.4893     2.5122     0.0405     0.0179    77.8998
  953.0000     9.6313    97.1130     2.5233     0.0450     0.0134    80.3860
  953.5000     9.6241    95.0955     2.5240     0.0410     0.0130    82.6571
  954.0000     9.6168    91.1804     2.5196     0.0340     0.0185    84.3287
  954.5000     9.6095    88.5677     2.5030     0.0273     0.0243    86.0302
  955.0000     9.6022    89.7267     2.5046     0.0289     0.0262    86.3120
  955.5000     9.5949    89.7127     2.5080     0.0333     0.0226    84.5433
  956.0000     9.5876    85.9378     2.5101     0.0264     0.0264    82.1615
  956.5000     9.5803    83.8333     2.4965     0.0183     0.0286    80.9191
  957.0000     9.5792    84.8656     2.4920     0.0171     0.0269    81.5814
  957.5000     9.5791    86.8549     2.5053     0.0190     0.0249    82.4149
  958.0000     9.5792    88.7718     2.5032     0.0209     0.0239    82.5499
  958.5000     9.5793    90.7980     2.5005     0.0229     0.0234    79.0046
  959.0000     9.5787    95.5650     2.5004     0.0248     0.0230    75.1253
  959.5000     9.5634    97.8291     2.5088     0.0248     0.0213    73.3168
  960.0000     9.5437    99.0220     2.5160     0.0217     0.0194    74.0206
  960.5000     9.5300    98.4933     2.5025     0.0187     0.0175    80.9926
  961.0000     9.5162    94.6397     2.5029     0.0156     0.0169    87.9824
  961.5000     9.5023    90.7308     2.5166     0.0128     0.0195    89.9200
  962.0000     9.4884    89.7324     2.5082     0.0166     0.0218    85.6364
  962.5000     9.4745    92.8566     2.5016     0.0210     0.0177    83.6975
  963.0000     9.4607    93.8521     2.5268     0.0215     0.0142    82.1707
  963.5000     9.4467    91.7885     2.5110     0.0191     0.0178    81.6813
  964.0000     9.4328    90.1020     2.5109     0.0166     0.0194    81.6959
  964.5000     9.4192    88.4036     2.5116     0.0140     0.0194    84.9504
  965.0000     9.4225    86.6968     2.5083     0.0100     0.0194    88.4774
  965.5000     9.4273    87.6640     2.4990     0.0049     0.0247    88.6441
  966.0000     9.4321    90.3866     2.4914     0.0009     0.0301    88.8063
  966.5000     9.4368    93.0984     2.4941     0.0028     0.0314    88.9799
  967.0000     9.4416    95.8097     2.5022     0.0120     0.0242    89.1725
  967.5000     9.4463    95.8437     2.5102     0.0210     0.0192    89.0856
  968.0000     9.4511    94.0571     2.5181     0.0300     0.0179    84.1273
  968.5000     9.4558    92.2952     2.5261     0.0390     0.0127    80.4177
  969.0000     9.4606    90.3042     2.5341     0.0480     0.0059    81.3921
  969.5000     9.4653    87.9947     2.5364     0.0492     0.0058    81.8592
  970.0000     9.4701    86.3792     2.5322     0.0424     0.0110    77.5769
  970.5000     9.4748    89.7594     2.5235     0.0349     0.0159    73.6194
  971.0000     9.4778    93.5102     2.5147     0.0274     0.0192    75.8888
  971.5000     9.4677    97.2871     2.5060     0.0274     0.0213    79.3362
  972.0000     9.4587    99.3215     2.5118     0.0312     0.0222    82.1621
  972.5000     9.4589    98.1791     2.5192     0.0348     0.0168    83.0419
  973.0000     9.4589    93.2029     2.5213     0.0350     0.0149    84.0806
  973.5000     9.4589    88.1783     2.5174     0.0350     0.0165    87.8491
  974.0000     9.4589    87.4846     2.5224     0.0347     0.0129    91.5182
  974.5000     9.4589    89.2519     2.5300     0.0326     0.0093    91.4959
  975.0000     9.4589    91.0279     2.5292     0.0306     0.0114    87.6469
  975.5000     9.4589    92.3374     2.5231     0.0286     0.0148    83.9339
  976.0000     9.4589    89.0908     2.5182     0.0282     0.0162    80.8760
  976.5000     9.4589    88.0194     2.5278     0.0344     0.0066    80.7555
  977.0000     9.4589    94.1941     2.5358     0.0387     0.0088    81.8918
  977.5000     9.4578    93.3462     2.5248     0.0269     0.0122    84.9295
  978.0000     9.4523    95.6014     2.5242     0.0279     0.0096    86.5406
  978.5000     9.4469    95.7488     2.5419     0.0352     0.0042    84.5962
  979.0000     9.4416    96.7383     2.5344     0.0393     0.0098    83.4412
  979.5000     9.4363    96.3043     2.5228     0.0261     0.0151    83.9494
  980.0000     9.4310    92.9480     2.5105     0.0131     0.0198    83.5938
  980.5000     9.4256    87.6569     2.5085     0.0179     0.0187    82.2163
  981.0000     9.4203    88.9090     2.5119     0.0237     0.0195    84.0823
  981.5000     9.4150    91.1584     2.5128     0.0249     0.0220    86.6298
  982.0000     9.4097    95.2677     2.5095     0.0188     0.0245    89.1826
  982.5000     9.4043    97.1395     2.5023     0.0120     0.0269    90.0308
  983.0000     9.3990    96.0274     2.4951     0.0053     0.0294    89.3108
  983.5000     9.3937    93.2775     2.4904     0.0053     0.0310    88.2381
  984.0000     9.3884    90.4079     2.4945     0.0080     0.0275    85.3387
  984.5000     9.3830    87.4964     2.5014     0.0090     0.0238    82.4592
  985.0000     9.3777    86.6109     2.5085     0.0069     0.0202    80.1129
  985.5000     9.3724    92.6583     2.5211     0.0043     0.0133    80.5837
