~VERSION INFORMATION
 VERS.                2.0:   CWLS LOG ASCII STANDARD - VERSION 2.0
 WRAP.                 NO:   ONE LINE PER DEPTH STEP
~WELL INFORMATION
#MNEM.UNIT      DATA TYPE    INFORMATION
#----------   ------------   ------------------------------
 STRT.F           31.0000:   START DEPTH
 STOP.F          662.0000:   STOP DEPTH
 STEP.F            0.5000:   STEP LENGTH
 NULL.          -999.2500:   NO VALUE
 COMP. FENIX & SCISSON INC:   COMPANY
 WELL.   NPR-3 #83SX15-15:   WELL
 FLD .             TEAPOT:   FIELD
 LOC .      S15 T38N R78W:   LOCATION
 CNTY.            NATRONA:   COUNTY
 STAT.            WYOMING:   STATE
 CTRY. UNITED STATES OF AMERICA:   COUNTRY
 SRVC.            Unknown:   SERVICE COMPANY
 DATE.        17-MAY-1978:   LOGDATE
 API .       490251062500:   API NUMBER
~CURVE INFORMATION
#MNEM.UNIT       API CODE    CURVE DESCRIPTION
#----------   ------------   ------------------------------
 DEPT.F                  :   
 SN  .OHMM   07 040 16 00:   SHORT NORMAL 16'
 ILD .OHMM   07 120 46 00:   INDUCTION LOG DEEP
 CALD.IN     45 280 60 00:   CALIPER
 GRD .GAPI   45 310 01 00:   GAMMA RAY FROM DENSITY LOG
 RHOB.G/C3   45 350 01 00:   BULK DENSITY
 DPHI.DEC    45 890 10 00:   DENSITY POROSITY SANDSTONE
 CORR.G/C3   45 356 01 00:   DENSITY CORRECTION
~PARAMETER INFORMATION
#MNEM.UNIT          VALUE    DESCRIPTION
#----------   ------------   ------------------------------
 PD  .                 GL:   PERMANENT DATUM
 EPD .F              5265:   ELEVATION PERMANENT DATUM
 LMF .                 KB:   LOG MEASURED FROM
 DMF .                 KB:   DRILLING MEASURED FROM
 EKB .F              5269:   KELLING BUSHING
 EGL .F              5265:   GROUND LEVEL
 DATE.          5-17-1978:   RUN DATE
 RUN .                  1:   RUN NUMBER
 DD  .F               670:   DEPTH DRILLER
 DL  .F               668:   DEPTH LOGGER
 BLI .F               662:   BOTTOM LOG INTERVAL
 TLI .F                40:   TOP LOG INTERVAL
 CS  .IN            8.625:   CASING SIZE
 CBD .F                40:   CASING BOTTOM DRILLER
 BS  .IN            7.875:   BIT SIZE
 BSD .F               670:   BIT SIZE AT DEPTH
 DFT .                KCL:   DRILLING FLUID TYPE
 DFD .                8.6:   DRILLING FLUID DENSITY
 DFV .                 31:   DRILLING FLUID VISCOSITY
 DFPH.                 10:   DRILLING FLUID PH
 BHT .F                75:   BOTTOM HOLE TEMPERATURE
 TCS .HRS               2:   TIME CURCULATED STOPPED
 MRT .F                75:   MAXIMUM RECORDED TEMPERATURE
 LUN .               3006:   LOGGING UNIT NUMBER
 LUL .                CPR:   LOGGING UNIT LOCATION
 ENGI.             MILLER:   RECORDING ENGINEER
 WITN.           MCGINLEY:   WITNESSED BY
 CLNT.            A2DTECH:   CLIENT CODE
 ORIG.      2" & 5" PRINT:   ORIGIN OF DATA
 UWI .       490251062500:   UNIQUE WELL ID
 DICO. A2D Technologies, Inc.:   DIGITIZING COMPANY
~OTHER INFORMATION
~A   DEPT       SN        ILD       CALD         GRD      RHOB       DPHI       CORR   
# ...
  213.0000     6.5483     6.8252     7.4574    75.1895     2.4671     0.1301     0.0269
  213.5000     6.5562     6.8434     7.4126    73.7406     2.4782     0.1234     0.0308
  214.0000     6.5642     6.8617     7.3677    74.4450     2.4843     0.1202     0.0348
  214.5000     6.5721     6.8800     7.3228    77.1386     2.4891     0.1171     0.0387
  215.0000     6.5801     6.8984     7.2779    77.4403     2.4914     0.1139     0.0428
  215.5000     6.5880     6.9168     7.2329    79.0631     2.4936     0.1106     0.0411
  216.0000     6.5960     6.9352     7.1875    80.7001     2.4949     0.1190     0.0390
  216.5000     6.6040     6.9538     7.1429    78.9386     2.4871     0.1190     0.0368
  217.0000     6.6120     6.9723     7.1576    77.2054     2.4778     0.1271     0.0347
  217.5000     6.6199     6.9909     7.2613    76.3827     2.4701     0.1314     0.0336
  218.0000     6.6280     7.0096     7.3589    76.7911     2.4690     0.1310     0.0370
  218.5000     6.6360     7.0283     7.3298    77.5926     2.4689     0.1309     0.0402
  219.0000     6.6441     7.0470     7.3004    77.3219     2.4695     0.1306     0.0502
  219.5000     6.6515     7.0658     7.3081    76.4465     2.4804     0.1209     0.0612
  220.0000     6.7088     7.0847     7.3406    75.0683     2.4924     0.1117     0.0710
  220.5000     6.7738     7.1036     7.3730    74.1225     2.5034     0.1054     0.0658
  221.0000     6.8396     7.1226     7.3850    74.2765     2.4992     0.1108     0.0556
  221.5000     6.9029     7.1416     7.3913    73.6258     2.4905     0.1214     0.0454
  222.0000     6.9401     7.1606     7.3974    73.5444     2.4828     0.1226     0.0403
  222.5000     6.9758     7.1797     7.4036    77.7219     2.4830     0.1220     0.0389
  223.0000     7.0116     7.1988     7.4099    79.6104     2.4842     0.1195     0.0376
  223.5000     7.0477     7.2175     7.4161    77.7635     2.4850     0.1193     0.0362
  224.0000     7.0839     7.2675     7.4223    75.4148     2.4850     0.1218     0.0350
  224.5000     7.1203     7.3506     7.4285    73.6176     2.4862     0.1190     0.0340
  225.0000     7.1569     7.4347     7.4348    74.2764     2.4887     0.1163     0.0331
  225.5000     7.1937     7.5198     7.4411    76.6307     2.4890     0.1134     0.0322
  226.0000     7.2307     7.6059     7.4465    78.6755     2.4872     0.1172     0.0313
  226.5000     7.2679     7.6932     7.4522    79.5443     2.4862     0.1194     0.0304
  227.0000     7.3053     7.7809     7.4578    81.2683     2.4867     0.1162     0.0295
  227.5000     7.3428     7.7993     7.4635    84.4592     2.4861     0.1182     0.0286
  228.0000     7.3891     7.8177     7.4691    86.8240     2.4838     0.1202     0.0277
  228.5000     7.4452     7.8362     7.4748    82.6990     2.4819     0.1222     0.0270
  229.0000     7.5016     7.8547     7.4804    78.5135     2.4820     0.1230     0.0269
  229.5000     7.5585     7.8732     7.4861    74.7176     2.4823     0.1230     0.0298
  230.0000     7.6158     7.8916     7.4917    74.9983     2.4860     0.1189     0.0338
  230.5000     7.6736     7.9106     7.4973    76.4602     2.4922     0.1136     0.0380
  231.0000     7.7318     7.9578     7.5030    77.6432     2.4986     0.1093     0.0382
  231.5000     7.7904     8.1357     7.5086    76.9165     2.4993     0.1111     0.0371
  232.0000     7.8495     8.3165     7.5143    76.2139     2.4984     0.1130     0.0359
  232.5000     7.9090     8.5018     7.5196    75.5122     2.4993     0.1129     0.0354
  233.0000     7.9690     8.6902     7.5149    74.7830     2.5028     0.1062     0.0377
  233.5000     8.0295     8.7605     7.5097    75.3641     2.5040     0.1092     0.0400
  234.0000     8.0780     8.8314     7.5046    77.5256     2.5058     0.1084     0.0423
  234.5000     8.0957     8.9029     7.5004    79.6919     2.5098     0.1043     0.0446
  235.0000     8.1136     8.9749     7.5072    81.8359     2.5117     0.1040     0.0469
  235.5000     8.1314     9.1102     7.5142    82.9336     2.5126     0.1045     0.0492
  236.0000     8.1493     9.3332     7.5199    78.1711     2.5136     0.1041     0.0515
  236.5000     8.1672     9.5616     7.5099    74.5495     2.5160     0.1015     0.0527
  237.0000     8.1852     9.7956     7.4991    71.0003     2.5197     0.0972     0.0517
  237.5000     8.2034     9.8283     7.4885    70.5234     2.5234     0.0930     0.0507
  238.0000     8.2229     9.8611     7.4829    71.5061     2.5229     0.0991     0.0497
  238.5000     8.2075     9.8941     7.4995    72.0406     2.5171     0.1052     0.0476
  239.0000     8.1901     9.9271     7.5156    70.6667     2.5050     0.1114     0.0410
  239.5000     8.1728     9.9603     7.5316    69.6790     2.4910     0.1138     0.0350
  240.0000     8.1553     9.9777     7.5370    70.0033     2.4872     0.1167     0.0341
  240.5000     8.0873     9.5144     7.5311    71.8926     2.4836     0.1204     0.0334
  241.0000     7.9730     9.1701     7.5253    73.8490     2.4800     0.1218     0.0350
  241.5000     7.8601     8.7670     7.5194    75.0473     2.4838     0.1194     0.0386
  242.0000     7.7762     8.7725     7.5135    78.1886     2.4889     0.1161     0.0399
  242.5000     7.7599     8.7706     7.5077    78.8318     2.4941     0.1150     0.0367
  243.0000     7.7436     8.7706     7.5018    77.3120     2.4941     0.1144     0.0335
  243.5000     7.7273     8.7706     7.4959    76.9779     2.4930     0.1139     0.0346
  244.0000     7.7111     8.7706     7.4901    78.9000     2.4960     0.1113     0.0365
  244.5000     7.6949     8.7710     7.4842    80.8615     2.5004     0.1080     0.0385
  245.0000     7.6788     8.7719     7.4802    82.8220     2.5013     0.1038     0.0405
  245.5000     7.6626     8.6793     7.4849    84.8108     2.5016     0.1038     0.0398
  246.0000     7.6467     8.6034     7.4894    84.4985     2.5019     0.1051     0.0354
  246.5000     7.6333     8.5280     7.4938    83.7111     2.5011     0.1090     0.0286
  247.0000     7.6231     8.4534     7.4982    81.6231     2.4957     0.1133     0.0217
  247.5000     7.6127     8.3790     7.5026    79.1395     2.4887     0.1177     0.0201
  248.0000     7.6024     8.2997     7.5071    78.5040     2.4860     0.1194     0.0220
  248.5000     7.5920     8.2333     7.5115    78.2639     2.4859     0.1198     0.0250
  249.0000     7.5817     8.1613     7.5159    78.2553     2.4897     0.1153     0.0298
  249.5000     7.5714     8.0899     7.5203    79.8804     2.4954     0.1109     0.0346
  250.0000     7.5611     7.9989     7.5248    84.1290     2.5011     0.1065     0.0370
  250.5000     7.5509     8.0123     7.5292    82.2696     2.5050     0.1018     0.0370
  251.0000     7.5406     8.0312     7.5336    80.0546     2.5039     0.1014     0.0370
  251.5000     7.5304     8.0500     7.5381    78.6770     2.5020     0.1079     0.0370
  252.0000     7.5202     8.0690     7.5374    77.2655     2.5001     0.1105     0.0370
  252.5000     7.5099     8.0880     7.5335    75.9102     2.5006     0.1082     0.0370
  253.0000     7.4994     8.1070     7.5295    75.3293     2.4998     0.1090     0.0370
  253.5000     7.4369     8.1261     7.5255    74.7798     2.4936     0.1111     0.0369
  254.0000     7.3731     8.1476     7.5215    74.2671     2.4876     0.1210     0.0392
  254.5000     7.3099     8.0623     7.5174    75.5943     2.4894     0.1168     0.0418
  255.0000     7.2472     7.9658     7.5134    78.5060     2.4928     0.1122     0.0423
  255.5000     7.1852     7.8705     7.5094    79.5510     2.4963     0.1082     0.0410
  256.0000     7.1217     7.7762     7.5054    80.8858     2.4970     0.1142     0.0398
  256.5000     7.0577     7.6832     7.5013    82.5300     2.4955     0.1115     0.0385
  257.0000     6.9942     7.5912     7.5022    83.5451     2.4929     0.1114     0.0372
  257.5000     6.9313     7.4324     7.5054    84.2239     2.4903     0.1155     0.0359
  258.0000     6.8687     7.2555     7.5087    84.6002     2.4877     0.1190     0.0355
