~VERSION INFORMATION
 VERS.                2.0:   CWLS LOG ASCII STANDARD - VERSION 2.0
 WRAP.                 NO:   ONE LINE PER DEPTH STEP
~WELL INFORMATION
#MNEM.UNIT      DATA TYPE    INFORMATION
#----------   ------------   ------------------------------
 STRT.F          566.5000:   START DEPTH
 STOP.F         2065.5000:   STOP DEPTH
 STEP.F            0.5000:   STEP LENGTH
 NULL.          -999.2500:   NO VALUE
 COMP. LAWRENCE/ALLISON INC:   COMPANY
 WELL.      NPR 3 #25-X-3:   WELL
 FLD .             TEAPOT:   FIELD
 LOC .       S3 T38N R78W:   LOCATION
 CNTY.            NATRONA:   COUNTY
 STAT.            WYOMING:   STATE
 CTRY. UNITED STATES OF AMERICA:   COUNTRY
 SRVC.            Unknown:   SERVICE COMPANY
 DATE.        26-SEP-1987:   LOGDATE
 API .       490251119000:   API NUMBER
~CURVE INFORMATION
#MNEM.UNIT       API CODE    CURVE DESCRIPTION
#----------   ------------   ------------------------------
 DEPT.F                  :   
 ROP .MIN/FT 91 810 01 00:   RATE OF DRILLING PENETRATION
 TGAS.UNITS  91 830 01 00:   TOTAL GAS FROM HOTWIRE
~PARAMETER INFORMATION
#MNEM.UNIT          VALUE    DESCRIPTION
#----------   ------------   ------------------------------
 DATE.        26-SEP-1987:   RUN DATE
 RUN .                  1:   RUN NUMBER
 DD  .F              2066:   DEPTH DRILLER
 TLI .F               566:   TOP LOG INTERVAL
 WITN. R. HUSK/R. PETERSON:   WITNESSED BY
 CLNT.            A2DTECH:   CLIENT CODE
 ORIG.           5" PRINT:   ORIGIN OF DATA
 UWI .       490251119000:   UNIQUE WELL ID
 DICO. A2D Technologies, Inc.:   DIGITIZING COMPANY
~OTHER INFORMATION
~A   DEPT        ROP       TGAS 
# ...
 1781.5000     0.5147   257.3791
 1782.0000     0.5146   257.4571
 1782.5000     0.5146   257.5351
 1783.0000     0.5146   257.6130
 1783.5000     0.5145   257.6910
 1784.0000     0.5145   257.7690
 1784.5000     0.5144   257.8470
 1785.0000     0.5144   257.9249
 1785.5000     0.5144   258.0029
 1786.0000     0.5143   258.0809
 1786.5000     0.5143   258.1589
 1787.0000     0.5142   258.2368
 1787.5000     0.5142   258.3148
 1788.0000     0.5142   258.3928
 1788.5000     0.5141   258.4708
 1789.0000     0.5141   258.5487
 1789.5000     0.5140   258.6267
 1790.0000     0.5140   258.7047
 1790.5000     0.5140   258.7827
 1791.0000     0.5139   258.8607
 1791.5000     0.5139   258.9386
 1792.0000     0.5138   259.0166
 1792.5000     0.5138   259.0946
 1793.0000     0.5138   259.1725
 1793.5000     0.5137   259.2505
 1794.0000     0.5137   259.3285
 1794.5000     0.5136   259.4065
 1795.0000     0.5136   259.4845
 1795.5000     0.5136   259.5624
 1796.0000     0.5135   259.6404
 1796.5000     0.5135   259.7184
 1797.0000     0.5134   259.7964
 1797.5000     0.5134   259.8743
 1798.0000     0.5134   259.9523
 1798.5000     0.5133   260.0303
 1799.0000     0.5133   260.1083
 1799.5000     0.5132   260.1862
 1800.0000     0.5132   260.2642
 1800.5000     0.5131   260.3422
 1801.0000     0.5131   260.4202
 1801.5000     0.5131   260.4981
 1802.0000     0.5130   260.5761
 1802.5000     0.5130   260.6541
 1803.0000     0.5129   260.7321
 1803.5000     0.5129   260.8101
 1804.0000     0.5129   260.8880
 1804.5000     0.5128   260.9660
 1805.0000     0.5128   261.0440
 1805.5000     0.5127   261.1219
 1806.0000     0.5127   261.1999
 1806.5000     0.5127   261.2779
 1807.0000     0.5126   261.3559
 1807.5000     0.5126   261.4339
 1808.0000     0.5125   261.5118
 1808.5000     0.5125   261.5898
 1809.0000     0.5125   261.6678
 1809.5000     0.5131   261.7458
 1810.0000     0.5345   261.8237
 1810.5000     0.5874   261.9017
 1811.0000     0.6402   261.9797
 1811.5000     0.6721   262.0576
 1812.0000     0.6832   262.1357
 1812.5000     0.6943   262.2136
 1813.0000     0.7158   262.2916
 1813.5000     0.7268   262.3696
 1814.0000     0.7274   262.4475
 1814.5000     0.7385   262.5255
 1815.0000     0.7391   262.6035
 1815.5000     0.7394   262.6815
 1816.0000     0.7395   262.7595
 1816.5000     0.7396   262.8374
 1817.0000     0.7397   262.9154
 1817.5000     0.7399   262.9934
 1818.0000     0.7400   263.0714
 1818.5000     0.7401   263.1493
 1819.0000     0.7403   263.2273
 1819.5000     0.7404   263.3053
 1820.0000     0.7405   263.3832
 1820.5000     0.7406   263.4612
 1821.0000     0.7408   263.5392
 1821.5000     0.7409   263.6172
 1822.0000     0.7410   263.6952
 1822.5000     0.7411   263.7731
 1823.0000     0.7413   263.8511
 1823.5000     0.7414   263.9291
 1824.0000     0.7415   264.0070
 1824.5000     0.7417   264.0850
 1825.0000     0.7418   264.1630
 1825.5000     0.7419   264.2410
 1826.0000     0.7420   264.3190
 1826.5000     0.7422   264.3969
 1827.0000     0.7423   264.4749
 1827.5000     0.7424   264.5529
 1828.0000     0.7425   264.6309
 1828.5000     0.7427   264.7088
 1829.0000     0.7428   264.7868
 1829.5000     0.7429   264.8648
 1830.0000     0.7430   264.9428
 1830.5000     0.7432   265.0208
 1831.0000     0.7433   265.0987
 1831.5000     0.7434   265.1767
 1832.0000     0.7436   265.2547
 1832.5000     0.7437   265.3326
 1833.0000     0.7438   265.4106
 1833.5000     0.7439   265.4886
 1834.0000     0.7441   265.5666
 1834.5000     0.7442   265.6446
 1835.0000     0.7443   265.7225
 1835.5000     0.7444   265.8005
 1836.0000     0.7446   265.8785
 1836.5000     0.7447   265.9565
 1837.0000     0.7448   266.0344
 1837.5000     0.7450   266.1124
 1838.0000     0.7451   266.1904
 1838.5000     0.7452   266.2684
 1839.0000     0.7453   266.3463
 1839.5000     0.7455   266.4243
 1840.0000     0.7456   266.5023
 1840.5000     0.7457   266.5803
 1841.0000     0.7458   266.6582
 1841.5000     0.7460   266.7362
 1842.0000     0.7461   266.8142
 1842.5000     0.7462   266.8922
 1843.0000     0.7463   266.9702
 1843.5000     0.7465   267.0481
 1844.0000     0.7466   267.1261
 1844.5000     0.7467   267.2041
 1845.0000     0.7469   267.2820
 1845.5000     0.7470   267.3600
 1846.0000     0.7471   267.4380
 1846.5000     0.7472   267.5160
 1847.0000     0.7474   267.5940
 1847.5000     0.7475   267.6719
 1848.0000     0.7476   267.7499
 1848.5000     0.7477   267.8279
 1849.0000     0.7479   267.9059
 1849.5000     0.7480   267.9838
 1850.0000     0.7481   268.0618
 1850.5000     0.7483   268.1398
 1851.0000     0.7484   268.2177
 1851.5000     0.7485   268.2957
 1852.0000     0.7486   268.3737
 1852.5000     0.7488   268.4517
 1853.0000     0.7489   268.5297
 1853.5000     0.7490   268.6076
 1854.0000     0.7491   268.6856
 1854.5000     0.7493   268.7636
 1855.0000     0.7494   268.8416
 1855.5000     0.7495   268.9195
 1856.0000     0.7496   268.9975
 1856.5000     0.7498   269.0755
 1857.0000     0.7499   269.1535
 1857.5000     0.7500   269.2314
 1858.0000     0.7502   269.3094
 1858.5000     0.7503   269.3874
 1859.0000     0.7504   269.4654
 1859.5000     0.7505   269.5433
 1860.0000     0.7507   269.6213
 1860.5000     0.7508   269.6993
 1861.0000     0.7509   269.7773
 1861.5000     0.7510   269.8553
 1862.0000     0.7512   269.9332
 1862.5000     0.7513   270.0112
 1863.0000     0.7514   270.0892
 1863.5000     0.7516   270.1671
 1864.0000     0.7517   270.2451
 1864.5000     0.7518   270.3231
 1865.0000     0.7519   270.4011
 1865.5000     0.7521   270.4791
 1866.0000     0.7522   270.5570
 1866.5000     0.7523   270.6350
 1867.0000     0.7524   270.7130
 1867.5000     0.7526   270.7910
 1868.0000     0.7527   270.8689
 1868.5000     0.7528   270.9469
 1869.0000     0.7529   271.0249
 1869.5000     0.7531   271.1029
 1870.0000     0.7532   271.1808
 1870.5000     0.7533   271.2588
 1871.0000     0.7535   271.3368
 1871.5000     0.7536   271.4148
 1872.0000     0.7537   271.4927
 1872.5000     0.7538   271.5707
 1873.0000     0.7540   271.6487
 1873.5000     0.7541   271.7267
 1874.0000     0.7542   271.8047
 1874.5000     0.7543   271.8826
 1875.0000     0.7545   271.9606
 1875.5000     0.7546   272.0386
 1876.0000     0.7547   272.1165
 1876.5000     0.7549   272.1945
 1877.0000     0.7550   272.2725
 1877.5000     0.7551   272.3505
 1878.0000     0.7552   272.4285
 1878.5000     0.7554   272.5064
 1879.0000     0.7555   272.5844
 1879.5000     0.7556   272.6624
 1880.0000     0.7558   272.7404
 1880.5000     0.7559   272.8183
 1881.0000     0.7247   272.8963
 1881.5000     0.7144   272.9743
 1882.0000     0.6833   273.0522
 1882.5000     0.6730   273.1302
 1883.0000     0.6623   273.2082
 1883.5000     0.6316   273.2862
 1884.0000     0.6318   273.3642
 1884.5000     0.6214   273.4421
 1885.0000     0.6007   273.5201
 1885.5000     0.6009   273.5981
 1886.0000     0.6011   273.6761
 1886.5000     0.6012   273.7540
 1887.0000     0.6014   273.8320
 1887.5000     0.6120   273.9100
 1888.0000     0.6330   273.9880
 1888.5000     0.6332   274.0659
 1889.0000     0.6333   274.1439
 1889.5000     0.6335   274.2219
 1890.0000     0.6441   274.2999
 1890.5000     0.6442   274.3778
 1891.0000     0.6444   274.4558
 1891.5000     0.6441   274.5338
 1892.0000     0.6438   274.6118
 1892.5000     0.6434   274.6898
 1893.0000     0.6431   274.7677
 1893.5000     0.6428   274.8457
 1894.0000     0.6424   274.9237
 1894.5000     0.6421   275.0016
 1895.0000     0.6418   275.0796
 1895.5000     0.6414   275.1576
 1896.0000     0.6411   275.2356
 1896.5000     0.6408   275.3136
 1897.0000     0.6404   275.3915
 1897.5000     0.6401   275.4695
 1898.0000     0.6398   275.5475
 1898.5000     0.6395   275.6255
 1899.0000     0.6391   275.7034
 1899.5000     0.6388   275.7814
 1900.0000     0.6385   275.8594
 1900.5000     0.6381   275.9374
 1901.0000     0.6378   276.0154
 1901.5000     0.6375   276.0933
 1902.0000     0.6371   276.1713
 1902.5000     0.6368   276.2493
