~VERSION INFORMATION
 VERS.                2.0:   CWLS LOG ASCII STANDARD - VERSION 2.0
 WRAP.                 NO:   ONE LINE PER DEPTH STEP
~WELL INFORMATION
#MNEM.UNIT      DATA TYPE    INFORMATION
#----------   ------------   ------------------------------
 STRT.F            0.0000:   START DEPTH
 STOP.F          539.0000:   STOP DEPTH
 STEP.F            0.5000:   STEP LENGTH
 NULL.          -999.2500:   NO VALUE
 COMP. FENIX & SCISSON INC:   COMPANY
 WELL.     NPR 3 SX #23-3:   WELL
 FLD .             TEAPOT:   FIELD
 LOC .       S3 T38N R78W:   LOCATION
 CNTY.            NATRONA:   COUNTY
 STAT.            WYOMING:   STATE
 CTRY. UNITED STATES OF AMERICA:   COUNTRY
 SRVC.           BIRDWELL:   SERVICE COMPANY
 DATE.        27-JUL-1978:   LOGDATE
 API .       490251067500:   API NUMBER
~CURVE INFORMATION
#MNEM.UNIT       API CODE    CURVE DESCRIPTION
#----------   ------------   ------------------------------
 DEPT.F                  :   
 ILD .OHMM   05 120 40 00:   INDUCTION LOG DEEP
 SPR .MV     05 010 01 00:   SPONTANEOUS POTENTIAL
 SN  .OHMM   05 040 16 00:   SHORT NORMAL 16"
 CALD.IN     45 280 60 00:   CALIPER FROM DENSITY LOG
 CORR.G/C3   45 356 01 00:   DENSITY CORRECTION
 DPHI.DEC    45 890 12 00:   DENSITY POROSITY SANDSTONE
 GRD .GAPI   45 310 01 00:   GAMMA RAY FROM DENSITY LOG
 RHOB.G/C3   45 350 01 00:   BULK DENSITY
~PARAMETER INFORMATION
#MNEM.UNIT          VALUE    DESCRIPTION
#----------   ------------   ------------------------------
 PD  .                 GL:   PERMANENT DATUM
 EPD .F              5787:   ELEVATION PERMANENT DATUM
 LMF .                 KB:   LOG MEASURED FROM
 DAPD.F                 4:   FEET ABOVE PERMANENT DATUM
 DMF .                 KB:   DRILLING MEASURED FROM
 EKB .F              5191:   KELLING BUSHING
 EGL .F              5187:   GROUND LEVEL
 DATE.         7-JUL-1978:   RUN DATE
 RUN .                  1:   RUN NUMBER
 DD  .F               540:   DEPTH DRILLER
 DL  .F               540:   DEPTH LOGGER
 BLI .F               539:   BOTTOM LOG INTERVAL
 CS  .IN            8.625:   CASING SIZE
 CBD .F                40:   CASING BOTTOM DRILLER
 BS  .IN            7.875:   BIT SIZE
 BSD .F               540:   BIT SIZE AT DEPTH
 DFT .                KCL:   DRILLING FLUID TYPE
 DFD .                8.6:   DRILLING FLUID DENSITY
 DFV .                 30:   DRILLING FLUID VISCOSITY
 DFPH.                  9:   DRILLING FLUID PH
 MSS .           FLOWLINE:   MUD SAMPLE SOURCE
 MRT .F                74:   MAXIMUM RECORDED TEMPERATURE
 LUN .               2958:   LOGGING UNIT NUMBER
 LUL .               CASP:   LOGGING UNIT LOCATION
 ENGI.            POINTER:   RECORDING ENGINEER
 WITN.              AMEND:   WITNESSED BY
 CLNT.            A2DTECH:   CLIENT CODE
 ORIG.           5" PRINT:   ORIGIN OF DATA
 UWI .       490251067500:   UNIQUE WELL ID
 DICO. A2D Technologies, Inc.:   DIGITIZING COMPANY
~OTHER INFORMATION
~A    DEPT     ILD        SPR         SN         CALD     CORR       DPHI         GRD      RHOB   
    0.0000  -999.2500  -999.2500  -999.2500     7.7899  -999.2500  -999.2500    32.5749  -999.2500
    0.5000  -999.2500  -999.2500  -999.2500     7.7701  -999.2500  -999.2500    32.5749  -999.2500
    1.0000  -999.2500  -999.2500  -999.2500     7.8226  -999.2500  -999.2500    32.4251  -999.2500
    1.5000  -999.2500  -999.2500  -999.2500     7.8369  -999.2500  -999.2500    31.9760  -999.2500
    2.0000  -999.2500  -999.2500  -999.2500     7.8810  -999.2500  -999.2500    31.9760  -999.2500
    2.5000  -999.2500  -999.2500  -999.2500     7.8799  -999.2500  -999.2500    31.8263  -999.2500
    3.0000  -999.2500  -999.2500  -999.2500     7.8787  -999.2500  -999.2500    31.5269  -999.2500
    3.5000  -999.2500  -999.2500  -999.2500     7.8474  -999.2500  -999.2500    33.1737  -999.2500
    4.0000  -999.2500  -999.2500  -999.2500     7.8766    -0.4056     0.1952    33.6228     2.2815
    4.5000  -999.2500  -999.2500  -999.2500     7.9360    -0.4143     0.1956    33.7725     2.2815
    5.0000  -999.2500  -999.2500  -999.2500     7.9350    -0.4234     0.2110    34.9701     2.2814
    5.5000  -999.2500  -999.2500  -999.2500     7.9147    -0.4355     0.2137    35.4192     2.2904
    6.0000  -999.2500  -999.2500  -999.2500     7.8119    -0.4416     0.2089    35.5689     2.2927
    6.5000  -999.2500  -999.2500  -999.2500     7.7807    -0.4447     0.2041    35.5689     2.2942
    7.0000  -999.2500  -999.2500  -999.2500     7.8099    -0.4448     0.1966    36.1677     2.3031
    7.5000  -999.2500  -999.2500  -999.2500     7.8240    -0.4452     0.1897    37.3653     2.3204
    8.0000  -999.2500  -999.2500  -999.2500     7.8683    -0.4480     0.1849    37.3653     2.3264
    8.5000  -999.2500  -999.2500  -999.2500     7.8974    -0.4512     0.1850    37.3653     2.3353
    9.0000  -999.2500  -999.2500  -999.2500     7.8660    -0.4543     0.1867    37.3653     2.3338
    9.5000  -999.2500  -999.2500  -999.2500     7.9254    -0.4589     0.1882    37.9641     2.3323
   10.0000  -999.2500  -999.2500  -999.2500     7.9546    -0.4605     0.1906    37.9741     2.3293
   10.5000  -999.2500  -999.2500  -999.2500     7.9840    -0.4591     0.1873    38.8623     2.3293
   11.0000  -999.2500  -999.2500  -999.2500     7.9072    -0.4547     0.1816    40.3593     2.3346
   11.5000  -999.2500  -999.2500  -999.2500     7.8303    -0.4503     0.1822    41.5569     2.3383
   12.0000  -999.2500  -999.2500  -999.2500     7.7992    -0.4550     0.1849    41.8563     2.3383
   12.5000  -999.2500  -999.2500  -999.2500     7.8284    -0.4611     0.1874    42.4551     2.3323
   13.0000  -999.2500  -999.2500  -999.2500     7.8578    -0.4672     0.1897    43.9521     2.3293
   13.5000  -999.2500  -999.2500  -999.2500     7.9021    -0.4673     0.1909    47.3952     2.3286
   14.0000  -999.2500  -999.2500  -999.2500     7.9162    -0.4615     0.1912    52.3752     2.3278
   14.5000  -999.2500  -999.2500  -999.2500     7.8998    -0.4496     0.1873    56.5269     2.3263
   15.0000  -999.2500  -999.2500  -999.2500     7.8988    -0.4317     0.1790    55.7784     2.3263
   15.5000  -999.2500  -999.2500  -999.2500     7.8824    -0.4295     0.1801    55.4790     2.3413
   16.0000  -999.2500  -999.2500  -999.2500     7.8663    -0.4380     0.1804    56.5269     2.3594
   16.5000  -999.2500  -999.2500  -999.2500     7.8502    -0.4501     0.1815    57.1257     2.3623
   17.0000  -999.2500  -999.2500  -999.2500     7.8492    -0.4562     0.1888    57.7246     2.3308
   17.5000  -999.2500  -999.2500  -999.2500     7.7877    -0.4473     0.1912    57.7246     2.3263
   18.0000  -999.2500  -999.2500  -999.2500     7.7867    -0.4370     0.1864    57.8743     2.3293
   18.5000  -999.2500  -999.2500  -999.2500     7.7855    -0.4326     0.1846    58.3234     2.3353
   19.0000  -999.2500  -999.2500  -999.2500     7.7844    -0.4327     0.1849    58.9222     2.3353
   19.5000  -999.2500  -999.2500  -999.2500     7.8290    -0.4326     0.1978    59.5210     2.3346
   20.0000  -999.2500  -999.2500  -999.2500     7.8431    -0.4285     0.1993    60.1198     2.3223
   20.5000  -999.2500  -999.2500  -999.2500     7.8418    -0.4271     0.2002    60.5689     2.3106
   21.0000  -999.2500  -999.2500  -999.2500     7.7796    -0.4242     0.2014    60.7186     2.3061
   21.5000  -999.2500  -999.2500  -999.2500     7.6583    -0.4213     0.2053    59.9701     2.3024
   22.0000  -999.2500  -999.2500  -999.2500     7.5968    -0.4184     0.2179    58.3234     2.2979
   22.5000  -999.2500  -999.2500  -999.2500     7.5052    -0.4156     0.2308    58.1737     2.2867
   23.0000  -999.2500  -999.2500  -999.2500     7.4437    -0.4097     0.2365    57.7246     2.2605
   23.5000  -999.2500  -999.2500  -999.2500     7.4125    -0.4038     0.2485    57.7246     2.2335
   24.0000  -999.2500  -999.2500  -999.2500     7.3811    -0.3965     0.2748    57.7246     2.1985
   24.5000  -999.2500  -999.2500  -999.2500     7.3498    -0.3801     0.3038    57.7246     2.1407
   25.0000  -999.2500  -999.2500  -999.2500     7.3488    -0.3608     0.3254    58.1737     2.0988
   25.5000  -999.2500  -999.2500  -999.2500     7.3175    -0.3292     0.3575    59.0719     2.0539
   26.0000  -999.2500  -999.2500  -999.2500     7.2863    -0.2383     0.3941    60.8683     2.0120
   26.5000  -999.2500  -999.2500  -999.2500     7.2400    -0.0079     0.3905    62.5190     1.9281
   27.0000  -999.2500  -999.2500  -999.2500     7.2088     0.0385     0.3144    64.4212     1.9278
   27.5000  -999.2500  -999.2500  -999.2500     7.1604     0.0323     0.2622    66.8563     2.0307
   28.0000  -999.2500  -999.2500  -999.2500     7.0856     0.0322     0.1550    67.3054     2.3586
   28.5000  -999.2500  -999.2500  -999.2500     6.9940     0.0321     0.1532    68.0539     2.3952
   29.0000  -999.2500  -999.2500  -999.2500     8.2772     0.0320     0.1538    69.1018     2.3982
   29.5000  -999.2500  -999.2500  -999.2500     7.7623     0.0318     0.1562    70.2994     2.3982
   30.0000  -999.2500  -999.2500  -999.2500     7.5800     0.0317     0.1598    70.8982     2.3930
   30.5000  -999.2500  -999.2500  -999.2500     7.5186     0.0376     0.1622    70.8982     2.3877
   31.0000  -999.2500  -999.2500  -999.2500     7.5173     0.0554     0.1631    70.7485     2.3832
   31.5000  -999.2500  -999.2500  -999.2500     7.9997     0.1272     0.1634    70.4491     2.3832
   32.0000  -999.2500  -999.2500  -999.2500     7.8778     0.1391     0.1574    70.2994     2.3997
   32.5000  -999.2500  -999.2500  -999.2500     7.7560     0.0491     0.1478    69.8503     2.4536
   33.0000  -999.2500  -999.2500  -999.2500     7.6945     0.0190     0.1404    69.7006     2.4551
   33.5000  -999.2500  -999.2500  -999.2500     8.0085     0.0129     0.1370    69.7006     2.4192
   34.0000  -999.2500  -999.2500  -999.2500     7.8886     0.0128     0.1334    70.7485     2.4117
   34.5000  -999.2500  -999.2500  -999.2500     7.7668     0.0187     0.1304    72.6946     2.4192
   35.0000  -999.2500  -999.2500  -999.2500     7.7506     0.0245     0.1265    76.7864     2.4274
   35.5000  -999.2500  -999.2500  -999.2500     7.7496     0.0334     0.1238    77.7844     2.4364
   36.0000  -999.2500  -999.2500  -999.2500     7.7486     0.0393     0.1205    77.9341     2.4441
   36.5000  -999.2500  -999.2500  -999.2500     7.7476     0.0422     0.1178    77.9341     2.4536
   37.0000  -999.2500  -999.2500  -999.2500     7.7463     0.0420     0.1142    77.7844     2.4611
   37.5000  -999.2500  -999.2500  -999.2500     7.7453     0.0299     0.1103    77.4850     2.4753
   38.0000  -999.2500  -999.2500  -999.2500     7.7443     0.0253     0.1085    76.2874     2.4940
   38.5000  -999.2500  -999.2500  -999.2500     7.7282     0.0237     0.1286    74.4910     2.4970
   39.0000  -999.2500  -999.2500  -999.2500     7.7271     0.0236     0.1310    72.8403     2.4641
   39.5000  -999.2500  -999.2500  -999.2500     7.8923     0.0235     0.1229    72.0080     2.4521
   40.0000  -999.2500  -999.2500  -999.2500     8.6768     0.0234     0.1202    71.1976     2.4551
