~VERSION INFORMATION
 VERS.                2.0:   CWLS LOG ASCII STANDARD - VERSION 2.0
 WRAP.                 NO:   ONE LINE PER DEPTH STEP
~WELL INFORMATION
#MNEM.UNIT      DATA TYPE    INFORMATION
#----------   ------------   ------------------------------
 STRT.F            0.0000:   START DEPTH
 STOP.F          537.0000:   STOP DEPTH
 STEP.F            0.5000:   STEP LENGTH
 NULL.          -999.2500:   NO VALUE
 COMP.   FLUOR DANIEL INC:   COMPANY
 WELL. NAVAL PETROLEUM RESERVE 73 X-10 #8-10:   WELL
 FLD .             TEAPOT:   FIELD
 LOC .      S10 T37N R78W:   LOCATION
 CNTY.            NATRONA:   COUNTY
 STAT.            WYOMING:   STATE
 CTRY. UNITED STATES OF AMERICA:   COUNTRY
 SRVC.      Western Atlas:   SERVICE COMPANY
 DATE.        01-MAY-1996:   LOGDATE
 API .       490252278200:   API NUMBER
~CURVE INFORMATION
#MNEM.UNIT       API CODE    CURVE DESCRIPTION
#----------   ------------   ------------------------------
 DEPT.F                  :   
 GRR .GAPI   07 310 01 00:   GAMMA RAY FROM RES. LOG.
 ILM .OHMM   07 120 44 00:   INDUCTION LOG MEDIUM
 ILD .OHMM   07 120 46 00:   INDUCTION LOG DEEP
~PARAMETER INFORMATION
#MNEM.UNIT          VALUE    DESCRIPTION
#----------   ------------   ------------------------------
 PD  .                 GL:   PERMANENT DATUM
 EPD .F              5161:   ELEVATION PERMANENT DATUM
 LMF .                 KB:   LOG MEASURED FROM
 DAPD.F                10:   FEET ABOVE PERMANENT DATUM
 DMF .                 KB:   DRILLING MEASURED FROM
 EKB .F              5171:   KELLING BUSHING
 EDF .F              5170:   DRILLING FLOOR
 EGL .F              5161:   GROUND LEVEL
 DATE.         MAY-1-1996:   RUN DATE
 RUN .                  1:   RUN NUMBER
 DD  .F               545:   DEPTH DRILLER
 DL  .F               542:   DEPTH LOGGER
 BLI .F               542:   BOTTOM LOG INTERVAL
 CS  .IN            9.625:   CASING SIZE
 CBD .F                95:   CASING BOTTOM DRILLER
 BS  .IN             8.75:   BIT SIZE
 BSD .F               545:   BIT SIZE AT DEPTH
 DFT .                AIR:   DRILLING FLUID TYPE
 BHT .F                80:   BOTTOM HOLE TEMPERATURE
 MRT .F                80:   MAXIMUM RECORDED TEMPERATURE
 LUN .            HL-6530:   LOGGING UNIT NUMBER
 LUL .             CASPER:   LOGGING UNIT LOCATION
 ENGI.           BROWNLOW:   RECORDING ENGINEER
 WITN.             LEBEAU:   WITNESSED BY
 CLNT.            A2DTECH:   CLIENT CODE
 ORIG.       2"  5" PRINT:   ORIGIN OF DATA
 UWI .       490252278200:   UNIQUE WELL ID
 DICO. A2D Technologies, Inc.:   DIGITIZING COMPANY
~OTHER INFORMATION
~A    DEPT       GRR      ILM        ILD   
# ...
  455.0000   107.1615    12.9463    12.0382
  455.5000   107.3466    13.0767    12.1325
  456.0000   105.7628    13.2085    12.2188
  456.5000   105.7697    13.2749    12.1987
  457.0000   108.5762    13.2749    12.1803
  457.5000   111.1229    13.2749    12.1620
  458.0000   109.6667    13.2423    12.1436
  458.5000   106.8121    13.1496    12.1253
  459.0000   105.1917    13.0577    12.1068
  459.5000   105.1834    12.9664    12.0545
  460.0000   103.9899    12.9027    12.0017
  460.5000   103.9240    12.8774    11.9492
  461.0000   107.1487    12.8526    11.8969
  461.5000   110.4152    12.8279    11.8448
  462.0000   111.1035    12.8015    11.7922
  462.5000   108.3510    12.6867    11.7021
  463.0000   106.5340    12.5282    11.5921
  463.5000   107.8718    12.3717    11.4842
  464.0000   111.1241    12.2058    11.3773
  464.5000   112.6783    12.0351    11.2713
  465.0000   112.6466    11.8672    11.0925
  465.5000   113.8803    11.7018    10.8947
  466.0000   116.7837    11.5056    10.7004
  466.5000   121.0736    11.2396    10.5095
  467.0000   123.9663    11.0157    10.3221
  467.5000   123.9161    10.9089    10.1841
  468.0000   123.6269    10.8031    10.0726
  468.5000   125.5416    10.6983     9.9623
  469.0000   126.5185    10.5954     9.8420
  469.5000   126.1517    10.4356     9.6977
  470.0000   126.0055    10.2294     9.5554
  470.5000   126.4593    10.0244     9.4153
  471.0000   128.5061     9.9365     9.3427
  471.5000   131.8581     9.8815     9.3214
  472.0000   130.7886     9.8273     9.3001
  472.5000   126.9226     9.7956     9.2789
  473.0000   125.3251     9.8249     9.2578
  473.5000   126.2995     9.8461     9.2367
  474.0000   124.8700     9.8674     9.2154
  474.5000   120.2165     9.8862     9.1946
  475.0000   117.1872     9.8069     9.1488
  475.5000   121.9097     9.6928     9.0777
  476.0000   127.6843     9.5801     9.0072
  476.5000   130.3902     9.4687     8.9372
  477.0000   127.9301     9.3347     8.8678
  477.5000   124.1201     9.1949     8.7389
  478.0000   123.9967     9.0571     8.5941
  478.5000   127.4617     8.9215     8.4534
  479.0000   131.7772     8.7878     8.3397
  479.5000   133.1667     8.6562     8.2287
  480.0000   131.6518     8.5830     8.1296
  480.5000   129.2307     8.5409     8.0583
  481.0000   127.2488     8.4989     7.9879
  481.5000   126.3483     8.4534     7.8902
  482.0000   126.8942     8.1473     7.5648
  482.5000   129.4206     7.8235     7.2609
  483.0000   134.0944     7.4995     7.0333
  483.5000   137.8991     7.1391     6.8093
  484.0000   138.7891     6.7148     6.5922
  484.5000   137.7280     6.7563     6.5922
  485.0000   135.6884     6.8743     6.6089
  485.5000   132.0930     7.0370     6.6867
  486.0000   128.5351     7.3309     6.7786
  486.5000   125.7121     7.7121     6.9243
  487.0000   125.5768     8.1451     7.1567
  487.5000   127.3988     8.6902     7.6244
  488.0000   130.1941     9.2718     8.1227
  488.5000   130.2167     9.5845     8.6876
  489.0000   127.9176     9.7939     9.0224
  489.5000   125.3048    10.0040     9.2370
  490.0000   125.1353    10.2187     9.3257
  490.5000   126.7005    10.3521     9.4180
  491.0000   128.7663    10.3290     9.5113
  491.5000   129.3407    10.3123     9.5650
  492.0000   128.8213    10.2957     9.6168
  492.5000   127.9153    10.2791     9.5535
  493.0000   128.5195    10.2625     9.4793
  493.5000   129.8138    10.2413     9.4057
  494.0000   128.8288    10.2179     9.3326
  494.5000   126.1712    10.1946     9.2601
  495.0000   122.4156    10.1714     9.1840
  495.5000   121.4565    10.1482     9.2393
  496.0000   123.0937    10.1251     9.2984
  496.5000   125.8233    10.1020     9.3579
  497.0000   124.4754    10.0790     9.4413
  497.5000   121.4415     9.9430     9.3847
  498.0000   119.3785     9.7384     9.2930
  498.5000   118.6436     9.5380     9.2009
  499.0000   120.1523     9.3547     9.1161
  499.5000   121.8584     9.0623     8.6973
  500.0000   122.6032     8.7706     8.2991
  500.5000   120.4855     8.3780     7.8064
  501.0000   121.0033     7.9635     7.3833
  501.5000   122.6162     7.5695     6.9304
  502.0000   124.9421     7.1907     6.1626
  502.5000   127.2203     6.3537     5.4799
  503.0000   128.2264     5.4773     4.8728
  503.5000   127.9651     4.6455     4.1956
  504.0000   129.7331     3.9842     3.5740
  504.5000   132.4535     3.3910     3.2100
  505.0000   133.8839     3.1252     3.0018
  505.5000   133.3606     2.9413     2.8312
  506.0000   131.3045     2.9042     2.7725
  506.5000   124.8551     3.1416     2.8126
  507.0000   118.9964     3.3694     2.9121
  507.5000   115.9320     3.8118     3.1440
  508.0000   115.2439     4.4669     3.5052
  508.5000   116.4059     5.0470     4.0289
  509.0000   120.2471     5.7021     4.6309
  509.5000   124.0647     6.4152     5.3229
  510.0000   125.2551     6.9879     6.1183
  510.5000   121.7785     7.3190     6.6232
  511.0000   118.7005     7.6659     7.0345
  511.5000   117.9881     7.9064     7.2878
  512.0000   120.6705     8.0188     7.5502
  512.5000   123.5987     8.1329     7.8220
  513.0000   126.5312     8.2487     8.0729
  513.5000   129.4506     8.3759     8.1585
  514.0000   132.4067     8.3616     8.2230
  514.5000   132.9105     8.3461     8.0566
  515.0000   132.3336     8.3306     7.9329
  515.5000   132.9298     8.3151     7.8114
  516.0000  -999.2500     8.2992     7.7060
  516.5000  -999.2500     8.2991     7.6908
  517.0000  -999.2500     8.2997     7.6746
  517.5000  -999.2500     8.2711     7.6584
  518.0000  -999.2500     8.2236     7.6423
  518.5000  -999.2500     8.1760     7.6135
  519.0000  -999.2500     8.1173     7.5814
  519.5000  -999.2500     8.0423     7.5495
  520.0000  -999.2500     7.9673     7.5177
  520.5000  -999.2500     7.9259     7.4860
  521.0000  -999.2500     8.0042     7.4547
  521.5000  -999.2500     8.0604     7.4311
  522.0000  -999.2500     8.1163     7.5388
  522.5000  -999.2500     8.1909     7.6266
  523.0000  -999.2500     8.2865     7.7002
  523.5000  -999.2500     8.3832     7.7809
  524.0000  -999.2500     8.4526     7.7234
  524.5000  -999.2500     8.2776     7.6583
  525.0000  -999.2500     8.1429     7.5984
  525.5000  -999.2500     8.0002     7.5394
  526.0000  -999.2500     7.8133     7.4813
  526.5000  -999.2500     7.6152     7.4186
  527.0000  -999.2500     7.4208     7.3213
  527.5000  -999.2500     7.1397     7.2249
  528.0000  -999.2500     6.6982     7.0483
  528.5000  -999.2500     6.1667     6.7294
  529.0000  -999.2500     5.6417     6.4556
  529.5000  -999.2500     5.1884     6.3537
  530.0000  -999.2500     5.2281     6.3537
  530.5000  -999.2500     5.2973     6.3538
  531.0000  -999.2500     5.3685     6.3529
  531.5000  -999.2500     5.4499     6.4448
  532.0000  -999.2500     5.5353     6.5610
  532.5000  -999.2500     5.6195     6.7086
  533.0000  -999.2500     5.7441     6.9683
  533.5000  -999.2500     5.8947     7.2282
  534.0000  -999.2500     6.1324  -999.2500
  534.5000  -999.2500     6.3798  -999.2500
  535.0000  -999.2500     6.6371  -999.2500
  535.5000  -999.2500     6.9048  -999.2500
  536.0000  -999.2500     7.1619  -999.2500
  536.5000  -999.2500     7.2821  -999.2500
  537.0000  -999.2500     7.3957  -999.2500
