~VERSION INFORMATION
 VERS.                2.0:   CWLS LOG ASCII STANDARD - VERSION 2.0
 WRAP.                 NO:   ONE LINE PER DEPTH STEP
~WELL INFORMATION
#MNEM.UNIT      DATA TYPE    INFORMATION
#----------   ------------   ------------------------------
 STRT.F            0.0000:   START DEPTH
 STOP.F         1002.0000:   STOP DEPTH
 STEP.F            0.5000:   STEP LENGTH
 NULL.          -999.2500:   NO VALUE
 COMP. U S NAVY-INTEX OIL:   COMPANY
 WELL.     NPR ##3 28-S-2:   WELL
 FLD .             TEAPOT:   FIELD
 LOC .       S2 T38N R78W:   LOCATION
 CNTY.            NATRONA:   COUNTY
 STAT.            WYOMING:   STATE
 CTRY. UNITED STATES OF AMERICA:   COUNTRY
 SRVC.      NL McCullough:   SERVICE COMPANY
 DATE.        13-JUN-1963:   LOGDATE
 API .       490250639400:   API NUMBER
~CURVE INFORMATION
#MNEM.UNIT       API CODE    CURVE DESCRIPTION
#----------   ------------   ------------------------------
 DEPT.F                  :   
 ASN .OHMM   05 041 16 00:   AMPLIFIED SHORT NORMAL 16"
 ILD .OHMM   05 120 46 00:   INDUCTION LOG DEEP
 CILD.MMHO   05 110 46 00:   CONDUCTIVITY INDUCTION LOG DEEP
 SPR .MV     05 010 01 00:   SPONTANEOUS POTENTIAL FROM RES.
 GR  .GAPI   30 310 01 00:   GAMMA RAY
~PARAMETER INFORMATION
#MNEM.UNIT          VALUE    DESCRIPTION
#----------   ------------   ------------------------------
 PD  .                 GL:   PERMANENT DATUM
 EPD .F              5147:   ELEVATION PERMANENT DATUM
 LMF .                 KB:   LOG MEASURED FROM
 DAPD.F                 5:   FEET ABOVE PERMANENT DATUM
 DMF .                 KB:   DRILLING MEASURED FROM
 EKB .F              5152:   KELLING BUSHING
 EGL .F              5147:   GROUND LEVEL
 DATE.        13-SEP-1963:   RUN DATE
 RUN .                  1:   RUN NUMBER
 BLI .F               600:   BOTTOM LOG INTERVAL
 CS  .IN                7:   CASING SIZE
 DFT .                OIL:   DRILLING FLUID TYPE
 ENGI.            JACKSON:   RECORDING ENGINEER
 WITN.             HUDSON:   WITNESSED BY
 CLNT.            A2DTECH:   CLIENT CODE
 ORIG.           5" PRINT:   ORIGIN OF DATA
 UWI .       490250639400:   UNIQUE WELL ID
 DICO. A2D Technologies, Inc.:   DIGITIZING COMPANY
~OTHER INFORMATION
~A    DEPT     ASN        ILD       CILD        SPR          GR  
# ...
  366.0000     9.3375     8.3592   121.0526   -35.4737    97.5519
  366.5000     9.2925     8.2087   121.8045   -35.3257    96.7704
  367.0000     9.2027     8.2080   121.8045   -35.1777    98.1246
  367.5000     9.0531     8.0576   121.8045   -34.8806    96.3537
  368.0000     8.9333     7.9820   123.3083   -34.7323    97.6689
  368.5000     8.8883     7.7567   125.5639   -34.5843   100.4493
  369.0000     8.8284     7.5314   129.3233   -34.2872   100.5654
  369.5000     8.6489     7.1564   136.8421   -34.2887   100.7848
  370.0000     8.3498     6.7065   148.1203   -34.1407   101.6362
  370.5000     8.0955     6.3315   155.6391   -34.1422    97.6331
  371.0000     7.7366     6.1062   157.8947   -34.1437   100.9255
  371.5000     7.5123     6.0306   159.3985   -33.9953   104.9582
  372.0000     7.5271     6.0299   158.6466   -33.9972   106.1598
  372.5000     7.6016     6.0291   157.8947   -33.9987   102.9045
  373.0000     7.6762     6.1781   156.3910   -34.1496   102.0228
  373.5000     8.0199     6.3270   152.6316   -34.4501   104.8687
  374.0000     8.3635     6.6257   147.6694   -34.6010   113.6633
  374.5000     8.4830     6.9243   138.8220   -34.6025   113.8269
  375.0000     8.5725     7.2978   133.5841   -34.6040   112.0560
  375.5000     8.6471     7.5216   129.9626   -34.6055   107.4578
  376.0000     8.7217     7.6708   128.4707   -34.6070   100.6274
  376.5000     8.7664     7.7449   126.3158   -34.4590    96.6206
  377.0000     8.7961     7.8190   124.8120   -34.3106    99.4666
  377.5000     8.8109     7.8931   124.0602   -34.3125   100.2217
  378.0000     8.8108     7.8922   124.1104   -34.3140    99.0461
  378.5000     8.7957     7.8914   124.8120   -34.1660   101.5944
  379.0000     8.7656     7.8907   125.5891   -34.1675    97.1449
  379.5000     8.7505     7.8151   127.0803   -34.1690    94.7751
  380.0000     8.6906     7.8143   129.3233   -34.1705    94.4960
  380.5000     8.5409     7.7387   131.5789   -34.1720    91.0882
  381.0000     8.2418     7.6631   133.8346   -34.1735    82.9185
  381.5000     8.0623     7.5127   136.0902   -34.1749    84.5703
  382.0000     7.9426     7.2874   139.8496   -34.1764    87.7101
  382.5000     7.8528     6.7627   147.3684   -34.3274    92.0404
  383.0000     7.7928     6.0134   158.6466   -34.4784    89.6743
  383.5000     7.5386     5.3390   169.1729   -34.4799    94.0046
  384.0000     7.2096     4.8892   183.4586   -34.1824   100.8647
  384.5000     6.7610     4.6639   206.0150   -34.0344   104.7449
  385.0000     6.2377     4.5134   209.0226   -33.8864   109.0789
  385.5000     5.9834     4.4378   209.1604   -33.7384   108.0520
  386.0000     5.9384     4.5119   208.2707   -33.5905   108.3645
  386.5000     5.9383     4.6609   206.7669   -33.5919   106.7424
  387.0000     6.1175     4.8098   203.7594   -33.5934   107.6501
  387.5000     6.7601     5.1085   197.7444   -33.5949   104.2423
  388.0000     7.3877     5.4072   185.7143   -33.5964   107.9774
  388.5000     7.6865     5.7807   163.9098   -33.5979   105.3136
  389.0000     7.8807     6.3039   148.8722   -33.7489   105.0271
  389.5000     8.0151     6.7522   142.8571   -33.7504   107.4266
  390.0000     8.1495     7.0509   139.0977   -33.7518   107.1438
  390.5000     8.2689     7.2747   136.8421   -33.9028   100.1646
  391.0000     8.4182     7.5733   134.5865   -33.9043    98.5388
  391.5000     8.5825     7.7223   133.0827   -34.0553    97.2181
  392.0000     8.7318     7.8712   130.8271   -34.2062    96.0387
  392.5000     8.8363     7.9453   128.5714   -34.3573   102.4561
  393.0000     8.9557     8.0943   126.3158   -34.5082   109.6138
  393.5000     9.0602     8.1684   124.0602   -34.5336   113.3489
  394.0000     9.1348     8.2425   122.5564   -34.6607   113.9589
  394.5000     9.2244     8.3166   121.0526   -34.5126   113.3785
  395.0000     9.3288     8.4656   120.3008   -34.6636   109.2262
  395.5000     9.4184     8.4648   119.5489   -34.5156   109.0927
  396.0000     9.4930     8.5389   118.7970   -34.3676   108.9641
  396.5000     9.5825     8.6130   118.0451   -34.3695   114.1819
  397.0000     9.6421     8.6871   118.0451   -34.3710   117.4705
  397.5000     9.7167     8.7612   117.2932   -34.3725   118.5664
  398.0000     9.7614     8.7605   116.5414   -34.3740   114.0776
  398.5000     9.8211     8.7597   116.5414   -34.3755   117.0686
  399.0000     9.8807     8.8338   116.5414   -34.3769   113.3632
  399.5000     9.9404     8.9079   116.5414   -34.3784   106.8304
  400.0000     9.8804     8.9072   116.5810   -34.3882   102.8274
  400.5000     9.8354     8.8715   117.0550   -34.4934   102.9866
  401.0000     9.7605     8.8307   117.2784   -34.5387   111.0328
  401.5000     9.6856     8.7551   116.5188   -34.5432   112.0849
  402.0000     9.5171     8.7544   115.7580   -34.6971   113.2858
  402.5000     9.3580     8.6788   115.7505   -34.7015   112.0982
  403.0000     9.2826     8.6032   115.7431   -34.5554   114.9436
  403.5000     9.2062     8.5276   115.7357   -34.4103   111.9779
  404.0000     9.0977     8.4520   115.7283   -34.2653   114.5181
  404.5000     8.8952     8.3016   116.4746   -34.2708   111.9987
  405.0000     8.6861     8.1512   120.9766   -34.1255   110.8036
  405.5000     8.5069     7.9259   125.4805   -33.9806   107.8530
  406.0000     8.1782     7.7006   131.4881   -33.6862   106.5238
  406.5000     7.7598     7.3256   140.5033   -33.5411   107.4274
  407.0000     7.4012     6.9506   153.2778   -33.3961   109.0748
  407.5000     6.8333     6.5007   165.3005   -33.2386   109.4940
  408.0000     6.4150     5.8124   186.3457   -33.0863   106.2440
  408.5000     5.9667     4.3824   214.9097   -32.7843   102.5585
  409.0000     5.5483     3.5539   254.9808   -32.5169    96.9142
  409.5000     5.0851     2.8816   297.9969   -32.3719    95.4365
  410.0000     4.5919     2.2304   348.7701   -32.2268    90.5362
  410.5000     4.1287     2.0051   414.1263   -32.3818    91.8860
  411.0000     3.9345     1.9295   444.1941   -32.3863    98.5928
  411.5000     3.7532     1.9288   455.4649   -32.2401   102.6211
  412.0000     3.5099     2.0029   451.6981   -32.0951   101.8849
  412.5000     3.3969     2.0770   434.3974   -31.9500   106.0646
  413.0000     3.7558     2.1513   417.8486   -31.8061   114.7060
  413.5000     4.1894     2.0755   374.9841   -31.9600   112.4843
  414.0000     4.5184     2.2993   317.0819   -31.9644   113.0900
  414.5000     5.2360     3.1219   252.4129   -32.1183   114.2909
  415.0000     5.8789     4.1691   209.5483   -32.2722   115.7895
  415.5000     6.6115     4.9169   175.7063   -32.4261   116.8416
  416.0000     7.0900     5.5898   157.6538   -32.5800   116.5544
  416.5000     7.2546     6.1878   145.6163   -32.8834   117.0113
  417.0000     7.3444     6.6362   140.3457   -32.8879   119.9979
  417.5000     7.4043     6.7852   138.8346   -32.8924   121.6426
  418.0000     7.4643     6.8593   138.8570   -32.8968   120.1650
  418.5000     7.5541     6.8585   140.3235   -32.9013   122.5590
  419.0000     7.6589     6.8578   142.6866   -33.0562   127.3314
  419.5000     7.7639     6.8570   145.5700   -33.2101   129.7201
  420.0000     7.8545     6.8563   147.8182   -33.3640   126.0129
  420.5000     7.8985     6.9304   149.3164   -33.5179   124.2351
  421.0000     7.9313     6.8548   149.3071   -33.6718   130.7957
  421.5000     7.9586     6.8539   148.5478   -34.1246   136.4609
  422.0000     8.0036     6.7783   145.5329   -34.7270   134.3881
  422.5000     8.1084     6.7776   142.5180   -35.0304   134.6961
  423.0000     8.4374     6.8517   140.2549   -34.5853   135.2992
  423.5000     8.7514     6.9258   137.2400   -33.9929   132.9313
  424.0000     8.9907     7.0001   134.2251   -33.5489   136.0667
  424.5000     9.1404     7.2237   131.2101   -33.4027   135.6281
  425.0000     9.2153     7.3727   128.9471   -33.4083   143.2305
  425.5000     9.3051     7.5967   126.6840   -33.2631   141.6040
  426.0000     9.4099     7.8951   123.6691   -32.9687   138.1918
  426.5000     9.5595     8.1189   121.4036   -32.8236   139.2439
