~VERSION INFORMATION
 VERS.                2.0:   CWLS LOG ASCII STANDARD - VERSION 2.0
 WRAP.                 NO:   ONE LINE PER DEPTH STEP
~WELL INFORMATION
#MNEM.UNIT      DATA TYPE    INFORMATION
#----------   ------------   ------------------------------
 STRT.F           27.0000:   START DEPTH
 STOP.F          760.0000:   STOP DEPTH
 STEP.F            0.5000:   STEP LENGTH
 NULL.          -999.2500:   NO VALUE
 COMP. FENIX & SCISSON INC:   COMPANY
 WELL.    NPR #3 #33-S-14:   WELL
 FLD .             TEAPOT:   FIELD
 LOC .      S14 T38N R78W:   LOCATION
 CNTY.            NATRONA:   COUNTY
 STAT.            WYOMING:   STATE
 CTRY. UNITED STATES OF AMERICA:   COUNTRY
 SRVC.              Welex:   SERVICE COMPANY
 DATE.        02-FEB-1977:   LOGDATE
 API .       490251027700:   API NUMBER
~CURVE INFORMATION
#MNEM.UNIT       API CODE    CURVE DESCRIPTION
#----------   ------------   ------------------------------
 DEPT.F                  :   
 SPR .MV     07 010 01 00:   SPONTANEOUS POTENTIAL
 SGRD.OHMM   07 220 05 00:   SHALLOW RESISTIVITY
 ILD .OHMM   07 120 46 00:   INDUCTION LOG DEEP
 ILM .OHMM   07 120 44 00:   INDUCTION LOG MEDIUM
 GRD .GAPI   45 310 01 00:   GAMMA RAY FROM DENSITY LOG
 CALD.IN     45 280 60 00:   CALIPER
 RHOB.G/C3   45 350 01 00:   BULK DENSITY
 CORR.G/C3   45 356 01 00:   DENSITY CORRECTION
 DPHI.DEC    45 890 00 00:   DENSITY POROSITY
~PARAMETER INFORMATION
#MNEM.UNIT          VALUE    DESCRIPTION
#----------   ------------   ------------------------------
 PD  .                 GL:   PERMANENT DATUM
 EPD .F              5219:   ELEVATION PERMANENT DATUM
 LMF .                 GL:   LOG MEASURED FROM
 DMF .                 GL:   DRILLING MEASURED FROM
 EKB .F              5224:   KELLING BUSHING
 EGL .F              5219:   GROUND LEVEL
 DATE.           2-2-1977:   RUN DATE
 RUN .                  1:   RUN NUMBER
 DD  .F               761:   DEPTH DRILLER
 DL  .F               762:   DEPTH LOGGER
 BLI .F               760:   BOTTOM LOG INTERVAL
 TLI .F                25:   TOP LOG INTERVAL
 CS  .IN            8.625:   CASING SIZE
 CBD .F              42.5:   CASING BOTTOM DRILLER
 CBL .F                46:   CASING BOTTOM LOGGER
 BS  .IN            7.875:   BIT SIZE
 BSD .F               761:   BIT SIZE AT DEPTH
 DFT .           CHEM-GEL:   DRILLING FLUID TYPE
 DFD .                8.9:   DRILLING FLUID DENSITY
 DFV .                 37:   DRILLING FLUID VISCOSITY
 DFPH.                  7:   DRILLING FLUID PH
 DFL .                8.4:   DRILLING FLUID LOSS
 MSS .          FLOW LINE:   MUD SAMPLE SOURCE
 RMS .OHMM           .231:   RESISTIVITY MUD SAMPLE
 MST .F                45:   MUD SAMPLE TEMPERATURE
 RMF .OHMM           .322:   RESISTIVITY MUD FILTRATE SAMPLE
 MFST.F                45:   MUD FILTRATE SAMPLE TEMPERATURE
 RMC .OHMM           .439:   RESISTIVITY MUD CAKE
 MCST.F                45:   MUD CAKE SAMPLE TEMPERATURE
 MFSS.           MEASURED:   MUD FILTRATE SAMPLE SOURCE
 MCSS.           MEASURED:   MUD CAKE SAMPLE SOURCE
 RMB .OHMM           .182:   RESISTIVITY MUD AT BHT
 BHT .F                57:   BOTTOM HOLE TEMPERATURE
 TCS .HRS             5.5:   TIME CURCULATED STOPPED
 MRT .F                57:   MAXIMUM RECORDED TEMPERATURE
 LUN .               8611:   LOGGING UNIT NUMBER
 LUL .           GILLETTE:   LOGGING UNIT LOCATION
 ENGI.             LAWSON:   RECORDING ENGINEER
 WITN. VOORHEES/RHOADES/JAPP/PETTINGILL/STUEBINGER:   WITNESSED BY
 CLNT.            A2DTECH:   CLIENT CODE
 ORIG.     1", 2.5" PRINT:   ORIGIN OF DATA
 UWI .       490251027700:   UNIQUE WELL ID
 DICO. A2D Technologies, Inc.:   DIGITIZING COMPANY
~OTHER INFORMATION
~A   DEPT      SPR       SGRD        ILD        ILM        GRD       CALD         RHOB      CORR      DPHI   
# ...
   63.5000   -24.6791     8.1093     4.6132     5.0752   105.1042    10.0807     2.4213     0.1146     0.1359
   64.0000   -25.0909     5.6892     4.5926     5.0998   106.4908    10.0297     2.4049     0.1165     0.1414
   64.5000   -25.3513     6.7215     4.5722     5.1794   106.8755     9.9886     2.3905     0.1184     0.1470
   65.0000   -25.5488     7.7726     4.5518     5.2669   106.6562     9.9476     2.3841     0.1201     0.1525
   65.5000   -25.7857     7.4926     4.4981     4.9605   105.8182     9.9066     2.3795     0.1198     0.1577
   66.0000   -26.0381     7.1997     4.4144     4.6261   103.8859     9.8655     2.3720     0.1195     0.1623
   66.5000   -26.2883     6.9547     4.3330     4.6261   101.9451     9.8244     2.3645     0.1192     0.1670
   67.0000   -26.5390     6.7486     4.2531     4.5479   101.0464     9.7833     2.3570     0.1190     0.1708
   67.5000   -26.7897     6.5716     4.1747     4.4433   100.7137     9.7422     2.3570     0.1187     0.1724
   68.0000   -27.0402     6.3993     4.0978     4.3412   100.7590     9.7009     2.3668     0.1184     0.1681
   68.5000   -27.2910     6.2314     4.0222     4.2414   101.7075     9.6593     2.3766     0.1182     0.1614
   69.0000   -27.5742     5.9964     3.9481     4.1958   102.6439     9.6308     2.3748     0.1206     0.1589
   69.5000   -28.0801     6.0741     3.8753     4.1680   103.8511     9.6024     2.3627     0.1276     0.1694
   70.0000   -28.6777     6.2171     3.8039     4.1393   106.2434     9.5739     2.3386     0.1336     0.1825
   70.5000   -29.2700     6.3633     3.6248     3.9585   108.5975     9.5454     2.3164     0.1267     0.1957
   71.0000   -29.8544     6.5786     3.3753     3.7786   110.9510     9.5166     2.2952     0.1197     0.2088
   71.5000   -30.4585     6.2390     3.1429     3.6068   113.3068     9.4881     2.2736     0.1127     0.2219
   72.0000   -31.0402     5.2288     2.9266     3.3966   115.6956     9.4791     2.2545     0.1058     0.2355
   72.5000   -31.5143     3.8109     2.7251     3.1270   116.5189     9.5660     2.2658     0.0988     0.2327
   73.0000   -31.2311     3.0612     2.4636     2.8788   116.9054     9.6513     2.2844     0.0919     0.2204
   73.5000   -30.9839     2.9108     2.4771     2.6486   116.6780     9.7348     2.3088     0.0892     0.2061
   74.0000   -30.7018     2.9652     2.5002     2.7267   114.4457     9.7769     2.3334     0.0911     0.1918
   74.5000   -30.4347     4.1393     2.5919     2.8899   111.5441     9.7188     2.3585     0.0930     0.1775
   75.0000   -30.1661     3.6357     2.7364     3.0630   108.6235     9.6626     2.3736     0.0949     0.1632
   75.5000   -29.8946     4.0663     2.8981     3.2557   105.7253     9.6059     2.3866     0.0968     0.1529
   76.0000   -29.6254     4.8978     3.1075     3.4672   103.7599     9.5497     2.3850     0.0987     0.1561
   76.5000   -29.3555     6.3392     3.3321     3.6924   104.9016     9.5335     2.3808     0.1006     0.1593
   77.0000   -29.0860     6.2583     3.5729     3.9322   105.9811     9.5235     2.3766     0.1017     0.1625
   77.5000   -28.8168     6.0672     3.8311     4.1876   106.9498     9.5207     2.3721     0.0975     0.1658
   78.0000   -28.5469     5.8819     4.1080     4.4596   104.4255     9.5182     2.3798     0.0932     0.1601
   78.5000   -28.2777     5.6721     4.4048     4.8008   102.2326     9.5156     2.3904     0.0890     0.1519
   79.0000   -28.0093     6.0596     4.7126     4.9348   103.8634     9.5131     2.4004     0.0848     0.1472
   79.5000   -27.7363     6.5626     4.8503     5.1015   103.4300     9.5105     2.4063     0.0860     0.1466
   80.0000   -27.4726     7.0848     4.9876     5.2738   105.9633     9.5080     2.4118     0.0879     0.1433
   80.5000   -27.1939     6.7502     5.1287     5.4520   108.8246     9.5054     2.4154     0.0898     0.1396
   81.0000   -27.0585     6.3392     5.2669     5.6362   111.1846     9.5028     2.4190     0.0917     0.1366
   81.5000   -26.9195     6.5666     5.4955     5.8266   110.1871     9.5003     2.4222     0.0935     0.1359
   82.0000   -26.7915     6.9328     5.7230     6.0235   109.0410     9.4977     2.4248     0.0954     0.1352
   82.5000   -26.6489     7.2391     5.9945     6.3375   107.8664     9.4952     2.4274     0.0973     0.1345
   83.0000   -26.5250     7.3237     5.9808     6.3342   107.8354     9.4926     2.4299     0.0971     0.1337
   83.5000   -26.4103     7.4094     5.9660     6.3166   109.0148     9.4901     2.4325     0.0951     0.1326
   84.0000   -26.7023     7.4961     5.9516     6.2989   110.4885     9.4877     2.4351     0.0930     0.1315
   84.5000   -27.0012     7.5837     5.9375     6.2815   111.9863     9.4869     2.4351     0.0909     0.1304
   85.0000   -27.3177     7.7726     5.9233     6.2643   112.5806     9.4128     2.4331     0.0926     0.1298
   85.5000   -27.6244     7.5167     5.9087     6.2474   110.9340     9.3293     2.4310     0.0961     0.1307
   86.0000   -27.9334     7.2872     5.8934     6.2306   109.3090     9.2744     2.4297     0.0997     0.1316
   86.5000   -28.2434     7.1515     5.7841     6.1592   107.6994     9.2848     2.4285     0.1032     0.1331
   87.0000   -28.5521     7.0571     5.6356     6.0642   106.0954     9.2940     2.4277     0.1067     0.1374
   87.5000   -28.8615     6.9547     5.4907     5.9198   105.4678     9.3034     2.4126     0.1102     0.1431
   88.0000   -29.1709     6.6230     5.3642     5.6640   106.2680     9.3128     2.3950     0.1112     0.1530
   88.5000   -29.4806     6.2732     5.0953     5.4194   107.0416     9.3221     2.3773     0.1074     0.1630
   89.0000   -29.7881     6.1086     4.8653     5.1853   107.8164     9.3315     2.3596     0.1037     0.1729
   89.5000   -30.1007     6.1086     4.6441     4.9615   108.5899     9.3408     2.3420     0.1000     0.1829
   90.0000   -30.4077     6.1086     4.4331     4.7474   109.3653     9.3502     2.3243     0.0963     0.1928
   90.5000   -30.7109     5.7986     4.2316     4.5430   110.1362     9.3596     2.3067     0.0914     0.2028
   91.0000   -31.0469     5.6721     4.0393     4.3472   110.9104     9.3689     2.2888     0.0850     0.2148
   91.5000   -31.0202     5.3654     3.8557     4.2091   110.5863     9.3781     2.2829     0.0787     0.2087
   92.0000   -30.7234     3.2096     3.7037     4.0708   109.1989     9.3888     2.3272     0.0756     0.1891
   92.5000   -30.4573     3.4365     3.7600     4.0866   107.8902     9.4569     2.3811     0.0793     0.1681
   93.0000   -30.1925     4.3440     3.8103     4.1184   108.9363     9.4297     2.4055     0.0830     0.1470
   93.5000   -29.9217     5.3556     3.8934     4.1885   110.1017     9.3421     2.4117     0.0850     0.1419
   94.0000   -29.6574     5.7753     4.0411     4.3339   110.8313     9.3290     2.4175     0.0867     0.1400
   94.5000   -29.4967     5.8139     4.1943     4.4842   108.8458     9.3279     2.4209     0.0884     0.1382
   95.0000   -29.3935     5.8452     4.3533     4.6398   106.9187     9.3270     2.4235     0.0900     0.1363
   95.5000   -29.2981     5.8755     4.5183     4.8008   105.0060     9.3259     2.4261     0.0917     0.1347
   96.0000   -29.1934     5.8892     4.6896     4.9674   103.0748     9.3248     2.4287     0.0934     0.1347
   96.5000   -29.3275     5.9967     4.8340     5.0862   102.4042     9.3237     2.4307     0.0950     0.1351
   97.0000   -29.5731     6.0901     4.9820     5.1158   103.3022     9.3226     2.4243     0.0967     0.1368
   97.5000   -29.8132     6.0560     4.9551     5.1457   104.1630     9.3215     2.4178     0.0983     0.1384
   98.0000   -30.0505     5.9858     4.8847     5.1726   104.5728     9.3204     2.4112     0.1000     0.1399
   98.5000   -30.2905     5.9162     4.8153     5.1377   103.4186     9.3193     2.4088     0.1016     0.1425
   99.0000   -30.5296     5.7668     4.7469     5.1085   103.4206     9.3182     2.4064     0.1033     0.1450
   99.5000   -30.7689     5.5683     4.6794     5.0790   104.0898     9.3171     2.4045     0.1050     0.1507
