~VERSION INFORMATION
 VERS.                2.0:   CWLS LOG ASCII STANDARD - VERSION 2.0
 WRAP.                 NO:   ONE LINE PER DEPTH STEP
~WELL INFORMATION
#MNEM.UNIT      DATA TYPE    INFORMATION
#----------   ------------   ------------------------------
 STRT.F           95.0000:   START DEPTH
 STOP.F          862.0000:   STOP DEPTH
 STEP.F            0.5000:   STEP LENGTH
 NULL.          -999.2500:   NO VALUE
 COMP. U S NAVY INTEX OIL:   COMPANY
 WELL. RES 3 TEAMPT DOME #13-S-35:   WELL
 FLD .        TEAPOT DOME:   FIELD
 LOC .      S35 T39N R78W:   LOCATION
 CNTY.            NATRONA:   COUNTY
 STAT.            WYOMING:   STATE
 CTRY. UNITED STATES OF AMERICA:   COUNTRY
 SRVC.       Schlumberger:   SERVICE COMPANY
 DATE.        27-JUL-1963:   LOGDATE
 API .       490250655000:   API NUMBER
~CURVE INFORMATION
#MNEM.UNIT       API CODE    CURVE DESCRIPTION
#----------   ------------   ------------------------------
 DEPT.F                  :   
 SPR .MV     05 010 01 00:   SPONTANEOUS POTENTIAL FROM RES.
 ILD .OHMM   05 120 46 00:   INDUCTION LOG DEEP
 ASN .OHMM   05 041 18 00:   AMPLIFIED SHORT NORMAL 18"
 CILD.MMHO   05 110 46 00:   CONDUCTIVITY INDUCTION LOG DEEP
 GR  .GAPI   30 310 01 00:   GAMMA RAY
~PARAMETER INFORMATION
#MNEM.UNIT          VALUE    DESCRIPTION
#----------   ------------   ------------------------------
 PD  .                 GL:   PERMANENT DATUM
 EPD .F              5100:   ELEVATION PERMANENT DATUM
 LMF .                 KB:   LOG MEASURED FROM
 DAPD.F               5.0:   FEET ABOVE PERMANENT DATUM
 DMF .                 KB:   DRILLING MEASURED FROM
 EKB .F              5105:   KELLING BUSHING
 EGL .F              5100:   GROUND LEVEL
 DATE.        27-JUL-1963:   RUN DATE
 RUN .                  1:   RUN NUMBER
 DD  .F               862:   DEPTH DRILLER
 DL  .F               863:   DEPTH LOGGER
 BLI .F               862:   BOTTOM LOG INTERVAL
 TLI .F               100:   TOP LOG INTERVAL
 CS  .IN            8.625:   CASING SIZE
 CBD .F                10:   CASING BOTTOM DRILLER
 BS  .IN             6.75:   BIT SIZE
 BSD .F               862:   BIT SIZE AT DEPTH
 DFT . NATURAL- GEL ADDED:   DRILLING FLUID TYPE
 DFD .                9.0:   DRILLING FLUID DENSITY
 DFV .                 38:   DRILLING FLUID VISCOSITY
 DFPH.                8.5:   DRILLING FLUID PH
 DFL .                5.6:   DRILLING FLUID LOSS
 MSS .           FLOWLINE:   MUD SAMPLE SOURCE
 RMS .OHMM            4.6:   RESISTIVITY MUD SAMPLE
 MST .F                83:   MUD SAMPLE TEMPERATURE
 RMF .OHMM            3.8:   RESISTIVITY MUD FILTRATE SAMPLE
 MFST.F                83:   MUD FILTRATE SAMPLE TEMPERATURE
 RMC .OHMM            4.8:   RESISTIVITY MUD CAKE
 MCST.F                83:   MUD CAKE SAMPLE TEMPERATURE
 MFSS.                 FP:   MUD FILTRATE SAMPLE SOURCE
 MCSS.                 FP:   MUD CAKE SAMPLE SOURCE
 TCS .HRS               1:   TIME CURCULATED STOPPED
 LUN .               2523:   LOGGING UNIT NUMBER
 LUL .               CSPR:   LOGGING UNIT LOCATION
 ENGI.            GIFFORD:   RECORDING ENGINEER
 WITN.          JORGENSON:   WITNESSED BY
 CLNT.            A2DTECH:   CLIENT CODE
 ORIG.           5" PRINT:   ORIGIN OF DATA
 UWI .       490250655000:   UNIQUE WELL ID
 DICO. A2D Technologies, Inc.:   DIGITIZING COMPANY
~OTHER INFORMATION
~A   DEPT      SPR        ILD        ASN       CILD         GR   
# ...
  827.0000   -46.0725    10.8319    12.0915    88.5886    67.7641
  827.5000   -46.5214    10.8283    12.0121    88.5886    68.2199
  828.0000   -47.1209    10.8373    12.0085    88.5886    69.4596
  828.5000   -47.7197    10.8978    12.0050    89.3393    70.7830
  829.0000   -48.9217    10.8190    12.0014    90.0901    71.8215
  829.5000   -48.5724    10.8161    11.9228    90.8408  -999.2500
  830.0000   -45.9031    10.8132    11.8434    91.5916  -999.2500
  830.5000   -43.4906    10.8102    11.6899    91.5916  -999.2500
  831.0000   -41.2287    10.8067    11.5364    91.5916  -999.2500
  831.5000   -36.2559    10.7286    11.5328    90.8408  -999.2500
  832.0000   -33.8131    10.8017    11.5293    90.0901  -999.2500
  832.5000   -32.4844    10.8734    11.6007    89.3393  -999.2500
  833.0000   -32.0297    10.8704    11.6712    89.3393  -999.2500
  833.5000   -32.0268    10.9423    11.6676    88.5886  -999.2500
  834.0000   -32.0240    10.9394    11.8139    87.8378  -999.2500
  834.5000   -32.1717    11.0125    11.8858    87.8378  -999.2500
  835.0000   -32.4700    11.0843    11.9567    87.8378  -999.2500
  835.5000   -32.6177    10.9308    11.9522    88.5886  -999.2500
  836.0000   -32.7654    10.7766    12.0245    88.5886  -999.2500
  836.5000   -33.2144    10.6231    11.9451    89.3393  -999.2500
  837.0000   -33.5120    10.5449    11.7916    90.8408  -999.2500
  837.5000   -33.3460    10.4667    11.5622    92.3423  -999.2500
  838.0000   -32.7525    10.3866    11.3338    93.8438  -999.2500
  838.5000   -32.1472    10.2344    11.2552    95.3453  -999.2500
  839.0000   -31.5419    10.1562    11.1767    96.0961  -999.2500
  839.5000   -31.5390    10.0780    11.0981    97.5976  -999.2500
  840.0000   -31.5361     9.9999    11.0195    97.5976  -999.2500
  840.5000   -30.9301     9.9970    11.0151    97.5976  -999.2500
  841.0000   -30.4754     9.9181    11.0116    97.5976  -999.2500
  841.5000   -30.3220     9.9912    11.0080    96.8468  -999.2500
  842.0000   -30.3191    10.0637    11.0044    96.0961  -999.2500
  842.5000   -30.3162    10.1361    11.0007    96.0961  -999.2500
  843.0000   -30.3132    10.2078    11.0722    95.3453  -999.2500
  843.5000   -30.4610    10.3555    11.1436    94.5946  -999.2500
  844.0000   -30.4574    10.5025    11.2891    93.7733  -999.2500
  844.5000   -30.6059    10.5757    11.3605    91.5916  -999.2500
  845.0000   -30.7536    10.6474    11.5118    89.3393  -999.2500
  845.5000   -31.0512    10.7952    11.8022    87.0871  -999.2500
  846.0000   -31.4994    11.1024    12.0985    84.8348  -999.2500
  846.5000   -31.7977    11.7676    12.5447    82.5627  -999.2500
  847.0000   -31.9462    12.4424    13.1408    75.0751  -999.2500
  847.5000   -32.8462    13.5691    13.7445    69.8198  -999.2500
  848.0000   -38.1144    14.3192    14.5570    66.0661  -999.2500
  848.5000   -51.1415    14.6993    15.3031    63.0631  -999.2500
  849.0000   -55.5778    15.2163    15.9742    60.8108  -999.2500
  849.5000   -56.6299    15.3648    16.5703    59.3093  -999.2500
  850.0000   -52.4096    15.3435    17.0915    59.4274  -999.2500
  850.5000   -49.0818    15.2898    16.8590    60.9118  -999.2500
  851.0000   -51.4731    15.2943    16.5505    61.5616  -999.2500
  851.5000   -53.2657    15.2979    16.4683    61.5616  -999.2500
  852.0000   -52.1968    15.2253    16.6128    61.5616  -999.2500
  852.5000   -49.0196    15.0783    16.1540    62.3123  -999.2500
  853.0000   -47.3483    14.9322    15.7719    63.0933  -999.2500
  853.5000   -49.4421    14.5602    15.4611    66.8168  -999.2500
  854.0000   -47.0178    14.1120    15.1560    69.8198  -999.2500
  854.5000   -45.6478    13.5133    14.9239    71.3213  -999.2500
  855.0000   -50.5771    13.0651    14.7667    73.5736  -999.2500
  855.5000   -52.2450    12.9172    14.7595  -999.2500  -999.2500
  856.0000   -50.8713    12.9217    14.6773  -999.2500  -999.2500
  856.5000   -46.4892    13.0015    14.5201  -999.2500  -999.2500
  857.0000   -44.9722    13.0051    14.4378  -999.2500  -999.2500
  857.5000   -48.5720    13.0840    14.2790  -999.2500  -999.2500
  858.0000   -45.5417    13.1630    14.3467  -999.2500  -999.2500
  858.5000   -42.0632    13.2419    14.4894  -999.2500  -999.2500
  859.0000   -45.1502    13.3208    14.7071  -999.2500  -999.2500
  859.5000   -47.3050    13.4006    15.0747  -999.2500  -999.2500
  860.0000   -44.7289    13.5539    15.5922  -999.2500  -999.2500
  860.5000   -45.1807    13.6295    15.9821  -999.2500  -999.2500
  861.0000   -44.2771    13.6295    16.6254  -999.2500  -999.2500
  861.5000   -41.4157    13.5542    16.7699  -999.2500  -999.2500
  862.0000   -37.6506    13.3283    15.6365  -999.2500  -999.2500
