~VERSION INFORMATION
 VERS.                2.0:   CWLS LOG ASCII STANDARD - VERSION 2.0
 WRAP.                 NO:   ONE LINE PER DEPTH STEP
~WELL INFORMATION
#MNEM.UNIT      DATA TYPE    INFORMATION
#----------   ------------   ------------------------------
 STRT.F            6.0000:   START DEPTH
 STOP.F         2600.0000:   STOP DEPTH
 STEP.F            0.5000:   STEP LENGTH
 NULL.          -999.2500:   NO VALUE
 COMP. FENIX & SCISSON INC:   COMPANY
 WELL.   NPR 3 SH #17 -34:   WELL
 FLD .             TEAPOT:   FIELD
 LOC .      S34 T39N R78W:   LOCATION
 CNTY.            NATRONA:   COUNTY
 STAT.            WYOMING:   STATE
 CTRY. UNITED STATES OF AMERICA:   COUNTRY
 SRVC.            Unknown:   SERVICE COMPANY
 DATE.        21-MAR-1978:   LOGDATE
 API .       490251060600:   API NUMBER
~CURVE INFORMATION
#MNEM.UNIT       API CODE    CURVE DESCRIPTION
#----------   ------------   ------------------------------
 DEPT.F                  :   
 NPHI.DEC    42 890 03 00:   NEUTRON POROSITY SANDSTONE
 CALD.IN     45 280 60 00:   CALIPER FROM DENSITY LOG
 GRD .GAPI   45 310 01 00:   GAMMA RAY FROM DENSITY LOG
 CORR.G/C3   45 356 01 00:   DENSITY CORRECTION
 RHOB.G/C3   45 350 01 00:   BULK DENSITY
 DPHI.DEC    45 890 12 00:   DENSITY POROSITY SANDSTONE
~PARAMETER INFORMATION
#MNEM.UNIT          VALUE    DESCRIPTION
#----------   ------------   ------------------------------
 PD  .                 GL:   PERMANENT DATUM
 EPD .F              5150:   ELEVATION PERMANENT DATUM
 LMF .                 KB:   LOG MEASURED FROM
 DMF .                 KB:   DRILLING MEASURED FROM
 EKB .F              5160:   KELLING BUSHING
 EGL .F              5150:   GROUND LEVEL
 DATE.          3-21-1978:   RUN DATE
 RUN .                  1:   RUN NUMBER
 DD  .F              2612:   DEPTH DRILLER
 DL  .F              2592:   DEPTH LOGGER
 BLI .F              2590:   BOTTOM LOG INTERVAL
 TLI .F                20:   TOP LOG INTERVAL
 CS  .IN            9.625:   CASING SIZE
 CBD .F               710:   CASING BOTTOM DRILLER
 CBL .F               710:   CASING BOTTOM LOGGER
 BS  .IN            8.625:   BIT SIZE
 BSD .F              2612:   BIT SIZE AT DEPTH
 DFT .           AIR MIST:   DRILLING FLUID TYPE
 BHT .F               110:   BOTTOM HOLE TEMPERATURE
 TCS .HRS               2:   TIME CURCULATED STOPPED
 MRT .F               110:   MAXIMUM RECORDED TEMPERATURE
 LUN .               2958:   LOGGING UNIT NUMBER
 LUL .               CASP:   LOGGING UNIT LOCATION
 ENGI.            POINTER:   RECORDING ENGINEER
 WITN.           MCGINLEY:   WITNESSED BY
 CLNT.            A2DTECH:   CLIENT CODE
 ORIG.      2" , 5" PRINT:   ORIGIN OF DATA
 UWI .       490251060600:   UNIQUE WELL ID
 DICO. A2D Technologies, Inc.:   DIGITIZING COMPANY
~OTHER INFORMATION
~A    DEPT      NPHI     CALD        GRD       CORR       RHOB       DPHI   
# ...
 1046.0000  -999.2500     9.5802   108.1315     0.1110     2.5068     0.0956
 1046.5000  -999.2500     9.5806   104.4492     0.1147     2.4987     0.0928
 1047.0000  -999.2500     9.5810   101.0251     0.1239     2.4934     0.0883
 1047.5000  -999.2500     9.5814   102.2417     0.1331     2.5029     0.0844
 1048.0000  -999.2500     9.5820   104.4391     0.1365     2.5117     0.0847
 1048.5000  -999.2500     9.5825   104.2566     0.1398     2.5148     0.0862
 1049.0000  -999.2500     9.6030   103.7330     0.1432     2.5128     0.0888
 1049.5000  -999.2500     9.6410   102.5359     0.1417     2.5113     0.0886
 1050.0000  -999.2500     9.6791   102.4433     0.1398     2.5138     0.0893
 1050.5000  -999.2500     9.7170   102.2995     0.1407     2.5154     0.0924
 1051.0000  -999.2500     9.7217   102.1516     0.1425     2.5020     0.0940
 1051.5000  -999.2500     9.7217   101.4082     0.1444     2.4969     0.0963
 1052.0000  -999.2500     9.7217   100.7738     0.1463     2.4963     0.0984
 1052.5000  -999.2500     9.7217   100.6150     0.1500     2.4956     0.0966
 1053.0000  -999.2500     9.7217   100.5114     0.1564     2.4928     0.0955
 1053.5000  -999.2500     9.7217   101.2546     0.1628     2.4807     0.0944
 1054.0000  -999.2500     9.7217   107.3945     0.1691     2.4920     0.0892
 1054.5000  -999.2500     9.7217   108.9076     0.1685     2.5055     0.0897
 1055.0000  -999.2500     9.7217   106.3557     0.1672     2.5098     0.0912
 1055.5000  -999.2500     9.7217   103.7624     0.1561     2.5072     0.0928
 1056.0000  -999.2500     9.7217   101.9656     0.1439     2.4951     0.0928
 1056.5000  -999.2500     9.7217   103.8522     0.1385     2.5003     0.0921
 1057.0000  -999.2500     9.7217   104.0397     0.1408     2.4966     0.0914
 1057.5000  -999.2500     9.7217   103.9431     0.1432     2.4945     0.0907
 1058.0000  -999.2500     9.7217   104.3396     0.1379     2.4949     0.0984
 1058.5000  -999.2500     9.7217   106.4843     0.1316     2.4900     0.1004
 1059.0000  -999.2500     9.7217   106.6968     0.1331     2.4851     0.0987
 1059.5000  -999.2500     9.7217   106.3775     0.1349     2.4811     0.0944
 1060.0000  -999.2500     9.7217   106.1076     0.1367     2.4926     0.0939
 1060.5000  -999.2500     9.7217   107.0962     0.1385     2.4997     0.0965
 1061.0000  -999.2500     9.7221   109.2866     0.1384     2.4943     0.0945
 1061.5000  -999.2500     9.7035   109.0809     0.1366     2.4941     0.0913
 1062.0000  -999.2500     9.6777   109.8196     0.1347     2.4963     0.0960
 1062.5000  -999.2500     9.6505   110.9015     0.1333     2.4949     0.0984
 1063.0000  -999.2500     9.6253   111.2569     0.1344     2.4905     0.0983
 1063.5000  -999.2500     9.5951   110.9751     0.1361     2.4877     0.0964
 1064.0000  -999.2500     9.5692   110.6745     0.1377     2.4920     0.0944
 1064.5000  -999.2500     9.5428   111.9862     0.1396     2.4963     0.0981
 1065.0000  -999.2500     9.5080   113.7939     0.1305     2.4924     0.1020
 1065.5000  -999.2500     9.4725   115.6251     0.1192     2.4865     0.1034
 1066.0000  -999.2500     9.4371   117.2947     0.1077     2.4805     0.1052
 1066.5000  -999.2500     9.4017   115.5281     0.0959     2.4743     0.1071
 1067.0000  -999.2500     9.3823   113.6507     0.0965     2.4743     0.1084
 1067.5000  -999.2500     9.3763   113.3816     0.0978     2.4747     0.1081
 1068.0000  -999.2500     9.3705   113.1883     0.0991     2.4751     0.1078
 1068.5000  -999.2500     9.3656   110.9504     0.1004     2.4755     0.1068
 1069.0000  -999.2500     9.3383   109.5637     0.1026     2.4759     0.1035
 1069.5000  -999.2500     9.3081   110.9755     0.1105     2.4791     0.1005
 1070.0000  -999.2500     9.2774   112.3662     0.1261     2.4869     0.0921
 1070.5000  -999.2500     9.2642   108.7771     0.1417     2.4946     0.0800
 1071.0000  -999.2500     9.2631   107.3301     0.1574     2.5157     0.0711
 1071.5000  -999.2500     9.2621   105.1871     0.1467     2.5365     0.0809
 1072.0000  -999.2500     9.2612   100.8317     0.1273     2.5114     0.0901
 1072.5000  -999.2500     9.2602    99.2092     0.1120     2.5041     0.0944
 1073.0000  -999.2500     9.2593    95.7402     0.1078     2.4978     0.0941
 1073.5000  -999.2500     9.2583    94.3364     0.1081     2.4943     0.0980
 1074.0000  -999.2500     9.2574    94.9905     0.1140     2.4922     0.0921
 1074.5000  -999.2500     9.2564    96.1215     0.1198     2.5006     0.0914
 1075.0000  -999.2500     9.2555    95.4275     0.1229     2.5007     0.0922
 1075.5000  -999.2500     9.2545    93.6350     0.1218     2.4945     0.0927
 1076.0000  -999.2500     9.2535    93.7551     0.1208     2.4990     0.0932
 1076.5000  -999.2500     9.2526    93.8178     0.1197     2.4975     0.0880
 1077.0000  -999.2500     9.2516    92.7356     0.1186     2.5061     0.0846
 1077.5000  -999.2500     9.2507    92.0617     0.1174     2.5114     0.0860
 1078.0000  -999.2500     9.2497    91.4114     0.1150     2.5064     0.0911
 1078.5000  -999.2500     9.2487    91.0872     0.1123     2.5004     0.0967
 1079.0000  -999.2500     9.2478    94.5171     0.1096     2.4912     0.0982
 1079.5000  -999.2500     9.2469    97.2845     0.1070     2.4910     0.0997
 1080.0000  -999.2500     9.2458   100.0575     0.1059     2.4863     0.1002
 1080.5000  -999.2500     9.2448   100.3997     0.1070     2.4943     0.0994
 1081.0000  -999.2500     9.2339    99.4624     0.1129     2.4808     0.0927
 1081.5000  -999.2500     9.2167    94.9152     0.1200     2.4971     0.0902
 1082.0000  -999.2500     9.1993    89.9304     0.1166     2.5027     0.0928
 1082.5000  -999.2500     9.1819    91.6407     0.1104     2.4990     0.0956
 1083.0000  -999.2500     9.1644    93.9672     0.1077     2.4951     0.0940
 1083.5000  -999.2500     9.1471    94.5386     0.1083     2.4978     0.0920
 1084.0000  -999.2500     9.1453    94.4866     0.1089     2.5050     0.0927
 1084.5000  -999.2500     9.1456    94.4061     0.1095     2.5016     0.0876
 1085.0000  -999.2500     9.1458    94.4258     0.1102     2.5068     0.0896
 1085.5000  -999.2500     9.1461    95.8832     0.1108     2.5111     0.0923
 1086.0000  -999.2500     9.1463    94.9900     0.1113     2.5024     0.0938
 1086.5000  -999.2500     9.1466    92.1451     0.1099     2.4959     0.0966
 1087.0000  -999.2500     9.1468    89.7983     0.1084     2.4905     0.0998
 1087.5000  -999.2500     9.1471    93.4881     0.1069     2.4849     0.1031
 1088.0000  -999.2500     9.1473    97.3171     0.1055     2.4791     0.1044
 1088.5000  -999.2500     9.1476    99.9945     0.1082     2.4841     0.1013
 1089.0000  -999.2500     9.1478    99.9398     0.1112     2.4857     0.0972
 1089.5000  -999.2500     9.1481    99.9500     0.1142     2.4885     0.0931
 1090.0000  -999.2500     9.1483    99.9441     0.1173     2.5022     0.0891
 1090.5000  -999.2500     9.1486    96.9265     0.1203     2.5148     0.0860
 1091.0000  -999.2500     9.1488    93.4093     0.1214     2.5162     0.0847
 1091.5000  -999.2500     9.1491    89.8891     0.1180     2.5171     0.0833
 1092.0000  -999.2500     9.1493    89.0560     0.1126     2.5163     0.0873
 1092.5000  -999.2500     9.1496    92.8586     0.1073     2.5068     0.0949
 1093.0000  -999.2500     9.1498    94.9808     0.1019     2.4973     0.1028
 1093.5000  -999.2500     9.1501    94.8060     0.0989     2.4912     0.1065
 1094.0000  -999.2500     9.1503    94.6675     0.0980     2.4878     0.1095
 1094.5000  -999.2500     9.1506    94.5743     0.0971     2.4844     0.1104
 1095.0000  -999.2500     9.1508    95.3116     0.0962     2.4801     0.1113
 1095.5000  -999.2500     9.1510    96.0856     0.0953     2.4756     0.1100
 1096.0000  -999.2500     9.1513    98.7209     0.0944     2.4750     0.1077
 1096.5000  -999.2500     9.1516    98.9545     0.0936     2.4750     0.1054
 1097.0000  -999.2500     9.1518    98.6736     0.0934     2.4750     0.1030
 1097.5000  -999.2500     9.1521    98.5571     0.0934     2.4768     0.1000
