~VERSION INFORMATION
 VERS.                2.0:   CWLS LOG ASCII STANDARD - VERSION 2.0
 WRAP.                 NO:   ONE LINE PER DEPTH STEP
~WELL INFORMATION
#MNEM.UNIT      DATA TYPE    INFORMATION
#----------   ------------   ------------------------------
 STRT.F           30.0000:   START DEPTH
 STOP.F         1358.0000:   STOP DEPTH
 STEP.F            0.5000:   STEP LENGTH
 NULL.          -999.2500:   NO VALUE
 COMP. FENIX & SCISSON INC:   COMPANY
 WELL.      3 SX14 #85-14:   WELL
 FLD .             TEAPOT:   FIELD
 LOC .      S14 T38N R78W:   LOCATION
 CNTY.            NATRONA:   COUNTY
 STAT.            WYOMING:   STATE
 CTRY. UNITED STATES OF AMERICA:   COUNTRY
 SRVC.              Welex:   SERVICE COMPANY
 DATE.        10-FEB-1977:   LOGDATE
 API .       490251027500:   API NUMBER
~CURVE INFORMATION
#MNEM.UNIT       API CODE    CURVE DESCRIPTION
#----------   ------------   ------------------------------
 DEPT.F                  :   
 ILM .OHMM   07 120 44 00:   INDUCTION LOG MEDIUM
 ILD .OHMM   07 120 46 00:   INDUCTION LOG DEEP
 CALD.IN     45 280 60 00:   CALIPER
 GRD .GAPI   45 310 01 00:   GAMMA RAY FROM DENSITY LOG
 RHOB.G/C3   45 350 01 00:   BULK DENSITY
 DPHI.DEC    45 890 12 00:   DENSITY POROSITY SANDSTONE
 CORR.G/C3   45 356 01 00:   DENSITY CORRECTION
~PARAMETER INFORMATION
#MNEM.UNIT          VALUE    DESCRIPTION
#----------   ------------   ------------------------------
 PD  .                 GL:   PERMANENT DATUM
 EPD .F              5345:   ELEVATION PERMANENT DATUM
 LMF .                 GL:   LOG MEASURED FROM
 DMF .                 GL:   DRILLING MEASURED FROM
 EGL .F              5345:   GROUND LEVEL
 DATE.          2-10-1977:   RUN DATE
 RUN .                  1:   RUN NUMBER
 DD  .F              1362:   DEPTH DRILLER
 DL  .F              1361:   DEPTH LOGGER
 BLI .F              1359:   BOTTOM LOG INTERVAL
 TLI .F                43:   TOP LOG INTERVAL
 CS  .IN            8.625:   CASING SIZE
 CBD .F                43:   CASING BOTTOM DRILLER
 CBL .F                43:   CASING BOTTOM LOGGER
 BS  .IN            7.875:   BIT SIZE
 BSD .F              1362:   BIT SIZE AT DEPTH
 DFT .           AIR MIST:   DRILLING FLUID TYPE
 TCS .HRS               4:   TIME CURCULATED STOPPED
 MRT .F               104:   MAXIMUM RECORDED TEMPERATURE
 LUN .               8611:   LOGGING UNIT NUMBER
 LUL .           GILLETTE:   LOGGING UNIT LOCATION
 ENGI.               DOAK:   RECORDING ENGINEER
 WITN. PETTINGILL/STUEBINGER:   WITNESSED BY
 CLNT.            A2DTECH:   CLIENT CODE
 ORIG.       2", 5" PRINT:   ORIGIN OF DATA
 UWI .       490251027500:   UNIQUE WELL ID
 DICO. A2D Technologies, Inc.:   DIGITIZING COMPANY
~OTHER INFORMATION
~A   DEPT      ILM        ILD         CALD      GRD         RHOB     DPHI        CORR  
# ...
  712.5000     4.3171     3.9856     8.1554   111.9932     2.4545     0.1303     0.0529
  713.0000     4.4211     4.1875     8.1681   111.1723     2.4555     0.1301     0.0581
  713.5000     4.5048     4.1840     8.1764   111.8334     2.4528     0.1301     0.0632
  714.0000     4.5625     4.2239     8.1848   112.4766     2.4450     0.1332     0.0684
  714.5000     4.5899     4.2238     8.1934   113.1256     2.4339     0.1384     0.0736
  715.0000     4.5894     4.1206     8.2007   113.7829     2.4253     0.1438     0.0786
  715.5000     4.3919     4.0276     8.2004   114.3933     2.4211     0.1478     0.0869
  716.0000     4.1877     3.9367     8.2004   113.4432     2.4131     0.1521     0.0958
  716.5000     3.9929     3.8478     8.2004   112.4089     2.3981     0.1591     0.1049
  717.0000     3.8074     3.7274     8.2000   111.3407     2.3882     0.1684     0.1139
  717.5000     3.6305     3.5139     8.2141   109.6335     2.3652     0.1813     0.1229
  718.0000     3.4618     3.3126     8.2319   107.8599     2.3389     0.1942     0.1265
  718.5000     3.3011     3.1229     8.2500   106.1118     2.3117     0.2077     0.1040
  719.0000     3.1165     2.9440     8.2678   105.4024     2.3211     0.2064     0.0822
  719.5000     3.1275     2.8437     8.2786   107.5753     2.4011     0.1741     0.0686
  720.0000     3.1502     2.8024     8.2470   109.6833     2.3926     0.1558     0.0999
  720.5000     3.1732     2.7662     8.2151   111.7882     2.3791     0.1689     0.1054
  721.0000     3.0568     2.6628     8.1946   113.4987     2.3651     0.1786     0.1101
  721.5000     2.9295     2.5713     8.1835   114.4367     2.3503     0.1917     0.1150
  722.0000     2.8076     2.4830     8.1725   115.3681     2.3167     0.2077     0.1301
  722.5000     2.6908     2.3977     8.1614   116.3028     2.2797     0.2237     0.1393
  723.0000     2.5788     2.3154     8.1497   117.0966     2.2521     0.2462     0.1441
  723.5000     2.4715     2.2358     8.1382   115.7126     2.2107     0.2740     0.1482
  724.0000     2.3686     2.1590     8.1638   114.1665     2.1704     0.2986     0.1360
  724.5000     2.2700     2.0849     8.2380   112.6223     2.1520     0.2969     0.1121
  725.0000     2.0798     2.0133     8.3868   111.0783     2.1993     0.2749     0.0882
  725.5000     2.1691     1.9863     8.5442   109.5471     2.2385     0.2423     0.0642
  726.0000     2.3231     2.1939     8.4496   108.0181     2.3006     0.1901     0.0405
  726.5000     2.4880     2.3529     8.2774   107.6184     2.4520     0.1377     0.0281
  727.0000     2.6647     2.5237     8.1196   110.1758     2.4689     0.1214     0.0508
  727.5000     2.8538     2.7069     8.1170   112.1493     2.4604     0.1263     0.0534
  728.0000     3.0564     2.9032     8.1241   113.7352     2.4526     0.1328     0.0557
  728.5000     3.2734     3.1138     8.1505   115.0412     2.4450     0.1378     0.0580
  729.0000     3.5059     3.2947     8.1763   116.3268     2.4372     0.1411     0.0604
  729.5000     3.6793     3.4498     8.2037   117.1963     2.4295     0.1444     0.0627
  730.0000     3.5676     3.4286     8.2435   118.0020     2.4218     0.1475     0.0650
  730.5000     3.4838     3.3175     8.2177   118.7698     2.4140     0.1538     0.0729
  731.0000     3.4019     3.1436     8.1760   119.3049     2.4056     0.1596     0.0816
  731.5000     3.2746     2.9788     8.1326   119.8179     2.3953     0.1664     0.0904
  732.0000     3.0922     2.8226     8.1178   120.3265     2.3728     0.1740     0.0992
  732.5000     2.9199     2.6746     8.1266   120.8506     2.3441     0.1887     0.1079
  733.0000     2.7572     2.5344     8.1402   121.8885     2.3152     0.2049     0.1167
  733.5000     2.6036     2.4015     8.1540   122.9189     2.2862     0.2210     0.1255
  734.0000     2.4584     2.2756     8.1677   123.9848     2.2586     0.2389     0.1342
  734.5000     2.3214     2.1562     8.1815   122.5692     2.2128     0.2627     0.1433
  735.0000     2.1908     2.0418     8.1952   119.3989     2.1701     0.2867     0.1333
  735.5000     2.1561     1.9685     8.2089   114.7692     2.1520     0.2943     0.1128
  736.0000     2.3309     2.1368     8.2226   110.1838     2.1597     0.2932     0.0710
  736.5000     2.4987     2.3185     8.2366   107.1602     2.3094     0.2660    -0.0123
  737.0000     2.6903     2.5251     8.2419   104.6394     2.4252     0.1718    -0.0026
  737.5000     2.9465     2.7503     8.2374   103.4521     2.4432     0.1326     0.0129
  738.0000     3.2270     2.9954     8.1991   102.9766     2.4582     0.1294     0.0291
  738.5000     3.5342     3.2625     8.1773   103.6848     2.4642     0.1258     0.0321
  739.0000     3.8707     3.5533     8.1796   104.9854     2.4688     0.1221     0.0322
  739.5000     4.2392     3.8709     8.1799   106.2969     2.4735     0.1215     0.0322
  740.0000     4.6428     4.1351     8.1798   107.6164     2.4783     0.1190     0.0322
  740.5000     4.8489     4.2977     8.1791   108.9379     2.4831     0.1140     0.0322
  741.0000     4.9846     4.4665     8.1750   110.2429     2.4878     0.1111     0.0322
  741.5000     5.1308     4.6418     8.1710   111.3120     2.4926     0.1090     0.0339
  742.0000     5.3066     4.8240     8.1669   110.8585     2.4974     0.1076     0.0302
  742.5000     5.4885     5.0134     8.1629   110.4644     2.4965     0.1093     0.0268
  743.0000     5.6765     5.2103     8.1589   110.2630     2.4914     0.1111     0.0233
  743.5000     5.8738     5.4148     8.1548   111.0958     2.4863     0.1129     0.0199
  744.0000     5.9987     5.6041     8.1508   112.0186     2.4811     0.1146     0.0163
  744.5000     6.1687     5.7389     8.1467   112.9832     2.4788     0.1164     0.0157
  745.0000     6.1673     5.7987     8.1426   114.1942     2.4805     0.1165     0.0167
  745.5000     6.3318     5.8318     8.1388   116.1733     2.4824     0.1154     0.0178
  746.0000     6.4013     5.8648     8.1521   118.0870     2.4843     0.1141     0.0188
  746.5000     6.4278     5.8823     8.1669   120.6559     2.4862     0.1129     0.0198
  747.0000     6.4545     5.8325     8.1816   123.7943     2.4881     0.1117     0.0209
  747.5000     6.4812     5.7982     8.1963   126.9301     2.4902     0.1105     0.0219
  748.0000     6.5090     5.7641     8.2110   129.8278     2.4937     0.1108     0.0229
  748.5000     6.5091     5.7302     8.2212   128.7034     2.4967     0.1111     0.0240
  749.0000     6.4881     5.6966     8.2063   125.4171     2.4973     0.1080     0.0250
  749.5000     6.4534     5.6631     8.1900   121.1427     2.5019     0.1050     0.0262
  750.0000     6.4190     5.6298     8.1735   117.6567     2.5081     0.1020     0.0286
  750.5000     6.3849     5.5967     8.1605   117.0190     2.5144     0.0999     0.0310
  751.0000     6.3509     5.5638     8.1922   116.4987     2.5112     0.1018     0.0336
  751.5000     6.3171     5.5311     8.2232   116.2762     2.5057     0.1040     0.0342
  752.0000     6.2835     5.4985     8.2539   116.0345     2.5000     0.1062     0.0331
  752.5000     6.2501     5.4662     8.2848   115.7889     2.4944     0.1085     0.0321
  753.0000     6.2169     5.4341     8.3160   115.5422     2.4892     0.1102     0.0311
  753.5000     6.1838     5.4150     8.3409   115.3037     2.4910     0.1102     0.0301
  754.0000     6.1509     5.4326     8.3158   115.4364     2.4957     0.1102     0.0306
  754.5000     6.1182     5.4471     8.3031   115.8405     2.4973     0.1097     0.0320
  755.0000     6.1030     5.4617     8.2914   116.2029     2.4968     0.1090     0.0333
  755.5000     6.1935     5.4763     8.2799   116.4858     2.4963     0.1084     0.0347
  756.0000     6.2731     5.4908     8.2683   115.4276     2.4982     0.1074     0.0360
  756.5000     6.3537     5.5064     8.2566   114.2394     2.4994     0.1064     0.0374
  757.0000     6.4353     5.5138     8.2452   113.0277     2.5005     0.1068     0.0387
  757.5000     6.5180     5.6481     8.2338   111.8132     2.4987     0.1073     0.0401
