~VERSION INFORMATION
 VERS.                2.0:   CWLS LOG ASCII STANDARD - VERSION 2.0
 WRAP.                 NO:   ONE LINE PER DEPTH STEP
~WELL INFORMATION
#MNEM.UNIT      DATA TYPE    INFORMATION
#----------   ------------   ------------------------------
 STRT.F           24.0000:   START DEPTH
 STOP.F          570.0000:   STOP DEPTH
 STEP.F            0.5000:   STEP LENGTH
 NULL.          -999.2500:   NO VALUE
 COMP. FENIX & SCISSON INC:   COMPANY
 WELL.   NPR-3 #32SX10-10:   WELL
 FLD .  TEAPOT COME NPR-3:   FIELD
 LOC .      S10 T38N R78W:   LOCATION
 CNTY.            NATRONA:   COUNTY
 STAT.            WYOMING:   STATE
 CTRY. UNITED STATES OF AMERICA:   COUNTRY
 SRVC.            Unknown:   SERVICE COMPANY
 DATE.        27-JUN-1978:   LOGDATE
 API .       490251065300:   API NUMBER
~CURVE INFORMATION
#MNEM.UNIT       API CODE    CURVE DESCRIPTION
#----------   ------------   ------------------------------
 DEPT.F                  :   
 CALD.IN     45 280 60 00:   CALIPER FROM DENSITY LOG
 GRD .GAPI   45 310 01 00:   GAMMA RAY FROM DENSITY LOG
 CORR.G/C3   45 356 01 00:   DENSITY CORRECTION
 DPHI.DEC    45 890 12 00:   DENSITY POROSITY SANDSTONE
 RHOB.G/C3   45 350 01 00:   BULK DENSITY
 SPR .MV     05 010 01 00:   SPONTANEOUS POTENTIAL FROM RES.
 SN  .OHMM   05 040 16 00:   SHORT NORMAL 16"
 ILD .OHMM   05 120 46 00:   INDUCTION LOG DEEP
~PARAMETER INFORMATION
#MNEM.UNIT          VALUE    DESCRIPTION
#----------   ------------   ------------------------------
 PD  .                 GL:   PERMANENT DATUM
 EPD .F              5239:   ELEVATION PERMANENT DATUM
 LMF .                 GL:   LOG MEASURED FROM
 DAPD.F                 4:   FEET ABOVE PERMANENT DATUM
 DMF .                 GL:   DRILLING MEASURED FROM
 EKB .F              5243:   KELLING BUSHING
 EGL .F              5239:   GROUND LEVEL
 DATE.        27-JUN-1978:   RUN DATE
 RUN .                  1:   RUN NUMBER
 DD  .F               565:   DEPTH DRILLER
 DL  .F               574:   DEPTH LOGGER
 BLI .F               572:   BOTTOM LOG INTERVAL
 TLI .F                30:   TOP LOG INTERVAL
 CS  .IN            8.625:   CASING SIZE
 CBD .F                40:   CASING BOTTOM DRILLER
 CBL .F                40:   CASING BOTTOM LOGGER
 BS  .IN            7.875:   BIT SIZE
 BSD .F               565:   BIT SIZE AT DEPTH
 DFT .                KCL:   DRILLING FLUID TYPE
 DFD .                8.7:   DRILLING FLUID DENSITY
 DFV .                 35:   DRILLING FLUID VISCOSITY
 DFPH.                 10:   DRILLING FLUID PH
 DFL .                 14:   DRILLING FLUID LOSS
 MSS .           FLOWLINE:   MUD SAMPLE SOURCE
 RMS .OHMM            .36:   RESISTIVITY MUD SAMPLE
 MST .F                78:   MUD SAMPLE TEMPERATURE
 RMF .OHMM             .3:   RESISTIVITY MUD FILTRATE SAMPLE
 MFST.F                86:   MUD FILTRATE SAMPLE TEMPERATURE
 RMC .OHMM            .36:   RESISTIVITY MUD CAKE
 MCST.F                87:   MUD CAKE SAMPLE TEMPERATURE
 MFSS.               MEAS:   MUD FILTRATE SAMPLE SOURCE
 MCSS.               MEAS:   MUD CAKE SAMPLE SOURCE
 RMB .OHMM            3.9:   RESISTIVITY MUD AT BHT
 BHT .F                72:   BOTTOM HOLE TEMPERATURE
 TCS .HRS            0300:   TIME CURCULATED STOPPED
 MRT .F                72:   MAXIMUM RECORDED TEMPERATURE
 LUN .               2938:   LOGGING UNIT NUMBER
 LUL .               CASP:   LOGGING UNIT LOCATION
 ENGI.            POINTER:   RECORDING ENGINEER
 WITN.         ZARGARNIAN:   WITNESSED BY
 CLNT.            A2DTECH:   CLIENT CODE
 ORIG.     2.5", 5" PRINT:   ORIGIN OF DATA
 UWI .       490251065300:   UNIQUE WELL ID
 DICO. A2D Technologies, Inc.:   DIGITIZING COMPANY
~OTHER INFORMATION
~A   DEPT     CALD         GRD      CORR       DPHI       RHOB        SPR         SN        ILD   
# ...
   64.5000     7.5659   127.0363     0.0353     0.1084     2.4988   -22.8228     5.8484     7.2150
   65.0000     7.5679   123.0462     0.0387     0.1071     2.4997   -22.8228     5.9300     7.2150
   65.5000     7.5993   122.6132     0.0433     0.0993     2.5103   -22.8228     5.9308     7.2150
   66.0000     7.6456   122.0268     0.0451     0.0891     2.5314   -22.8228     5.9316     7.2150
   66.5000     7.6771   117.9072     0.0424     0.0854     2.5385   -22.8228     5.9324     7.3144
   67.0000     7.7085   111.7503     0.0367     0.0827     2.5430   -22.8228     5.9332     7.3144
   67.5000     7.7102   106.6396     0.0324     0.0844     2.5423   -22.8966     6.0160     7.3144
   68.0000     7.6968   114.2232     0.0447     0.0970     2.5207   -23.1231     6.0168     7.3144
   68.5000     7.6690   127.3425     0.0510     0.1131     2.5006   -23.1231     6.0176     7.4152
   69.0000     7.5663   127.8072     0.0542     0.1128     2.4970   -23.3148     6.1015     7.4152
   69.5000     7.4785   128.8663     0.0530     0.1121     2.4979   -23.4234     6.1023     7.4152
   70.0000     7.4056   133.4028     0.0471     0.1121     2.4980   -23.4935     6.1874     7.4152
   70.5000     7.3326   136.9447     0.0399     0.1123     2.4974   -23.7237     6.1883     7.4152
   71.0000     7.2597   139.7733     0.0345     0.1126     2.4967   -23.7237     6.2745     7.4152
   71.5000     7.2013   141.7239     0.0347     0.1154     2.4954   -23.7237     6.3620     7.4152
   72.0000     7.1437   142.3325     0.0365     0.1280     2.4801   -23.7237     6.3629     7.4724
   72.5000     7.1006   139.5330     0.0383     0.1310     2.4687   -23.7900     6.4516     7.5174
   73.0000     7.0722   138.8083     0.0401     0.1315     2.4658   -24.0240     6.6318     7.6210
   73.5000     7.0578   138.5308     0.0403     0.1312     2.4667   -24.0240     6.8170     7.7824
   74.0000     7.0458   137.3513     0.0406     0.1302     2.4676   -24.0240     7.0074     7.8886
   74.5000     7.0926   134.8278     0.0364     0.1203     2.4692   -24.1474     7.2032     7.9962
   75.0000     7.1087   133.9814     0.0292     0.1148     2.4873   -24.3243     7.5065     8.1607
   75.5000     7.0212   135.4910     0.0234     0.1169     2.4904   -24.3243     7.8227     8.2732
   76.0000     7.0229   137.1444     0.0207     0.1201     2.4853   -24.3243     7.9317     8.3279
   76.5000     7.0841   137.6091     0.0211     0.1210     2.4832   -24.1439     7.6133     8.3336
   77.0000     7.1900   137.6281     0.0244     0.1215     2.4833   -24.0240     7.4084     8.2732
   77.5000     7.3705   136.1611     0.0336     0.1188     2.4850   -24.0240     7.2091     8.2226
   78.0000     7.5211   130.8479     0.0504     0.1151     2.4911   -24.0240     7.1120     8.1119
   78.5000     7.5972   122.9569     0.0641     0.1079     2.5024   -24.0240     7.1129     8.0498
   79.0000     7.6137   123.4889     0.0735     0.1045     2.5070   -24.0240     7.1139     8.0498
   79.5000     7.5996   124.9474     0.0829     0.1018     2.5131   -24.0240     7.2131     8.0498
   80.0000     7.5703   125.2635     0.0935     0.0954     2.5208   -23.9690     7.2141     8.0498
   80.5000     7.5146   125.4263     0.0982     0.0894     2.5321   -23.7237     7.2151     8.1607
   81.0000     7.4268   122.3296     0.0999     0.0839     2.5405   -23.7237     7.2161     8.1607
   81.5000     7.3684   119.9712     0.0808     0.0779     2.5638   -23.7237     7.2171     8.1607
   82.0000     7.3704   113.6008     0.0557     0.0725     2.5648   -23.7237     7.3539     8.1607
   82.5000     7.3720   111.8367     0.0589     0.1123     2.5192   -23.7237     7.4553     8.2732
   83.0000     7.2097   115.8676     0.0594     0.1230     2.4846   -23.7237     7.5583     8.3120
   83.5000     7.0921   127.9222     0.0550     0.1191     2.4834   -23.7237     7.7331     8.5414
   84.0000     7.0635   131.0615     0.0388     0.1142     2.4963   -23.7237     7.8409     8.7772
   84.5000     7.0804   131.3776     0.0315     0.1196     2.4852   -23.6154     7.8755     9.1438
   85.0000     7.0820   133.8238     0.0304     0.1189     2.4816   -23.4234     7.9513     9.4355
   85.5000     7.0687   137.4087     0.0307     0.1201     2.4840   -23.4234     7.9523     9.7888
   86.0000     7.0554   139.0172     0.0325     0.1182     2.4871   -23.6497     7.9842    10.1976
   86.5000     6.9327   139.4819     0.0328     0.1149     2.4887   -23.7237     8.0643    10.4791
   87.0000     6.8500   139.3476     0.0346     0.1145     2.4918   -23.7237     8.1767    10.7300
   87.5000     6.8367   139.3713     0.0363     0.1142     2.4942   -23.7237     8.2906    10.7300
   88.0000     6.9579   139.8360     0.0381     0.1141     2.4943   -23.7237     8.4062    10.6950
   88.5000     7.1384   140.3007     0.0414     0.1138     2.4937   -23.7237     8.4341    10.4077
   89.0000     7.3188   140.4682     0.0431     0.1134     2.4938   -23.7237     8.6422    10.2676
   89.5000     7.5440   135.4352     0.0556     0.1119     2.4947   -23.7237     8.7627    10.1294
   90.0000     7.7542   133.3739     0.0696     0.1097     2.4978   -23.7237     8.8848     9.9931
   90.5000     7.8150   134.8787     0.0770     0.1071     2.5077   -23.7237     8.8860     9.7498
   91.0000     7.7574   137.1265     0.0803     0.0982     2.5153   -23.9424     8.8873     9.5937
   91.5000     7.6994   138.1947     0.0790     0.0955     2.5207   -24.0240     8.8885     9.3576
   92.0000     7.6390   135.8768     0.0688     0.0951     2.5223   -24.0240     8.8703     9.2304
   92.5000     7.4861   128.7154     0.0497     0.0963     2.5217   -24.0240     8.7698     9.2304
   93.0000     7.2426   126.5055     0.0335     0.1019     2.5135   -24.0240     8.6516     9.2304
   93.5000     7.1250   126.5250     0.0322     0.1180     2.5014   -23.8091     8.5350     9.2304
   94.0000     7.0815   127.1501     0.0340     0.1317     2.4786   -23.8779     8.5363     9.3576
   94.5000     7.0835   127.7984     0.0373     0.1356     2.4615   -24.0240     8.4212     9.4865
   95.0000     7.0553   132.0839     0.0407     0.1341     2.4609   -24.0240     8.4224     9.6172
   95.5000     7.0271   137.9907     0.0423     0.1337     2.4603   -24.0240     8.4236     9.7498
   96.0000     6.9393   143.5680     0.0442     0.1406     2.4559   -24.2352     8.4246     9.7498
   96.5000     6.8217   143.5789     0.0445     0.1366     2.4538   -24.3243     8.3111     9.8841
   97.0000     6.7041   142.5624     0.0447     0.1339     2.4601   -24.4139     8.3123     9.8841
   97.5000     6.5865   142.8786     0.0465     0.1290     2.4668   -24.6246     8.3134     9.8841
   98.0000     6.5285   146.0179     0.0483     0.1215     2.4759   -24.6246     8.2014     9.8841
   98.5000     6.6265   146.3293     0.0501     0.1202     2.4813   -24.8321     8.1992     9.8841
   99.0000     6.9276   145.1595     0.0518     0.1205     2.4822   -24.9249     8.0920     9.8841
   99.5000     7.4875   145.1832     0.0551     0.1204     2.4823   -24.9249     8.0931     9.8841
  100.0000     7.5942   144.9936     0.0749     0.1204     2.4842   -24.9249     7.9840     9.7498
  100.5000     7.6103   143.5936     0.0985     0.1117     2.4953   -24.9249     7.9834     9.6686
  101.0000     7.5974   139.4566     0.1192     0.1023     2.5065   -25.1286     7.9829     9.4837
  101.5000     7.5841   137.5485     0.1298     0.0944     2.5240   -25.2252     7.9823     9.2264
  102.0000     7.5271   136.8232     0.1328     0.0876     2.5362   -25.2252     7.9817     9.0998
  102.5000     7.4695   141.7560     0.1241     0.0808     2.5445   -25.2252     7.9812     8.9749
  103.0000     7.3821   144.0083     0.1035     0.0793     2.5492   -25.2252     7.9806     8.8517
  103.5000     7.2650   143.8833     0.0498     0.0852     2.5515   -25.1652     8.0903     8.8505
  104.0000     7.1764   141.2322     0.0425     0.1172     2.5008   -25.0934     8.2013     8.8492
  104.5000     7.1189   140.5069     0.0396     0.1181     2.4874   -25.0215     8.2008     8.8480
