~VERSION INFORMATION
 VERS.                2.0:   CWLS LOG ASCII STANDARD - VERSION 2.0
 WRAP.                 NO:   ONE LINE PER DEPTH STEP
~WELL INFORMATION
#MNEM.UNIT      DATA TYPE    INFORMATION
#----------   ------------   ------------------------------
 STRT.F           44.0000:   START DEPTH
 STOP.F          666.0000:   STOP DEPTH
 STEP.F            0.5000:   STEP LENGTH
 NULL.          -999.2500:   NO VALUE
 COMP. FENIX & SCISSON INC:   COMPANY
 WELL.     NPR-3 #22SX-10:   WELL
 FLD .             TEAPOT:   FIELD
 LOC .      S10 T38N R78W:   LOCATION
 CNTY.            NATRONA:   COUNTY
 STAT.            WYOMING:   STATE
 CTRY. UNITED STATES OF AMERICA:   COUNTRY
 SRVC.            Unknown:   SERVICE COMPANY
 DATE.        11-JUL-1978:   LOGDATE
 API .       490251065600:   API NUMBER
~CURVE INFORMATION
#MNEM.UNIT       API CODE    CURVE DESCRIPTION
#----------   ------------   ------------------------------
 DEPT.F                  :   
 CALD.IN     45 280 60 00:   CALIPER FROM DENSITY LOG
 GRD .GAPI   45 310 01 00:   GAMMA RAY FROM DENSITY LOG
 CORR.G/C3   45 356 01 00:   DENSITY CORRECTION
 DPHI.DEC    45 890 12 00:   DENSITY POROSITY SANDSTONE
 RHOB.G/C3   45 350 01 00:   BULK DENSITY
 SPR .MV     05 010 01 00:   SPONTANEOUS POTENTIAL FROM RES.
 SN  .OHMM   05 040 16 00:   SHORT NORMAL 16"
 ILD .OHMM   05 120 46 00:   INDUCTION LOG DEEP
~PARAMETER INFORMATION
#MNEM.UNIT          VALUE    DESCRIPTION
#----------   ------------   ------------------------------
 PD  .                 GL:   PERMANENT DATUM
 EPD .F              5263:   ELEVATION PERMANENT DATUM
 LMF .                 KB:   LOG MEASURED FROM
 DAPD.F                 4:   FEET ABOVE PERMANENT DATUM
 DMF .                 KB:   DRILLING MEASURED FROM
 EKB .F              5267:   KELLING BUSHING
 EGL .F              5263:   GROUND LEVEL
 DATE.        11-JUL-1978:   RUN DATE
 RUN .                  1:   RUN NUMBER
 DD  .F               657:   DEPTH DRILLER
 DL  .F               666:   DEPTH LOGGER
 BLI .F               660:   BOTTOM LOG INTERVAL
 TLI .F                50:   TOP LOG INTERVAL
 CS  .IN            8.625:   CASING SIZE
 CBD .F                40:   CASING BOTTOM DRILLER
 BS  .IN            7.875:   BIT SIZE
 BSD .F               657:   BIT SIZE AT DEPTH
 DFT .                KCL:   DRILLING FLUID TYPE
 DFD .                8.6:   DRILLING FLUID DENSITY
 DFV .                 33:   DRILLING FLUID VISCOSITY
 DFPH.                9.0:   DRILLING FLUID PH
 DFL .                 14:   DRILLING FLUID LOSS
 MSS .           FLOWLINE:   MUD SAMPLE SOURCE
 RMS .OHMM            .16:   RESISTIVITY MUD SAMPLE
 MST .F                89:   MUD SAMPLE TEMPERATURE
 RMF .OHMM            .15:   RESISTIVITY MUD FILTRATE SAMPLE
 MFST.F                89:   MUD FILTRATE SAMPLE TEMPERATURE
 RMC .OHMM            .32:   RESISTIVITY MUD CAKE
 MCST.F                88:   MUD CAKE SAMPLE TEMPERATURE
 MFSS.               MEAS:   MUD FILTRATE SAMPLE SOURCE
 BHT .F                76:   BOTTOM HOLE TEMPERATURE
 TCS .HRS            0200:   TIME CURCULATED STOPPED
 MRT .F                76:   MAXIMUM RECORDED TEMPERATURE
 LUN .               2958:   LOGGING UNIT NUMBER
 LUL .               CASP:   LOGGING UNIT LOCATION
 ENGI.             MILLER:   RECORDING ENGINEER
 WITN.           MCGINLEY:   WITNESSED BY
 CLNT.            A2DTECH:   CLIENT CODE
 ORIG.           5" PRINT:   ORIGIN OF DATA
 UWI .       490251065600:   UNIQUE WELL ID
 DICO. A2D Technologies, Inc.:   DIGITIZING COMPANY
~OTHER INFORMATION
~A   DEPT     CALD         GRD      CORR       DPHI       RHOB        SPR         SN        ILD   
# ...
  287.0000     7.9098    87.0639     0.0076     0.1272     2.4687   -71.2658     7.9032     8.2929
  287.5000     7.8939    85.5435     0.0090     0.1251     2.4679   -71.1042     7.9076     8.2974
  288.0000     7.8781    85.2335     0.0074     0.1161     2.4829   -71.0911     7.9666     8.3019
  288.5000     7.8321    86.4363     0.0058     0.1197     2.4911   -71.0780     7.9716     8.3065
  289.0000     7.8012    88.0929     0.0027     0.1263     2.4723   -70.9165     8.0310     8.4270
  289.5000     7.8159    89.5983     0.0011     0.1281     2.4603   -70.9033     8.0907     8.5483
  290.0000     7.8151    90.1959     0.0010     0.1253     2.4715   -70.7418     8.1509     8.7913
  290.5000     7.8145    88.9781     0.0009     0.1111     2.4828   -70.7285     8.2682     9.0413
  291.0000     7.8139    86.3988    -0.0006     0.1077     2.4903   -70.7151     8.3872     9.2346
  291.5000     7.8133    86.0887    -0.0007     0.1161     2.5000   -70.5508     8.5079     9.4321
  292.0000     7.8127    84.8709    -0.0023     0.1210     2.4962   -70.5377     8.6303     9.6338
  292.5000     7.8121    84.5627    -0.0039     0.1224     2.4819   -70.5245     8.7545     9.8399
  293.0000     7.8115    85.6124    -0.0055     0.1221     2.4782   -70.3630     8.8804     9.9131
  293.5000     7.8109    86.3613    -0.0056     0.1215     2.4804   -70.3499     9.0111     9.9869
  294.0000     7.7952    86.5053    -0.0042     0.1194     2.4864   -70.3367     9.1380    10.0612
  294.5000     7.7794    86.0437    -0.0043     0.1159     2.4826   -70.3236     9.2071    10.1361
  295.0000     7.7626    84.9772    -0.0045     0.1083     2.4864   -70.3094     9.2756    10.3528
  295.5000     7.7479    82.5463    -0.0047     0.1017     2.5023   -70.2973     9.3446    10.5068
  296.0000     7.7473    79.9577    -0.0050     0.0994     2.5104   -70.2842     9.3497    10.7266
  296.5000     7.7315    79.9853    -0.0052     0.1015     2.5126   -70.2711     9.3547    10.8823
  297.0000     7.7158    80.5600    -0.0054     0.1096     2.5092   -70.4065     9.3598    11.0388
  297.5000     7.7150    79.6218    -0.0056     0.1156     2.4992   -70.3932     9.3648    11.0448
  298.0000     7.6993    80.3730    -0.0058     0.1216     2.4832   -70.3798     9.3699    11.1270
  298.5000     7.6987    83.4100    -0.0060     0.1282     2.4726   -70.5153     9.3095    11.1330
  299.0000     7.6829    83.5557    -0.0062     0.1312     2.4674   -70.6472     9.2517    11.1391
  299.5000     7.6975    83.0925    -0.0064     0.1279     2.4651   -70.6341     9.2569    11.1451
  300.0000     7.6969    79.8189    -0.0067     0.1281     2.4650   -70.6129     9.1985    10.9622
  300.5000     7.6959    76.4174    -0.0068     0.1318     2.4637   -70.4746     9.1047    10.4881
  301.0000     7.6947    75.4991    -0.0067     0.1312     2.4624   -70.3363     8.9621    10.3401
  301.5000     7.6787    75.0347    -0.0065     0.1337     2.4590   -70.2710     8.9052    10.2166
  302.0000     7.6799    74.8729    -0.0064     0.1364     2.4537   -70.2534     8.8502    10.1522
  302.5000     7.6809    74.2572    -0.0063     0.1299     2.4522   -70.2359     8.7955    10.0888
  303.0000     7.6820    73.1877    -0.0062     0.1256     2.4762   -70.3712     8.6825    10.0708
  303.5000     7.6830    71.9669    -0.0060     0.1332     2.4642   -70.4976     8.5699    10.0319
  304.0000     7.6841    75.4360    -0.0059     0.1370     2.4529   -70.4801     8.5169    10.0395
  304.5000     7.6851    81.3256    -0.0058     0.1379     2.4498   -70.6110     8.4063    10.0456
  305.0000     7.6861    81.3150    -0.0056     0.1379     2.4498   -70.5935     8.3544    10.1210
  305.5000     7.6872    80.8507    -0.0055     0.1379     2.4498   -70.5757     8.3027    10.1271
  306.0000     7.6882    79.6298    -0.0054     0.1382     2.4498   -70.5584     8.2514    10.2031
  306.5000     7.6893    79.7732    -0.0052     0.1383     2.4490   -70.6893     8.2584    10.2798
  307.0000     7.6903    79.6088    -0.0051     0.1250     2.4557   -70.8202     8.2639    10.3569
  307.5000     7.6913    76.8751    -0.0050     0.1295     2.4767   -71.0994     8.2695    10.2922
  308.0000     7.6924    76.1082    -0.0111     0.1400     2.4722   -71.2302     8.2184    10.2279
  308.5000     7.6934    75.0386    -0.0141     0.1412     2.4557   -71.2083     8.2239    10.1640
  309.0000     7.6930    74.4230    -0.0126     0.1416     2.4466   -71.3436     8.2294    10.1005
  309.5000     7.6768    73.9586    -0.0124     0.1419     2.4444   -71.3217     8.1786     9.9702
  310.0000     7.6757    73.9480    -0.0158     0.1419     2.4451   -71.3042     8.1841     9.9064
  310.5000     7.6595    76.2068    -0.0174     0.1518     2.4451   -71.2867     8.1335     9.8445
  311.0000     7.6584    81.9451    -0.0145     0.1524     2.4300   -71.2692     8.1390     9.8520
  311.5000     7.6574    84.0526    -0.0085     0.1419     2.4285   -71.4006     8.0887     9.8580
  312.0000     7.6563    82.8318    -0.0056     0.1314     2.4305   -71.3825     8.0387     9.7962
  312.5000     7.6553    80.0981    -0.0056     0.1299     2.4500   -71.3650     8.0454     9.8023
  313.0000     7.6542    79.6337    -0.0057     0.1278     2.4648   -71.3472     7.9944     9.8084
  313.5000     7.6683    79.3206    -0.0058     0.1296     2.4705   -71.3294     7.9463     9.8144
  314.0000     7.7127    78.2511    -0.0059     0.1377     2.4672   -71.4608     7.9517     9.7529
  314.5000     7.8026    76.4235    -0.0059     0.1392     2.4597   -71.4389     7.9012     9.6934
  315.0000     7.8475    77.7966    -0.0060     0.1392     2.4536   -71.4214     7.8535     9.5669
  315.5000     7.8611    79.2869    -0.0061     0.1398     2.4492   -71.4039     7.8050     9.4420
  316.0000     7.8600    79.1165    -0.0062     0.1425     2.4448   -71.5391     7.7569     9.3187
  316.5000     7.8589    78.9546    -0.0062     0.1434     2.4478   -71.5173     7.7046     9.1327
  317.0000     7.8579    78.9441    -0.0063     0.1401     2.4380   -71.6481     7.6613     8.9518
  317.5000     7.8545    79.6291    -0.0064     0.1398     2.4485   -71.6306     7.6139     8.7757
  318.0000     7.8406    82.1261    -0.0065     0.1399     2.4500   -71.7658     7.5163     8.7207
  318.5000     7.8393    82.2411    -0.0065     0.1399     2.4500   -71.8967     7.4698     8.6663
  319.0000     7.8383    82.3818    -0.0066     0.1423     2.4499   -72.0237     7.4749     8.6717
  319.5000     7.8372    81.7635    -0.0061     0.1459     2.4499   -72.3024     7.3778     8.6842
  320.0000     7.8422    77.6683    -0.0057     0.1471     2.4416   -72.4332     7.3310     8.7434
  320.5000     7.8515    77.9603    -0.0053     0.1459     2.4341   -72.5641     7.3371     8.6888
  321.0000     7.8608    78.1037    -0.0049     0.1444     2.4393   -72.6949     7.2916     8.6940
  321.5000     7.8701    78.3931    -0.0045     0.1432     2.4431   -72.6731     7.2967     8.6993
  322.0000     7.8778    78.6852    -0.0041     0.1414     2.4453   -72.6555     7.3016     8.7046
  322.5000     7.8764    78.8285    -0.0037     0.1417     2.4460   -72.6380     7.2565     8.7099
  323.0000     7.8754    78.8154    -0.0033     0.1423     2.4467   -72.7718     7.2116     8.7152
  323.5000     7.8743    78.9588    -0.0028     0.1429     2.4422   -72.7514     7.1670     8.6594
  324.0000     7.8733    78.7943    -0.0030     0.1363     2.4452   -72.7353     7.1239     8.6064
  324.5000     7.8722    79.0864    -0.0036     0.1327     2.4542   -72.5665     7.1287     8.4941
  325.0000     7.8712    79.9836    -0.0042     0.1423     2.4579   -72.5505     7.1335     8.3259
  325.5000     7.8701    81.1833    -0.0048     0.1490     2.4466   -72.5315     7.1383     8.2128
  326.0000     7.8691    82.2318    -0.0054     0.1469     2.4293   -72.5154     7.0930     8.1013
  326.5000     7.8529    81.7674    -0.0060     0.1412     2.4331   -72.4979     7.0990     7.7882
  327.0000     7.8518    79.0337    -0.0066     0.1412     2.4406   -72.6291     7.1038     7.5297
