~VERSION INFORMATION
 VERS.                2.0:   CWLS LOG ASCII STANDARD - VERSION 2.0
 WRAP.                 NO:   ONE LINE PER DEPTH STEP
~WELL INFORMATION
#MNEM.UNIT      DATA TYPE    INFORMATION
#----------   ------------   ------------------------------
 STRT.F           60.0000:   START DEPTH
 STOP.F          945.0000:   STOP DEPTH
 STEP.F            0.5000:   STEP LENGTH
 NULL.          -999.2500:   NO VALUE
 COMP.          U.S. NAVY:   COMPANY
 WELL. RES 3 TEAPOT DOM #48S-35:   WELL
 FLD .           TEAPOT E:   FIELD
 LOC .      S35 T39N R78W:   LOCATION
 CNTY.            NATRONA:   COUNTY
 STAT.            WYOMING:   STATE
 CTRY. UNITED STATES OF AMERICA:   COUNTRY
 SRVC.       Schlumberger:   SERVICE COMPANY
 DATE.        15-JUL-1964:   LOGDATE
 API .       490250649200:   API NUMBER
~CURVE INFORMATION
#MNEM.UNIT       API CODE    CURVE DESCRIPTION
#----------   ------------   ------------------------------
 DEPT.F                  :   
 SPR .MV     05 010 01 00:   SPONTANEOUS POTENTIAL FROM RES.
 ILD .OHMM   05 120 46 00:   INDUCTION LOG DEEP
 ASN .OHMM   05 041 18 00:   AMPLIFIED SHORT NORMAL 18"
 CILD.MMHO   05 110 46 00:   CONDUCTIVITY INDUCTION LOG DEEP
 CALS.IN     60 280 50 00:   CALIPER FROM SONIC LOG
 DT  .US/F   60 520 00 00:   INTERVAL TRANSIT TIME
 GR  .GAPI   30 310 01 00:   GAMMA RAY
~PARAMETER INFORMATION
#MNEM.UNIT          VALUE    DESCRIPTION
#----------   ------------   ------------------------------
 PD  .                 GL:   PERMANENT DATUM
 EPD .F              5123:   ELEVATION PERMANENT DATUM
 LMF .                 KB:   LOG MEASURED FROM
 DAPD.F                 5:   FEET ABOVE PERMANENT DATUM
 DMF .                 KB:   DRILLING MEASURED FROM
 EKB .F              5128:   KELLING BUSHING
 EGL .F              5123:   GROUND LEVEL
 DATE.        15-JUL-1964:   RUN DATE
 RUN .                  1:   RUN NUMBER
 DD  .F               945:   DEPTH DRILLER
 DL  .F               946:   DEPTH LOGGER
 BLI .F               945:   BOTTOM LOG INTERVAL
 TLI .F                94:   TOP LOG INTERVAL
 CS  .IN            8.625:   CASING SIZE
 CBD .F                10:   CASING BOTTOM DRILLER
 BS  .IN             6.75:   BIT SIZE
 BSD .F               945:   BIT SIZE AT DEPTH
 DFT .                GEL:   DRILLING FLUID TYPE
 DFD .                9.5:   DRILLING FLUID DENSITY
 DFV .                 44:   DRILLING FLUID VISCOSITY
 DFPH.                8.0:   DRILLING FLUID PH
 DFL .               10.5:   DRILLING FLUID LOSS
 MSS .           FLOWLINE:   MUD SAMPLE SOURCE
 RMS .OHMM           3.37:   RESISTIVITY MUD SAMPLE
 MST .F                74:   MUD SAMPLE TEMPERATURE
 RMF .OHMM           2.97:   RESISTIVITY MUD FILTRATE SAMPLE
 MFST.F                78:   MUD FILTRATE SAMPLE TEMPERATURE
 MFSS.                 FP:   MUD FILTRATE SAMPLE SOURCE
 TCS .HRS             1.5:   TIME CURCULATED STOPPED
 MRT .F       T. L. T. M.:   MAXIMUM RECORDED TEMPERATURE
 LUN .               3527:   LOGGING UNIT NUMBER
 LUL .               CSPR:   LOGGING UNIT LOCATION
 ENGI.            WINKLER:   RECORDING ENGINEER
 WITN.          JORGENSEN:   WITNESSED BY
 CLNT.            A2DTECH:   CLIENT CODE
 ORIG.           2" PRINT:   ORIGIN OF DATA
 UWI .       490250649200:   UNIQUE WELL ID
 DICO. A2D Technologies, Inc.:   DIGITIZING COMPANY
~OTHER INFORMATION
~A   DEPT      SPR        ILD        ASN       CILD         CALS       DT         GR   
# ...
  105.5000   -61.7691     4.8997     6.4095   193.0201     6.7212   145.1688  -999.2500
  106.0000   -61.7691     4.9900     6.3417   191.8451     6.7210   247.3533  -999.2500
  106.5000   -61.7691     5.1486     6.3158   190.5707     6.7358   192.7964  -999.2500
  107.0000   -61.7691     5.2790     6.3257   189.2381     6.7355   144.5637  -999.2500
  107.5000   -61.7691     5.4048     6.3767   187.2675     6.7504   122.8260  -999.2500
  108.0000   -61.7691     5.4576     6.5016   185.2389     6.7803   125.3458  -999.2500
  108.5000   -61.7691     5.5079     6.7068   183.1938     6.7951   125.7220  -999.2500
  109.0000   -61.7691     5.5092     6.8286   180.9268     6.7948   125.4197  -999.2500
  109.5000   -61.7691     5.4350     6.9373   177.6104     6.8097   124.6654  -999.2500
  110.0000   -61.7691     5.2782     6.9925   174.1328     6.8246   122.7806  -999.2500
  110.5000   -61.7691     5.2117     7.0300   175.6366     6.8241   121.0466  -999.2500
  111.0000   -61.7691     5.1376     7.0048   178.5044     6.8087   119.4634  -999.2500
  111.5000   -61.7691     5.1387     6.9474   181.8627     6.7933   118.5584  -999.2500
  112.0000   -61.7691     5.1399     6.7934   185.4294     6.7628   118.6360  -999.2500
  112.5000   -61.7691     5.1410     6.7669   188.0343     6.7170   119.3857  -999.2500
  113.0000   -61.9190     5.1594     6.7820   190.0552     6.6865   120.1386  -999.2500
  113.5000   -61.9190     5.2185     6.7725   191.4514     6.6711   119.9118  -999.2500
  114.0000   -62.0180     5.3403     6.7224   191.4480     6.6556   119.0068  -999.2500
  114.5000   -62.2189     5.3933     6.6308   191.4442     6.6553   118.3210  -999.2500
  115.0000   -62.3688     5.4474     6.5113   191.4402     6.6550   118.2516  -999.2500
  115.5000   -62.3688     5.5239     6.4545   190.6825     6.6547   118.4769  -999.2500
  116.0000   -62.3688     5.6271     6.4361   187.4609     6.6544   118.9284  -999.2500
  116.5000   -62.3688     5.7515     6.4511   180.8709     6.6541   119.4552  -999.2500
  117.0000   -62.3688     5.8280     6.5955   174.4621     6.6691   120.0030  -999.2500
  117.5000   -62.3688     5.9793     6.8452   170.3619     6.6838   120.3580  -999.2500
  118.0000   -62.3688     6.0642     7.0526   166.5309     6.6835   120.2818  -999.2500
  118.5000   -62.2189     6.1321     7.2446   162.0015     6.6832   119.9796  -999.2500
  119.0000   -62.0690     6.0962     7.4535   160.2162     6.6677   118.2457  -999.2500
  119.5000   -62.0690     6.0456     7.5338   158.2240     6.6674   116.4362  -999.2500
  120.0000   -61.9190     5.9099     7.5248   158.9738     6.6217   115.2297  -999.2500
  120.5000   -61.9190     5.7940     7.4844   162.3715     6.5609   114.3247  -999.2500
  121.0000   -61.9190     5.6499     7.4286   171.3712     6.5001   113.5704  -999.2500
  121.5000   -61.9190     5.4621     7.3233   184.6036     6.4241   113.2683  -999.2500
  122.0000   -61.9190     5.2196     7.1898   189.0449     6.4995   113.7195  -999.2500
  122.5000   -61.9190     5.0419     6.9842   193.8852     6.6202   114.3217  -999.2500
  123.0000   -61.9190     4.8639     6.6165   198.1671     6.6805   115.0745  -999.2500
  123.5000   -61.9190     4.7149     6.4746   201.2229     6.7557   116.3549  -999.2500
  124.0000   -61.9190     4.6687     6.1979   202.6853     6.7858   117.4273  -999.2500
  124.5000   -61.9190     4.7216     6.0602   202.6808     6.8158   118.5387  -999.2500
  125.0000   -61.9190     4.8686     6.0225   201.9230     6.8306   119.4423  -999.2500
  125.5000   -61.9190     4.9025     6.0387   198.2957     6.7849   120.6473  -999.2500
  126.0000   -61.9190     5.0306     6.1504   192.8657     6.7240   121.7016  -999.2500
  126.5000   -61.9190     5.1727     6.2534   186.9569     6.6783   122.4739  -999.2500
  127.0000   -61.9190     5.2115     6.4863   181.8126     6.6326   122.9057  -999.2500
  127.5000   -61.9190     5.3396     6.6917   178.4939     6.6323   122.4528  -999.2500
  128.0000   -61.9190     5.4768     6.8000   171.7338     6.6623   121.4725  -999.2500
  128.5000   -61.9190     5.5205     6.8871   168.8976     6.7074   119.9646  -999.2500
  129.0000   -61.9190     5.6487     6.9633   166.4002     6.7374   119.2101  -999.2500
  129.5000   -61.9190     5.7057     7.0526   164.1812     6.7220   119.9630  -999.2500
  130.0000   -61.9190     5.7819     7.1097   163.4239     6.7216   120.6405  -999.2500
  130.5000   -61.9190     5.8825     7.1770   163.4200     6.7213   120.1122  -999.2500
  131.0000   -61.9190     5.9354     7.2782   163.4158     6.7210   119.5057  -999.2500
  131.5000   -61.9190     6.0111     7.3524   163.4125     6.7359   119.0556  -999.2500
  132.0000   -61.9190     6.0120     7.4135   163.8007     6.7355   118.6781  -999.2500
  132.5000   -61.9190     5.9379     7.4135   169.4378     6.7504   117.7731  -999.2500
  133.0000   -61.9190     5.9393     7.3660   175.3191     6.7501   117.0188  -999.2500
  133.5000   -61.9190     5.8310     7.2204   184.0388     6.7347   116.4047  -999.2500
  134.0000   -61.9190     5.7053     7.0526   191.2969     6.7494   115.8868  -999.2500
  134.5000   -61.9190     5.5667     6.9224   195.3609     6.7491   115.8108  -999.2500
  135.0000   -61.7691     5.4147     6.7459   200.8674     6.7489   116.1868  -999.2500
  135.5000   -61.7691     5.1774     6.5263   207.1229     6.7637   116.7890  -999.2500
  136.0000   -61.7691     4.9685     6.3158   207.1192     6.7634   117.5599  -999.2500
  136.5000   -61.6192     4.9695     6.1732   206.1060     6.7631   118.6713  -999.2500
  137.0000   -61.6192     4.9707     6.0866   203.3058     6.7628   119.4242  -999.2500
  137.5000   -61.6192     4.9718     6.0527   198.0574     6.7776   120.4031  -999.2500
  138.0000   -61.6192     5.0967     6.1882   194.6053     6.7773   121.5328  -999.2500
  138.5000   -61.6192     5.2248     6.3576   190.2722     6.7770   122.3608  -999.2500
  139.0000   -61.6192     5.4281     6.5263   182.2091     6.7616   122.8876  -999.2500
  139.5000   -61.6192     5.5780     6.7233   174.8205     6.7613   123.1131  -999.2500
  140.0000   -61.6192     5.7293     6.9473   171.4428     6.7459   122.8862  -999.2500
  140.5000   -61.6192     5.8057     7.0977   168.6233     6.7456   122.1288  -999.2500
  141.0000   -61.6192     5.8069     7.1928   168.6199     6.7301   120.9253  -999.2500
  141.5000   -61.6192     5.8428     7.2673   168.4741     6.7298   119.3420  -999.2500
  142.0000   -61.6192     5.8842     7.2932   167.8579     6.7144   117.8342  -999.2500
  142.5000   -61.5705     5.9606     7.3083   167.8545     6.7141   116.5523  -999.2500
  143.0000   -61.4688     5.9617     7.2881   167.8507     6.6986   115.4921  -999.2500
  143.5000   -61.1694     6.0378     7.2317   167.8467     6.6983   115.1189  -999.2500
  144.0000   -60.8156     5.9639     7.1579   168.3057     6.6980   114.8921  -999.2500
  144.5000   -60.4141     5.9203     7.1005   169.3483     6.6977   115.1177  -999.2500
  145.0000   -60.2699     5.8908     7.0511   169.3439     6.6975   115.6443  -999.2500
  145.5000   -60.5697     5.8921     7.0376   169.3394     6.6971   116.1960  -999.2500
  146.0000   -60.7196     5.9428     7.0815   168.3158     6.7119   116.9238  -999.2500
  146.5000   -60.8696     5.9957     7.1831   166.2291     6.7117   117.5259  -999.2500
  147.0000   -61.0195     6.1210     7.2932   162.5409     6.7114   117.8268  -999.2500
  147.5000   -61.0195     6.1224     7.3865   160.4135     6.7111   117.6752  -999.2500
  148.0000   -61.0195     6.2296     7.4845   157.1141     6.7107   117.0714  -999.2500
  148.5000   -61.0195     6.3500     7.5940   154.2340     6.7104   116.5432  -999.2500
  149.0000   -61.0195     6.4265     7.7251   153.1273     6.7102   116.0150  -999.2500
  149.5000   -61.0195     6.4274     7.8428   151.8527     6.7098   115.4114  -999.2500
  150.0000   -61.0195     6.4286     7.9549   151.2063     6.7085   115.3353  -999.2500
  150.5000   -60.8696     6.5050     8.0000   151.2029     6.7027   115.7136  -999.2500
