~VERSION INFORMATION
 VERS.                2.0:   CWLS LOG ASCII STANDARD - VERSION 2.0
 WRAP.                 NO:   ONE LINE PER DEPTH STEP
~WELL INFORMATION
#MNEM.UNIT      DATA TYPE    INFORMATION
#----------   ------------   ------------------------------
 STRT.F           87.0000:   START DEPTH
 STOP.F          987.0000:   STOP DEPTH
 STEP.F            0.5000:   STEP LENGTH
 NULL.          -999.2500:   NO VALUE
 COMP.   FLUOR DANIEL INC:   COMPANY
 WELL. NAVAL PETROLEUM RESERVE 3 SH-2 #53-2:   WELL
 FLD .        TEAPOT DOME:   FIELD
 LOC .       S2 T38N R78W:   LOCATION
 CNTY.            NATRONA:   COUNTY
 STAT.            WYOMING:   STATE
 CTRY. UNITED STATES OF AMERICA:   COUNTRY
 SRVC. Schlumberger Well Surveying Corp:   SERVICE COMPANY
 DATE.        17-JUL-1963:   LOGDATE
 API .       490250645200:   API NUMBER
~CURVE INFORMATION
#MNEM.UNIT       API CODE    CURVE DESCRIPTION
#----------   ------------   ------------------------------
 DEPT.F                  :   
 GR  .GAPI   30 310 01 00:   GAMMA RAY
 SPR .MV     05 010 01 00:   SPONTANEOUS POTENTIAL
 CILD.MMHO   05 110 46 00:   CONDUCTIVITY INDUCTION LOG DEEP
 ILD .OHMM   05 120 46 00:   INDUCTION LOG DEEP
 ASN .OHMM   05 041 16 00:   AMPLIFIED SHORT NORMAL 16"
~PARAMETER INFORMATION
#MNEM.UNIT          VALUE    DESCRIPTION
#----------   ------------   ------------------------------
 PD  .                 GL:   PERMANENT DATUM
 EPD .F              5165:   ELEVATION PERMANENT DATUM
 LMF .                 KB:   LOG MEASURED FROM
 DAPD.F                 5:   FEET ABOVE PERMANENT DATUM
 DMF .                 KB:   DRILLING MEASURED FROM
 EKB .F              5170:   KELLING BUSHING
 EGL .F              5165:   GROUND LEVEL
 DATE.          7-17-1963:   RUN DATE
 RUN .                  1:   RUN NUMBER
 DD  .F               986:   DEPTH DRILLER
 DL  .F               987:   DEPTH LOGGER
 BLI .F               986:   BOTTOM LOG INTERVAL
 TLI .F                30:   TOP LOG INTERVAL
 CS  .IN            8.625:   CASING SIZE
 CBD .F                10:   CASING BOTTOM DRILLER
 BS  .IN            7.875:   BIT SIZE
 BSD .F               986:   BIT SIZE AT DEPTH
 DFT .            GEL-OIL:   DRILLING FLUID TYPE
 DFD .                9.4:   DRILLING FLUID DENSITY
 DFV .                 67:   DRILLING FLUID VISCOSITY
 DFPH.                8.5:   DRILLING FLUID PH
 DFL .                4.6:   DRILLING FLUID LOSS
 MSS .           FLOWLINE:   MUD SAMPLE SOURCE
 RMS .OHMM           3.37:   RESISTIVITY MUD SAMPLE
 MST .F                79:   MUD SAMPLE TEMPERATURE
 RMF .OHMM           1.49:   RESISTIVITY MUD FILTRATE SAMPLE
 MFST.F                83:   MUD FILTRATE SAMPLE TEMPERATURE
 MFSS.           MEASURED:   MUD FILTRATE SAMPLE SOURCE
 BHT .F                80:   BOTTOM HOLE TEMPERATURE
 TCS .HRS            0030:   TIME CURCULATED STOPPED
 MRT .F                80:   MAXIMUM RECORDED TEMPERATURE
 LUN .               4507:   LOGGING UNIT NUMBER
 LUL .              CSPR.:   LOGGING UNIT LOCATION
 ENGI.            WINKLER:   RECORDING ENGINEER
 WITN.          JORGENSON:   WITNESSED BY
 CLNT.            A2DTECH:   CLIENT CODE
 ORIG.      2" & 5" PRINT:   ORIGIN OF DATA
 UWI .       490250645200:   UNIQUE WELL ID
 DICO. A2D Technologies, Inc.:   DIGITIZING COMPANY
~OTHER INFORMATION
~A   DEPT       GR        SPR       CILD          ILD        ASN 
# ...
  148.0000  -999.2500   -67.3695   170.9347     6.1368     6.6771
  148.5000  -999.2500   -67.3695   165.9393     6.2909     6.7712
  149.0000  -999.2500   -67.3695   162.8051     6.4454     6.8276
  149.5000  -999.2500   -67.3695   160.2893     6.5774     6.8462
  150.0000  -999.2500   -67.3695   160.5542     6.4864     6.7758
  150.5000  -999.2500   -67.3695   163.0916     6.3956     6.7268
  151.0000  -999.2500   -67.3554   165.6290     6.3059     6.7460
  151.5000  -999.2500   -67.3280   168.1659     6.2164     6.7536
  152.0000  -999.2500   -67.3006   170.7197     6.1268     6.7071
  152.5000  -999.2500   -67.2731   172.7639     6.0382     6.5903
  153.0000  -999.2500   -67.2457   173.9698     5.9789     6.4689
  153.5000  -999.2500   -67.2183   175.1641     5.9799     6.4038
  154.0000  -999.2500   -67.1912   176.3819     5.9879     6.3835
  154.5000  -999.2500   -67.1667   175.3713     6.0395     6.3639
  155.0000  -999.2500   -67.1161   170.7743     6.1085     6.4082
  155.5000  -999.2500   -67.0624   166.6982     6.2625     6.4822
  156.0000  -999.2500   -67.0091   162.7136     6.4142     6.6603
  156.5000  -999.2500   -66.9669   158.8466     6.5674     6.9210
  157.0000  -999.2500   -66.9678   154.9797     6.7199     7.2008
  157.5000  -999.2500   -66.9678   151.1127     6.8717     7.3861
  158.0000  -999.2500   -66.9680   147.7078     6.9877     7.4283
  158.5000  -999.2500   -66.9670   146.2404     6.9853     7.4040
  159.0000  -999.2500   -67.0212   148.2835     6.9825     7.3545
  159.5000  -999.2500   -67.0983   152.2781     6.8485     7.2732
  160.0000  -999.2500   -67.1764   158.2496     6.5654     7.1394
  160.5000  -999.2500   -67.2542   166.2856     6.2826     6.9895
  161.0000  -999.2500   -67.3327   174.2111     5.9922     6.8064
  161.5000  -999.2500   -67.3321   180.9827     5.8447     6.5548
  162.0000  -999.2500   -67.2629   185.4941     5.7011     6.3063
  162.5000  -999.2500   -67.1930   190.0143     5.5560     6.0862
  163.0000  -999.2500   -67.1230   194.5419     5.4071     6.0135
  163.5000  -999.2500   -67.0529   197.5112     5.3760     6.0045
  164.0000  -999.2500   -66.9819   193.2988     5.4805     6.0988
  164.5000  -999.2500   -66.9475   187.8642     5.6597     6.2163
  165.0000  -999.2500   -66.9214   182.4113     5.8395     6.3618
  165.5000  -999.2500   -66.8955   175.9300     6.0194     6.5141
  166.0000  -999.2500   -66.8695   169.4378     6.1991     6.6663
  166.5000  -999.2500   -66.8435   162.9540     6.3789     6.8071
  167.0000  -999.2500   -66.8169   157.5276     6.5587     6.9090
  167.5000  -999.2500   -66.7876   153.9196     6.7386     6.9892
  168.0000  -999.2500   -66.7953   150.8744     6.9187     7.0779
  168.5000  -999.2500   -66.9616   147.8291     7.0851     7.1943
  169.0000  -999.2500   -66.9681   145.9297     7.1252     7.3109
  169.5000  -999.2500   -66.9677   145.2952     7.1606     7.3792
  170.0000  -999.2500   -66.9669   146.4824     7.1547     7.4262
  170.5000  -999.2500   -67.0004   147.6968     7.0442     7.4622
  171.0000  -999.2500   -67.3009   152.2613     6.9126     7.3868
  171.5000  -999.2500   -67.2981   157.2685     6.6767     7.2252
  172.0000  -999.2500   -67.2026   162.7064     6.4422     7.0865
  172.5000  -999.2500   -67.1042   168.3920     6.2077     6.9479
  173.0000  -999.2500   -67.0065   175.4975     5.9735     6.8183
  173.5000  -999.2500   -66.9090   182.2997     5.7509     6.6856
  174.0000  -999.2500   -66.8115   187.4279     5.6091     6.5200
  174.5000  -999.2500   -66.7140   192.4137     5.4653     6.2981
  175.0000  -999.2500   -66.6164   196.4824     5.3760     6.1080
  175.5000  -999.2500   -66.5189   196.0302     5.3758     6.0671
  176.0000  -999.2500   -66.4219   193.8550     5.4763     6.0719
  176.5000  -999.2500   -66.3649   188.6548     5.6354     6.1409
  177.0000  -999.2500   -66.3651   182.7986     5.7953     6.2442
  177.5000  -999.2500   -66.3655   176.2982     5.9499     6.4025
  178.0000  -999.2500   -66.3949   167.8300     6.2494     6.6832
  178.5000  -999.2500   -66.5316   161.5197     6.5223     6.9315
  179.0000  -999.2500   -66.6640   157.7390     6.6752     7.1186
  179.5000  -999.2500   -66.7963   154.2714     6.7838     7.2890
  180.0000  -999.2500   -66.9286   152.2613     6.7708     7.3697
  180.5000  -999.2500   -67.0609   152.2613     6.7603     7.3920
  181.0000  -999.2500   -67.1932   152.3730     6.7499     7.3526
  181.5000  -999.2500   -67.3261   153.3129     6.7395     7.2422
  182.0000  -999.2500   -67.4583   154.2527     6.7292     7.1629
  182.5000  -999.2500   -67.5544   155.1926     6.7188     7.1588
  183.0000  -999.2500   -67.4157   156.1325     6.7084     7.1534
  183.5000  -999.2500   -67.2798   157.0724     6.6982     7.1475
  184.0000  -999.2500   -67.1562   157.2864     6.6871     7.1985
  184.5000  -999.2500   -67.1002   155.2221     6.7353     7.2899
  185.0000  -999.2500   -67.0424   152.5829     6.8227     7.3499
  185.5000  -999.2500   -66.9845   149.9437     6.9107     7.4118
  186.0000  -999.2500   -66.9265   147.3045     6.9987     7.5105
  186.5000  -999.2500   -66.8683   144.6653     7.0867     7.6713
  187.0000  -999.2500   -66.8108   143.0151     7.1747     7.8333
  187.5000  -999.2500   -66.7797   141.5650     7.2627     7.9949
  188.0000  -999.2500   -66.8459   140.1149     7.3506     8.1320
  188.5000  -999.2500   -66.9095   138.6647     7.4386     8.1723
  189.0000  -999.2500   -66.9729   136.5829     7.5266     8.1079
  189.5000  -999.2500   -67.0363   134.1945     7.6145     8.0352
  190.0000  -999.2500   -67.1004   131.8061     7.7025     7.9700
  190.5000  -999.2500   -67.1652   129.9947     7.7904     8.0444
  191.0000  -999.2500   -67.1324   129.4108     7.8784     8.1938
  191.5000  -999.2500   -67.0913   128.2589     7.9680     8.3458
  192.0000  -999.2500   -67.0506   126.5544     8.0698     8.4312
  192.5000  -999.2500   -67.0100   125.5937     8.1796     8.5455
  193.0000  -999.2500   -66.9695   124.8458     8.2880     8.6680
  193.5000  -999.2500   -66.9289   124.1206     8.2768     8.6573
  194.0000  -999.2500   -66.8884   128.2663     8.1299     8.5377
  194.5000  -999.2500   -66.8481   134.6105     7.7644     8.4059
  195.0000  -999.2500   -66.8091   140.9548     7.4025     8.2570
  195.5000  -999.2500   -66.7582   147.2362     7.1281     8.0802
  196.0000  -999.2500   -66.5022   150.2513     6.9915     7.8249
  196.5000  -999.2500   -66.3450   152.2766     6.8665     7.5729
  197.0000  -999.2500   -66.1855   154.2626     6.7907     7.4298
  197.5000  -999.2500   -66.2418   156.2486     6.7142     7.4178
  198.0000  -999.2500   -66.3345   158.2671     6.6390     7.3178
  198.5000  -999.2500   -66.3829   157.8447     6.6134     7.2972
  199.0000  -999.2500   -66.4097   154.7888     6.7572     7.5132
  199.5000  -999.2500   -66.4361   151.6890     6.8952     7.6753
  200.0000  -999.2500   -66.4626   148.6033     7.0329     7.6899
  200.5000  -999.2500   -66.4892   145.5175     7.1706     7.7072
  201.0000  -999.2500   -66.5157   142.4331     7.3083     7.7857
  201.5000  -999.2500   -66.5425   139.3492     7.4453     7.8790
  202.0000  -999.2500   -66.5650   135.8494     7.6258     7.9858
  202.5000  -999.2500   -66.5433   131.3791     7.8229     8.1419
  203.0000  -999.2500   -66.5217   126.9123     8.0204     8.3742
  203.5000  -999.2500   -66.5003   122.4456     8.2181     8.6367
  204.0000  -999.2500   -66.4790   118.3696     8.4158     8.8100
  204.5000  -999.2500   -66.4577   114.4612     8.5991     8.9487
  205.0000  -999.2500   -66.4364   111.6035     8.6674     9.0867
  205.5000  -999.2500   -66.4150   108.8625     8.7340     9.1554
  206.0000  -999.2500   -66.3938   108.2355     8.7938     9.1565
  206.5000  -999.2500   -66.3714   110.3093     8.7947     9.2572
  207.0000  -999.2500   -66.4112   112.3828     8.7936     9.3379
  207.5000  -999.2500   -66.4771   114.4546     8.7087     9.2824
  208.0000  -999.2500   -66.5440   116.6231     8.6135     9.1864
  208.5000  -999.2500   -66.6108   118.8342     8.5183     9.0993
