~VERSION INFORMATION
 VERS.                2.0:   CWLS LOG ASCII STANDARD - VERSION 2.0
 WRAP.                 NO:   ONE LINE PER DEPTH STEP
~WELL INFORMATION
#MNEM.UNIT      DATA TYPE    INFORMATION
#----------   ------------   ------------------------------
 STRT.F            0.0000:   START DEPTH
 STOP.F          752.0000:   STOP DEPTH
 STEP.F            0.1000:   STEP LENGTH
 NULL.          -999.2500:   NO VALUE
 COMP. BROWN JOHN E&C INC:   COMPANY
 WELL. N P R 3 STX-34 #53-1-34:   WELL
 FLD .             TEAPOT:   FIELD
 LOC .      S34 T39N R78W:   LOCATION
 CNTY.            NATRONA:   COUNTY
 STAT.            WYOMING:   STATE
 CTRY. UNITED STATES OF AMERICA:   COUNTRY
 SRVC.     Atlas Wireline:   SERVICE COMPANY
 DATE.        29-OCT-1991:   LOGDATE
 API .       490252248700:   API NUMBER
~CURVE INFORMATION
#MNEM.UNIT       API CODE    CURVE DESCRIPTION
#----------   ------------   ------------------------------
 DEPT.F                  :   
 GRR .GAPI   07 310 01 00:   GAMMA RAY
 RILD.OHMM   07 120 46 00:   INDUCTION LOG DEEP RESISTIVITY
 RILM.OHMM   07 120 44 00:   RESITIVITY LONG MEDIUM
~PARAMETER INFORMATION
#MNEM.UNIT          VALUE    DESCRIPTION
#----------   ------------   ------------------------------
 PD  .                 GL:   PERMANENT DATUM
 EPD .F              5067:   ELEVATION PERMANENT DATUM
 LMF .                 KB:   LOG MEASURED FROM
 DAPD.F                10:   FEET ABOVE PERMANENT DATUM
 DMF .                 KB:   DRILLING MEASURED FROM
 EKB .F              5077:   KELLING BUSHING
 EGL .F              5067:   GROUND LEVEL
 DATE.        29-OCT-1991:   RUN DATE
 RUN .                  1:   RUN NUMBER
 DD  .F               760:   DEPTH DRILLER
 DL  .F               760:   DEPTH LOGGER
 BLI .F               758:   BOTTOM LOG INTERVAL
 TLI .F                 0:   TOP LOG INTERVAL
 CS  .IN            9.625:   CASING SIZE
 CBD .F                52:   CASING BOTTOM DRILLER
 CBL .F                52:   CASING BOTTOM LOGGER
 BS  .IN             8.75:   BIT SIZE
 BSD .F               760:   BIT SIZE AT DEPTH
 DFT .        AIR DRILLED:   DRILLING FLUID TYPE
 MRT .F               154:   MAXIMUM RECORDED TEMPERATURE
 LUN .            HL 6307:   LOGGING UNIT NUMBER
 LUL .             CASPER:   LOGGING UNIT LOCATION
 ENGI.          RASMUSSEN:   RECORDING ENGINEER
 WITN.        GARY STRONG:   WITNESSED BY
 CLNT.            A2DTECH:   CLIENT CODE
 ORIG.           5" PRINT:   ORIGIN OF DATA
 UWI .       490252248700:   UNIQUE WELL ID
 DICO. A2D Technologies, Inc.:   DIGITIZING COMPANY
~OTHER INFORMATION
~A    DEPT      GRR      RILD       RILM   
# ...
  509.6000   154.4398     7.5092     7.3034
  509.7000   153.7313     7.5092     7.3030
  509.8000   152.7929     7.5092     7.3150
  509.9000   151.6550     7.5092     7.3397
  510.0000   150.3175     7.5092     7.3644
  510.1000   148.8973     7.5092     7.3890
  510.2000   148.0749     7.5092     7.3941
  510.3000   146.4750     7.5102     7.3941
  510.4000   145.4232     7.5618     7.4107
  510.5000   144.7937     7.5618     7.4459
  510.6000   143.9964     7.5618     7.4459
  510.7000   142.6197     7.5618     7.4459
  510.8000   142.6176     7.5618     7.4459
  510.9000   142.8371     7.5618     7.4459
  511.0000   143.0863     7.5618     7.4616
  511.1000   143.4532     7.5618     7.5049
  511.2000   143.9531     7.5618     7.5506
  511.3000   144.4677     7.5618     7.5506
  511.4000   145.3298     7.5618     7.5506
  511.5000   145.5421     7.5618     7.5506
  511.6000   145.7912     7.5618     7.5654
  511.7000   146.0403     7.5618     7.6094
  511.8000   146.1717     7.5618     7.6568
  511.9000   145.9262     7.5618     7.6568
  512.0000   145.9240     7.5618     7.6568
  512.1000   145.7161     7.5618     7.6799
  512.2000   145.3084     7.5618     7.7245
  512.3000   144.8046     7.5618     7.7645
  512.4000   144.2491     7.5618     7.7645
  512.5000   143.4947     7.5618     7.7645
  512.6000   142.7402     7.5618     7.7645
  512.7000   141.7862     7.5618     7.7645
  512.8000   141.0760     7.5618     7.7645
  512.9000   140.9563     7.5618     7.7683
  513.0000   141.3680     7.5618     7.8189
  513.1000   141.3658     7.5618     7.8189
  513.2000   141.6077     7.5591     7.8189
  513.3000   142.0488     7.5092     7.7977
  513.4000   142.5488     7.5092     7.7645
  513.5000   143.0488     7.5092     7.7645
  513.6000   143.5862     7.5092     7.7645
  513.7000   144.3805     7.5092     7.7261
  513.8000   144.8517     7.5092     7.6815
  513.9000   145.3517     7.5092     7.6568
  514.0000   145.8516     7.5450     7.6568
  514.1000   146.1888     7.5618     7.6552
  514.2000   146.2467     7.5618     7.6035
  514.3000   146.7902     7.5618     7.5670
  514.4000   146.7885     7.5618     7.5506
  514.5000   146.9642     7.5618     7.5506
  514.6000   147.2134     7.5618     7.5506
  514.7000   147.5367     7.5618     7.5501
  514.8000   147.9917     7.5618     7.4981
  514.9000   147.9895     7.5618     7.4981
  515.0000   148.2098     7.5618     7.4981
  515.1000   148.4589     7.5618     7.4981
  515.2000   148.9453     7.5948     7.4981
  515.3000   149.6292     7.6147     7.4981
  515.4000   150.1444     7.6147     7.4981
  515.5000   151.0043     7.6147     7.5322
  515.6000   152.2903     7.6147     7.5506
  515.7000   153.6312     7.6147     7.5506
  515.8000   154.3274     7.6464     7.5580
  515.9000   154.2658     7.6679     7.6035
  516.0000   153.9973     7.6679     7.6461
  516.1000   153.1113     7.6679     7.6568
  516.2000   152.4876     7.6679     7.6815
  516.3000   151.8888     7.6679     7.7261
  516.4000   151.2810     7.6984     7.7645
  516.5000   150.5263     7.7216     7.7645
  516.6000   149.7682     7.7216     7.8069
  516.7000   147.5074     7.7216     7.8523
  516.8000   146.2471     7.7216     7.8737
  516.9000   145.2415     7.6834     7.8886
  517.0000   144.3328     7.6679     7.9344
  517.1000   143.6233     7.6288     7.9844
  517.2000   143.1068     7.5514     7.9844
  517.3000   142.6162     7.5065     7.9844
  517.4000   142.3052     7.4052     8.0079
  517.5000   141.9113     7.3701     8.0404
  517.6000   141.4972     7.3017     8.0449
  517.7000   141.2443     7.2178     8.0967
  517.8000   140.9778     7.1347     8.0967
  517.9000   140.5018     7.0525     8.0967
  518.0000   139.9981     6.9718     8.0742
  518.1000   139.6282     6.8917     8.0275
  518.2000   139.2931     6.7898     7.9679
  518.3000   138.7895     6.6875     7.7105
  518.4000   138.2437     6.6106     7.4457
  518.5000   138.2421     6.5318     7.2315
  518.6000   138.4185     6.4239     6.9930
  518.7000   138.6677     6.3410     6.6942
  518.8000   139.0669     6.2682     6.4682
  518.9000   139.8178     6.1840     6.2970
  519.0000   140.6534     6.0824     6.1756
  519.1000   141.7653     6.0076     6.0785
  519.2000   143.3598     5.9118     6.0085
  519.3000   145.8308     5.8344     5.9392
  519.4000   148.5495     5.7845     5.8691
  519.5000   149.7699     5.7409     5.7106
  519.6000   150.6273     5.6749     5.6567
  519.7000   150.8412     5.6030     5.5915
  519.8000   150.9265     5.5741     5.5401
  519.9000   150.9247     5.5420     5.5081
  520.0000   150.9228     5.5254     5.4762
  520.1000   150.9210     5.5166     5.4446
  520.2000   150.9189     5.4870     5.4132
  520.3000   150.9174     5.4870     5.4003
  520.4000   150.9156     5.4597     5.4003
  520.5000   151.0187     5.4489     5.4003
  520.6000   151.2677     5.4489     5.4003
  520.7000   151.5153     5.4413     5.4003
  520.8000   151.5131     5.4110     5.4003
  520.9000   151.7126     5.4489     5.4360
  521.0000   151.9617     5.4489     5.4878
  521.1000   152.1132     5.4489     5.5197
  521.2000   152.0195     5.4489     5.5533
  521.3000   151.5043     5.4621     5.6150
  521.4000   151.0121     5.5254     5.6804
  521.5000   150.7020     5.5254     5.7649
  521.6000   150.0229     5.5508     5.8660
  521.7000   148.6554     5.5830     5.9641
  521.8000   146.6853     5.6278     6.0386
  521.9000   144.8368     5.6874     6.1371
  522.0000   143.6453     5.7214     6.1924
  522.1000   142.5750     5.7535     6.2473
  522.2000   141.1648     5.8125     6.3201
  522.3000   138.3250     5.8611     6.4018
  522.4000   133.6204     5.8951     6.5664
  522.5000   130.9076     5.9341     6.7771
  522.6000   131.1366     6.0076     6.9885
  522.7000   131.3857     6.1058     7.1731
  522.8000   131.7624     6.2127     7.3538
  522.9000   132.2625     6.3213     7.5581
  523.0000   132.7867     6.4318     7.6568
  523.1000   133.6198     6.5482     7.7354
  523.2000   134.2887     6.7166     7.8256
  523.3000   135.0396     6.8582     7.9168
  523.4000   136.0310     7.0188     8.0091
  523.5000   137.2154     7.1829     8.1024
  523.6000   138.1833     7.3507     8.2106
  523.7000   138.7525     7.5254     8.2926
  523.8000   139.1835     7.7756     8.3893
  523.9000   139.5189     7.9334     8.4871
  524.0000   139.7680     8.1191     8.5739
  524.1000   139.9558     8.3090     8.6237
  524.2000   139.9540     8.4906     8.6823
  524.3000   139.9519     8.6368     8.7665
  524.4000   139.7414     8.7541     8.8044
  524.5000   139.6460     8.8389     8.8260
  524.6000   139.5386     8.8770     8.8773
  524.7000   139.2317     8.8770     8.9282
  524.8000   138.7254     8.8770     8.9282
  524.9000   137.8230     8.8770     8.9282
  525.0000   137.2162     8.8770     8.9282
  525.1000   136.4616     8.8770     8.9282
  525.2000   135.7071     8.8770     8.9282
  525.3000   135.0461     8.8770     8.9282
  525.4000   134.7885     8.8770     8.8773
  525.5000   134.7867     8.8770     8.8661
  525.6000   134.9794     8.8770     8.8661
  525.7000   135.3713     8.8770     8.8661
  525.8000   135.8712     8.8770     8.8661
  525.9000   136.3712     8.8770     8.8661
  526.0000   136.8955     8.8845     8.8661
  526.1000   137.8489     8.9391     8.9052
  526.2000   138.8510     8.9391     8.9282
  526.3000   140.3956     8.9770     8.9282
  526.4000   142.4012     9.0290     8.9282
  526.5000   144.3413     9.0813     8.9282
  526.6000   145.9617     9.1399     8.9770
  526.7000   147.3497     9.2562     9.0292
  526.8000   148.1336     9.3048     9.0817
  526.9000   148.6337     9.3587     9.1345
  527.0000   148.9803     9.4398     9.1811
  527.1000   148.9536     9.5494     9.1811
  527.2000   148.6739     9.6560     9.2549
  527.3000   148.4480     9.7192     9.3356
  527.4000   147.8499     9.7683     9.4031
  527.5000   147.3374     9.8628     9.4744
  527.6000   147.0846     9.9509     9.5847
  527.7000   146.7602    10.0232     9.7086
