~VERSION INFORMATION
 VERS.                2.0:   CWLS LOG ASCII STANDARD - VERSION 2.0
 WRAP.                 NO:   ONE LINE PER DEPTH STEP
~WELL INFORMATION
#MNEM.UNIT      DATA TYPE    INFORMATION
#----------   ------------   ------------------------------
 STRT.F           14.0000:   START DEPTH
 STOP.F          500.0000:   STOP DEPTH
 STEP.F            0.1000:   STEP LENGTH
 NULL.          -999.2500:   NO VALUE
 COMP. LAWRENCE/ALLISON INC:   COMPANY
 WELL.    72-46 SX #10-10:   WELL
 FLD .             TEAPOT:   FIELD
 LOC .      S10 T38N R78W:   LOCATION
 CNTY.            NATRONA:   COUNTY
 STAT.            WYOMING:   STATE
 CTRY. UNITED STATES OF AMERICA:   COUNTRY
 SRVC.           Gearhart:   SERVICE COMPANY
 DATE.        22-MAY-1988:   LOGDATE
 API .       490251122600:   API NUMBER
~CURVE INFORMATION
#MNEM.UNIT       API CODE    CURVE DESCRIPTION
#----------   ------------   ------------------------------
 DEPT.F                  :   
 GRR .GAPI   07 310 01 00:   GAMMA RAY
 RILD.OHMM   07 120 46 00:   INDUCTION LOG DEEP RESISTIVITY
 RILM.OHMM   07 120 44 00:   INDUCTION LOG MEDIUM RESISTIVITY
~PARAMETER INFORMATION
#MNEM.UNIT          VALUE    DESCRIPTION
#----------   ------------   ------------------------------
 PD  .                 GL:   PERMANENT DATUM
 EPD .F              5173:   ELEVATION PERMANENT DATUM
 LMF .                 KB:   LOG MEASURED FROM
 DAPD.F              10.2:   FEET ABOVE PERMANENT DATUM
 DMF .                 KB:   DRILLING MEASURED FROM
 EKB .F            5183.2:   KELLING BUSHING
 EGL .F              5173:   GROUND LEVEL
 DATE.        22-MAY-1988:   RUN DATE
 RUN .                  1:   RUN NUMBER
 DD  .F               505:   DEPTH DRILLER
 DL  .F               504:   DEPTH LOGGER
 BLI .F               500:   BOTTOM LOG INTERVAL
 TLI .F                50:   TOP LOG INTERVAL
 CS  .IN            9.625:   CASING SIZE
 CBD .F                52:   CASING BOTTOM DRILLER
 CBL .F                50:   CASING BOTTOM LOGGER
 BS  .IN             8.75:   BIT SIZE
 BSD .F               505:   BIT SIZE AT DEPTH
 DFT .                AIR:   DRILLING FLUID TYPE
 TLAB.HRS            1339:   TIME LOGGER AT BOTTOM
 LUN .               7597:   LOGGING UNIT NUMBER
 LUL .           GILLETTE:   LOGGING UNIT LOCATION
 ENGI.          HUCKFELDT:   RECORDING ENGINEER
 WITN.             STRONG:   WITNESSED BY
 CLNT.            A2DTECH:   CLIENT CODE
 ORIG.           5" PRINT:   ORIGIN OF DATA
 UWI .       490251122600:   UNIQUE WELL ID
 DICO. A2D Technologies, Inc.:   DIGITIZING COMPANY
~OTHER INFORMATION
~A   DEPT       GRR      RILD       RILM   
# ...
  232.4000   133.4914     7.6170     7.6440
  232.5000   133.9624     7.6544     7.6916
  232.6000   134.2158     7.6986     7.7733
  232.7000   134.4689     7.7618     7.8000
  232.8000   134.7411     7.8330     7.8219
  232.9000   134.7434     7.8331     7.8669
  233.0000   134.5673     7.8778     7.9122
  233.1000   134.3188     7.9587     7.9656
  233.2000   133.9989     8.0248     8.0038
  233.3000   133.5176     8.0552     8.0217
  233.4000   133.2338     8.0612     8.0400
  233.5000   132.8056     8.1119     8.0780
  233.6000   132.3066     8.1974     8.0782
  233.7000   131.6994     8.2591     8.1230
  233.8000   131.0579     8.2838     8.1698
  233.9000   130.8088     8.2965     8.2169
  234.0000   130.3094     8.3444     8.2497
  234.1000   130.4045     8.4006     8.2541
  234.2000   130.6578     8.4816     8.3077
  234.3000   131.0021     8.5189     8.3078
  234.4000   131.5061     8.5387     8.3393
  234.5000   132.0428     8.5879     8.3874
  234.6000   132.2796     8.6389     8.4250
  234.7000   132.7139     8.6874     8.4252
  234.8000   133.0906     8.7375     8.4739
  234.9000   133.3440     8.7607     8.4844
  235.0000   133.5972     8.7608     8.4845
  235.1000   133.8840     8.7609     8.5018
  235.2000   134.1037     8.7611     8.5442
  235.3000   134.1930     8.8063     8.5443
  235.4000   134.3059     8.8227     8.5894
  235.5000   134.5023     8.8228     8.6044
  235.6000   134.5080     8.8229     8.6284
  235.7000   134.7611     8.8230     8.6649
  235.8000   134.2124     8.8232     8.6651
  235.9000   133.6093     8.8233     8.6652
  236.0000   133.0167     8.8234     8.7066
  236.1000   132.3063     8.8235     8.7262
  236.2000   131.7797     8.8236     8.7263
  236.3000   131.3082     8.8238     8.7264
  236.4000   130.9922     8.7758     8.7265
  236.5000   130.7437     8.7627     8.7267
  236.6000   130.4954     8.7628     8.7268
  236.7000   130.2469     8.7476     8.7269
  236.8000   129.9680     8.7021     8.7270
  236.9000   129.9702     8.7022     8.7271
  237.0000   129.9726     8.6588     8.7273
  237.1000   129.9750     8.6420     8.6840
  237.2000   129.9775     8.6201     8.6668
  237.3000   129.9799     8.5821     8.6669
  237.4000   129.9828     8.5822     8.6563
  237.5000   129.9848     8.5824     8.6068
  237.6000   129.8379     8.5433     8.6070
  237.7000   129.5894     8.5229     8.6071
  237.8000   129.3411     8.5230     8.6072
  237.9000   129.0814     8.5231     8.5902
  238.0000   128.8442     8.5233     8.5475
  238.1000   128.5958     8.5234     8.5477
  238.2000   128.3474     8.4884     8.5478
  238.3000   128.0990     8.4643     8.5479
  238.4000   127.8755     8.4644     8.5247
  238.5000   127.8785     8.4646     8.4886
  238.6000   127.8807     8.4647     8.4888
  238.7000   127.8831     8.4648     8.4889
  238.8000   127.8855     8.4650     8.4890
  238.9000   127.8880     8.4444     8.4892
  239.0000   127.8904     8.4063     8.4892
  239.1000   127.8933     8.4064     8.4810
  239.2000   128.1007     8.4066     8.4304
  239.3000   128.3540     8.4067     8.4306
  239.4000   128.6073     8.4068     8.4307
  239.5000   128.8605     8.4238     8.4307
  239.6000   129.1228     8.4659     8.4309
  239.7000   129.6089     8.4660     8.4270
  239.8000   129.9247     8.4662     8.3725
  239.9000   130.3127     8.4663     8.3726
  240.0000   130.7357     8.4663     8.3727
  240.1000   131.0165     8.4664     8.3728
  240.2000   131.5729     8.4666     8.3729
  240.3000   132.0247     8.4667     8.3730
  240.4000   132.3576     8.4668     8.3732
  240.5000   132.7286     8.4670     8.3733
  240.6000   133.2328     8.4671     8.3734
  240.7000   133.7262     8.4672     8.3735
  240.8000   134.0229     8.4673     8.3736
  240.9000   133.8172     8.4675     8.3737
  241.0000   133.4146     8.4676     8.3738
  241.1000   133.0159     8.4676     8.3740
  241.2000   132.7674     8.4678     8.3741
  241.3000   132.5127     8.4679     8.3835
  241.4000   132.0266     8.4680     8.4197
  241.5000   131.7180     8.4681     8.4331
  241.6000   131.4696     8.4683     8.4332
  241.7000   131.2211     8.4684     8.4333
  241.8000   130.9425     8.4563     8.4335
  241.9000   130.3966     8.4097     8.4336
  242.0000   130.1714     8.4099     8.4337
  242.1000   129.9230     8.4100     8.4339
  242.2000   129.6747     8.4100     8.4340
  242.3000   129.3598     8.4102     8.4340
  242.4000   128.8734     8.4103     8.4341
  242.5000   128.5849     8.4104     8.4343
  242.6000   128.3766     8.4106     8.4344
  242.7000   128.2849     8.3749     8.4345
  242.8000   128.1843     8.3523     8.4347
  242.9000   127.9849     8.3524     8.4556
  243.0000   127.9879     8.3525     8.4940
  243.1000   127.9902     8.3527     8.4941
  243.2000   127.9927     8.3528     8.4459
  243.3000   127.9951     8.3211     8.3978
  243.4000   127.9975     8.2949     8.3766
  243.5000   128.0324     8.2950     8.3604
  243.6000   128.3071     8.2951     8.3186
  243.7000   128.5390     8.2953     8.3187
  243.8000   128.7923     8.2572     8.2758
  243.9000   129.0456     8.2378     8.2611
  244.0000   129.2988     8.2204     8.2389
  244.1000   129.5673     8.1807     8.1920
  244.2000   130.1483     8.1809     8.1451
  244.3000   130.3630     8.1369     8.0903
  244.4000   130.6163     8.1242     8.0525
  244.5000   130.9752     8.1006     8.0342
  244.6000   131.4272     8.0679     7.9993
  244.7000   131.6822     8.0645     7.9155
  244.8000   131.9338     8.0121     7.8680
  244.9000   132.3826     7.9726     7.8255
  245.0000   132.7448     7.9271     7.7808
  245.1000   133.0866     7.8818     7.7364
  245.2000   133.5906     7.8368     7.6923
  245.3000   134.1323     7.7919     7.6484
  245.4000   134.3668     7.7032     7.5987
  245.5000   134.7984     7.6497     7.5243
  245.6000   135.3026     7.5814     7.4660
  245.7000   135.8069     7.5101     7.4233
  245.8000   136.3108     7.4613     7.3809
  245.9000   136.8868     7.3697     7.3384
  246.0000   137.3192     7.2922     7.2970
  246.1000   137.6617     7.2383     7.2554
  246.2000   138.0228     7.1768     7.2140
  246.3000   138.5270     7.1061     7.1729
  246.4000   139.0310     7.0655     7.1319
  246.5000   139.5354     7.0190     7.0872
  246.6000   140.0394     6.9851     7.0507
  246.7000   140.5436     6.9452     7.0381
  246.8000   141.0478     6.9055     7.0194
  246.9000   141.5144     6.8661     6.9793
  247.0000   141.7840     6.8262     6.9408
  247.1000   142.2556     6.8264     6.9409
  247.2000   142.3976     6.8265     6.9086
  247.3000   142.5275     6.8049     6.8693
  247.4000   142.7068     6.7791     6.8449
  247.5000   142.6890     6.7745     6.8450
  247.6000   142.4076     6.7322     6.8451
  247.7000   142.4097     6.7323     6.8082
  247.8000   142.0842     6.7324     6.7977
  247.9000   141.5849     6.7142     6.7779
  248.0000   141.0855     6.6857     6.7393
  248.1000   140.5832     6.6842     6.7008
  248.2000   139.8334     6.6395     6.6571
  248.3000   139.0831     6.6396     6.6246
  248.4000   138.3330     6.6397     6.6110
  248.5000   137.7697     6.6397     6.5951
  248.6000   137.4814     6.6329     6.5574
  248.7000   136.9548     6.5938     6.5196
  248.8000   136.7201     6.5574     6.4829
  248.9000   136.4717     6.5481     6.4459
  249.0000   136.3531     6.5281     6.4091
  249.1000   136.3555     6.4909     6.3604
  249.2000   136.3352     6.4538     6.2921
  249.3000   136.0563     6.4128     6.2526
  249.4000   136.0585     6.3480     6.2205
  249.5000   136.0609     6.2998     6.1610
  249.6000   136.1761     6.2475     6.1070
  249.7000   136.3702     6.1847     6.0551
  249.8000   136.3783     6.1476     5.9537
  249.9000   136.6799     6.0230     5.9134
  250.0000   136.4914     5.8654     5.8254
  250.1000   136.2584     5.6707     5.7170
  250.2000   136.0254     5.4761     5.6086
  250.3000   135.7924     5.2815     5.5003
  250.4000   135.5594     5.2380     5.3919
  250.5000   135.3264     5.2207     5.2835
