~VERSION INFORMATION
 VERS.                2.0:   CWLS LOG ASCII STANDARD - VERSION 2.0
 WRAP.                 NO:   ONE LINE PER DEPTH STEP
~WELL INFORMATION
#MNEM.UNIT      DATA TYPE    INFORMATION
#----------   ------------   ------------------------------
 STRT.F           14.0000:   START DEPTH
 STOP.F          608.0000:   STOP DEPTH
 STEP.F            0.1000:   STEP LENGTH
 NULL.          -999.2500:   NO VALUE
 COMP. FENIX & SCISSON INC:   COMPANY
 WELL. NAVAL PETROLEUM RESERVE 3 S-15 #72-15:   WELL
 FLD .             TEAPOT:   FIELD
 LOC .      S15 T38N R78W:   LOCATION
 CNTY.            NATRONA:   COUNTY
 STAT.            WYOMING:   STATE
 CTRY. UNITED STATES OF AMERICA:   COUNTRY
 SRVC.           BIRDWELL:   SERVICE COMPANY
 DATE.        21-JUL-1978:   LOGDATE
 API .       490251067300:   API NUMBER
~CURVE INFORMATION
#MNEM.UNIT       API CODE    CURVE DESCRIPTION
#----------   ------------   ------------------------------
 DEPT.F                  :   
 ILD .OHMM   05 120 46 00:   INDUCTION LOG DEEP
 SN  .OHMM   05 040 16 00:   SHORT NORMAL 16"
 SPR .MV     05 010 01 00:   SPONTANEOUS POTENTIAL FROM RES.
 CALD.IN     45 280 60 00:   CALIPER FROM DENSITY LOG
 DPHI.DEC    45 890 12 00:   DENSITY POROSITY SANDSTONE
 DRHO.G/C3   45 356 01 00:   DENSITY CORRECTION
 GRD .GAPI   45 310 01 00:   GAMMA RAY FROM DENSITY LOG
 RHOB.G/C3   45 350 01 00:   BULK DENSITY
~PARAMETER INFORMATION
#MNEM.UNIT          VALUE    DESCRIPTION
#----------   ------------   ------------------------------
 PD  .                 GL:   PERMANENT DATUM
 EPD .F              5238:   ELEVATION PERMANENT DATUM
 LMF .                 KB:   LOG MEASURED FROM
 DAPD.F                 4:   FEET ABOVE PERMANENT DATUM
 DMF .                 KB:   DRILLING MEASURED FROM
 EKB .F              5242:   KELLING BUSHING
 EGL .F              5238:   GROUND LEVEL
 DATE.        21-JUL-1978:   RUN DATE
 RUN .                  1:   RUN NUMBER
 DD  .F               597:   DEPTH DRILLER
 DL  .F               615:   DEPTH LOGGER
 BLI .F               608:   BOTTOM LOG INTERVAL
 TLI .F                35:   TOP LOG INTERVAL
 CS  .IN            8.625:   CASING SIZE
 CBD .F                40:   CASING BOTTOM DRILLER
 CBL .F                35:   CASING BOTTOM LOGGER
 BS  .IN            7.875:   BIT SIZE
 BSD .F               597:   BIT SIZE AT DEPTH
 DFT .                KCL:   DRILLING FLUID TYPE
 DFD .                8.6:   DRILLING FLUID DENSITY
 DFV .                 33:   DRILLING FLUID VISCOSITY
 DFPH.                9.0:   DRILLING FLUID PH
 MSS .            MUD PIT:   MUD SAMPLE SOURCE
 MFSS.               MEAS:   MUD FILTRATE SAMPLE SOURCE
 MCSS.               MEAS:   MUD CAKE SAMPLE SOURCE
 BHT .F                74:   BOTTOM HOLE TEMPERATURE
 TCS .HRS               2:   TIME CURCULATED STOPPED
 MRT .F                74:   MAXIMUM RECORDED TEMPERATURE
 LUN .               2958:   LOGGING UNIT NUMBER
 LUL .             CASPER:   LOGGING UNIT LOCATION
 ENGI.             MILLER:   RECORDING ENGINEER
 WITN.           MCGINLEY:   WITNESSED BY
 CLNT.            A2DTECH:   CLIENT CODE
 ORIG.           5" PRINT:   ORIGIN OF DATA
 UWI .       490251067300:   UNIQUE WELL ID
 DICO. A2D Technologies, Inc.:   DIGITIZING COMPANY
~OTHER INFORMATION
~A   DEPT      ILD         SN        SPR       CALD       DPHI       DRHO         GRD      RHOB   
# ...
  483.8000    12.3049    11.0265   -16.6459     7.8292     0.1349     0.0117    75.8331     2.4455
  483.9000    12.3046    11.0263   -16.6468     7.8291     0.1351     0.0117    75.7094     2.4458
  484.0000    12.3043    11.0262   -16.6477     7.8290     0.1353     0.0117    75.6501     2.4463
  484.1000    12.3039    11.0260   -16.6486     7.8289     0.1356     0.0117    75.6492     2.4468
  484.2000    12.3036    11.0259   -16.6495     7.8308     0.1356     0.0117    75.6483     2.4472
  484.3000    12.3032    11.0257   -16.6504     7.8368     0.1360     0.0117    75.6472     2.4476
  484.4000    12.3029    11.0256   -16.6513     7.8436     0.1363     0.0117    75.7494     2.4480
  484.5000    12.3025    11.0254   -16.6523     7.8435     0.1366     0.0117    76.0212     2.4480
  484.6000    12.3022    11.0253   -16.6531     7.8434     0.1368     0.0112    76.4354     2.4480
  484.7000    12.3019    11.0251   -16.6540     7.8433     0.1368     0.0106    76.9255     2.4484
  484.8000    12.3015    11.0250   -16.6549     7.8431     0.1368     0.0102    77.4527     2.4490
  484.9000    12.3012    11.0248   -16.6780     7.8430     0.1369     0.0102    77.6789     2.4496
  485.0000    12.3008    11.0247   -16.8066     7.8429     0.1372     0.0102    78.0090     2.4499
  485.1000    12.3005    11.0245   -16.8075     7.8428     0.1374     0.0102    78.4912     2.4502
  485.2000    12.2523    11.0244   -16.8084     7.8427     0.1374     0.0102    79.0456     2.4507
  485.3000    12.2152    11.0242   -16.8093     7.8425     0.1379     0.0102    79.4091     2.4511
  485.4000    12.2149    11.0241   -16.8102     7.8424     0.1380     0.0102    79.4081     2.4512
  485.5000    12.2145    11.0239   -16.8196     7.8423     0.1382     0.0102    79.1191     2.4526
  485.6000    12.2142    11.0237   -16.9621     7.8422     0.1386     0.0102    78.8179     2.4531
  485.7000    12.2139    11.0236   -16.9628     7.8421     0.1386     0.0097    78.5315     2.4533
  485.8000    12.2135    11.0234   -16.9637     7.8419     0.1386     0.0091    78.1622     2.4533
  485.9000    12.2132    11.0233   -16.9646     7.8418     0.1384     0.0087    77.7444     2.4532
  486.0000    12.2129    11.0231   -16.9655     7.8417     0.1382     0.0087    77.4239     2.4526
  486.1000    12.2125    11.0230   -16.9665     7.8416     0.1378     0.0087    77.0546     2.4520
  486.2000    12.2122    11.0228   -16.9673     7.8414     0.1373     0.0087    76.6350     2.4514
  486.3000    12.2576    11.0227   -16.9682     7.8413     0.1368     0.0087    76.1205     2.4511
  486.4000    12.2961    11.0081   -16.9691     7.8390     0.1368     0.0087    75.4775     2.4511
  486.5000    12.2958    10.9872   -16.9700     7.8260     0.1365     0.0087    74.8909     2.4511
  486.6000    12.2954    10.9663   -16.9709     7.8259     0.1362     0.0086    74.1869     2.4511
  486.7000    12.2951    10.9462   -16.9720     7.8257     0.1363     0.0074    73.4494     2.4511
  486.8000    12.2947    10.9460   -16.9727     7.8256     0.1365     0.0071    72.7449     2.4511
  486.9000    12.2944    10.9459   -16.9736     7.8255     0.1367     0.0071    72.1300     2.4511
  487.0000    12.2941    10.9457   -16.9745     7.8254     0.1368     0.0071    71.3995     2.4511
  487.1000    12.2937    10.9456   -16.9754     7.8253     0.1368     0.0071    71.3988     2.4511
  487.2000    12.2933    10.9423   -16.9764     7.8251     0.1368     0.0071    71.3979     2.4511
  487.3000    12.2931    10.9215   -16.9772     7.8250     0.1368     0.0082    71.3970     2.4515
  487.4000    12.2927    10.9008   -16.9781     7.8249     0.1371     0.0086    71.4425     2.4518
  487.5000    12.2924    10.8801   -16.9790     7.8248     0.1371     0.0086    71.8476     2.4518
  487.6000    12.2920    10.8695   -16.9799     7.8247     0.1373     0.0086    72.7284     2.4518
  487.7000    12.2917    10.8693   -16.9808     7.8245     0.1374     0.0086    73.4632     2.4518
  487.8000    12.2914    10.8692   -16.9817     7.8270     0.1373     0.0098    74.0221     2.4518
  487.9000    12.2910    10.8690   -16.9826     7.8310     0.1368     0.0101    74.4081     2.4515
  488.0000    12.2907    10.8689   -16.9835     7.8350     0.1366     0.0101    74.4072     2.4511
  488.1000    12.2903    10.8562   -16.9844     7.8391     0.1362     0.0104    74.4063     2.4511
  488.2000    12.2900    10.8357   -16.9853     7.8390     0.1358     0.0117    74.4054     2.4511
  488.3000    12.2896    10.8151   -16.9862     7.8389     0.1356     0.0131    74.4045     2.4506
  488.4000    12.2893    10.7934   -16.9871     7.8388     0.1356     0.0131    74.4036     2.4500
  488.5000    12.2890    10.7933   -16.9880     7.8387     0.1356     0.0138    74.4027     2.4494
  488.6000    12.2886    10.7931   -16.9889     7.8385     0.1358     0.0146    74.4017     2.4488
  488.7000    12.2883    10.7930   -16.9898     7.8384     0.1363     0.0146    74.4009     2.4481
  488.8000    12.2879    10.7928   -16.9907     7.8383     0.1370     0.0146    74.4000     2.4481
  488.9000    12.2876    10.7913   -16.9917     7.8382     0.1375     0.0134    74.3991     2.4489
  489.0000    12.2873    10.7709   -16.9925     7.8401     0.1383     0.0122    74.4364     2.4501
  489.1000    12.2869    10.7504   -16.9934     7.8461     0.1389     0.0110    74.6989     2.4513
  489.2000    12.2866    10.7300   -16.9943     7.8529     0.1397     0.0098    74.8119     2.4526
  489.3000    12.2863    10.7178   -16.9952     7.8528     0.1403     0.0085    75.0195     2.4538
  489.4000    12.2859    10.7176   -16.9961     7.8527     0.1408     0.0071    75.2642     2.4550
  489.5000    12.2856    10.7175   -16.9970     7.8526     0.1413     0.0061    75.4791     2.4559
  489.6000    12.2852    10.7173   -16.9979     7.8524     0.1420     0.0056    75.6027     2.4564
  489.7000    12.2849    10.7172   -16.9988     7.8523     0.1429     0.0060    75.8472     2.4563
  489.8000    12.2846    10.7170   -16.9997     7.8522     0.1436     0.0072    76.1882     2.4556
  489.9000    12.2842    10.7169   -17.0006     7.8521     0.1442     0.0085    76.5556     2.4546
  490.0000    12.2839    10.7167   -17.0016     7.8520     0.1449     0.0096    76.9230     2.4527
  490.1000    12.2835    10.7166   -17.0024     7.8518     0.1454     0.0100    77.2783     2.4505
  490.2000    12.2832    10.7164   -17.0033     7.8517     0.1461     0.0111    77.5546     2.4487
  490.3000    12.2675    10.7163   -17.0042     7.8516     0.1462     0.0133    77.8745     2.4474
  490.4000    12.1980    10.7034   -17.0051     7.8515     0.1454     0.0145    78.1631     2.4458
  490.5000    12.1977    10.6731   -17.0060     7.8514     0.1442     0.0157    78.3062     2.4447
  490.6000    12.1445    10.6421   -17.0069     7.8512     0.1428     0.0160    78.3053     2.4446
  490.7000    12.1131    10.6419   -17.0078     7.8511     0.1422     0.0160    78.3043     2.4451
  490.8000    12.0910    10.6418   -17.0087     7.8510     0.1416     0.0164    78.1860     2.4451
  490.9000    12.0291    10.6416   -17.0096     7.8509     0.1411     0.0176    78.0623     2.4451
  491.0000    12.0287    10.6415   -17.0105     7.8508     0.1407     0.0190    77.8773     2.4451
  491.1000    11.9697    10.6413   -17.0115     7.8506     0.1404     0.0201    77.5976     2.4454
  491.2000    11.9453    10.6412   -17.0123     7.8505     0.1397     0.0205    77.2074     2.4460
  491.3000    11.9450    10.6410   -17.0882     7.8504     0.1387     0.0205    76.1872     2.4465
  491.4000    11.9447    10.6409   -17.1640     7.8503     0.1376     0.0207    75.3868     2.4471
  491.5000    11.9443    10.6407   -17.1649     7.8502     0.1367     0.0220    74.4037     2.4477
  491.6000    11.9440    10.6406   -17.1659     7.8500     0.1362     0.0220    73.7275     2.4482
  491.7000    11.9437    10.6404   -17.1667     7.8499     0.1362     0.0220    73.6196     2.4486
  491.8000    11.9087    10.6403   -17.1676     7.8498     0.1362     0.0217    73.6186     2.4490
