~VERSION INFORMATION
 VERS.                2.0:   CWLS LOG ASCII STANDARD - VERSION 2.0
 WRAP.                 NO:   ONE LINE PER DEPTH STEP
~WELL INFORMATION
#MNEM.UNIT      DATA TYPE    INFORMATION
#----------   ------------   ------------------------------
 STRT.F           53.0000:   START DEPTH
 STOP.F         4152.0000:   STOP DEPTH
 STEP.F            0.5000:   STEP LENGTH
 NULL.          -999.2500:   NO VALUE
 COMP. DEPARTMENT OF ENERGY:   COMPANY
 WELL. RES 3 TEAPOT #11-STX-11:   WELL
 FLD . TEAPOT NAVAL RESERVE:   FIELD
 LOC .      S11 T38N R78W:   LOCATION
 CNTY.            NATRONA:   COUNTY
 STAT.            WYOMING:   STATE
 CTRY. UNITED STATES OF AMERICA:   COUNTRY
 SRVC.       Schlumberger:   SERVICE COMPANY
 DATE.        24-JUL-1975:   LOGDATE
 API .       490251025200:   API NUMBER
~CURVE INFORMATION
#MNEM.UNIT       API CODE    CURVE DESCRIPTION
#----------   ------------   ------------------------------
 DEPT.F                  :   
 SPR .MV     07 010 01 00:   SPONTANEOUS POTENTIAL
 ILD .OHMM   07 120 46 00:   INDUCTION LOG DEEP
 ILM .OHMM   07 120 44 00:   INDUCTION LOG MEDIUM
 LL8 .OHMM   07 220 08 00:   LATEROLOG-8 RES.
 DPOR.DEC    45 890 12 00:   DENSITY POROSITY SANDSTONE
 NPOR.DEC    42 890 03 00:   NEUTRON POROSITY SANDSTONE
 RHOB.G/C3   45 350 01 00:   BULK DENSITY
 CORR.G/C3   45 356 01 00:   DENSITY CORRECTION
 GRD .GAPI   45 310 01 00:   GAMMA RAY FROM DENSITY LOG
 CALD.IN     45 280 60 00:   CALIPER FROM DENSITY LOG
~PARAMETER INFORMATION
#MNEM.UNIT          VALUE    DESCRIPTION
#----------   ------------   ------------------------------
 PD  .                 GL:   PERMANENT DATUM
 EPD .F              5165:   ELEVATION PERMANENT DATUM
 LMF .                 KB:   LOG MEASURED FROM
 DAPD.F                13:   FEET ABOVE PERMANENT DATUM
 DMF .                 KB:   DRILLING MEASURED FROM
 EKB .F              5178:   KELLING BUSHING
 EGL .F              5165:   GROUND LEVEL
 DATE.            7-24-75:   RUN DATE
 RUN .                  1:   RUN NUMBER
 DD  .F              4150:   DEPTH DRILLER
 DL  .F              4154:   DEPTH LOGGER
 BLI .F              4152:   BOTTOM LOG INTERVAL
 TLI .F              1800:   TOP LOG INTERVAL
 CS  .IN            8.625:   CASING SIZE
 CBD .F               625:   CASING BOTTOM DRILLER
 CBL .F               627:   CASING BOTTOM LOGGER
 BS  .IN            7.875:   BIT SIZE
 BSD .F              4150:   BIT SIZE AT DEPTH
 DFT .                FGM:   DRILLING FLUID TYPE
 DFD .                9.5:   DRILLING FLUID DENSITY
 DFV .                 85:   DRILLING FLUID VISCOSITY
 MSS .           FLOWLINE:   MUD SAMPLE SOURCE
 RMS .OHMM           1.34:   RESISTIVITY MUD SAMPLE
 MST .F                91:   MUD SAMPLE TEMPERATURE
 RMF .OHMM           1.17:   RESISTIVITY MUD FILTRATE SAMPLE
 MFST.F                91:   MUD FILTRATE SAMPLE TEMPERATURE
 MFSS.                  M:   MUD FILTRATE SAMPLE SOURCE
 RMB .OHMM            .94:   RESISTIVITY MUD AT BHT
 BHT .F               130:   BOTTOM HOLE TEMPERATURE
 TCS .HRS            1230:   TIME CURCULATED STOPPED
 TLAB.HRS            1900:   TIME LOGGER AT BOTTOM
 MRT .F               132:   MAXIMUM RECORDED TEMPERATURE
 LUN .               7680:   LOGGING UNIT NUMBER
 LUL .               CSPR:   LOGGING UNIT LOCATION
 ENGI.             FRENCH:   RECORDING ENGINEER
 WITN.             CARTER:   WITNESSED BY
 CLNT.            A2DTECH:   CLIENT CODE
 ORIG.       2", 5" PRINT:   ORIGIN OF DATA
 UWI .       490251025200:   UNIQUE WELL ID
 DICO. A2D Technologies, Inc.:   DIGITIZING COMPANY
~OTHER INFORMATION
~A   DEPT      SPR          ILD        ILM       LL8      DPOR       NPOR       RHOB       CORR        GRD       CALD   
# ...
 3537.0000  -999.2500  -999.2500  -999.2500  -999.2500     0.0764     0.3653     2.5130     0.0233   253.9320     8.4520
 3537.5000  -999.2500  -999.2500  -999.2500  -999.2500     0.0836     0.3594     2.5331     0.0268   249.6748     8.3759
 3538.0000  -999.2500  -999.2500  -999.2500  -999.2500     0.0774     0.3521     2.4958     0.0190   248.4988     8.3373
 3538.5000  -999.2500  -999.2500  -999.2500  -999.2500     0.0733     0.3433     2.4739     0.0376   252.5681     8.4032
 3539.0000  -999.2500  -999.2500  -999.2500  -999.2500     0.0881     0.3376     2.4860     0.0645   255.9663     8.4685
 3539.5000  -999.2500  -999.2500  -999.2500  -999.2500     0.1013     0.3401     2.5024     0.0669   257.2444     8.5170
 3540.0000  -999.2500  -999.2500  -999.2500  -999.2500     0.1056     0.3442     2.4876     0.0398   261.2469     8.4819
 3540.5000  -999.2500  -999.2500  -999.2500  -999.2500     0.0920     0.3484     2.4822     0.0254   262.4489     8.4532
 3541.0000  -999.2500  -999.2500  -999.2500  -999.2500     0.0963     0.3526     2.5002     0.0380   256.7005     8.4410
 3541.5000  -999.2500  -999.2500  -999.2500  -999.2500     0.1016     0.3541     2.5098     0.0577   250.8716     8.4281
 3542.0000  -999.2500  -999.2500  -999.2500  -999.2500     0.0950     0.3494     2.5024     0.0814   245.4250     8.4150
 3542.5000  -999.2500  -999.2500  -999.2500  -999.2500     0.0876     0.3438     2.5231     0.1057   246.3293     8.4298
 3543.0000  -999.2500  -999.2500  -999.2500  -999.2500     0.0876     0.3386     2.4993     0.0585   254.6806     8.4500
 3543.5000  -999.2500  -999.2500  -999.2500  -999.2500     0.0814     0.3426     2.4560     0.0211   260.4283     8.4703
 3544.0000  -999.2500  -999.2500  -999.2500  -999.2500     0.0760     0.3485     2.4736     0.0155   258.0873     8.4906
 3544.5000  -999.2500  -999.2500  -999.2500  -999.2500     0.1208     0.3517     2.5035     0.0096   258.3561     8.5109
 3545.0000  -999.2500  -999.2500  -999.2500  -999.2500     0.1205     0.3418     2.4908     0.0124   263.2807     8.5314
 3545.5000  -999.2500  -999.2500  -999.2500  -999.2500     0.0924     0.3461     2.5130     0.0100   268.1525     8.5375
 3546.0000  -999.2500  -999.2500  -999.2500  -999.2500     0.0980     0.3501     2.4985     0.0041   271.9578     8.5414
 3546.5000  -999.2500  -999.2500  -999.2500  -999.2500     0.0856     0.3430     2.4965     0.0209   270.0184     8.5452
 3547.0000  -999.2500  -999.2500  -999.2500  -999.2500     0.0878     0.3357     2.5028     0.0138   270.5417     8.5490
 3547.5000  -999.2500  -999.2500  -999.2500  -999.2500     0.0907     0.3314     2.4982     0.0058   272.1494     8.5530
 3548.0000  -999.2500  -999.2500  -999.2500  -999.2500     0.0936     0.3346     2.5055     0.0084   270.6003     8.5626
 3548.5000  -999.2500  -999.2500  -999.2500  -999.2500     0.0925     0.3281     2.5017     0.0090   267.4756     8.5975
 3549.0000  -999.2500  -999.2500  -999.2500  -999.2500     0.0906     0.3218     2.4959     0.0045   264.9660     8.6313
 3549.5000  -999.2500  -999.2500  -999.2500  -999.2500     0.0913     0.3209     2.4998     0.0144   266.1056     8.6654
 3550.0000  -999.2500  -999.2500  -999.2500  -999.2500     0.0923     0.3222     2.5141     0.0224   265.1208     8.6726
 3550.5000  -999.2500  -999.2500  -999.2500  -999.2500     0.0918     0.3185     2.5145     0.0177   263.4205     8.6616
 3551.0000  -999.2500  -999.2500  -999.2500  -999.2500     0.0828     0.3142     2.5043     0.0125   261.5681     8.6508
 3551.5000  -999.2500  -999.2500  -999.2500  -999.2500     0.0857     0.3208     2.4953     0.0058   262.9594     8.6401
 3552.0000  -999.2500  -999.2500  -999.2500  -999.2500     0.0905     0.3295     2.5047     0.0090   266.1592     8.6405
 3552.5000  -999.2500  -999.2500  -999.2500  -999.2500     0.0944     0.3301     2.5152     0.0159   267.6951     8.6790
 3553.0000  -999.2500  -999.2500  -999.2500  -999.2500     0.0870     0.3274     2.4964     0.0159   267.1127     8.7177
 3553.5000  -999.2500  -999.2500  -999.2500  -999.2500     0.0845     0.3325     2.5004     0.0112   272.6160     8.7566
 3554.0000  -999.2500  -999.2500  -999.2500  -999.2500     0.0929     0.3413     2.4823     0.0111   278.0684     8.7940
 3554.5000  -999.2500  -999.2500  -999.2500  -999.2500     0.0946     0.3500     2.4662     0.0125   283.4923     8.7859
 3555.0000  -999.2500  -999.2500  -999.2500  -999.2500     0.1034     0.3554     2.4699     0.0099   287.7234     8.7758
 3555.5000  -999.2500  -999.2500  -999.2500  -999.2500     0.1114     0.3569     2.4733     0.0075   285.4929     8.7817
 3556.0000  -999.2500  -999.2500  -999.2500  -999.2500     0.1100     0.3522     2.4609     0.0098   282.8793     8.7918
 3556.5000  -999.2500  -999.2500  -999.2500  -999.2500     0.1108     0.3459     2.4540     0.0123   280.4413     8.8019
 3557.0000  -999.2500  -999.2500  -999.2500  -999.2500     0.1157     0.3467     2.4593     0.0117   281.5213     8.8123
 3557.5000  -999.2500  -999.2500  -999.2500  -999.2500     0.1208     0.3498     2.4554     0.0207   282.2649     8.8048
 3558.0000  -999.2500  -999.2500  -999.2500  -999.2500     0.1173     0.3528     2.4758     0.0171   280.4011     8.7885
 3558.5000  -999.2500  -999.2500  -999.2500  -999.2500     0.1119     0.3558     2.4814     0.0331   280.3138     8.7720
 3559.0000  -999.2500  -999.2500  -999.2500  -999.2500     0.1065     0.3565     2.4850     0.0387   281.7038     8.7554
 3559.5000  -999.2500  -999.2500  -999.2500  -999.2500     0.1030     0.3485     2.4815     0.0521   283.2531     8.7389
 3560.0000  -999.2500  -999.2500  -999.2500  -999.2500     0.1038     0.3469     2.4876     0.0624   284.7928     8.7224
 3560.5000  -999.2500  -999.2500  -999.2500  -999.2500     0.1015     0.3529     2.4808     0.0549   285.9681     8.7059
 3561.0000  -999.2500  -999.2500  -999.2500  -999.2500     0.0980     0.3581     2.4701     0.0655   283.1807     8.6893
 3561.5000  -999.2500  -999.2500  -999.2500  -999.2500     0.1046     0.3489     2.4531     0.0455   284.4600     8.6727
 3562.0000  -999.2500  -999.2500  -999.2500  -999.2500     0.1141     0.3403     2.4411     0.0499   291.6112     8.6559
 3562.5000  -999.2500  -999.2500  -999.2500  -999.2500     0.1241     0.3354     2.4357     0.0340   298.7945     8.6487
 3563.0000  -999.2500  -999.2500  -999.2500  -999.2500     0.1295     0.3430     2.4124     0.0175   305.8911     8.6418
 3563.5000  -999.2500  -999.2500  -999.2500  -999.2500     0.1325     0.3519     2.3899     0.0084   311.8111     8.6348
 3564.0000  -999.2500  -999.2500  -999.2500  -999.2500     0.1529     0.3585     2.3904     0.0126   316.1422     8.6278
 3564.5000  -999.2500  -999.2500  -999.2500  -999.2500     0.1593     0.3572     2.3965     0.0184   312.7982     8.6208
 3565.0000  -999.2500  -999.2500  -999.2500  -999.2500     0.1572     0.3539     2.3857     0.0303   307.3594     8.6142
 3565.5000  -999.2500  -999.2500  -999.2500  -999.2500     0.1611     0.3541     2.4271     0.0567   302.0394     8.6092
 3566.0000  -999.2500  -999.2500  -999.2500  -999.2500     0.1505     0.3593     2.4601     0.0754   289.5955     8.6042
 3566.5000  -999.2500  -999.2500  -999.2500  -999.2500     0.1326     0.3546     2.4912     0.0623   275.7005     8.5990
 3567.0000  -999.2500  -999.2500  -999.2500  -999.2500     0.1146     0.3477     2.5069     0.0824   261.8575     8.5867
 3567.5000  -999.2500  -999.2500  -999.2500  -999.2500     0.0912     0.3343     2.4354     0.0205   248.5695     8.5451
 3568.0000  -999.2500  -999.2500  -999.2500  -999.2500     0.1158     0.3222     2.4669     0.0155   240.1678     8.5045
 3568.5000  -999.2500  -999.2500  -999.2500  -999.2500     0.1282     0.3196     2.5013     0.0302   238.5777     8.4642
 3569.0000  -999.2500  -999.2500  -999.2500  -999.2500     0.1074     0.3172     2.5220     0.0437   241.4270     8.4345
 3569.5000  -999.2500  -999.2500  -999.2500  -999.2500     0.0849     0.3182     2.5157     0.0653   245.8325     8.4259
 3570.0000  -999.2500  -999.2500  -999.2500  -999.2500     0.0796     0.3291     2.4995     0.0791   253.9288     8.4158
