~VERSION INFORMATION
 VERS.                2.0:   CWLS LOG ASCII STANDARD - VERSION 2.0
 WRAP.                 NO:   ONE LINE PER DEPTH STEP
~WELL INFORMATION
#MNEM.UNIT      DATA TYPE    INFORMATION
#----------   ------------   ------------------------------
 STRT.F           34.0000:   START DEPTH
 STOP.F          496.0000:   STOP DEPTH
 STEP.F            0.5000:   STEP LENGTH
 NULL.          -999.2500:   NO VALUE
 COMP. LAWRENCE/ALLISON INC:   COMPANY
 WELL.   55-55 SX FI #3-3:   WELL
 FLD .             TEAPOT:   FIELD
 LOC .       S3 T38N R78W:   LOCATION
 CNTY.            NATRONA:   COUNTY
 STAT.            WYOMING:   STATE
 CTRY. UNITED STATES OF AMERICA:   COUNTRY
 SRVC.       Schlumberger:   SERVICE COMPANY
 DATE.        18-JUL-1982:   LOGDATE
 API .       490251089500:   API NUMBER
~CURVE INFORMATION
#MNEM.UNIT       API CODE    CURVE DESCRIPTION
#----------   ------------   ------------------------------
 DEPT.F                  :   
 CALD.IN     45 280 60 00:   CALIPER FROM DENSITY LOG
 GRD .GAPI   45 310 01 00:   GAMMA RAY FROM DENSITY LOG
 CORR.G/C3   45 356 01 00:   DENSITY CORRECTION
 RHOB.G/C3   45 350 01 00:   BULK DENSITY
 DPHI.DEC    45 890 12 00:   DENSITY POROSITY SANDSTONE
 SPR .MV     07 010 01 00:   SPONTANEOUS POTENTIAL
 ILD .OHMM   07 120 46 00:   INDUCTION LOG DEEP
 ILM .OHMM   07 120 44 00:   INDUCTION LOG MEDIUM
 SFL .OHMM   07 220 01 00:   SHALLOW FOCUSED LOG RESISTIVITY
~PARAMETER INFORMATION
#MNEM.UNIT          VALUE    DESCRIPTION
#----------   ------------   ------------------------------
 PD  .                 GL:   PERMANENT DATUM
 EPD .F              5167:   ELEVATION PERMANENT DATUM
 LMF .                 KB:   LOG MEASURED FROM
 DAPD.F                 9:   FEET ABOVE PERMANENT DATUM
 DMF .                 KB:   DRILLING MEASURED FROM
 EKB .F              5176:   KELLING BUSHING
 EDF .F                  :   DRILLING FLOOR
 EGL .F              5167:   GROUND LEVEL
 DATE.        18-JUL-1982:   RUN DATE
 RUN .                  1:   RUN NUMBER
 DD  .F               500:   DEPTH DRILLER
 DL  .F               499:   DEPTH LOGGER
 BLI .F               436:   BOTTOM LOG INTERVAL
 TLI .F                50:   TOP LOG INTERVAL
 CS  .IN           13.375:   CASING SIZE
 CBD .F                50:   CASING BOTTOM DRILLER
 CBL .F                50:   CASING BOTTOM LOGGER
 BS  .IN            12.25:   BIT SIZE
 BSD .F               500:   BIT SIZE AT DEPTH
 DFT .         KCL FILLED:   DRILLING FLUID TYPE
 DFD .                   :   DRILLING FLUID DENSITY
 DFV .                   :   DRILLING FLUID VISCOSITY
 DFPH.                   :   DRILLING FLUID PH
 DFL .                   :   DRILLING FLUID LOSS
 MSS .           WELLHEAD:   MUD SAMPLE SOURCE
 RMS .OHMM           2.82:   RESISTIVITY MUD SAMPLE
 MST .F                80:   MUD SAMPLE TEMPERATURE
 RMF .OHMM               :   RESISTIVITY MUD FILTRATE SAMPLE
 MFST.F                  :   MUD FILTRATE SAMPLE TEMPERATURE
 RMC .OHMM               :   RESISTIVITY MUD CAKE
 MCST.F                  :   MUD CAKE SAMPLE TEMPERATURE
 MFSS.                   :   MUD FILTRATE SAMPLE SOURCE
 MCSS.                   :   MUD CAKE SAMPLE SOURCE
 RMB .OHMM           2.62:   RESISTIVITY MUD AT BHT
 BHT .F                86:   BOTTOM HOLE TEMPERATURE
 TCS .HRS            1530:   TIME CURCULATED STOPPED
 TLAB.HRS            1800:   TIME LOGGER AT BOTTOM
 MRT .F                86:   MAXIMUM RECORDED TEMPERATURE
 LUN .               8035:   LOGGING UNIT NUMBER
 LUL .             CASPER:   LOGGING UNIT LOCATION
 ENGI.              PENNY:   RECORDING ENGINEER
 WITN.             TAYLOR:   WITNESSED BY
 CLNT.            A2DTECH:   CLIENT CODE
 ORIG.           5" PRINT:   ORIGIN OF DATA
 UWI .       490251089500:   UNIQUE WELL ID
 DICO. A2D Technologies, Inc.:   DIGITIZING COMPANY
 OS  .                   :   OTHER SERVICES
 PWI .                   :   PRIMARY WELL IDENTIFIER
 R1  . POROSITY WITH SANDSTONE:   REMARKS 1
 R2  .                   :   REMARKS 2
 LSRV.                   :   LOG MNEMONIC
~OTHER INFORMATION
~A   DEPT     CALD         GRD      CORR       RHOB       DPHI        SPR        ILD        ILM        SFL   
# ...
  326.0000    12.0439    64.6196     0.0006     2.3722     0.1832   -31.4317    17.3348    17.0359    16.1766
  326.5000    12.0433    63.2332     0.0013     2.3767     0.1817   -31.2899    17.3263    17.0253    15.9454
  327.0000    12.0277    61.8510     0.0118     2.3850     0.1759   -30.9989    17.3179    17.0147    15.7174
  327.5000    12.0271    60.2482     0.0254     2.3933     0.1699   -30.7098    17.3095    17.0040    15.6981
  328.0000    12.0114    59.1970     0.0465     2.4016     0.1666   -30.4188    17.3011    16.8762    15.8090
  328.5000    12.0259    59.8932     0.0464     2.3946     0.1687   -30.4263    16.9371    16.6339    16.0204
  329.0000    12.0403    61.2422     0.0267     2.3831     0.1773   -30.4338    16.5808    16.3950    16.3473
  329.5000    12.0547    61.8970     0.0084     2.3678     0.1868   -30.4413    16.2320    16.0481    16.4521
  330.0000    12.0842    60.0903    -0.0030     2.3592     0.1914   -30.7473    15.9804    15.8177    16.2166
  330.5000    12.0986    60.1008    -0.0054     2.3722     0.1866   -33.7398    15.6659    15.5905    15.4412
  331.0000    12.0980    60.9984    -0.0024     2.3896     0.1717   -43.0011    15.4429    15.4733    14.8049
  331.5000    12.0974    62.1302     0.0058     2.4093     0.1555   -50.1728    15.1181    15.3570    14.1949
  332.0000    12.0968    63.2513     0.0133     2.4313     0.1471   -56.5982    14.9913    15.1365    13.7046
  332.5000    12.0962    62.1052     0.0193     2.4297     0.1486   -63.0236    14.7793    15.0227    13.5087
  333.0000    12.0956    61.2045     0.0170     2.4014     0.1584   -68.7027    14.5823    14.9098    13.5012
  333.5000    12.0950    61.2023     0.0055     2.3838     0.1697   -77.2177    14.4747    14.6957    13.5893
  334.0000    12.0944    61.6511    -0.0006     2.3761     0.1795   -85.5834    14.3586    14.5852    13.8647
  334.5000    12.0938    62.1000     0.0001     2.3753     0.1814   -87.8297    14.2618    14.3758    14.0501
  335.0000    12.0932    62.7744     0.0053     2.3904     0.1750   -87.9865    14.1565    14.2677    14.2380
  335.5000    12.0926    61.8699     0.0120     2.3994     0.1684   -87.9939    14.0520    14.0629    14.3308
  336.0000    12.1071    60.9654     0.0180     2.4085     0.1626   -88.0014    13.9482    13.9571    14.1240
  336.5000    12.1215    60.0609     0.0180     2.4061     0.1599   -88.0089    13.8452    13.8522    14.0188
  337.0000    12.1209    59.1563     0.0126     2.3992     0.1670   -88.0149    13.7430    13.7481    13.8185
  337.5000    12.1053    59.8308     0.0042     2.3930     0.1700   -88.0224    13.6416    13.5507    13.7155
  338.0000    12.1047    60.9563    -0.0058     2.3906     0.1716   -88.0298    13.6349    13.4488    13.6134
  338.5000    12.1041    62.0819    -0.0020     2.3959     0.1695   -88.0373    13.5343    13.3478    13.6058
  339.0000    12.1185    62.3053     0.0032     2.4041     0.1659   -88.0448    13.5277    13.3394    13.5045
  339.5000    12.1329    62.5565     0.0107     2.4139     0.1601   -88.0522    13.4278    13.4258    13.2197
  340.0000    12.1474    62.9775     0.0197     2.4321     0.1465   -88.0597    13.4213    13.4153    12.7630
  340.5000    12.1468    64.3285     0.0264     2.4427     0.1407   -88.0672    13.2302    12.9510    12.3221
  341.0000    12.1311    65.6796     0.0233     2.4380     0.1429   -88.0746    12.9519    12.5895    12.0622
  341.5000    12.1305    66.1286     0.0119     2.4265     0.1484   -88.0821    12.6794    12.4949    12.1409
  342.0000    12.1299    64.7728     0.0005     2.4143     0.1579   -88.0896    12.5858    12.4010    12.4730
  342.5000    12.0992    64.7295    -0.0004     2.4134     0.1592   -88.0971    12.4929    12.3078    12.6398
  343.0000    12.0986    64.5427     0.0018     2.4164     0.1568   -88.1046    12.4006    12.3855    12.7222
  343.5000    12.1131    64.7666     0.0048     2.4109     0.1583   -88.2613    12.3946    12.3778    12.4522
  344.0000    12.1426    65.8916     0.0070     2.4047     0.1629   -88.2688    12.3886    12.4559    12.1055
  344.5000    12.1420    66.5666     0.0061     2.4085     0.1618   -88.4256    12.3825    12.4481    11.8502
  345.0000    12.0962    64.7593     0.0045     2.4160     0.1575   -88.4331    12.3765    12.4404    11.8449
  345.5000    12.0806    62.9525     0.0045     2.4205     0.1548   -88.4406    12.4580    12.4326    11.9209
  346.0000    12.0800    62.9502     0.0074     2.4227     0.1540   -88.2985    12.5369    12.4248    12.0803
  346.5000    12.0794    62.9480     0.0119     2.4218     0.1543   -88.1567    12.5308    12.4171    12.1690
  347.0000    12.0788    62.0435     0.0164     2.4202     0.1549   -87.8661    12.6133    12.4974    12.4055
  347.5000    12.0782    61.5901     0.0178     2.4201     0.1550   -87.5732    12.6932    12.6617    12.5799
  348.0000    12.0776    62.0395     0.0162     2.4208     0.1550   -87.2822    12.7752    12.7436    12.7464
  348.5000    11.9868    62.0367     0.0146     2.4207     0.1554   -87.1404    12.8593    12.8241    12.8260
  349.0000    11.8809    62.0344     0.0145     2.4213     0.1545   -87.2991    13.0307    12.9927    12.9027
  349.5000    11.8202    62.9344     0.0160     2.4220     0.1533   -87.4558    13.1165    13.0768    12.8954
  350.0000    12.0150    62.2543     0.0220     2.4273     0.1515   -87.4469    13.2174    13.0686    12.8883
  350.5000    12.0897    63.1410     0.0280     2.4401     0.1411   -87.3604    13.3142    13.1512    12.9889
  351.0000    12.0893    64.4788     0.0355     2.4538     0.1359   -87.3278    13.2746    12.8710    13.0541
  351.5000    12.0738    65.3654     0.0438     2.4583     0.1306   -87.3371    12.9039    12.6862    12.7770
  352.0000    12.0734    65.5760     0.0462     2.4369     0.1434   -87.1935    12.6307    12.5041    12.5076
  352.5000    12.0579    63.3041     0.0308     2.4361     0.1441   -87.0536    12.4491    12.3245    12.2439
  353.0000    12.0574    61.2584     0.0140     2.4428     0.1398   -87.0611    12.2702    12.0638    11.9857
  353.5000    12.0570    60.1150     0.0147     2.4489     0.1386   -86.9174    12.0939    11.8906    11.8144
  354.0000    12.0575    60.0992     0.0123     2.4374     0.1414   -86.7756    11.9201    11.7199    11.6456
  354.5000    12.0711    61.0444     0.0078     2.4365     0.1451   -86.6339    11.7488    11.6319    11.5589
  355.0000    12.0707    62.8046     0.0092     2.4357     0.1454   -86.4921    11.7415    11.4649    11.4728
  355.5000    12.0701    64.3781     0.0068     2.4311     0.1491   -86.3503    11.6532    11.3787    11.4665
  356.0000    12.0697    65.8977     0.0053     2.4272     0.1519   -86.3597    11.7268    11.3717    11.4601
  356.5000    12.0692    66.7844     0.0053     2.4263     0.1498   -86.5164    11.7195    11.3646    11.6150
  357.0000    12.0688    67.4455     0.0090     2.4301     0.1456   -86.8209    11.7954    11.4382    11.6876
  357.5000    12.0684    68.3321     0.0127     2.4392     0.1395   -87.0050    11.9506    11.5105    11.7622
  358.0000    12.0679    68.9971     0.0217     2.4505     0.1343   -87.2836    12.1097    11.6618    11.9212
  358.5000    12.0675    65.8197     0.0262     2.4328     0.1441   -87.2667    12.4420    11.9817    12.1629
  359.0000    12.0670    60.3906     0.0292     2.3886     0.1570   -87.1490    13.0518    12.6558    12.5841
  359.5000    12.0666    55.6381     0.0178     2.3383     0.2003   -87.0072    14.1739    13.9346    13.4783
  360.0000    12.0661    50.8857     0.0056     2.2921     0.2366   -87.0149    15.9348    15.4491    16.1261
  360.5000    12.0808    49.0655     0.0025     2.2720     0.2418   -87.0224    18.2905    17.7312    21.2569
  361.0000    12.0803    48.3732     0.0047     2.2772     0.2400   -87.4776    20.1400    20.2101    25.9665
  361.5000    12.0798    49.0343     0.0100     2.2802     0.2376   -87.7990    22.0235    22.4067    28.5921
  362.0000    12.0643    49.9210     0.0152     2.2824     0.2361   -88.0896    24.0831    24.5005    30.4126
