~VERSION INFORMATION
 VERS.                2.0:   CWLS LOG ASCII STANDARD - VERSION 2.0
 WRAP.                 NO:   ONE LINE PER DEPTH STEP
~WELL INFORMATION
#MNEM.UNIT      DATA TYPE    INFORMATION
#----------   ------------   ------------------------------
 STRT.F           38.0000:   START DEPTH
 STOP.F          818.0000:   STOP DEPTH
 STEP.F            0.5000:   STEP LENGTH
 NULL.          -999.2500:   NO VALUE
 COMP. FENIX & SCISSON INC:   COMPANY
 WELL. NAVAL PETROLEUM RESERVE 3 SX-1 #32-14:   WELL
 FLD .             TEAPOT:   FIELD
 LOC .      S14 T38N R78W:   LOCATION
 CNTY.            NATRONA:   COUNTY
 STAT.            WYOMING:   STATE
 CTRY. UNITED STATES OF AMERICA:   COUNTRY
 SRVC.            Unknown:   SERVICE COMPANY
 DATE.        03-MAY-1978:   LOGDATE
 API .       490251061900:   API NUMBER
~CURVE INFORMATION
#MNEM.UNIT       API CODE    CURVE DESCRIPTION
#----------   ------------   ------------------------------
 DEPT.F                  :   
 SPR .MV     05 010 01 00:   SPONTANEOUS POTENTIAL FROM RES.
 ILD .OHMM   05 120 46 00:   INDUCTION LOG DEEP
 SN  .OHMM   05 040 16 00:   SHORT NORMAL 16"
 CALD.IN     45 280 60 00:   CALIPER
 GRD .GAPI   45 310 01 00:   GAMMA RAY FROM DENSITY LOG
 RHOB.G/C3   45 350 01 00:   BULK DENSITY
 DPHI.DEC    45 890 12 00:   DENSITY POROSITY SANDSTONE
 CORR.G/C3   45 356 01 00:   DENSITY CORRECTION
~PARAMETER INFORMATION
#MNEM.UNIT          VALUE    DESCRIPTION
#----------   ------------   ------------------------------
 PD  .                 GL:   PERMANENT DATUM
 EPD .F              5209:   ELEVATION PERMANENT DATUM
 LMF .                 KB:   LOG MEASURED FROM
 DAPD.F                 4:   FEET ABOVE PERMANENT DATUM
 DMF .                 KB:   DRILLING MEASURED FROM
 EKB .F              5213:   KELLING BUSHING
 EGL .F              5209:   GROUND LEVEL
 DATE.           5-3-1978:   RUN DATE
 RUN .                  1:   RUN NUMBER
 DD  .F               806:   DEPTH DRILLER
 DL  .F               824:   DEPTH LOGGER
 BLI .F               818:   BOTTOM LOG INTERVAL
 TLI .F                50:   TOP LOG INTERVAL
 CS  .IN            8.625:   CASING SIZE
 CBD .F                40:   CASING BOTTOM DRILLER
 BS  .IN            7.875:   BIT SIZE
 BSD .F               806:   BIT SIZE AT DEPTH
 DFT .                KCL:   DRILLING FLUID TYPE
 DFD .                8.6:   DRILLING FLUID DENSITY
 DFV .                 34:   DRILLING FLUID VISCOSITY
 DFPH.                  9:   DRILLING FLUID PH
 DFL .               16.4:   DRILLING FLUID LOSS
 MSS .           FLOWLINE:   MUD SAMPLE SOURCE
 RMS .OHMM            .75:   RESISTIVITY MUD SAMPLE
 MST .F                52:   MUD SAMPLE TEMPERATURE
 RMF .OHMM            .65:   RESISTIVITY MUD FILTRATE SAMPLE
 MFST.F                60:   MUD FILTRATE SAMPLE TEMPERATURE
 RMC .OHMM            1.2:   RESISTIVITY MUD CAKE
 MCST.F                62:   MUD CAKE SAMPLE TEMPERATURE
 MFSS.               MEAS:   MUD FILTRATE SAMPLE SOURCE
 RMB .OHMM            .54:   RESISTIVITY MUD AT BHT
 BHT .F                72:   BOTTOM HOLE TEMPERATURE
 TCS .HRS               1:   TIME CURCULATED STOPPED
 MRT .F                72:   MAXIMUM RECORDED TEMPERATURE
 LUN .               2958:   LOGGING UNIT NUMBER
 LUL .               CASP:   LOGGING UNIT LOCATION
 ENGI.             MILLER:   RECORDING ENGINEER
 WITN.           MCGINLEY:   WITNESSED BY
 CLNT.            A2DTECH:   CLIENT CODE
 ORIG.           5" PRINT:   ORIGIN OF DATA
 UWI .       490251061900:   UNIQUE WELL ID
 DICO. A2D Technologies, Inc.:   DIGITIZING COMPANY
~OTHER INFORMATION
~A   DEPT      SPR        ILD         SN         CALD      GRD       RHOB       DPHI       CORR   
   38.0000  -999.2500  -999.2500  -999.2500     8.2123  -999.2500  -999.2500  -999.2500  -999.2500
   38.5000  -999.2500  -999.2500  -999.2500     8.2185  -999.2500  -999.2500  -999.2500  -999.2500
   39.0000  -999.2500  -999.2500  -999.2500     8.2963  -999.2500  -999.2500  -999.2500  -999.2500
   39.5000  -999.2500  -999.2500  -999.2500     8.3491  -999.2500  -999.2500  -999.2500  -999.2500
   40.0000  -999.2500  -999.2500  -999.2500     8.0770  -999.2500  -999.2500  -999.2500  -999.2500
   40.5000  -999.2500  -999.2500  -999.2500     7.7582  -999.2500  -999.2500  -999.2500  -999.2500
   41.0000  -999.2500  -999.2500  -999.2500     7.6149  -999.2500  -999.2500  -999.2500  -999.2500
   41.5000  -999.2500  -999.2500  -999.2500     7.8372  -999.2500  -999.2500  -999.2500  -999.2500
   42.0000  -999.2500  -999.2500  -999.2500     8.1168  -999.2500  -999.2500  -999.2500  -999.2500
   42.5000  -999.2500  -999.2500  -999.2500     8.3742  -999.2500  -999.2500  -999.2500  -999.2500
   43.0000  -999.2500  -999.2500  -999.2500     8.3354  -999.2500  -999.2500  -999.2500  -999.2500
   43.5000  -999.2500  -999.2500  -999.2500     8.2983  -999.2500  -999.2500  -999.2500  -999.2500
   44.0000  -999.2500  -999.2500  -999.2500     7.8531  -999.2500  -999.2500  -999.2500  -999.2500
   44.5000  -999.2500  -999.2500  -999.2500     7.8789  -999.2500  -999.2500  -999.2500  -999.2500
   45.0000  -999.2500  -999.2500  -999.2500     7.9070  -999.2500  -999.2500  -999.2500  -999.2500
   45.5000  -999.2500  -999.2500  -999.2500     7.5507    99.8606  -999.2500  -999.2500  -999.2500
   46.0000  -999.2500  -999.2500  -999.2500     7.2290    99.8606  -999.2500  -999.2500  -999.2500
   46.5000  -999.2500  -999.2500  -999.2500     7.2233   117.4011  -999.2500  -999.2500  -999.2500
   47.0000  -999.2500  -999.2500  -999.2500     7.2242   131.3985  -999.2500  -999.2500  -999.2500
   47.5000  -999.2500  -999.2500  -999.2500     7.2312   130.8382  -999.2500  -999.2500  -999.2500
   48.0000  -999.2500  -999.2500  -999.2500     7.1690   129.5369  -999.2500  -999.2500  -999.2500
   48.5000  -999.2500  -999.2500  -999.2500     7.0634   119.0953  -999.2500  -999.2500  -999.2500
   49.0000  -999.2500  -999.2500  -999.2500     6.9854   104.6495  -999.2500  -999.2500     0.1587
   49.5000  -999.2500  -999.2500  -999.2500     6.9552    87.6439  -999.2500  -999.2500     0.1567
   50.0000  -999.2500  -999.2500  -999.2500     6.9433    66.6327  -999.2500  -999.2500     0.1623
   50.5000  -999.2500  -999.2500  -999.2500     7.1203    72.4955  -999.2500  -999.2500     0.1696
   51.0000  -999.2500     5.8455     5.8608     7.3958    82.0056  -999.2500  -999.2500     0.1621
   51.5000   -22.9177     5.8404     5.8703     7.4743    93.6376  -999.2500  -999.2500     0.1282
   52.0000   -23.5949     5.8331     5.9061     7.8956    79.9159     2.0574     0.2895     0.1130
   52.5000   -24.2722     5.8630     5.8874     8.4615    86.3974     2.1184     0.2612     0.1027
   53.0000   -24.8142     5.8259     5.8970     8.6309    73.7410     2.1793     0.2329     0.0832
   53.5000   -25.4911     5.8207     5.9065     8.9657    70.0084     2.2291     0.2102     0.0633
   54.0000   -26.1637     5.8156     5.9161     9.4956    69.5477     2.2803     0.1917     0.0539
   54.5000   -26.8324     5.8104     5.9257     9.9231    66.1234     2.3291     0.1930     0.0528
   55.0000   -27.8286     5.8053     5.9353     9.9336    65.9731     2.3791     0.1942     0.0420
   55.5000   -28.7988     5.8004     5.9449    10.1226    65.9625     2.3766     0.1956     0.0284
   56.0000   -29.7641     5.7948     5.9564    10.3674    65.6405     2.3706     0.1965     0.0148
   56.5000   -30.7291     5.7135     5.9307    10.3660    64.4304     2.3696     0.1960     0.0108
   57.0000   -31.6944     5.6280     5.8955    10.2080    63.3680     2.3700     0.1951     0.0084
   57.5000   -32.6601     5.5441     5.8605     9.9138    63.2999     2.3706     0.1973     0.0104
   58.0000   -33.6248     5.4614     5.8257     9.4991    63.2273     2.3628     0.1997     0.0138
   58.5000   -34.4968     5.3831     5.7911     9.2925    62.8298     2.3537     0.1993     0.0171
   59.0000   -35.0596     5.2911     5.7567     9.2778    62.4053     2.3589     0.1970     0.0205
   59.5000   -35.3583     5.2041     5.7225     9.3365    61.9800     2.3682     0.1932     0.0238
   60.0000   -35.4214     5.1186     5.6885     9.7649    61.5042     2.3778     0.1909     0.0265
   60.5000   -35.4934     5.0642     5.6548     9.9368    60.7477     2.3794     0.1906     0.0264
   61.0000   -35.5648     5.0227     5.6212     9.7078    60.1492     2.3793     0.1902     0.0264
   61.5000   -35.6363     4.9816     5.5878     9.4745    58.6671     2.3813     0.1887     0.0264
   62.0000   -35.7079     4.9408     5.5547     9.3569    57.1515     2.3837     0.1881     0.0264
   62.5000   -35.7794     4.9004     5.5221     9.3576    56.9570     2.3860     0.1879     0.0264
   63.0000   -35.8510     4.8602     5.4889     9.3110    56.3965     2.3837     0.1878     0.0264
   63.5000   -35.9225     4.8205     5.3987     9.2586    54.0300     2.3863     0.1865     0.0264
   64.0000   -35.9940     4.7756     5.2669     9.2687    53.4366     2.3898     0.1822     0.0264
   64.5000   -36.0656     4.8205     5.1383     9.3922    53.4976     2.3924     0.1878     0.0264
   65.0000   -36.1371     4.8736     5.0007     9.5019    54.5989     2.3911     0.1957     0.0264
   65.5000   -36.2087     4.9090     5.0007     9.5184    59.2997     2.3714     0.1972     0.0268
   66.0000   -36.2806     4.7331     5.1397     9.4938    64.9549     2.3697     0.1985     0.0336
   66.5000   -36.3503     4.8530     5.1884     9.4258    66.0288     2.3688     0.2030     0.0393
   67.0000   -36.4198     4.9558     5.1304     9.2081    65.9006     2.3624     0.2068     0.0427
   67.5000   -36.5039     4.8302     5.0807     9.1382    65.9580     2.3536     0.2077     0.0516
   68.0000   -36.5882     4.7265     5.0316     9.1536    67.2014     2.3512     0.2086     0.0667
   68.5000   -36.6707     4.6885     4.9829     9.2823    68.5118     2.3504     0.2037     0.0839
   69.0000   -36.7677     4.6885     4.9347     9.4167    69.8387     2.3575     0.1961     0.1022
   69.5000   -37.1451     4.6508     4.8421     9.5275    71.1523     2.3769     0.1901     0.1045
   70.0000   -37.5317     4.5163     4.7020     9.6163    71.8070     2.3900     0.2006     0.0722
   70.5000   -37.4877     4.3856     4.5659     9.7202    64.6488     2.3614     0.2089     0.0387
   71.0000   -37.3928     4.2587     4.4774     9.8287    58.9770     2.3479     0.1985     0.0236
   71.5000   -37.2995     4.1355     4.3957     9.9319    57.3446     2.3638     0.2001     0.0206
   72.0000   -37.2091     4.0835     4.3957     9.9335    55.8111     2.3624     0.2060     0.0183
   72.5000   -37.2241     4.0835     4.3957     9.8921    53.1811     2.3540     0.2089     0.0162
   73.0000   -37.4172     4.0835     4.3957     9.8502    49.9393     2.3455     0.2113     0.0149
   73.5000   -37.6068     4.0835     4.3940     9.8083    48.8675     2.3445     0.2149     0.0136
   74.0000   -37.7521     4.0487     4.3995     9.7166    48.9221     2.3356     0.2185     0.0123
   74.5000   -37.7490     3.9151     4.0436     9.3185    50.4539     2.3169     0.2200     0.0110
   75.0000   -37.7447     3.7859     3.7128     8.9373    53.4487     2.2970     0.2204     0.0123
   75.5000   -37.9897     3.6506     3.4083     8.9559    56.6144     2.2772     0.2202     0.0152
   76.0000   -38.3223     3.5104     3.1844     9.1066    59.9929     2.2573     0.2201     0.0235
   76.5000   -38.4835     3.3965     3.0225     9.3128    63.5678     2.2473     0.2197     0.0303
   77.0000   -38.2873     3.3958     2.9856     9.5233    66.8260     2.2403     0.2165     0.0308
   77.5000   -38.0987     3.4307     2.9856     9.9066    66.7965     2.2341     0.2108     0.0430
   78.0000   -37.9405     3.5184     3.0430    10.6233    66.8969     2.2467     0.2052     0.0857
