~VERSION INFORMATION
 VERS.                2.0:   CWLS LOG ASCII STANDARD - VERSION 2.0
 WRAP.                 NO:   ONE LINE PER DEPTH STEP
~WELL INFORMATION
#MNEM.UNIT      DATA TYPE    INFORMATION
#----------   ------------   ------------------------------
 STRT.F           38.0000:   START DEPTH
 STOP.F          890.0000:   STOP DEPTH
 STEP.F            0.5000:   STEP LENGTH
 NULL.          -999.2500:   NO VALUE
 COMP. FENIX & SCISSON INC:   COMPANY
 WELL.       43 SX #14-14:   WELL
 FLD .             TEAPOT:   FIELD
 LOC .      S14 T38N R78W:   LOCATION
 CNTY.            NATRONA:   COUNTY
 STAT.            WYOMING:   STATE
 CTRY. UNITED STATES OF AMERICA:   COUNTRY
 SRVC.            Unknown:   SERVICE COMPANY
 DATE.        28-APR-1978:   LOGDATE
 API .       490251063600:   API NUMBER
~CURVE INFORMATION
#MNEM.UNIT       API CODE    CURVE DESCRIPTION
#----------   ------------   ------------------------------
 DEPT.F                  :   
 SPR .MV     05 010 01 00:   SPONTANEOUS POTENTIAL FROM RES.
 SN  .OHMM   05 040 16 00:   SHORT NORMAL 16"
 ILD .OHMM   05 120 46 00:   INDUCTION LOG DEEP
 CILD.MMHO   05 110 46 00:   CONDUCTIVITY INDUCTION LOG DEEP
 CALD.IN     45 280 60 00:   CALIPER FROM DENSITY LOG
 GRD .GAPI   45 310 01 00:   GAMMA RAY FROM DENSITY LOG
 CORR.G/C3   45 356 01 00:   DENSITY CORRECTION
 DPHI.DEC    45 890 12 00:   DENSITY POROSITY SANDSTONE
 DEN .G/C3   45 350 01 00:   COMPENSATED BULK DENSTIY
~PARAMETER INFORMATION
#MNEM.UNIT          VALUE    DESCRIPTION
#----------   ------------   ------------------------------
 PD  .                 GL:   PERMANENT DATUM
 EPD .F              5217:   ELEVATION PERMANENT DATUM
 LMF .                 KB:   LOG MEASURED FROM
 DMF .                 KB:   DRILLING MEASURED FROM
 EKB .F              5221:   KELLING BUSHING
 EGL .F              5217:   GROUND LEVEL
 DATE.        28-APR-1978:   RUN DATE
 RUN .                  1:   RUN NUMBER
 DD  .F               890:   DEPTH DRILLER
 DL  .F               890:   DEPTH LOGGER
 BLI .F               884:   BOTTOM LOG INTERVAL
 TLI .F                40:   TOP LOG INTERVAL
 CS  .IN            8.625:   CASING SIZE
 CBD .F                40:   CASING BOTTOM DRILLER
 CBL .F                40:   CASING BOTTOM LOGGER
 BS  .IN            7.875:   BIT SIZE
 BSD .F               890:   BIT SIZE AT DEPTH
 DFT .                KCL:   DRILLING FLUID TYPE
 DFD .                8.7:   DRILLING FLUID DENSITY
 DFV .                 34:   DRILLING FLUID VISCOSITY
 DFL .                4.8:   DRILLING FLUID LOSS
 MSS .            MUD PIT:   MUD SAMPLE SOURCE
 RMS .OHMM             .4:   RESISTIVITY MUD SAMPLE
 MST .F                56:   MUD SAMPLE TEMPERATURE
 RMF .OHMM            .38:   RESISTIVITY MUD FILTRATE SAMPLE
 MFST.F                64:   MUD FILTRATE SAMPLE TEMPERATURE
 RMC .OHMM              1:   RESISTIVITY MUD CAKE
 MCST.F                66:   MUD CAKE SAMPLE TEMPERATURE
 MFSS.               MEAS:   MUD FILTRATE SAMPLE SOURCE
 RMB .OHMM             .3:   RESISTIVITY MUD AT BHT
 BHT .F                74:   BOTTOM HOLE TEMPERATURE
 TCS .HRS            0100:   TIME CURCULATED STOPPED
 MRT .F                74:   MAXIMUM RECORDED TEMPERATURE
 LUN .               2958:   LOGGING UNIT NUMBER
 LUL .               CASP:   LOGGING UNIT LOCATION
 ENGI.             MILLER:   RECORDING ENGINEER
 WITN.           MCGINLEY:   WITNESSED BY
 CLNT.            A2DTECH:   CLIENT CODE
 ORIG.           5" PRINT:   ORIGIN OF DATA
 UWI .       490251063600:   UNIQUE WELL ID
 DICO. A2D Technologies, Inc.:   DIGITIZING COMPANY
~OTHER INFORMATION
~A   DEPT      SPR         SN        ILD       CILD       CALD        GRD       CORR       DPHI        DEN   
# ...
  585.5000   -33.8508     8.0100     7.3066   127.7914     7.9917    81.0215     0.0703     0.0599     2.5137
  586.0000   -34.2914     8.0134     7.2095   126.9747     7.9627    82.2490     0.0644     0.0656     2.5430
  586.5000   -34.7291     7.9608     7.1618   126.1581     7.9184    83.5286     0.0451     0.0761     2.5384
  587.0000   -34.7232     7.9649     7.1649   126.0905     7.8440    84.6676     0.0422     0.0771     2.5092
  587.5000   -34.7172     7.9682     7.1175   126.0229     7.6880    84.8285     0.0424     0.0804     2.5039
  588.0000   -34.5629     7.9715     7.1205   126.7213     7.4313    84.3871     0.0426     0.0820     2.5175
  588.5000   -34.4086     7.9192     7.1230   127.4028     7.3798    82.8914     0.0473     0.0784     2.5056
  589.0000   -34.2543     7.9233     7.1254   128.0842     7.3809    81.6969     0.0563     0.0715     2.5019
  589.5000   -34.1000     7.9265     7.1279   127.9998     7.4269    81.1048     0.0609     0.0690     2.5011
  590.0000   -34.0941     7.9298     7.1303   128.6982     7.4730    81.2657     0.0625     0.0681     2.5185
  590.5000   -33.9412     7.8778     7.0831   129.3796     7.5191    81.2761     0.0642     0.0702     2.5306
  591.0000   -34.2306     7.8819     7.0369   130.0611     7.5802    81.2864     0.0628     0.0780     2.5269
  591.5000   -34.3730     7.7763     6.9909   130.7426     7.6714    81.2968     0.0629     0.0812     2.5126
  592.0000   -34.6638     7.6730     6.8506   130.6581     7.7326    82.3775     0.0615     0.0824     2.5007
  592.5000   -34.8077     7.6243     6.8053   132.8377     7.7937    83.7877     0.0617     0.0848     2.5000
  593.0000   -35.0970     7.5222     6.7149   133.5361     7.8258    84.9448     0.0618     0.0851     2.4985
  593.5000   -35.2409     7.4223     6.6705   135.6988     7.8708    84.8045     0.0635     0.0835     2.4956
  594.0000   -35.3829     7.2733     6.5819   137.8784     7.8566    81.3510     0.0636     0.0836     2.4979
  594.5000   -35.5258     7.1281     6.4939   139.3259     7.6918    80.4552     0.0622     0.0859     2.4994
  595.0000   -35.8166     7.0294     6.4071   142.2376     7.8284    80.3149     0.0579     0.0931     2.5002
  595.5000   -35.9590     6.9109     6.2781   143.6682     7.8896    80.4784     0.0400     0.1002     2.4958
  596.0000   -36.1014     6.7924     6.1942   145.1156     7.9356    80.1875     0.0327     0.1092     2.4718
  596.5000   -36.2439     6.6641     6.0694   148.0274     7.9817    80.1979     0.0283     0.1191     2.4568
  597.0000   -36.3863     6.4855     5.9471   150.2070     7.9976    80.2082     0.0284     0.1188     2.4523
  597.5000   -36.5287     6.2253     5.7872   153.8847     8.0136    80.5198     0.0286     0.1221     2.4441
  598.0000   -36.5213     5.9546     5.6316   159.8096     7.9994    80.6807     0.0287     0.1262     2.4336
  598.5000   -36.5153     5.5851     5.3679   168.7308     7.9702    80.8700     0.0228     0.1298     2.4224
  599.0000   -36.5094     5.2156     5.0814   179.8992     7.9861    81.3042     0.0230     0.1397     2.4044
  599.5000   -36.5035     4.8317     4.6471   194.8129     8.0173    81.1661     0.0246     0.1664     2.3879
  600.0000   -36.4990     4.4695     4.2740   204.9684     8.0535    79.6678     0.0262     0.1820     2.3549
  600.5000   -36.5549     4.2195     4.0658   237.4445     8.1197    80.1205     0.0263     0.2054     2.3159
  601.0000   -36.6065     3.7237     3.7589   274.7564     8.1988    80.2711     0.0264     0.1957     2.2964
  601.5000   -36.6291     3.2459     3.2096   313.6328     8.2289    80.1205     0.0267     0.1939     2.2543
  602.0000   -36.4748     2.6776     2.5756   382.4717     8.2440    79.9699     0.0364     0.1924     2.2136
  602.5000   -36.3155     2.4663     2.4389   419.1008     8.2289    79.5181     0.0493     0.1878     2.2372
  603.0000   -36.0119     2.4339     2.3902   430.2618     8.2289    79.3675     0.0509     0.1626     2.2801
  603.5000   -35.8635     2.4681     2.4255   431.6854     8.2440    79.3723     0.0525     0.1187     2.3133
  604.0000   -35.7092     2.5571     2.5124   426.3665     8.2440    80.6718     0.0526     0.0956     2.4148
  604.5000   -35.5549     2.7411     2.6568   412.8084     8.2289    85.2307     0.0467     0.0928     2.4570
  605.0000   -35.5490     2.9383     2.9689   390.2615     8.1988    89.0872     0.0393     0.0928     2.4804
  605.5000   -35.5430     3.3514     3.3871   352.7334     8.1672    89.8470     0.0349     0.0937     2.4864
  606.0000   -35.6856     4.3575     4.1402   303.2202     8.1023    89.8572     0.0350     0.0955     2.4813
  606.5000   -35.6795     4.8017     4.7560   255.3959     8.0742    90.1672     0.0351     0.0954     2.4791
  607.0000   -35.6736     4.9729     4.9948   216.9155     8.0763    90.9270     0.0352     0.0936     2.4776
  607.5000   -35.6677     5.0796     5.1028   194.3686     8.0930    91.0871     0.0353     0.0945     2.4785
  608.0000   -35.6617     5.1886     5.1584   181.5595     8.0948    90.7974     0.0354     0.1005     2.4793
  608.5000   -35.6558     5.2274     5.1131   178.4883     8.0811    91.2599     0.0355     0.1019     2.4801
  609.0000   -35.6499     5.2665     5.0778   180.6793     8.0833    92.1696     0.0356     0.1022     2.4696
  609.5000   -35.7925     5.3058     4.9092   186.5781     8.0701    92.4796     0.0357     0.1088     2.4682
  610.0000   -35.7864     5.3088     4.6168   194.7428     8.0719    92.3373     0.0359     0.1178     2.4593
  610.5000   -35.7804     5.2382     4.4022   209.6491     8.0590    92.3500     0.0360     0.1208     2.4353
  611.0000   -35.7745     5.0993     4.3449   227.5517     8.0758    96.5581     0.0376     0.1204     2.4308
  611.5000   -35.7685     4.6647     4.3172   231.2408     8.0775    98.0675     0.0407     0.1144     2.4316
  612.0000   -35.7626     4.4169     4.2912   234.1433     8.1541    97.7421     0.0408     0.0894     2.4561
  612.5000   -35.7567     4.3582     4.2942   234.8361     8.2157    95.6916     0.0409     0.0771     2.4739
  613.0000   -35.7507     4.4524     4.2972   235.5103     8.2324    90.6034     0.0410     0.0729     2.4988
  613.5000   -35.7448     4.7074     4.3002   234.6675     8.2342    86.5656     0.0411     0.0737     2.5199
  614.0000   -35.7389     5.1162     4.4235   231.5963     8.2209    85.8261     0.0412     0.0791     2.5124
  614.5000   -35.7329     5.4093     4.5505   224.0306     8.2228    88.0440     0.0398     0.0797     2.5042
  615.0000   -35.7258     5.5636     4.7461   211.9707     8.2099    90.4967     0.0414     0.0764     2.5020
  615.5000   -35.7199     5.6831     5.0188   199.1616     8.2116    90.5069     0.0415     0.0748     2.5051
  616.0000   -35.7140     5.8856     5.3810   188.5997     8.2134    89.4676     0.0356     0.0787     2.5149
  616.5000   -35.7080     6.2228     5.8495   176.5397     8.2151    89.1753     0.0267     0.0832     2.5140
  617.0000   -35.8505     6.5792     6.0174   168.2251     8.2169    89.1880     0.0268     0.0841     2.4978
  617.5000   -35.8446     6.8138     6.1052   162.9067     8.2186    89.7979     0.0270     0.0816     2.4919
  618.0000   -35.8386     7.0081     6.1943   157.5883     8.2204    90.5577     0.0285     0.0843     2.4972
  618.5000   -35.8327     7.1585     6.1986   152.2698     8.2071    90.0325     0.0286     0.0939     2.4987
  619.0000   -35.8279     7.1625     6.2029   147.7005     8.2093    84.7335     0.0287     0.0945     2.4815
  619.5000   -35.9707     7.1665     6.2072   145.3783     8.1957    84.8936     0.0288     0.0890     2.4793
  620.0000   -35.9633     7.1202     6.2115   145.3183     8.1679    92.6998     0.0274     0.0863     2.4892
  620.5000   -36.1072     7.0752     6.1720   145.2434     8.1542    94.8089     0.0275     0.0869     2.4922
  621.0000   -36.0998     7.0305     6.0916   145.9212     8.1111    95.7187     0.0276     0.0941     2.4908
  621.5000   -36.0939     6.9860     6.0539   145.8427     8.0982    95.5789     0.0292     0.0982     2.4901
