~VERSION INFORMATION
 VERS.                2.0:   CWLS LOG ASCII STANDARD - VERSION 2.0
 WRAP.                 NO:   ONE LINE PER DEPTH STEP
~WELL INFORMATION
#MNEM.UNIT      DATA TYPE    INFORMATION
#----------   ------------   ------------------------------
 STRT.F           30.0000:   START DEPTH
 STOP.F          507.0000:   STOP DEPTH
 STEP.F            0.5000:   STEP LENGTH
 NULL.          -999.2500:   NO VALUE
 COMP. FENIX & SCISSON INC:   COMPANY
 WELL.      NPR-3 #42S-10:   WELL
 FLD .             TEAPOT:   FIELD
 LOC .      S10 T38N R78W:   LOCATION
 CNTY.            NATRONA:   COUNTY
 STAT.            WYOMING:   STATE
 CTRY. UNITED STATES OF AMERICA:   COUNTRY
 SRVC.            Unknown:   SERVICE COMPANY
 DATE.        15-JUL-1978:   LOGDATE
 API .       490251065700:   API NUMBER
~CURVE INFORMATION
#MNEM.UNIT       API CODE    CURVE DESCRIPTION
#----------   ------------   ------------------------------
 DEPT.F                  :   
 SPR .MV     07 010 01 00:   SPONTANEOUS POTENTIAL
 ILD .OHMM   07 120 46 00:   INDUCTION LOG DEEP
 SN  .OHMM   07 040 16 00:   SHORT NORMAL
 CALD.IN     45 280 60 00:   CALIPER FROM DENSITY LOG
 GRD .GAPI   45 310 01 00:   GAMMA RAY FROM DENSITY LOG
 CORR.G/C3   45 356 01 00:   DENSITY CORRECTION
 RHOB.G/C3   45 350 01 00:   BULK DENSITY
 DPHI.DEC    45 890 12 00:   DENSITY POROSITY SANDSTONE
~PARAMETER INFORMATION
#MNEM.UNIT          VALUE    DESCRIPTION
#----------   ------------   ------------------------------
 PD  .                 GL:   PERMANENT DATUM
 EPD .F              5204:   ELEVATION PERMANENT DATUM
 LMF .                 KB:   LOG MEASURED FROM
 DAPD.F                 4:   FEET ABOVE PERMANENT DATUM
 DMF .                 KB:   DRILLING MEASURED FROM
 EKB .F              5208:   KELLING BUSHING
 EGL .F              5204:   GROUND LEVEL
 DATE.        15-JUL-1978:   RUN DATE
 RUN .                  1:   RUN NUMBER
 DD  .F               500:   DEPTH DRILLER
 DL  .F               511:   DEPTH LOGGER
 BLI .F               504:   BOTTOM LOG INTERVAL
 TLI .F                30:   TOP LOG INTERVAL
 CS  .IN            8.625:   CASING SIZE
 CBD .F                40:   CASING BOTTOM DRILLER
 CBL .F                40:   CASING BOTTOM LOGGER
 BS  .IN            7.875:   BIT SIZE
 BSD .F               500:   BIT SIZE AT DEPTH
 DFT .                KCL:   DRILLING FLUID TYPE
 DFD .                8.7:   DRILLING FLUID DENSITY
 DFV .                 32:   DRILLING FLUID VISCOSITY
 DFPH.                9.0:   DRILLING FLUID PH
 RMS .OHMM           0.18:   RESISTIVITY MUD SAMPLE
 MST .F                78:   MUD SAMPLE TEMPERATURE
 RMF .OHMM           0.16:   RESISTIVITY MUD FILTRATE SAMPLE
 MFST.F                88:   MUD FILTRATE SAMPLE TEMPERATURE
 RMC .OHMM           0.28:   RESISTIVITY MUD CAKE
 MCST.F                88:   MUD CAKE SAMPLE TEMPERATURE
 MFSS.               MEAS:   MUD FILTRATE SAMPLE SOURCE
 MCSS.               MEAS:   MUD CAKE SAMPLE SOURCE
 TCS .HRS               1:   TIME CURCULATED STOPPED
 LUN .               2958:   LOGGING UNIT NUMBER
 LUL .               CASP:   LOGGING UNIT LOCATION
 ENGI.              HONEA:   RECORDING ENGINEER
 WITN.           MCGINLEY:   WITNESSED BY
 CLNT.            A2DTECH:   CLIENT CODE
 ORIG.           5" PRINT:   ORIGIN OF DATA
 UWI .       490251065700:   UNIQUE WELL ID
 DICO. A2D Technologies, Inc.:   DIGITIZING COMPANY
~OTHER INFORMATION
~A   DEPT      SPR        ILD         SN       CALD        GRD       CORR       RHOB       DPHI   
# ...
  232.5000   -34.9948     5.6559     5.2337     8.5572    89.3016     0.1360     2.4416     0.1590
  233.0000   -34.9802     5.6582     5.1636     8.5742    87.9884     0.0497     2.3978     0.1408
  233.5000   -34.9684     5.6602     5.2727     8.5764    86.3773     0.0230     2.4347     0.1376
  234.0000   -35.1058     5.7011     5.3472     8.5935    88.0022     0.0261     2.4580     0.1331
  234.5000   -35.0939     5.7424     5.4616     8.5957    96.1560     0.0337     2.4689     0.1250
  235.0000   -35.0820     5.8238     5.6257     8.5983    96.5514     0.0443     2.4720     0.1220
  235.5000   -34.9210     6.0767     6.0222     8.6154    91.2314     0.0579     2.4811     0.1154
  236.0000   -34.7578     6.4787     6.3578     8.6176    90.8032     0.0626     2.4931     0.1252
  236.5000   -34.2990     7.1163     6.5369     8.6197    93.9527     0.0433     2.5051     0.1410
  237.0000   -34.1382     7.6252     6.7211     8.6219    93.6789     0.0256     2.4664     0.1410
  237.5000   -33.9774     7.8404     6.8161     8.6241    92.9593     0.0213     2.4486     0.1367
  238.0000   -33.6676     7.7887     6.8179     8.6263    93.1313     0.0229     2.4614     0.1291
  238.5000   -33.5069     7.6849     6.8668     8.6285    93.7490     0.0261     2.4712     0.1216
  239.0000   -33.4951     7.6349     6.8687     8.6307    93.9151     0.0248     2.4791     0.1208
  239.5000   -33.3344     7.5851     6.8706     8.6032    92.4585     0.0234     2.4878     0.1255
  240.0000   -33.1736     7.6183     6.8724     8.5905    91.1445     0.0221     2.4894     0.1276
  240.5000   -33.1618     7.6668     6.8743     8.5779    91.3170     0.0223     2.4828     0.1275
  241.0000   -33.1501     7.7154     6.8289     8.5652    93.0075     0.0209     2.4784     0.1248
  241.5000   -33.1384     7.7543     6.8309     8.5357    95.2912     0.0211     2.4763     0.1239
  242.0000   -33.1266     7.8104     6.7859     8.4954    97.9303     0.0197     2.4756     0.1286
  242.5000   -33.1148     7.8131     6.6950     8.4537    93.7932     0.0199     2.4780     0.1262
  243.0000   -33.1028     7.8157     6.6509     8.3965    92.7764     0.0201     2.4736     0.1234
  243.5000   -33.0909     7.7648     6.6528     8.3393    93.3941     0.0203     2.4774     0.1273
  244.0000   -33.0768     7.6620     6.6089     8.2965    94.6062     0.0204     2.4805     0.1293
  244.5000   -33.0650     7.5593     6.6111     8.2690    96.5612     0.0206     2.4747     0.1293
  245.0000   -33.0533     7.4082     6.6129     8.2563    98.8134     0.0192     2.4740     0.1310
  245.5000   -32.7435     7.3089     6.6147     8.2591    99.4312     0.0194     2.4726     0.1325
  246.0000   -32.7317     7.2121     6.6165     8.2761    97.9686     0.0196     2.4712     0.1330
  246.5000   -32.5710     7.1652     6.6183     8.3079    95.7632     0.0198     2.4631     0.1297
  247.0000   -32.5592     7.1676     6.6201     8.3398    94.8945     0.0199     2.4722     0.1258
  247.5000   -32.5475     7.1209     6.6219     8.3865    95.9585     0.0186     2.4800     0.1377
  248.0000   -32.5358     7.1233     6.6236     8.4332    97.7731     0.0158     2.4619     0.1389
  248.5000   -32.5240     7.1257     6.6254     8.4651    98.2341     0.0129     2.4583     0.1322
  249.0000   -32.5123     7.0793     6.6272     8.5123    94.4000     0.0131     2.4675     0.1376
  249.5000   -32.5006     7.0817     6.6290     8.5738    93.2288     0.0133     2.4652     0.1402
  250.0000   -32.4888     7.0841     6.6308     8.6219    96.1276     0.0134     2.4533     0.1427
  250.5000   -32.5939     7.0880     6.5527     8.6452    96.7659     0.0047     2.4467     0.1464
  251.0000   -32.9177     7.0919     6.4745     8.6689    97.1704     0.0108     2.4491     0.1422
  251.5000   -33.3560     7.0958     6.3302     8.6864   100.3152     0.0125     2.4544     0.1410
  252.0000   -33.6453     7.0517     6.2462     8.7201   101.9742     0.0141     2.4560     0.1454
  252.5000   -33.7855     7.0555     6.1228     8.7348    97.5410     0.0128     2.4546     0.1525
  253.0000   -33.9258     7.0593     6.0416     8.7516    95.7824     0.0130     2.4487     0.1597
  253.5000   -34.0661     7.0138     5.9622     8.7388    96.5559     0.0147     2.4330     0.1711
  254.0000   -34.2041     7.0185     5.8839     8.7260    95.6888     0.0164     2.4216     0.1799
  254.5000   -34.4934     6.8319     5.8467     8.6983    95.5586     0.0240     2.4012     0.1760
  255.0000   -34.9340     6.2513     5.8106     8.6855    96.9265     0.0349     2.3863     0.1655
  255.5000   -35.2233     6.0020     5.7739     8.6727    98.4368     0.0540     2.4021     0.1499
  256.0000   -35.3635     5.8826     5.7770     8.6900    99.7986     0.0932     2.4829     0.1305
  256.5000   -35.3526     5.8055     5.7405     8.6920   101.1603     0.0501     2.4636     0.1188
  257.0000   -35.1948     5.7688     5.6658     8.6940    96.7747     0.0219     2.4793     0.1152
  257.5000   -34.8879     5.7720     5.6689     8.6961    91.8543     0.0236     2.4944     0.1193
  258.0000   -34.7301     5.8156     5.7111     8.6981    90.6840     0.0268     2.4922     0.1217
  258.5000   -34.5723     6.0222     5.8333     8.6853    90.7145     0.0284     2.4819     0.1192
  259.0000   -34.5633     6.3225     5.9581     8.6873    90.8876     0.0331     2.4880     0.1165
  259.5000   -34.5526     6.6377     6.1277     8.7042    90.9120     0.0333     2.4940     0.1156
  260.0000   -34.5438     6.8735     6.0889     8.7066    90.9365     0.0319     2.4904     0.1224
  260.5000   -34.5351     7.1176     6.0504     8.7086    90.9708     0.0322     2.4793     0.1296
  261.0000   -34.5263     7.2201     6.0121     8.7255    91.1402     0.0323     2.4756     0.1289
  261.5000   -34.5186     7.0765     5.9742     8.7275    91.1646     0.0355     2.4765     0.1307
  262.0000   -34.6600     6.7943     5.9333     8.7444    90.2976     0.0401     2.4684     0.1381
  262.5000   -34.8003     6.4342     5.8989     8.7464    88.5390     0.0478     2.4595     0.1375
  263.0000   -34.9383     6.0933     5.8617     8.7335    88.4087     0.0584     2.4626     0.1249
  263.5000   -35.0786     5.8878     5.8254     8.7207    87.9935     0.0780     2.4816     0.1018
  264.0000   -35.2191     5.8128     5.7886     8.6931    83.8575     0.0872     2.5136     0.1058
  264.5000   -35.2101     5.8568     5.7512     8.9478    74.7573     0.0677     2.5323     0.1242
  265.0000   -35.2013     5.8600     5.7149     8.9647    74.2482     0.0472     2.4996     0.1236
  265.5000   -35.3416     5.9444     5.6788     8.9667    79.3308     0.0354     2.4780     0.1164
  266.0000   -35.3306     6.0299     5.6826     8.9687    87.9734     0.0296     2.4900     0.1139
  266.5000   -35.3219     6.1596     5.8443     8.9707    90.0781     0.0253     2.4954     0.1139
  267.0000   -35.3131     6.3347     6.0105     8.9727    89.8054     0.0210     2.4985     0.1142
  267.5000   -35.3043     6.5148     6.2257     8.9748    89.2348     0.0197     2.4978     0.1141
  268.0000   -35.1465     6.7001     6.4067     8.9772    89.8584     0.0184     2.4964     0.1144
  268.5000   -34.6907     6.9381     6.6297     8.9793    90.9411     0.0186     2.4966     0.1141
  269.0000   -34.2348     7.1845     6.7716     8.9813    90.8009     0.0187     2.4989     0.1143
  269.5000   -33.9280     7.4397     6.8691     8.9833    90.5220     0.0144     2.5012     0.1149
  270.0000   -33.6212     7.6512     6.9202     9.0001    90.8498     0.0131     2.4931     0.1205
  270.5000   -33.3143     7.8688     6.9708     9.0021    91.6172     0.0118     2.4842     0.1229
  271.0000   -33.0075     7.9820     6.9633     9.0042    91.9389     0.0120     2.4813     0.1219
  271.5000   -32.8336     8.0968     6.9567     9.0211    91.5176     0.0122     2.4844     0.1204
  272.0000   -32.5407     8.1571     6.9501     9.0235    88.5842     0.0139     2.4845     0.1204
  272.5000   -32.5319     8.1615     6.9434     9.0404    83.6974     0.0155     2.4823     0.1212
