~VERSION INFORMATION
 VERS.                2.0:   CWLS LOG ASCII STANDARD - VERSION 2.0
 WRAP.                 NO:   ONE LINE PER DEPTH STEP
~WELL INFORMATION
#MNEM.UNIT      DATA TYPE    INFORMATION
#----------   ------------   ------------------------------
 STRT.F           16.0000:   START DEPTH
 STOP.F         1334.0000:   STOP DEPTH
 STEP.F            0.5000:   STEP LENGTH
 NULL.          -999.2500:   NO VALUE
 COMP. U S NAVY/INTEX OIL CO:   COMPANY
 WELL.  S-11 NPR 3 #87-11:   WELL
 FLD .             TEAPOT:   FIELD
 LOC .      S11 T38N R78W:   LOCATION
 CNTY.            NATRONA:   COUNTY
 STAT.            WYOMING:   STATE
 CTRY. UNITED STATES OF AMERICA:   COUNTRY
 SRVC.       Schlumberger:   SERVICE COMPANY
 DATE.        17-JUN-1966:   LOGDATE
 API .       490250958900:   API NUMBER
~CURVE INFORMATION
#MNEM.UNIT       API CODE    CURVE DESCRIPTION
#----------   ------------   ------------------------------
 DEPT.F                  :   
 GRD .GAPI   45 310 01 00:   GAMMA RAY FROM DENSITY LOG
 CALD.IN     45 280 60 00:   CALIPER
 RHOB.G/C3   45 350 01 00:   BULK DENSITY
 DPOR.DEC    45 890 12 00:   DENSITY POROSITY SANDSTONE
 DRHO.G/C3   45 356 01 00:   DENSITY CORRECTION
 ASN .OHMM   05 041 16 00:   AMPLIFIED SHORT NORMAL 16"
 ILD .OHMM   05 120 46 00:   INDUCTION LOG DEEP
 CILD.MMHO   05 110 46 00:   CONDUCTIVITY INDUCTION LOG DEEP
 SPR .MV     05 010 01 00:   SPONTANEOUS POTENTIAL FROM RES.
~PARAMETER INFORMATION
#MNEM.UNIT          VALUE    DESCRIPTION
#----------   ------------   ------------------------------
 PD  .                 GL:   PERMANENT DATUM
 EPD .F              5284:   ELEVATION PERMANENT DATUM
 LMF .                 KB:   LOG MEASURED FROM
 DAPD.F                 5:   FEET ABOVE PERMANENT DATUM
 DMF .                 KB:   DRILLING MEASURED FROM
 EKB .F              5289:   KELLING BUSHING
 EGL .F              5284:   GROUND LEVEL
 DATE.          8-17-1966:   RUN DATE
 RUN .                  1:   RUN NUMBER
 DD  .F              1335:   DEPTH DRILLER
 DL  .F              1335:   DEPTH LOGGER
 BLI .F              1334:   BOTTOM LOG INTERVAL
 TLI .F                50:   TOP LOG INTERVAL
 CS  .IN            8.625:   CASING SIZE
 CBD .F                10:   CASING BOTTOM DRILLER
 BS  .IN            7.875:   BIT SIZE
 BSD .F              1335:   BIT SIZE AT DEPTH
 DFT .           GEL-CHEM:   DRILLING FLUID TYPE
 DFD .                9.3:   DRILLING FLUID DENSITY
 DFV .                 50:   DRILLING FLUID VISCOSITY
 MSS .          FLOW LINE:   MUD SAMPLE SOURCE
 RMS .OHMM           1.38:   RESISTIVITY MUD SAMPLE
 MST .F                80:   MUD SAMPLE TEMPERATURE
 RMF .OHMM           1.09:   RESISTIVITY MUD FILTRATE SAMPLE
 MFST.F                77:   MUD FILTRATE SAMPLE TEMPERATURE
 MFSS.                  M:   MUD FILTRATE SAMPLE SOURCE
 RMB .OHMM           1.70:   RESISTIVITY MUD AT BHT
 BHT .F               108:   BOTTOM HOLE TEMPERATURE
 TCS .HRS               1:   TIME CURCULATED STOPPED
 MRT .F               108:   MAXIMUM RECORDED TEMPERATURE
 LUN .               4507:   LOGGING UNIT NUMBER
 LUL .               CSPR:   LOGGING UNIT LOCATION
 ENGI.            MANGOLD:   RECORDING ENGINEER
 WITN.                MAY:   WITNESSED BY
 CLNT.            A2DTECH:   CLIENT CODE
 ORIG.       2", 5" PRINT:   ORIGIN OF DATA
 UWI .       490250958900:   UNIQUE WELL ID
 DICO. A2D Technologies, Inc.:   DIGITIZING COMPANY
~OTHER INFORMATION
~A   DEPT       GRD      CALD       RHOB       DPOR       DRHO        ASN        ILD       CILD        SPR   
# ...
  965.0000   105.4011     8.4659     2.5543     0.0544     0.0407    11.2834     9.4811   107.8167   -37.2952
  965.5000   107.0575     8.4653     2.5590     0.0605     0.0358    11.5060     9.7046   104.2701   -37.3025
  966.0000   108.7017     8.4645     2.5722     0.0506     0.0307    11.7283     9.9280   100.7235   -37.3099
  966.5000   110.1868     8.4634     2.5853     0.0396     0.0350    11.9508    10.1519    97.1769   -37.3170
  967.0000   106.5553     8.4623     2.5988     0.0325     0.0461    12.1733    10.3756    95.5455   -37.3241
  967.5000   102.5907     8.4613     2.5957     0.0348     0.0483    12.3949    10.5750    94.1268   -37.3277
  968.0000    98.7071     8.4602     2.5953     0.0349     0.0287    12.6843    10.5769    92.8831   -37.4212
  968.5000    97.0564     8.4591     2.5990     0.0335     0.0256    13.0001    10.5762    93.2142   -37.7556
  969.0000   103.4943     8.4581     2.5840     0.0436     0.0425    13.1619    10.5220    93.5452   -38.0859
  969.5000   102.8596     8.4570     2.5627     0.0581     0.0518    12.9584    10.4140    93.9796   -38.4191
  970.0000   101.0336     8.4559     2.5405     0.0726     0.0451    12.6762    10.3062    95.3702   -38.5837
  970.5000    99.3338     8.4549     2.5384     0.0676     0.0401    12.3919    10.1982    96.7618   -38.6878
  971.0000   100.2858     8.4538     2.5502     0.0587     0.0452    12.1076    10.0902    98.1529   -38.5651
  971.5000    99.9076     8.4527     2.5532     0.0644     0.0500    11.8235     9.9823    99.5432   -38.3563
  972.0000    99.0866     8.4516     2.5451     0.0590     0.0554    11.5703     9.8743   100.9335   -38.1460
  972.5000    99.0197     8.4506     2.5537     0.0626     0.0440    11.5487     9.7662   102.3237   -37.9357
  973.0000    99.5397     8.4495     2.5446     0.0690     0.0531    11.5115     9.6588   103.7140   -37.7253
  973.5000   100.0317     8.4484     2.5348     0.0729     0.0451    11.4735     9.5814   105.1043   -37.5150
  974.0000   101.9416     8.4474     2.5483     0.0558     0.0316    11.4353     9.5829   106.4945   -37.3300
  974.5000   102.1530     8.4463     2.5540     0.0625     0.0507    11.3971     9.5828   107.7458   -37.3504
  975.0000   101.6368     8.4452     2.5325     0.0760     0.0355    11.3589     9.6306   107.7458   -37.3738
  975.5000   102.3467     8.4441     2.5274     0.0694     0.0184    11.3207     9.7262   107.2111   -37.3965
  976.0000   103.5362     8.4431     2.5346     0.0737     0.0233    11.2809     9.8216   106.4472   -37.4190
  976.5000    98.5872     8.4420     2.5185     0.0811     0.0255    11.3271     9.9173   105.6833   -37.4415
  977.0000    97.1030     8.4409     2.5164     0.0852     0.0199    11.4060    10.0122   104.9194   -37.4640
  977.5000    98.5434     8.4399     2.5366     0.0768     0.0150    11.4856    10.0679   104.1555   -37.4865
  978.0000    99.3070     8.4388     2.5506     0.0675     0.0322    11.5652    10.0211   103.7736   -37.5089
  978.5000    98.4874     8.4377     2.5649     0.0576     0.0284    11.6464     9.9701   103.7736   -37.5226
  979.0000   100.0564     8.4367     2.5726     0.0482     0.0257    11.6135     9.8724   103.7736   -37.5137
  979.5000    99.8147     8.4356     2.5539     0.0591     0.0280    11.5417     9.7741   104.7266   -37.5051
  980.0000   100.5772     8.4345     2.5299     0.0729     0.0416    11.6007     9.6759   106.0880   -37.4966
  980.5000   103.3985     8.4334     2.5416     0.0674     0.0415    11.2523     9.5777   107.4495   -37.4880
  981.0000   106.2420     8.4324     2.5469     0.0634     0.0353    10.7916     9.4796   108.8109   -37.4795
  981.5000   106.7103     8.4313     2.5424     0.0666     0.0290    10.4034     9.3814   110.1723   -37.4710
  982.0000   104.5133     8.4302     2.5558     0.0546     0.0407    10.6515     9.2833   111.5338   -37.4624
  982.5000   100.7905     8.4292     2.5577     0.0589     0.0542    10.7726     9.1851   112.8952   -37.4539
  983.0000    97.9831     8.4281     2.5447     0.0646     0.0415    10.4395     9.0870   114.2567   -37.4454
  983.5000    96.4036     8.4269     2.5645     0.0558     0.0452    10.3946     8.9888   115.6181   -37.4368
  984.0000    99.6469     8.4265     2.5433     0.0696     0.0502    10.4215     8.8907   116.9795   -37.4283
  984.5000   103.2986     8.4407     2.5118     0.0861     0.0385    10.4461     8.7925   118.3410   -37.4198
  985.0000   102.0255     8.4595     2.5141     0.0839     0.0202    10.4754     8.6944   119.7024   -37.4112
  985.5000   100.8668     8.4728     2.5156     0.0871     0.0324    10.1642     8.5962   121.2347   -37.4027
  986.0000   103.0814     8.4849     2.5142     0.0890     0.0338     9.9284     8.4980   123.1656   -37.3942
  986.5000   101.7494     8.4855     2.5122     0.0816     0.0258     9.7776     8.3995   125.0965   -37.3856
  987.0000    98.9801     8.4859     2.5224     0.0763     0.0260     9.6436     8.3022   127.0275   -37.3771
  987.5000    99.0442     8.4862     2.5336     0.0711     0.0349     9.5271     8.2984   127.9326   -37.3686
  988.0000    96.4314     8.4866     2.5449     0.0709     0.0439     9.4782     8.3061   128.3981   -37.3600
  988.5000    94.6327     8.4870     2.5564     0.0622     0.0529     9.4148     8.3138   128.8636   -37.3515
  989.0000    99.1144     8.4874     2.5590     0.0575     0.0610     9.3148     8.3213   129.3291   -37.3429
  989.5000   100.5493     8.4878     2.5477     0.0605     0.0532     9.2153     8.3288   129.7946   -37.3344
  990.0000   101.2788     8.4882     2.5333     0.0719     0.0501     9.1158     8.3363   130.2601   -37.3268
  990.5000   102.7425     8.4886     2.5184     0.0833     0.0408     9.0285     8.3439   130.4369   -37.3267
  991.0000   103.0980     8.4889     2.5288     0.0760     0.0459     9.0392     8.3514   129.9404   -37.3267
  991.5000   101.1394     8.4893     2.5418     0.0668     0.0520     9.0512     8.3589   129.2737   -37.3267
  992.0000    99.0057     8.4897     2.5512     0.0575     0.0446     9.0625     8.3664   128.2097   -37.3267
  992.5000    97.0130     8.4901     2.5689     0.0447     0.0606     9.1015     8.3740   127.1457   -37.3267
  993.0000    97.3567     8.4905     2.5770     0.0476     0.0765     9.1517     8.3816   127.0651   -37.3269
  993.5000    96.7156     8.4909     2.5575     0.0526     0.0886     9.1656     8.3916   127.9679   -37.3276
  994.0000    98.7231     8.4913     2.5398     0.0620     0.0709     9.1435     8.2626   129.8766   -37.3259
  994.5000   102.5174     8.4916     2.5274     0.0741     0.0534     9.1071     8.0806   134.1325   -37.1588
  995.0000   100.3155     8.4920     2.5626     0.0602     0.0401     9.0413     7.8973   138.3884   -36.9712
  995.5000    98.5635     8.4924     2.5889     0.0377     0.0543     8.9726     7.7146   141.7577   -36.7836
  996.0000   103.0219     8.4928     2.5636     0.0529     0.0681     8.6673     7.5636   144.2403   -36.5962
  996.5000   103.4935     8.4932     2.5432     0.0663     0.0765     8.3305     7.4165   146.7229   -36.4088
  997.0000   101.8095     8.4936     2.5425     0.0671     0.0562     8.1337     7.2694   149.2078   -36.2216
  997.5000   100.0496     8.4940     2.5397     0.0693     0.0527     7.9908     7.1224   151.6938   -36.0342
  998.0000   101.4175     8.4944     2.5307     0.0722     0.0624     7.8491     6.9752   154.1780   -35.9405
  998.5000   101.2554     8.4948     2.5371     0.0708     0.0503     7.7077     6.9232   154.0714   -35.9406
  999.0000   100.7652     8.4951     2.5455     0.0649     0.0491     7.6614     6.9665   153.5747   -35.9405
  999.5000   103.5377     8.4955     2.5537     0.0590     0.0569     7.7498     7.0097   153.0780   -35.9406
 1000.0000   106.9134     8.4959     2.5492     0.0635     0.0646     7.8368     7.0533   152.5814   -35.9406
 1000.5000   105.2430     8.4963     2.5379     0.0686     0.0691     7.9192     7.0978   151.9770   -35.9406
 1001.0000   104.7055     8.4967     2.5266     0.0736     0.0622     7.9341     7.1132   151.3268   -35.9406
