~VERSION INFORMATION
 VERS.                2.0:   CWLS LOG ASCII STANDARD - VERSION 2.0
 WRAP.                 NO:   ONE LINE PER DEPTH STEP
~WELL INFORMATION
#MNEM.UNIT      DATA TYPE    INFORMATION
#----------   ------------   ------------------------------
 STRT.F            8.0000:   START DEPTH
 STOP.F          614.0000:   STOP DEPTH
 STEP.F            0.5000:   STEP LENGTH
 NULL.          -999.2500:   NO VALUE
 COMP. FENIX & SCISSON INC:   COMPANY
 WELL.       SX 10 #34-10:   WELL
 FLD .             TEAPOT:   FIELD
 LOC .      S10 T38N R78W:   LOCATION
 CNTY.            NATRONA:   COUNTY
 STAT.            WYOMING:   STATE
 CTRY. UNITED STATES OF AMERICA:   COUNTRY
 SRVC.            Unknown:   SERVICE COMPANY
 DATE.        29-JUN-1992:   LOGDATE
 API .       490251065800:   API NUMBER
~CURVE INFORMATION
#MNEM.UNIT       API CODE    CURVE DESCRIPTION
#----------   ------------   ------------------------------
 DEPT.F                  :   
 SPR .MV     05 010 01 00:   SPONTANEOUS POTENTIAL
 ILD .OHMM   05 120 46 00:   INDUCTION LOG DEEP
 SN  .OHMM   05 040 16 00:   SHORT NORMAL 16"
 GR  .GAPI   30 310 01 00:   GAMMA RAY
~PARAMETER INFORMATION
#MNEM.UNIT          VALUE    DESCRIPTION
#----------   ------------   ------------------------------
 PD  .                 GL:   PERMANENT DATUM
 EPD .F              5244:   ELEVATION PERMANENT DATUM
 LMF .                 KB:   LOG MEASURED FROM
 DMF .                 KB:   DRILLING MEASURED FROM
 EKB .F              5246:   KELLING BUSHING
 EGL .F              5244:   GROUND LEVEL
 DATE.        29-JUN-1992:   RUN DATE
 RUN .                  1:   RUN NUMBER
 DD  .F               620:   DEPTH DRILLER
 DL  .F               381:   DEPTH LOGGER
 BLI .F               381:   BOTTOM LOG INTERVAL
 TLI .F                 8:   TOP LOG INTERVAL
 BS  .IN            7.875:   BIT SIZE
 BSD .F               620:   BIT SIZE AT DEPTH
 DFT .                KCL:   DRILLING FLUID TYPE
 LUN .                509:   LOGGING UNIT NUMBER
 LUL .           GILLETTE:   LOGGING UNIT LOCATION
 ENGI.          O. METORF:   RECORDING ENGINEER
 WITN.         JEFF CLARK:   WITNESSED BY
 CLNT.            A2DTECH:   CLIENT CODE
 ORIG.           5" PRINT:   ORIGIN OF DATA
 UWI .       490251065800:   UNIQUE WELL ID
 DICO. A2D Technologies, Inc.:   DIGITIZING COMPANY
~OTHER INFORMATION
~A    DEPT     SPR        ILD         SN          GR  
# ...
  227.0000   -54.4346     7.0173     8.6063   112.7436
  227.5000   -54.4375     7.0650     8.6654   111.4992
  228.0000   -54.5907     7.2620     8.8463   108.8456
  228.5000   -54.4440     7.3114     8.9688   105.8471
  229.0000   -53.9971     7.4122     9.1560    99.2504
  229.5000   -53.8501     7.4626     9.1553    94.7526
  230.0000   -53.8530     7.6706     9.2182    97.7911
  230.5000   -53.7059     7.8843     9.4759    96.2519
  231.0000   -53.5592     7.9379     9.7408    97.4513
  231.5000   -53.4123     8.0473     9.8756    97.7511
  232.0000   -53.5654     8.1020     9.9434    94.1529
  232.5000   -53.5683     8.1010    10.0464    91.1544
  233.0000   -53.5712     8.0998    10.1502    97.1514
  233.5000   -53.5741     8.0985    10.1495    92.6537
  234.0000   -53.5398     8.0975    10.1488    95.3523
  234.5000   -53.4803     8.0406    10.1482    99.2504
  235.0000   -53.4208     7.9842    10.0776    96.1320
  235.5000   -53.3613     7.9282     9.9386    91.1544
  236.0000   -53.3018     7.8725     9.8694    89.9550
  236.5000   -53.2921     7.8714     9.8008    88.4558
  237.0000   -52.8456     7.8702     9.8001    95.6522
  237.5000   -52.6989     7.8149     9.7320    95.9520
  238.0000   -52.7018     7.6536     9.6643    95.6522
  238.5000   -52.8546     7.4956     9.4003    97.1514
  239.0000   -52.7304     7.4430     9.1751    99.5502
  239.5000   -52.7708     7.4418     9.1426   102.8486
  240.0000   -52.8113     7.3386     9.1420   106.4866
  240.5000   -52.8517     7.2370     9.0785   109.1454
  241.0000   -52.7194     7.1862     8.8916   106.7466
  241.5000   -52.4228     7.0866     8.7690   101.0495
  242.0000   -51.9763     7.0369     8.7684    98.6507
  242.5000   -51.8292     6.8916     8.5879    94.7526
  243.0000   -51.6822     6.7726     8.3532    96.8516
  243.5000   -51.5352     6.6556     8.2219    93.2534
  244.0000   -51.3881     6.5634     8.1406    90.8546
  244.5000   -51.0912     6.4279     7.9024    85.1574
  245.0000   -50.9445     6.3388     7.6864    87.2564
  245.5000   -50.9478     6.2943     7.4764    84.8576
  246.0000   -51.1006     6.3370     7.3225    87.2564
  246.5000   -51.4033     6.3800     7.2216    85.4573
  247.0000   -51.7061     6.4234     7.2711    83.6582
  247.5000   -52.3087     6.4670     7.3210    86.3819
  248.0000   -53.0612     6.5110     7.3712    91.7541
  248.5000   -53.5142     6.6007     7.4733    85.1574
  249.0000   -53.6674     6.6456     7.8431    87.2564
  249.5000   -53.9701     6.7139     7.9517    89.9550
  250.0000   -54.5727     6.7808     8.0063    87.8551
  250.5000   -54.7408     6.7697     8.1460    84.5510
  251.0000   -54.8757     6.7586     8.2295    90.8421
  251.5000   -55.0271     6.7475     8.3435    93.2365
  252.0000   -54.8786     6.7364     8.4007    92.3298
  252.5000   -54.7301     6.7315     8.4583    89.9252
  253.0000   -54.7315     6.7773     8.3995    93.5176
  253.5000   -54.7332     6.7296     8.3989    89.0126
  254.0000   -54.5849     6.7286     8.3405    91.1058
  254.5000   -54.7362     6.6814     8.2826    93.8001
  255.0000   -55.1874     6.5888     8.1684    87.4961
  255.5000   -55.7886     6.4975     8.0002    84.7856
  256.0000   -55.7900     6.4075     7.9446    84.4846
  256.5000   -55.7915     6.3187     7.9440    84.4788
  257.0000   -55.7931     6.1244     7.8887    84.1732
  257.5000   -55.9446     5.9772     7.8339    82.0684
  258.0000   -56.0960     5.9764     7.6727    82.9622
  258.5000   -56.3973     5.9344     7.6193    87.4542
  259.0000   -56.3987     5.9336     7.5403    87.7483
  259.5000   -56.4002     5.8514     7.4619    83.5431
  260.0000   -56.0270     5.8505     7.4614    90.7338
  260.5000   -55.8037     5.8497     7.4096    89.8284
  261.0000   -55.8052     5.8894     7.4604    88.0236
  261.5000   -55.8066     5.9295     7.4599    87.2499
  262.0000   -55.9580     5.9698     7.5111    96.7077
  262.5000   -56.1094     6.0940     7.5889    93.2530
  263.0000   -56.2607     6.1355     7.7205    91.8985
  263.5000   -56.4123     6.1346     7.7200    95.7893
  264.0000   -56.4139     6.0914     7.7195   101.7806
  264.5000   -56.4153     6.0906     7.7189    99.0761
  265.0000   -56.1169     6.1320     7.7184    97.5314
  265.5000   -55.9684     6.1311     7.7178    97.1617
  266.0000   -55.9699     6.1304     7.7173    98.1578
  266.5000   -56.4213     6.1295     7.7168   100.8521
  267.0000   -56.7228     6.1285     7.8779    95.7475
  267.5000   -56.8741     6.1277     7.9320   102.6383
  268.0000   -57.0255     6.1269     7.9864    94.5365
  268.5000   -57.0269     6.1261     7.9858    90.0330
  269.0000   -57.0284     6.1253     7.9852    93.4214
  269.5000   -57.0300     6.0822     7.9847    98.1160
  270.0000   -57.0316     6.0813     7.9292   100.5090
  270.5000   -57.0331     6.0805     7.9287   100.8045
  271.0000   -57.1844     6.1218     7.9281    99.2980
  271.5000   -57.1859     6.1210     7.9276   100.1918
  272.0000   -57.0374     6.1202     7.9271   101.4092
  272.5000   -57.0388     6.1194     7.9264   102.2792
  273.0000   -57.0405     6.1185     7.9259   102.5733
  273.5000   -57.0421     6.1175     7.9254   102.2662
  274.0000   -57.0435     6.0746     7.9248   101.6607
  274.5000   -57.0450     6.0738     7.8698   101.0553
  275.0000   -57.1963     6.0730     7.8421    98.3508
  275.5000   -57.1978     6.0722     7.7606    94.2625
  276.0000   -57.1994     6.0713     7.7066    89.6422
  276.5000   -57.0511     5.9871     7.7061    88.4370
  277.0000   -57.0526     5.9450     7.7056    89.6306
  277.5000   -57.0540     5.9033     7.7051    90.8257
  278.0000   -57.0554     5.9025     7.7045    87.8200
  278.5000   -57.2068     5.9018     7.7040    85.7152
  279.0000   -57.3584     5.8602     7.6504    87.5071
  279.5000   -57.3598     5.8595     7.5449    89.6003
  280.0000   -57.5113     5.8182     7.4409    94.3921
  280.5000   -57.3629     5.7774     7.4404   100.3834
  281.0000   -57.3643     5.7766     7.4399   101.0736
  281.5000   -57.3657     5.8159     7.4394    97.6731
  282.0000   -57.2173     5.8152     7.4388    97.3675
  282.5000   -57.3688     5.7943     7.3870    98.8596
  283.0000   -57.3704     5.6549     7.2852    99.7533
  283.5000   -57.3719     5.5766     7.2345   101.2468
  284.0000   -57.3733     5.4615     7.0856    97.9427
  284.5000   -57.2248     5.4231     7.0121   102.4347
  285.0000   -57.2263     5.3480     6.9874   103.9281
  285.5000   -57.2279     5.3104     6.9869   103.9209
  286.0000   -57.2295     5.3096     6.9864   104.2164
  286.5000   -57.2310     5.3457     6.9860   104.8104
  287.0000   -57.0825     5.3820     7.0339   103.9036
  287.5000   -56.7841     5.4186     7.0578   100.2996
  288.0000   -56.4857     5.4555     7.0817   105.3913
  288.5000   -56.4871     5.4547     7.1303   112.4495
  289.0000   -56.4888     5.5490     7.1298   109.5762
  289.5000   -56.6403     5.5673     7.1293   104.7728
  290.0000   -56.6417     5.5666     7.1288    99.0699
  290.5000   -56.6432     5.5658     7.0793    96.3655
  291.0000   -56.4947     5.5268     7.0544    94.2607
  291.5000   -56.4961     5.4502     7.0295    96.9894
  292.0000   -56.4228     5.4494     7.0290    99.3452
  292.5000   -56.4994     5.4486     7.0286   100.5403
  293.0000   -56.6507     5.4479     6.9797    99.0338
  293.5000   -57.1020     5.3354     6.8835    99.3279
  294.0000   -57.1034     5.2615     6.8593   105.9202
  294.5000   -57.2548     5.2245     6.8350    99.6162
  295.0000   -57.1065     5.1521     6.6944   106.2871
  295.5000   -57.1081     5.1513     6.6478   106.8010
  296.0000   -57.1095     5.1151     6.5110   106.7938
  296.5000   -57.1110     5.0095     6.3331   106.4882
  297.0000   -57.2623     4.8723     6.2028   103.1840
  297.5000   -57.2638     4.7063     6.0961    99.8799
  298.0000   -57.2652     4.6091     5.9500   103.7722
  298.5000   -57.2668     4.5767     5.8275   100.7665
  299.0000   -57.2685     4.5760     5.8272    98.9630
  299.5000   -56.9701     4.5754     5.8268   105.2527
