~VERSION INFORMATION
 VERS.                2.0:   CWLS LOG ASCII STANDARD - VERSION 2.0
 WRAP.                 NO:   ONE LINE PER DEPTH STEP
~WELL INFORMATION
#MNEM.UNIT      DATA TYPE    INFORMATION
#----------   ------------   ------------------------------
 STRT.F           95.0000:   START DEPTH
 STOP.F          922.0000:   STOP DEPTH
 STEP.F            0.5000:   STEP LENGTH
 NULL.          -999.2500:   NO VALUE
 COMP.          U.S. NAVY:   COMPANY
 WELL. RES 3 TEAPOT DOM #57S-11:   WELL
 FLD .             TEAPOT:   FIELD
 LOC .      S11 T38N R78W:   LOCATION
 CNTY.            NATRONA:   COUNTY
 STAT.            WYOMING:   STATE
 CTRY. UNITED STATES OF AMERICA:   COUNTRY
 SRVC.       Schlumberger:   SERVICE COMPANY
 DATE.        02-AUG-1961:   LOGDATE
 API .       490250632800:   API NUMBER
~CURVE INFORMATION
#MNEM.UNIT       API CODE    CURVE DESCRIPTION
#----------   ------------   ------------------------------
 DEPT.F                  :   
 GR  .GAPI   30 310 01 00:   GAMMA RAY
 SPR .MV     05 010 01 00:   SPONTANEOUS POTENTIAL FROM RES.
 CILD.MMHO   05 110 46 00:   CONDUCTIVITY INDUCTION LOG DEEP
 ASN .OHMM   05 041 16 00:   AMPLIFIED SHORT NORMAL 16"
 ILD .OHMM   05 120 46 00:   INDUCTION LOG DEEP
~PARAMETER INFORMATION
#MNEM.UNIT          VALUE    DESCRIPTION
#----------   ------------   ------------------------------
 PD  .                 GL:   PERMANENT DATUM
 EPD .F              5213:   ELEVATION PERMANENT DATUM
 LMF .                 KB:   LOG MEASURED FROM
 DAPD.F                 6:   FEET ABOVE PERMANENT DATUM
 DMF .                 KB:   DRILLING MEASURED FROM
 EKB .F              5219:   KELLING BUSHING
 EGL .F              5213:   GROUND LEVEL
 DATE.             8-2-61:   RUN DATE
 RUN .                  1:   RUN NUMBER
 DD  .F               920:   DEPTH DRILLER
 DL  .F               921:   DEPTH LOGGER
 BLI .F               920:   BOTTOM LOG INTERVAL
 TLI .F               100:   TOP LOG INTERVAL
 BS  .IN             6.75:   BIT SIZE
 BSD .F               920:   BIT SIZE AT DEPTH
 DFT .       OIL EMULSION:   DRILLING FLUID TYPE
 DFD .                9.2:   DRILLING FLUID DENSITY
 DFV .                 55:   DRILLING FLUID VISCOSITY
 MFSS.                  M:   MUD FILTRATE SAMPLE SOURCE
 MCSS.                  M:   MUD CAKE SAMPLE SOURCE
 RMB .OHMM            .75:   RESISTIVITY MUD AT BHT
 BHT .F                80:   BOTTOM HOLE TEMPERATURE
 TCS .HRS               1:   TIME CURCULATED STOPPED
 MRT .F                80:   MAXIMUM RECORDED TEMPERATURE
 LUN .               2552:   LOGGING UNIT NUMBER
 LUL .                RIV:   LOGGING UNIT LOCATION
 ENGI.             RANDLE:   RECORDING ENGINEER
 WITN.          VORGENSEN:   WITNESSED BY
 CLNT.            A2DTECH:   CLIENT CODE
 ORIG.       2", 5" PRINT:   ORIGIN OF DATA
 UWI .       490250632800:   UNIQUE WELL ID
 DICO. A2D Technologies, Inc.:   DIGITIZING COMPANY
~OTHER INFORMATION
~A   DEPT       GR        SPR       CILD        ASN        ILD   
# ...
  400.0000  -999.2500   -53.3100    62.6253    14.2699    13.7043
  400.5000  -999.2500   -53.4361    66.3821    13.9310    13.3309
  401.0000  -999.2500   -53.5837    68.6373    13.3266    13.1125
  401.5000  -999.2500   -53.5610    82.1643    12.6754    12.0510
  402.0000  -999.2500   -53.1423    92.9860    11.7736    10.4310
  402.5000  -999.2500   -52.7738   103.8756    10.2705     9.0659
  403.0000  -999.2500   -52.3966   114.5616     9.7370     7.4771
  403.5000  -999.2500   -52.0252   125.2716     8.8477     6.9799
  404.0000  -999.2500   -51.6492   136.0311     8.6012     6.6228
  404.5000  -999.2500   -51.2775   149.5704     8.2725     6.1935
  405.0000  -999.2500   -50.9095   152.6384     7.9872     5.9381
  405.5000  -999.2500   -50.7608   156.2397     7.9045     6.0031
  406.0000  -999.2500   -50.7268   156.8294     7.9094     6.0167
  406.5000  -999.2500   -50.6778   156.2124     7.9115     6.0595
  407.0000  -999.2500   -50.6361   155.4108     7.9286     6.0583
  407.5000  -999.2500   -50.5919   154.6092     7.9379     6.0788
  408.0000  -999.2500   -50.5452   153.8076     7.9368     6.1091
  408.5000  -999.2500   -50.5066   152.8056     7.8325     6.1348
  409.0000  -999.2500   -50.4510   152.8056     7.7449     6.1625
  409.5000  -999.2500   -50.4309   152.3046     7.6571     6.1887
  410.0000  -999.2500   -50.2349   151.8036     7.5553     6.2158
  410.5000  -999.2500   -49.9421   149.7996     7.5532     6.2432
  411.0000  -999.2500   -49.6809   148.9229     7.5793     6.2762
  411.5000  -999.2500   -49.6088   147.7538     7.6787     6.3706
  412.0000  -999.2500   -49.7936   146.5848     7.7945     6.4552
  412.5000  -999.2500   -49.9496   145.4158     7.9157     6.5534
  413.0000  -999.2500   -50.1077   144.2468     7.9922     6.5568
  413.5000  -999.2500   -50.2797   142.7856     7.9873     6.4789
  414.0000  -999.2500   -50.3649   143.8450     7.9183     6.4141
  414.5000  -999.2500   -50.1011   146.5229     7.8272     6.3461
  415.0000  -999.2500   -49.8482   148.6575     7.7466     6.2792
  415.5000  -999.2500   -49.5900   150.7979     7.6648     6.2131
  416.0000  -999.2500   -49.3396   152.9520     7.5852     6.1437
  416.5000  -999.2500   -49.0804   155.1136     7.4963     6.0812
  417.0000  -999.2500   -48.9891   157.2767     7.4739     6.0024
  417.5000  -999.2500   -48.9980   158.9004     7.4602     5.9622
  418.0000  -999.2500   -48.9979   158.3166     7.4475     5.9963
  418.5000  -999.2500   -48.9891   156.8136     7.4471     6.0284
  419.0000  -999.2500   -49.0841   155.8116     7.5232     6.0480
  419.5000  -999.2500   -49.2571   153.9329     7.6044     6.1629
  420.0000  -999.2500   -49.4034   151.4279     7.6924     6.3427
  420.5000  -999.2500   -49.5623   148.9229     7.7858     6.4919
  421.0000  -999.2500   -49.7130   146.4178     7.8720     6.6542
  421.5000  -999.2500   -49.8711   143.9128     7.9622     6.8094
  422.0000  -999.2500   -49.9962   141.4078     8.0500     6.9687
  422.5000  -999.2500   -49.9767   138.9028     8.1394     7.1400
  423.0000  -999.2500   -49.9264   135.7715     8.2273     7.1937
  423.5000  -999.2500   -49.8844   134.9622     8.3173     7.2304
  424.0000  -999.2500   -49.8374   133.8831     8.4118     7.2686
  424.5000  -999.2500   -49.8024   132.8041     8.4581     7.3064
  425.0000  -999.2500   -49.7994   131.7250     8.5042     7.3428
  425.5000  -999.2500   -49.8004   130.6459     8.5481     7.3830
  426.0000  -999.2500   -49.7986   129.5668     8.5906     7.4157
  426.5000  -999.2500   -49.8016   128.7575     8.6392     7.4668
  427.0000  -999.2500   -49.7959   127.7555     8.6727     7.3976
  427.5000  -999.2500   -49.8073   128.7575     8.6587     7.2715
  428.0000  -999.2500   -49.7261   129.9953     8.5984     7.1719
  428.5000  -999.2500   -49.5832   131.6456     8.5674     7.0570
  429.0000  -999.2500   -49.4484   133.2960     8.3736     6.9570
  429.5000  -999.2500   -49.4023   134.9464     8.2418     6.8320
  430.0000  -999.2500   -49.5106   136.5967     8.1571     6.7569
  430.5000  -999.2500   -49.6022   138.2471     8.0437     6.7652
  431.0000  -999.2500   -49.7093   139.8974     7.9737     6.7628
  431.5000  -999.2500   -49.8085   141.5478     7.9314     6.7575
  432.0000  -999.2500   -49.9090   143.2866     7.8596     6.7136
  432.5000  -999.2500   -50.0097   143.7876     7.8205     6.6664
  433.0000  -999.2500   -50.1094   143.7876     7.8454     6.6873
  433.5000  -999.2500   -50.1998   143.7876     7.8684     6.7352
  434.0000  -999.2500   -50.1581   142.7856     7.8569     6.7723
  434.5000  -999.2500   -50.0634   142.2155     7.8499     6.8140
  435.0000  -999.2500   -49.9819   141.4553     7.8682     6.8533
  435.5000  -999.2500   -49.8930   140.6952     7.9363     6.8938
  436.0000  -999.2500   -49.8103   139.9350     8.0161     6.9339
  436.5000  -999.2500   -49.7200   139.1749     8.0961     6.9740
  437.0000  -999.2500   -49.6427   138.4148     8.1622     7.0144
  437.5000  -999.2500   -49.5065   137.6546     8.1619     7.0578
  438.0000  -999.2500   -49.3171   136.8945     8.1366     7.0740
  438.5000  -999.2500   -49.1459   136.1343     8.1122     7.0876
  439.0000  -999.2500   -48.9602   135.3742     8.0875     7.1012
  439.5000  -999.2500   -48.8153   134.6141     8.0642     7.1143
  440.0000  -999.2500   -48.8683   133.8539     8.0459     7.1287
  440.5000  -999.2500   -48.9424   133.0938     8.1482     7.1405
  441.0000  -999.2500   -49.0117   132.3336     8.2754     7.1572
  441.5000  -999.2500   -49.0837   131.6737     8.4098     7.1690
  442.0000  -999.2500   -49.1530   131.6614     8.5018     7.2380
  442.5000  -999.2500   -49.2262   133.7354     8.5146     7.2432
  443.0000  -999.2500   -49.2932   136.5135     8.4339     7.0401
  443.5000  -999.2500   -49.3716   139.2948     8.3094     6.8658
  444.0000  -999.2500   -49.3770   142.0673     8.1666     6.6841
  444.5000  -999.2500   -49.3152   144.8239     7.9515     6.4921
  445.0000  -999.2500   -49.2658   147.5678     7.7594     6.4206
  445.5000  -999.2500   -49.2102   150.3107     7.6730     6.3625
  446.0000  -999.2500   -49.1581   153.7563     7.5952     6.3047
  446.5000  -999.2500   -49.1040   154.7692     7.5820     6.2478
  447.0000  -999.2500   -49.0509   155.2946     7.5855     6.1900
  447.5000  -999.2500   -48.9964   155.8204     7.5869     6.1334
  448.0000  -999.2500   -48.9301   156.8855     7.6268     6.0692
  448.5000  -999.2500   -48.8636   157.7315     7.6424     6.0605
  449.0000  -999.2500   -48.7961   158.5254     7.6076     6.0609
  449.5000  -999.2500   -48.7306   159.3604     7.5798     6.0631
  450.0000  -999.2500   -48.6605   160.1954     7.5497     6.0566
  450.5000  -999.2500   -48.6120   160.8216     7.5208     6.1072
  451.0000  -999.2500   -48.7269   159.8196     7.4882     6.1856
  451.5000  -999.2500   -48.8636   158.8176     7.4924     6.2993
  452.0000  -999.2500   -48.9966   155.8116     7.5652     6.4256
  452.5000  -999.2500   -49.1295   150.6227     7.7453     6.5342
  453.0000  -999.2500   -49.2656   146.4715     7.9057     6.6838
  453.5000  -999.2500   -49.3941   142.3203     8.0653     6.8824
  454.0000  -999.2500   -49.5393   138.1692     8.2286     7.0609
  454.5000  -999.2500   -49.5962   134.0180     8.3844     7.2354
  455.0000  -999.2500   -49.4600   129.8669     8.5706     7.4643
  455.5000  -999.2500   -49.3183   126.2525     8.5528     7.6314
  456.0000  -999.2500   -49.1743   126.7535     8.5020     7.4953
  456.5000  -999.2500   -49.0313   127.7555     8.5365     7.3662
  457.0000  -999.2500   -48.8889   130.2605     8.6004     7.1992
  457.5000  -999.2500   -48.7436   131.7635     8.5776     7.0541
  458.0000  -999.2500   -48.6129   134.6025     8.4541     6.9011
  458.5000  -999.2500   -48.6493   138.3879     8.3530     6.7504
  459.0000  -999.2500   -48.7084   142.1732     8.2398     6.5873
  459.5000  -999.2500   -48.7693   145.9586     8.1276     6.5160
  460.0000  -999.2500   -48.7962   148.7976     7.8616     6.4427
  460.5000  -999.2500   -48.7337   152.3046     7.7885     6.3822
