~VERSION INFORMATION
 VERS.                2.0:   CWLS LOG ASCII STANDARD - VERSION 2.0
 WRAP.                 NO:   ONE LINE PER DEPTH STEP
~WELL INFORMATION
#MNEM.UNIT      DATA TYPE    INFORMATION
#----------   ------------   ------------------------------
 STRT.F           22.5000:   START DEPTH
 STOP.F          644.0000:   STOP DEPTH
 STEP.F            0.5000:   STEP LENGTH
 NULL.          -999.2500:   NO VALUE
 COMP.    FELIX & SCISION:   COMPANY
 WELL.     NPR #3 #14-S-2:   WELL
 FLD .             TEAPOT:   FIELD
 LOC .       S2 T38N R78W:   LOCATION
 CNTY.            NATRONA:   COUNTY
 STAT.            WYOMING:   STATE
 CTRY. UNITED STATES OF AMERICA:   COUNTRY
 SRVC.           BIRDWELL:   SERVICE COMPANY
 DATE.        18-JAN-1978:   LOGDATE
 API .       490251055600:   API NUMBER
~CURVE INFORMATION
#MNEM.UNIT       API CODE    CURVE DESCRIPTION
#----------   ------------   ------------------------------
 DEPT.F                  :   
 CALD.IN     45 280 60 00:   CALIPER FROM DENSITY LOG
 CORR.G/C3   45 356 01 00:   DENSITY CORRECTION
 DPHI.DEC    45 890 12 00:   DENSITY POROSITY SANDSTONE
 GRD .GAPI   45 310 01 00:   GAMMA RAY FROM DENSITY LOG
 RHOB.G/C3   45 350 01 00:   BULK DENSITY
 ILD .OHMM   05 120 46 00:   INDUCTION LOG DEEP
 SPR .MV     05 010 01 00:   SPONTANEOUS POTENTIAL FROM RES.
 SN  .OHMM   05 040 16 00:   SHORT NORMAL 16"
~PARAMETER INFORMATION
#MNEM.UNIT          VALUE    DESCRIPTION
#----------   ------------   ------------------------------
 PD  .                 GL:   PERMANENT DATUM
 EPD .F              5121:   ELEVATION PERMANENT DATUM
 LMF .                 KB:   LOG MEASURED FROM
 DAPD.F                 4:   FEET ABOVE PERMANENT DATUM
 DMF .                 KB:   DRILLING MEASURED FROM
 EKB .F              5126:   KELLING BUSHING
 EGL .F              5121:   GROUND LEVEL
 DATE.          1-18-1978:   RUN DATE
 RUN .                  1:   RUN NUMBER
 DD  .F               645:   DEPTH DRILLER
 DL  .F               648:   DEPTH LOGGER
 BLI .F               642:   BOTTOM LOG INTERVAL
 TLI .F                39:   TOP LOG INTERVAL
 CS  .IN            8.625:   CASING SIZE
 CBD .F                39:   CASING BOTTOM DRILLER
 BS  .IN            7.875:   BIT SIZE
 BSD .F               645:   BIT SIZE AT DEPTH
 DFT .                KCL:   DRILLING FLUID TYPE
 DFD .                8.8:   DRILLING FLUID DENSITY
 DFV .                 34:   DRILLING FLUID VISCOSITY
 DFPH.                9.5:   DRILLING FLUID PH
 DFL .                6.4:   DRILLING FLUID LOSS
 MSS .                PIT:   MUD SAMPLE SOURCE
 RMS .OHMM            .38:   RESISTIVITY MUD SAMPLE
 MST .F                43:   MUD SAMPLE TEMPERATURE
 RMF .OHMM            .26:   RESISTIVITY MUD FILTRATE SAMPLE
 MFST.F                70:   MUD FILTRATE SAMPLE TEMPERATURE
 RMC .OHMM            .42:   RESISTIVITY MUD CAKE
 MCST.F                70:   MUD CAKE SAMPLE TEMPERATURE
 MFSS.           MEASURED:   MUD FILTRATE SAMPLE SOURCE
 MCSS.           MEASURED:   MUD CAKE SAMPLE SOURCE
 RMB .OHMM            .24:   RESISTIVITY MUD AT BHT
 BHT .F                69:   BOTTOM HOLE TEMPERATURE
 TCS .HRS               2:   TIME CURCULATED STOPPED
 MRT .F                69:   MAXIMUM RECORDED TEMPERATURE
 LUN .               2958:   LOGGING UNIT NUMBER
 LUL .             CASPER:   LOGGING UNIT LOCATION
 ENGI.           REYNOLDS:   RECORDING ENGINEER
 WITN.         HARRINGTON:   WITNESSED BY
 CLNT.            A2DTECH:   CLIENT CODE
 ORIG.      2" , 5" PRINT:   ORIGIN OF DATA
 UWI .       490251055600:   UNIQUE WELL ID
 DICO. A2D Technologies, Inc.:   DIGITIZING COMPANY
~OTHER INFORMATION
~A   DEPT     CALD       CORR       DPHI         GRD      RHOB        ILD        SPR         SN   
# ...
  306.0000     7.9237     0.0595     0.1282    94.5542     2.4382     8.6426   -25.6945     8.0863
  306.5000     7.8947     0.0693     0.1279    94.5645     2.4324     8.7069   -25.9921     8.1462
  307.0000     7.8804     0.0799     0.1270    94.7234     2.4325     8.7716   -26.4051     8.1501
  307.5000     7.8810     0.0829     0.1224    94.5825     2.4392     8.7758   -26.5480     8.1541
  308.0000     7.8816     0.0807     0.1146    93.2581     2.4656     8.7800   -26.5406     8.1018
  308.5000     7.8822     0.0739     0.1131    90.4452     2.4687     8.7843   -26.3859     8.1058
  309.0000     7.8828     0.0626     0.1101    90.1558     2.4740     8.7885   -26.2312     8.1105
  309.5000     7.8834     0.0491     0.1103    89.8715     2.4755     8.7320   -26.0765     8.1143
  310.0000     7.8988     0.0446     0.1136    88.3959     2.4665     8.7372   -26.2195     8.1182
  310.5000     7.8994     0.0438     0.1181    83.0571     2.4575     8.6800   -26.3638     8.1221
  311.0000     7.9149     0.0454     0.1184    82.7676     2.4561     8.5647   -26.6541     8.1260
  311.5000     7.9304     0.0461     0.1199    83.8206     2.4538     8.5097   -27.0946     8.0729
  312.0000     7.9458     0.0477     0.1217    85.0196     2.4516     8.4550   -27.0887     7.9670
  312.5000     7.9464     0.0545     0.1223    85.1785     2.4501     8.5189   -27.2317     7.8605
  313.0000     7.9470     0.0628     0.1214    85.6346     2.4509     8.5230   -27.2258     7.8652
  313.5000     7.9476     0.0704     0.1180    86.0907     2.4532     8.5271   -27.6663     7.8690
  314.0000     7.9482     0.0772     0.1138    86.8479     2.4691     8.5312   -28.5533     7.8727
  314.5000     7.9637     0.0787     0.1105    87.6161     2.4804     8.5946   -29.5890     7.8214
  315.0000     7.9663     0.0787     0.1089    88.3655     2.4804     8.5987   -30.1784     7.8260
  315.5000     7.9798     0.0789     0.1092    88.6582     2.4790     8.6626   -30.0237     7.8298
  316.0000     7.9654     0.0804     0.1098    88.5196     2.4760     8.6668   -30.0178     7.8335
  316.5000     7.9513     0.0833     0.1110    87.3438     2.4738     8.6100   -30.0119     7.8916
  317.0000     7.9519     0.0849     0.1116    86.3140     2.4716     8.5547   -30.1548     7.8954
  317.5000     7.9525     0.0864     0.1116    85.7299     2.4716     8.5008   -30.4465     7.8992
  318.0000     7.9381     0.0924     0.1115    83.8086     2.4716     8.5049   -30.9028     7.9030
  318.5000     7.9388     0.0962     0.1115    83.3706     2.4717     8.5089   -31.5198     7.9068
  319.0000     7.9394     0.0985     0.1115    83.9778     2.4717     8.3959   -32.8929     7.8560
  319.5000     7.9101     0.1001     0.1118    85.9197     2.4710     8.4000   -33.3991     7.7529
  320.0000     7.8958     0.1008     0.1118    86.5244     2.4703     8.2884   -33.3918     7.7032
  320.5000     7.8965     0.0978     0.1127    86.5347     2.4696     8.1783   -33.6835     7.6529
  321.0000     7.8971     0.0948     0.1138    86.8422     2.4680     8.1824   -34.5705     7.6575
  321.5000     7.8827     0.0926     0.1150    87.0011     2.4650     8.0745   -36.3503     7.5561
  322.0000     7.8834     0.0911     0.1174    87.1600     2.4582     8.0784   -35.4515     7.5077
  322.5000     7.8840     0.0904     0.1198    87.4675     2.4530     8.0255   -30.0885     7.4587
  323.0000     7.8697     0.0927     0.1222    87.9235     2.4457     7.9740   -26.9576     7.3599
  323.5000     7.8553     0.0972     0.1240    88.0824     2.4427     7.9788   -25.9100     7.2633
  324.0000     7.8560     0.0987     0.1228    86.4583     2.4548     7.9265   -25.9042     7.1178
  324.5000     7.8416     0.0988     0.1212    83.6454     2.4556     7.7682   -26.1959     7.0722
  325.0000     7.8125     0.0980     0.1212    83.2591     2.4549     7.5074   -26.7852     6.9786
  325.5000     7.7685     0.0973     0.1218    86.6378     2.4534     7.3566   -27.3760     6.8862
  326.0000     7.7392     0.0973     0.1221    88.2826     2.4504     7.3085   -20.9634     6.7949
  326.5000     7.7249     0.1004     0.1224    88.2929     2.4527     7.2615   -20.9202     6.6130
  327.0000     7.7106     0.0996     0.1227    88.3032     2.4535     7.2659   -20.8771     6.3903
  327.5000     7.6963     0.0981     0.1229    89.2125     2.4535     7.3199   -20.8339     6.1743
  328.0000     7.6821     0.0951     0.1229    90.2556     2.4521     7.3234   -20.7908     6.0959
  328.5000     7.6828     0.0929     0.1236    90.1172     2.4476     7.3269   -20.7477     6.1067
  329.0000     7.6834     0.0882     0.1273    90.2764     2.4431     7.3304   -20.7045     6.3168
  329.5000     7.6839     0.0829     0.1319    90.2868     2.4371     7.3339   -20.6614     6.5872
  330.0000     7.6845     0.0772     0.1340    90.0021     2.4364     7.3374   -20.6182     6.8218
  330.5000     7.7149     0.0742     0.1364    88.0807     2.4289     7.3410   -20.5751     7.0162
  331.0000     7.7304     0.0727     0.1385    87.4967     2.4207     7.3445   -20.5320     7.1171
  331.5000     7.7756     0.0735     0.1387    87.8042     2.4200     7.3481   -20.4888     7.1205
  332.0000     7.8060     0.0750     0.1378    89.0032     2.4215     7.4027   -20.4457     7.1239
  332.5000     7.8363     0.0758     0.1357    90.6479     2.4261     7.4063   -20.4026     7.1767
  333.0000     7.8383     0.0765     0.1321    90.6583     2.4329     7.4621   -20.3594     7.2299
  333.5000     7.8542     0.0758     0.1257    88.8855     2.4427     7.4142   -20.3163     7.2333
  334.0000     7.8679     0.0743     0.1233    84.8839     2.4495     7.4177   -20.4277     7.2368
  334.5000     7.8833     0.0713     0.1230    87.2716     2.4503     7.3692   -21.3146     7.2402
  335.0000     7.8690     0.0676     0.1233    90.4023     2.4496     7.3736   -21.4590     7.2437
  335.5000     7.8698     0.0653     0.1229    89.9669     2.4504     7.3771   -21.4517     7.1973
  336.0000     7.8703     0.0646     0.1214    89.5314     2.4535     7.3289   -21.4458     7.2007
  336.5000     7.8709     0.0639     0.1178    88.6502     2.4565     7.2324   -21.4399     7.1546
  337.0000     7.8715     0.0646     0.1172    87.0260     2.4581     7.1851   -21.5843     7.1071
  337.5000     7.8721     0.0654     0.1157    84.8075     2.4606     7.0415   -21.4281     6.9663
  338.0000     7.8577     0.0639     0.1114    81.9946     2.4754     6.8525   -21.4222     6.8206
  338.5000     7.8584     0.0602     0.1042    83.7880     2.4950     6.7148   -21.2675     6.5901
  339.0000     7.8739     0.0557     0.1030    87.9588     2.5018     6.6248   -21.2616     6.3343
  339.5000     7.8745     0.0489     0.1048    88.1177     2.5026     6.5368   -21.2557     5.9555
  340.0000     7.8751     0.0437     0.1078    89.6138     2.4868     6.4948   -21.2498     5.6382
  340.5000     7.8757     0.0422     0.1095    89.9213     2.4763     6.4537   -21.2439     5.4872
  341.0000     7.8763     0.0422     0.1098    90.2298     2.4741     6.4570   -21.2380     5.4898
  341.5000     7.8769     0.0422     0.1101    91.1436     2.4764     6.5050   -21.2321     5.5688
  342.0000     7.8774     0.0415     0.1047    91.8839     2.4832     6.6447   -21.2222     5.8474
  342.5000     7.8929     0.0408     0.1028    90.0420     2.5006     6.8354   -20.6250     6.3555
  343.0000     7.9084     0.0408     0.1031    85.6306     2.5014     7.0818   -20.3952     6.8131
  343.5000     7.9239     0.0408     0.1037    84.6340     2.5014     7.3881   -20.2159     7.0072
  344.0000     7.9245     0.0423     0.1046    89.1045     2.4924     7.6544   -20.0713     7.1080
  344.5000     7.9399     0.0446     0.1061    90.8953     2.4849     7.8755   -20.2070     7.3105
  345.0000     7.9405     0.0446     0.1064    89.1251     2.4857     8.0349   -20.1932     7.4671
  345.5000     7.9560     0.0447     0.1060    88.8357     2.4857     8.0946   -20.1798     7.6799
  346.0000     7.9715     0.0454     0.1066    88.8486     2.4843     8.1548   -20.1638     7.8443
