~VERSION INFORMATION
 VERS.                2.0:   CWLS LOG ASCII STANDARD - VERSION 2.0
 WRAP.                 NO:   ONE LINE PER DEPTH STEP
~WELL INFORMATION
#MNEM.UNIT      DATA TYPE    INFORMATION
#----------   ------------   ------------------------------
 STRT.F            0.0000:   START DEPTH
 STOP.F          384.0000:   STOP DEPTH
 STEP.F            0.5000:   STEP LENGTH
 NULL.          -999.2500:   NO VALUE
 COMP. DEPARTMENT OF ENERGY:   COMPANY
 WELL. NPR 3 #65-15 SX3 C4:   WELL
 FLD .        TEAPOT EAST:   FIELD
 LOC .       S3 T38N R78W:   LOCATION
 CNTY.            NATRONA:   COUNTY
 STAT.            WYOMING:   STATE
 CTRY. UNITED STATES OF AMERICA:   COUNTRY
 SRVC.      Dresser Atlas:   SERVICE COMPANY
 DATE.        02-JUL-1985:   LOGDATE
 API .       490251134600:   API NUMBER
~CURVE INFORMATION
#MNEM.UNIT       API CODE    CURVE DESCRIPTION
#----------   ------------   ------------------------------
 DEPT.F                  :   
 CALD.IN     45 280 60 00:   CALIPER FROM DENSITY LOG
 CORR.G/C3   45 356 01 00:   DENSITY CORRECTION
 DEN .G/C3   45 350 01 00:   COMPENSATED BULK DENSTIY
 NPOR.DEC    42 890 03 00:   NEUTRON POROSITY SANDSTONE
 PORD.DEC    45 890 12 00:   POROSITY DENSITY SANDSTONE
 GRR .GAPI   07 310 01 00:   GAMMA RAY
 RILD.OHMM   07 120 46 00:   INDUCTION LOG DEEP RESISTIVITY
 RILM.OHMM   07 120 44 00:   RESITIVITY LONG MEDIUM
~PARAMETER INFORMATION
#MNEM.UNIT          VALUE    DESCRIPTION
#----------   ------------   ------------------------------
 PD  .                 GL:   PERMANENT DATUM
 EPD .F              5162:   ELEVATION PERMANENT DATUM
 LMF .                 GL:   LOG MEASURED FROM
 DMF .                 GL:   DRILLING MEASURED FROM
 EGL .F              5162:   GROUND LEVEL
 DATE.        02-JUL-1985:   RUN DATE
 RUN .                  1:   RUN NUMBER
 DD  .F               399:   DEPTH DRILLER
 DL  .F               388:   DEPTH LOGGER
 BLI .F               380:   BOTTOM LOG INTERVAL
 CS  .IN                7:   CASING SIZE
 CBD .F                80:   CASING BOTTOM DRILLER
 CBL .F                68:   CASING BOTTOM LOGGER
 BS  .IN            4.875:   BIT SIZE
 BSD .F               399:   BIT SIZE AT DEPTH
 DFT .                OIL:   DRILLING FLUID TYPE
 TCS .HRS               4:   TIME CURCULATED STOPPED
 MRT .F               158:   MAXIMUM RECORDED TEMPERATURE
 LUN .               6274:   LOGGING UNIT NUMBER
 LUL .           GILLETTE:   LOGGING UNIT LOCATION
 ENGI.             RAUTIO:   RECORDING ENGINEER
 WITN.            SCHULTE:   WITNESSED BY
 CLNT.            A2DTECH:   CLIENT CODE
 ORIG.           5" PRINT:   ORIGIN OF DATA
 UWI .       490251134600:   UNIQUE WELL ID
 DICO. A2D Technologies, Inc.:   DIGITIZING COMPANY
~OTHER INFORMATION
~A    DEPT    CALD       CORR        DEN       NPOR       PORD         GRR      RILD       RILM   
# ...
  162.0000     6.7177     0.1514     2.3281     0.2653     0.1936   111.4204     5.8771     5.4009
  162.5000     6.7181     0.1440     2.3379     0.2620     0.1838   115.6835     6.0456     5.5202
  163.0000     6.7336     0.1105     2.3810     0.2662     0.1461   116.3103     6.2622     5.7513
  163.5000     6.7340     0.0880     2.4204     0.2698     0.1327   116.6341     6.5318     5.9570
  164.0000     6.7194     0.0640     2.4410     0.2677     0.1249   116.9579     6.7659     6.2563
  164.5000     6.7199     0.0430     2.4448     0.2680     0.1236   119.4273     7.0084     6.7091
  165.0000     6.7053     0.0250     2.4419     0.2685     0.1254   120.0303     7.1627     6.9490
  165.5000     6.7058     0.0229     2.4351     0.2682     0.1303   120.0555     7.3212     7.0491
  166.0000     6.7062     0.0416     2.4284     0.2649     0.1381   120.9853     7.4720     7.0024
  166.5000     6.7067     0.0447     2.4232     0.2637     0.1396   122.2182     7.5802     6.8614
  167.0000     6.7071     0.0432     2.4210     0.2655     0.1392   123.1480     7.6366     6.8168
  167.5000     6.7076     0.0463     2.4203     0.2679     0.1383   124.9869     7.6935     6.9150
  168.0000     6.7080     0.0508     2.4212     0.2648     0.1371   127.1289     7.7508     7.0695
  168.5000     6.7235     0.0479     2.4267     0.2624     0.1344   126.5435     7.8086     7.2159
  169.0000     6.7239     0.0404     2.4348     0.2609     0.1265   122.6249     7.8668     7.4222
  169.5000     6.7244     0.0329     2.4461     0.2618     0.1223   120.8192     7.9254     7.7412
  170.0000     6.7399     0.0210     2.4484     0.2642     0.1225   123.6162     8.0961     7.8527
  170.5000     6.7252     0.0172     2.4432     0.2642     0.1258   125.4152     8.2133     7.8016
  171.0000     6.7258     0.0416     2.4372     0.2630     0.1304   122.4099     8.2745     7.6438
  171.5000     6.7262     0.0752     2.4328     0.2633     0.1337   118.4913     8.3362     7.5406
  172.0000     6.7115     0.0707     2.4283     0.2654     0.1327   120.3302     8.3992     7.3889
  172.5000     6.7121     0.0452     2.4404     0.2723     0.1243   122.7751     8.4618     7.4434
  173.0000     6.6974     0.0317     2.4474     0.2750     0.1188   123.0989     8.4658     7.6563
  173.5000     6.6829     0.0649     2.4578     0.2732     0.1152   123.1196     8.4699     7.8247
  174.0000     6.6833     0.0799     2.4653     0.2704     0.1109   122.2313     8.4153     7.9887
  174.5000     6.6988     0.0574     2.4744     0.2692     0.1055   121.3429     8.3600     8.1045
  175.0000     6.6992     0.0379     2.4805     0.2662     0.1015   119.5455     8.3061     8.1078
  175.5000     6.6998     0.0230     2.4775     0.2632     0.1042   117.3606     8.2535     7.9992
  176.0000     6.7153     0.0471     2.4663     0.2562     0.1121   115.0415     8.2574     7.7832
  176.5000     6.7157     0.0892     2.4588     0.2556     0.1103   121.1280     8.2614     7.4685
  177.0000     6.7312     0.0952     2.4634     0.2613     0.1023   123.2699     8.2081     7.3677
  177.5000     6.7617     0.0682     2.4868     0.2658     0.0911   123.5937     8.2121     7.2691
  178.0000     6.7772     0.0532     2.4989     0.2685     0.0972   122.7053     8.1509     7.2223
  178.5000     6.7926     0.0608     2.4823     0.2688     0.1068   121.2109     8.0503     7.1753
  179.0000     6.7931     0.0669     2.4704     0.2673     0.1110   120.3225     7.9431     7.0303
  179.5000     6.8086     0.0578     2.4674     0.2658     0.1155   119.4333     7.7839     6.9307
  180.0000     6.8241     0.0457     2.4600     0.2652     0.1210   121.8791     7.6270     6.7495
  180.5000     6.8396     0.0865     2.4465     0.2673     0.1228   124.9302     7.4724     6.5218
  181.0000     6.9904     0.1301     2.4578     0.2703     0.0965   123.3637     7.2216     6.3017
  181.5000     7.0961     0.2279     2.4924     0.2727     0.0656   121.3404     6.8822     6.0051
  182.0000     7.4274     0.3211     2.5353     0.2704     0.0465   119.5430     6.4682     5.6828
  182.5000     7.5933     0.4053     2.5699     0.2527     0.0659   118.9525     6.0791     5.3779
  183.0000     7.8945     0.4459     2.5234     0.2503     0.1562   122.0087     5.4803     4.9498
  183.5000     8.4062     0.4775     2.3709     0.2569     0.2284   125.3627     4.8358     4.1336
  184.0000     8.8589     0.4544     2.2673     0.2783     0.2417   126.5956     4.0797     3.4282
  184.5000     8.9353     0.4023     2.2516     0.2857     0.2429   126.9194     3.4464     2.9030
  185.0000     8.9490     0.3619     2.2456     0.3016     0.2456   125.1219     3.0640     2.5217
  185.5000     8.8742     0.4115     2.2366     0.3079     0.2576   122.7184     2.7430     2.2735
  186.0000     8.0476     0.4326     2.1984     0.3172     0.2996   118.1131     2.6141     2.1713
  186.5000     7.9577     0.4447     2.1195     0.3353     0.3576   113.5808     2.5261     2.1569
  187.0000     8.3642     0.4327     2.0595     0.3435     0.3687   109.7555     2.4577     2.2343
  187.5000     8.3196     0.4042     2.0460     0.3459     0.3515   105.8368     2.4592     2.3960
  188.0000     7.7636     0.3682     2.1468     0.3269     0.2974   104.0393     2.5297     2.6053
  188.5000     7.3129     0.3423     2.1964     0.3153     0.2639   106.4843     2.6755     2.8329
  189.0000     7.1762     0.3161     2.2528     0.3055     0.2258   115.5959     2.8893     3.0169
  189.5000     7.0557     0.2767     2.2874     0.2782     0.2188   119.8591     3.4628     3.3034
  190.0000     7.3595     0.3098     2.2709     0.2743     0.2982   122.9101     3.6676     3.7448
  190.5000     7.4351     0.3323     2.1403     0.2824     0.2979   125.9612     4.0034     4.1601
  191.0000     7.4355     0.3099     2.1801     0.2942     0.2252   129.6182     4.5790     4.6016
  191.5000     7.4058     0.3580     2.3560     0.2904     0.1272   132.4393     5.3375     5.2336
  192.0000     7.5116     0.4677     2.4614     0.2658     0.1030   134.8121     5.8447     5.4966
  192.5000     8.2940     0.4633     2.4748     0.2627     0.1652   134.5341     6.2247     5.6932
  193.0000     8.6253     0.4311     2.2675     0.2661     0.2329   133.3427     6.5835     5.8155
  193.5000     8.1746     0.3957     2.2533     0.2663     0.2377   130.6362     6.7722     5.9403
  194.0000     7.9344     0.3252     2.2946     0.2600     0.2265   132.4751     6.8227     5.9842
  194.5000     9.4838     0.2831     2.3766     0.2573     0.1594   134.3140     6.6852     5.9866
  195.0000     9.5595     0.2772     2.3849     0.2579     0.1730   132.5165     6.4154     5.9891
  195.5000     9.7253     0.3553     2.3083     0.2606     0.2101   131.3251     6.0295     5.9915
  196.0000     9.8008     0.4395     2.2979     0.2639     0.2119   130.4368     5.6647     5.7095
  196.5000     9.6360     0.4215     2.3482     0.2694     0.1561   130.7646     5.3552     5.3591
  197.0000     9.3507     0.3765     2.4121     0.2800     0.1290   132.3293     5.0410     4.9237
  197.5000     9.1557     0.3291     2.4393     0.2958     0.1276   134.1405     4.9052     4.4832
  198.0000     8.9305     0.2970     2.3642     0.2970     0.1928   135.9794     4.7401     4.2722
  198.5000     8.7953     0.2910     2.1907     0.2892     0.2623   141.1517     4.5805     4.0995
  199.0000     9.0257     0.3061     2.0825     0.2876     0.3356   139.6572     4.4881     4.0166
  199.5000     9.3831     0.3407     2.0368     0.2919     0.3710   133.6174     4.4587     4.0182
  200.0000     8.7068     0.3978     2.0827     0.3118     0.3529   129.0934     4.4299     4.1330
  200.5000     8.3015     0.4505     2.1511     0.3184     0.3099   126.3809     4.5938     4.5340
  201.0000     8.1519     0.4567     2.1578     0.2997     0.3084   125.1799     4.8299     4.8714
  201.5000     8.1225     0.4204     2.0347     0.2785     0.3208   127.9257     5.0961     5.2046
  202.0000     8.3796     0.2932     2.0017     0.2571     0.4347   134.9103     5.3148     5.4661
