~VERSION INFORMATION
 VERS.                2.0:   CWLS LOG ASCII STANDARD - VERSION 2.0
 WRAP.                 NO:   ONE LINE PER DEPTH STEP
~WELL INFORMATION
#MNEM.UNIT      DATA TYPE    INFORMATION
#----------   ------------   ------------------------------
 STRT.F            8.0000:   START DEPTH
 STOP.F         3200.0000:   STOP DEPTH
 STEP.F            0.5000:   STEP LENGTH
 NULL.          -999.2500:   NO VALUE
 COMP. BROWN JOHN E&C INC:   COMPANY
 WELL.  62 x 15-17 #62-15:   WELL
 FLD .        N.P.R NO. 3:   FIELD
 LOC .      S15 T38N R78W:   LOCATION
 CNTY.            NATRONA:   COUNTY
 STAT.            WYOMING:   STATE
 CTRY. UNITED STATES OF AMERICA:   COUNTRY
 SRVC.      Western Atlas:   SERVICE COMPANY
 DATE.        17-JUN-1986:   LOGDATE
 API .       490251104300:   API NUMBER
~CURVE INFORMATION
#MNEM.UNIT       API CODE    CURVE DESCRIPTION
#----------   ------------   ------------------------------
 DEPT.F                  :   
 GRR .GAPI   07 310 01 00:   GAMMA RAY
 CALR.IN     07 280 01 00:   CALIPER FROM RESISTIVITY
 SPR .MV     07 010 01 00:   SPONTANEOUS POTENTIAL
 RILD.OHMM   07 120 46 00:   INDUCTION LOG DEEP RESISTIVITY
 RILM.OHMM   07 120 44 00:   INDUCTION LOG MEDIUM RESISTIVITY
 RFOC.OHMM   07 220 04 00:   RESISTIVITY FOCUSED LOG
 PORD.DEC    45 890 12 00:   POROSITY DENSITY SANDSTONE
 CNC .DEC    42 890 03 00:   NEUTRON POROSITY SANDSTONE
 CORR.G/C3   45 356 01 00:   DENSITY CORRECTION
 DEN .G/C3   45 350 01 00:   COMPENSATED BULK DENSTIY
~PARAMETER INFORMATION
#MNEM.UNIT          VALUE    DESCRIPTION
#----------   ------------   ------------------------------
 PD  .                 GL:   PERMANENT DATUM
 EPD .F              5242:   ELEVATION PERMANENT DATUM
 LMF .                 KB:   LOG MEASURED FROM
 DAPD.F                11:   FEET ABOVE PERMANENT DATUM
 DMF .                 KB:   DRILLING MEASURED FROM
 EKB .F              5253:   KELLING BUSHING
 EGL .F              5242:   GROUND LEVEL
 DATE.            6-17-86:   RUN DATE
 RUN .                  1:   RUN NUMBER
 DD  .F              3200:   DEPTH DRILLER
 DL  .F              3202:   DEPTH LOGGER
 BLI .F              3200:   BOTTOM LOG INTERVAL
 CS  .IN            8.625:   CASING SIZE
 CBD .F               573:   CASING BOTTOM DRILLER
 CBL .F               573:   CASING BOTTOM LOGGER
 BS  .IN            7.875:   BIT SIZE
 BSD .F              3200:   BIT SIZE AT DEPTH
 DFT .            KCL/GEL:   DRILLING FLUID TYPE
 DFD .                8.9:   DRILLING FLUID DENSITY
 DFV .                 37:   DRILLING FLUID VISCOSITY
 DFPH.                8.5:   DRILLING FLUID PH
 DFL .               10.2:   DRILLING FLUID LOSS
 MSS .           MUD TANK:   MUD SAMPLE SOURCE
 RMS .OHMM            .39:   RESISTIVITY MUD SAMPLE
 MST .F                80:   MUD SAMPLE TEMPERATURE
 RMF .OHMM            .29:   RESISTIVITY MUD FILTRATE SAMPLE
 MFST.F                80:   MUD FILTRATE SAMPLE TEMPERATURE
 RMC .OHMM            .49:   RESISTIVITY MUD CAKE
 MCST.F                80:   MUD CAKE SAMPLE TEMPERATURE
 MFSS.               CALC:   MUD FILTRATE SAMPLE SOURCE
 MCSS.               CALC:   MUD CAKE SAMPLE SOURCE
 RMB .OHMM            .24:   RESISTIVITY MUD AT BHT
 BHT .F               130:   BOTTOM HOLE TEMPERATURE
 TCS .HRS               5:   TIME CURCULATED STOPPED
 MRT .F               130:   MAXIMUM RECORDED TEMPERATURE
 LUN .            HL 6264:   LOGGING UNIT NUMBER
 LUL .           GILLETTE:   LOGGING UNIT LOCATION
 ENGI.      P.H. FAHLSING:   RECORDING ENGINEER
 WITN.             STRONG:   WITNESSED BY
 CLNT.            A2DTECH:   CLIENT CODE
 UWI .       490251104300:   UNIQUE WELL ID
 DICO. A2D Technologies, Inc.:   DIGITIZING COMPANY
~OTHER INFORMATION
~A    DEPT     GRR       CALR        SPR       RILD       RILM       RFOC       PORD        CNC       CORR        DEN   
# ...
  745.0000    95.0170    10.0180   -49.2473     9.4972     9.0943     9.6600  -999.2500  -999.2500  -999.2500  -999.2500
  745.5000    91.4308    10.0180   -48.9393     9.4953     9.0930     9.5344  -999.2500  -999.2500  -999.2500  -999.2500
  746.0000    87.2440    10.0180   -48.7816     9.3630     8.9668     9.4655  -999.2500  -999.2500  -999.2500  -999.2500
  746.5000    88.1623    10.0180   -48.7744     9.2967     8.9037     9.3971  -999.2500  -999.2500  -999.2500  -999.2500
  747.0000    89.7537    10.0180   -48.7669     9.1595     8.7134     9.3291  -999.2500  -999.2500  -999.2500  -999.2500
  747.5000    92.1053    10.0180   -48.7581     9.0390     8.4798     9.1979  -999.2500  -999.2500  -999.2500  -999.2500
  748.0000    94.2248    10.0180   -48.9030     8.8516     8.3621     9.0642  -999.2500  -999.2500  -999.2500  -999.2500
  748.5000    97.2452    10.0180   -48.8939     8.7283     8.1891     8.8172  -999.2500  -999.2500  -999.2500  -999.2500
  749.0000    99.6649    10.0180   -49.1874     8.6067     8.1315     8.8142  -999.2500  -999.2500  -999.2500  -999.2500
  749.5000   100.8835    10.0180   -49.3308     8.4868     8.0743     8.7505  -999.2500  -999.2500  -999.2500  -999.2500
  750.0000    99.0991    10.0180   -49.6241     8.3686     7.9621     8.7378  -999.2500  -999.2500  -999.2500  -999.2500
  750.5000    96.8036    10.0183   -49.7835     8.4110     7.9260     8.6724  -999.2500  -999.2500  -999.2500  -999.2500
  751.0000    93.4239    10.0186   -49.9068     8.4535     7.9061     8.6263  -999.2500  -999.2500  -999.2500  -999.2500
  751.5000    93.4385    10.0339   -49.8977     8.4817     7.9056     8.6257  -999.2500  -999.2500  -999.2500  -999.2500
  752.0000    94.9790    10.0642   -49.7383     8.4803     7.9050     8.5657  -999.2500  -999.2500  -999.2500  -999.2500
  752.5000    95.8739    10.0645   -49.5772     8.4791     7.7956     8.4474  -999.2500  -999.2500  -999.2500  -999.2500
  753.0000    95.8885    10.0498   -49.5684     8.3616     7.6348     8.3307  -999.2500  -999.2500  -999.2500  -999.2500
  753.5000    96.5037    10.0651   -49.2589     8.2456     7.4773     8.2157  -999.2500  -999.2500  -999.2500  -999.2500
  754.0000    98.6205    10.0654   -49.0997     8.0752     7.4252     8.0463  -999.2500  -999.2500  -999.2500  -999.2500
  754.5000   101.0375    10.0807   -48.9405     7.8539     7.3226     7.9352  -999.2500  -999.2500  -999.2500  -999.2500
  755.0000   103.4546    10.0810   -48.6310     7.6827     7.1716     7.7716  -999.2500  -999.2500  -999.2500  -999.2500
  755.5000   105.5713    10.0813   -48.4718     7.4805     7.0725     7.6419  -999.2500  -999.2500  -999.2500  -999.2500
  756.0000   106.1865    10.0966   -48.3127     7.3260     6.9747     7.4544  -999.2500  -999.2500  -999.2500  -999.2500
  756.5000   104.3813    10.0969   -48.1534     7.1252     6.8283     7.3515  -999.2500  -999.2500  -999.2500  -999.2500
  757.0000    96.4701    10.1121   -48.2951     7.0264     6.6899     7.2000  -999.2500  -999.2500  -999.2500  -999.2500
  757.5000    92.7169    10.1275   -48.4367     6.9770     6.6432     7.1005  -999.2500  -999.2500  -999.2500  -999.2500
  758.0000    99.0415    10.1278   -48.5783     6.8803     6.5969     7.0025  -999.2500  -999.2500  -999.2500  -999.2500
  758.5000   101.4586    10.1431   -48.7177     6.8793     6.5965     7.0020  -999.2500  -999.2500  -999.2500  -999.2500
  759.0000   100.2720    10.1434   -48.8614     6.9261     6.5960     7.0501  -999.2500  -999.2500  -999.2500  -999.2500
  759.5000    98.7815    10.1436   -49.1512     6.9733     6.5956     7.0496  -999.2500  -999.2500  -999.2500  -999.2500
  760.0000   102.1031    10.1439   -49.2928     6.9721     6.5951     7.0981  -999.2500  -999.2500  -999.2500  -999.2500
  760.5000   105.4210    10.1592   -49.4344     7.0195     6.5947     7.0976  -999.2500  -999.2500  -999.2500  -999.2500
  761.0000   106.3366    10.1595   -49.5760     7.0186     6.5943     7.1465  -999.2500  -999.2500  -999.2500  -999.2500
  761.5000   107.8787    10.1599   -49.5669     7.0176     6.6396     7.1459  -999.2500  -999.2500  -999.2500  -999.2500
  762.0000   109.0691    10.1602   -49.7088     7.0167     6.6391     7.1454  -999.2500  -999.2500  -999.2500  -999.2500
  762.5000   109.3835    10.1605   -49.8504     7.0157     6.6386     7.1449  -999.2500  -999.2500  -999.2500  -999.2500
  763.0000   104.5970    10.1607   -50.1423     7.0148     6.6382     7.1940  -999.2500  -999.2500  -999.2500  -999.2500
  763.5000   105.2122    10.1460   -50.1313     7.0138     6.6377     7.2435  -999.2500  -999.2500  -999.2500  -999.2500
  764.0000   105.8274    10.1014   -50.1226     7.0127     6.6373     7.2933  -999.2500  -999.2500  -999.2500  -999.2500
  764.5000   105.8421    10.0417   -50.1138     7.0117     6.5910     7.3435  -999.2500  -999.2500  -999.2500  -999.2500
  765.0000   105.2524    10.1039   -49.9546     7.0108     6.4551     7.3429  -999.2500  -999.2500  -999.2500  -999.2500
  765.5000   103.4689    10.1473   -49.6451     7.0099     6.4101     7.2414  -999.2500  -999.2500  -999.2500  -999.2500
  766.0000   100.7809    10.1476   -49.1729     7.0089     6.4097     7.1414  -999.2500  -999.2500  -999.2500  -999.2500
  766.5000    98.9710    10.1629   -48.7230     7.0080     6.4985     7.0428  -999.2500  -999.2500  -999.2500  -999.2500
  767.0000    98.7080    10.1631   -48.5639     7.0557     6.5888     7.0912  -999.2500  -999.2500  -999.2500  -999.2500
  767.5000    98.1257    10.1484   -48.4047     7.1077     6.6802     7.3446  -999.2500  -999.2500  -999.2500  -999.2500
  768.0000    96.9392    10.1337   -48.2455     7.2016     6.8200     7.6509  -999.2500  -999.2500  -999.2500  -999.2500
  768.5000    97.8547    10.1343   -48.2367     7.3007     6.9146     7.7572  -999.2500  -999.2500  -999.2500  -999.2500
  769.0000   102.3739    10.1493   -48.2280     7.4013     7.0106     7.5448  -999.2500  -999.2500  -999.2500  -999.2500
  769.5000   105.6918    10.1497   -48.5199     7.4519     7.1572     7.5442  -999.2500  -999.2500  -999.2500  -999.2500
  770.0000   102.4031    10.1500   -49.1126     7.6069     7.3070     7.7020  -999.2500  -999.2500  -999.2500  -999.2500
  770.5000    93.7091    10.1503   -49.5609     7.8191     7.4598     7.9176  -999.2500  -999.2500  -999.2500  -999.2500
  771.0000    93.7258    10.1655   -49.9973     7.9820     7.5711     8.1958  -999.2500  -999.2500  -999.2500  -999.2500
  771.5000    94.3724    10.1658   -50.1389     8.1482     7.7215     8.4847  -999.2500  -999.2500  -999.2500  -999.2500
  772.0000    93.4563    10.1661   -50.2805     8.2605     7.8831     8.6611  -999.2500  -999.2500  -999.2500  -999.2500
  772.5000    92.5664    10.1664   -50.2695     8.4323     7.9925     8.8421  -999.2500  -999.2500  -999.2500  -999.2500
  773.0000    92.5847    10.1667   -50.2607     8.5485     8.1034     8.9647  -999.2500  -999.2500  -999.2500  -999.2500
  773.5000    93.8005    10.1671   -50.2519     8.6070     8.2160     9.0263  -999.2500  -999.2500  -999.2500  -999.2500
  774.0000    95.3167    10.1524   -50.0928     8.6655     8.2725     9.0886  -999.2500  -999.2500  -999.2500  -999.2500
  774.5000    96.8328    10.1527   -50.0840     8.6044     8.2718     9.0878  -999.2500  -999.2500  -999.2500  -999.2500
  775.0000    98.6493    10.1529   -50.0752     8.6032     8.2713     9.0872  -999.2500  -999.2500  -999.2500  -999.2500
  775.5000    99.5648    10.1682   -49.9158     8.5427     8.2136     9.0866  -999.2500  -999.2500  -999.2500  -999.2500
  776.0000    99.8799    10.1685   -49.9050     8.5416     8.1562     8.9611  -999.2500  -999.2500  -999.2500  -999.2500
  776.5000    97.6296    10.1688   -49.7459     8.4814     8.0435     8.8985  -999.2500  -999.2500  -999.2500  -999.2500
  777.0000    92.4052    10.1691   -49.4363     8.4802     7.9875     8.8366  -999.2500  -999.2500  -999.2500  -999.2500
  777.5000    90.6180    10.1695   -49.2772     8.4207     7.8227     8.7751  -999.2500  -999.2500  -999.2500  -999.2500
  778.0000    92.4344    10.1698   -49.1180     8.3615     7.7682     8.6539  -999.2500  -999.2500  -999.2500  -999.2500
