~VERSION INFORMATION
 VERS.                2.0:   CWLS LOG ASCII STANDARD - VERSION 2.0
 WRAP.                 NO:   ONE LINE PER DEPTH STEP
~WELL INFORMATION
#MNEM.UNIT      DATA TYPE    INFORMATION
#----------   ------------   ------------------------------
 STRT.F           14.0000:   START DEPTH
 STOP.F          608.0000:   STOP DEPTH
 STEP.F            0.1000:   STEP LENGTH
 NULL.          -999.2500:   NO VALUE
 COMP. FENIX & SCISSON INC:   COMPANY
 WELL. NAVAL PETROLEUM RESERVE 3 S-15 #72-15:   WELL
 FLD .             TEAPOT:   FIELD
 LOC .      S15 T38N R78W:   LOCATION
 CNTY.            NATRONA:   COUNTY
 STAT.            WYOMING:   STATE
 CTRY. UNITED STATES OF AMERICA:   COUNTRY
 SRVC.           BIRDWELL:   SERVICE COMPANY
 DATE.        21-JUL-1978:   LOGDATE
 API .       490251067300:   API NUMBER
~CURVE INFORMATION
#MNEM.UNIT       API CODE    CURVE DESCRIPTION
#----------   ------------   ------------------------------
 DEPT.F                  :   
 ILD .OHMM   05 120 46 00:   INDUCTION LOG DEEP
 SN  .OHMM   05 040 16 00:   SHORT NORMAL 16"
 SPR .MV     05 010 01 00:   SPONTANEOUS POTENTIAL FROM RES.
 CALD.IN     45 280 60 00:   CALIPER FROM DENSITY LOG
 DPHI.DEC    45 890 12 00:   DENSITY POROSITY SANDSTONE
 DRHO.G/C3   45 356 01 00:   DENSITY CORRECTION
 GRD .GAPI   45 310 01 00:   GAMMA RAY FROM DENSITY LOG
 RHOB.G/C3   45 350 01 00:   BULK DENSITY
~PARAMETER INFORMATION
#MNEM.UNIT          VALUE    DESCRIPTION
#----------   ------------   ------------------------------
 PD  .                 GL:   PERMANENT DATUM
 EPD .F              5238:   ELEVATION PERMANENT DATUM
 LMF .                 KB:   LOG MEASURED FROM
 DAPD.F                 4:   FEET ABOVE PERMANENT DATUM
 DMF .                 KB:   DRILLING MEASURED FROM
 EKB .F              5242:   KELLING BUSHING
 EGL .F              5238:   GROUND LEVEL
 DATE.        21-JUL-1978:   RUN DATE
 RUN .                  1:   RUN NUMBER
 DD  .F               597:   DEPTH DRILLER
 DL  .F               615:   DEPTH LOGGER
 BLI .F               608:   BOTTOM LOG INTERVAL
 TLI .F                35:   TOP LOG INTERVAL
 CS  .IN            8.625:   CASING SIZE
 CBD .F                40:   CASING BOTTOM DRILLER
 CBL .F                35:   CASING BOTTOM LOGGER
 BS  .IN            7.875:   BIT SIZE
 BSD .F               597:   BIT SIZE AT DEPTH
 DFT .                KCL:   DRILLING FLUID TYPE
 DFD .                8.6:   DRILLING FLUID DENSITY
 DFV .                 33:   DRILLING FLUID VISCOSITY
 DFPH.                9.0:   DRILLING FLUID PH
 MSS .            MUD PIT:   MUD SAMPLE SOURCE
 MFSS.               MEAS:   MUD FILTRATE SAMPLE SOURCE
 MCSS.               MEAS:   MUD CAKE SAMPLE SOURCE
 BHT .F                74:   BOTTOM HOLE TEMPERATURE
 TCS .HRS               2:   TIME CURCULATED STOPPED
 MRT .F                74:   MAXIMUM RECORDED TEMPERATURE
 LUN .               2958:   LOGGING UNIT NUMBER
 LUL .             CASPER:   LOGGING UNIT LOCATION
 ENGI.             MILLER:   RECORDING ENGINEER
 WITN.           MCGINLEY:   WITNESSED BY
 CLNT.            A2DTECH:   CLIENT CODE
 ORIG.           5" PRINT:   ORIGIN OF DATA
 UWI .       490251067300:   UNIQUE WELL ID
 DICO. A2D Technologies, Inc.:   DIGITIZING COMPANY
~OTHER INFORMATION
~A   DEPT      ILD         SN        SPR       CALD       DPHI       DRHO         GRD      RHOB   
# ...
  111.2000     6.9968     7.1513   -18.3244     7.5344     0.1341     0.0364    88.8459     2.4442
  111.3000     6.9963     7.1507   -18.3247     7.5285     0.1329     0.0374    88.8465     2.4470
  111.4000     6.9958     7.1392   -18.3250     7.5192     0.1319     0.0386    88.8471     2.4497
  111.5000     6.9953     7.1003   -18.3253     7.5189     0.1301     0.0394    88.7325     2.4528
  111.6000     6.9816     7.0996   -18.3256     7.5065     0.1296     0.0396    88.6974     2.4558
  111.7000     6.9462     7.0991   -18.3259     7.4942     0.1298     0.0409    88.6386     2.4583
  111.8000     6.9457     7.0985   -18.3262     7.4749     0.1307     0.0414    88.5478     2.4612
  111.9000     6.9453     7.0980   -18.3265     7.4502     0.1313     0.0420    88.5447     2.4639
  112.0000     6.9180     7.0974   -18.3268     7.4256     0.1313     0.0429    88.3983     2.4659
  112.1000     6.8965     7.0968   -18.3271     7.3982     0.1313     0.0441    88.2999     2.4670
  112.2000     6.8961     7.0962   -18.3274     7.3545     0.1310     0.0454    88.1066     2.4663
  112.3000     6.8956     7.0956   -18.3277     7.3133     0.1304     0.0465    87.9475     2.4663
  112.4000     6.8950     7.0950   -18.3280     7.2764     0.1297     0.0478    87.9175     2.4655
  112.5000     6.8946     7.0944   -18.3283     7.2394     0.1289     0.0484    87.6471     2.4643
  112.6000     6.8942     7.0938   -18.3286     7.2016     0.1282     0.0483    87.5373     2.4633
  112.7000     6.8790     7.0932   -18.3289     7.1655     0.1275     0.0483    87.4149     2.4633
  112.8000     6.8458     7.0927   -18.3292     7.1194     0.1267     0.0483    87.3472     2.4638
  112.9000     6.8453     7.0921   -18.3295     7.0572     0.1260     0.0493    87.2941     2.4649
  113.0000     6.8448     7.0915   -18.3298     6.9834     0.1253     0.0498    87.0468     2.4661
  113.1000     6.8444     7.0909   -18.3301     6.9120     0.1244     0.0503    86.9254     2.4675
  113.2000     6.8439     7.0903   -18.3304     6.8691     0.1238     0.0513    86.8030     2.4693
  113.3000     6.8322     7.0897   -18.3307     6.8588     0.1231     0.0513    86.7469     2.4708
  113.4000     6.7959     7.0891   -18.3310     6.8464     0.1223     0.0524    86.7091     2.4717
  113.5000     6.7953     7.0885   -18.3313     6.8436     0.1216     0.0536    86.5972     2.4730
  113.6000     6.7949     7.0880   -18.3317     6.8694     0.1211     0.0543    86.5980     2.4742
  113.7000     6.8191     7.0874   -18.3319     6.9747     0.1207     0.0543    86.5985     2.4754
  113.8000     6.8411     7.0867   -18.3322     7.1120     0.1203     0.0543    86.5991     2.4768
  113.9000     6.8406     7.0983   -18.3325     7.2423     0.1200     0.0555    86.6497     2.4773
  114.0000     6.8401     7.1112   -18.3328     7.3770     0.1196     0.0567    86.8175     2.4779
  114.1000     6.8396     7.1240   -18.3331     7.5125     0.1193     0.0579    87.2043     2.4788
  114.2000     6.8392     7.1336   -18.3334     7.6105     0.1193     0.0591    87.3221     2.4798
  114.3000     6.8387     7.1330   -18.3337     7.6843     0.1193     0.0603    87.5350     2.4798
  114.4000     6.8382     7.1323   -18.3340     7.7386     0.1201     0.0615    87.7201     2.4798
  114.5000     6.8377     7.1318   -18.3343     7.7739     0.1213     0.0627    87.8436     2.4793
  114.6000     6.8372     7.1312   -18.3346     7.7943     0.1226     0.0640    87.9672     2.4785
  114.7000     6.8368     7.1356   -18.3349     7.8066     0.1241     0.0652    88.1129     2.4776
  114.8000     6.8363     7.1485   -18.3352     7.8203     0.1250     0.0664    88.2144     2.4767
  114.9000     6.8359     7.1615   -18.3676     7.8420     0.1265     0.0678    88.3380     2.4760
  115.0000     6.8449     7.1744   -18.4091     7.8585     0.1273     0.0699    88.4615     2.4755
  115.1000     6.8823     7.1777   -18.4507     7.8708     0.1270     0.0715    88.5677     2.4745
  115.2000     6.8817     7.1771   -18.4864     7.8806     0.1265     0.0732    88.5684     2.4733
  115.3000     6.8813     7.1822   -18.4867     7.8806     0.1262     0.0759    88.5689     2.4721
  115.4000     6.8808     7.2020   -18.4870     7.8925     0.1262     0.0797    88.5695     2.4708
  115.5000     6.8950     7.2249   -18.4873     7.9048     0.1269     0.0843    88.5133     2.4697
  115.6000     6.9276     7.2476   -18.4876     7.9171     0.1283     0.1036    88.3620     2.4680
  115.7000     6.9271     7.2745   -18.4879     7.9293     0.1301     0.1240    88.1167     2.4662
  115.8000     6.9636     7.3014   -18.4882     7.9408     0.1325     0.1375    87.8713     2.4645
  115.9000     6.9741     7.3232   -18.4885     7.9408     0.1345     0.1472    87.5297     2.4633
  116.0000     6.9736     7.3225   -18.4888     7.9511     0.1365     0.1570    87.1614     2.4609
  116.1000     6.9731     7.3622   -18.4891     7.9633     0.1387     0.1676    86.7931     2.4584
  116.2000     6.9727     7.3721   -18.4894     7.9709     0.1411     0.1727    86.4374     2.4560
  116.3000     6.9721     7.3715   -18.5043     7.9709     0.1433     0.1727    86.1618     2.4536
  116.4000     6.9717     7.3709   -18.5665     7.9709     0.1450     0.1726    85.7311     2.4510
  116.5000     6.9963     7.3742   -18.6402     7.9708     0.1452     0.1712    85.3997     2.4468
  116.6000     7.0356     7.4206   -18.6657     7.9622     0.1445     0.1691    85.1543     2.4442
  116.7000     7.0673     7.4572   -18.6969     7.9499     0.1434     0.1682    84.8605     2.4427
  116.8000     7.0667     7.4989   -18.7281     7.9376     0.1418     0.1668    84.3548     2.4418
  116.9000     7.1056     7.5409   -18.7594     7.9252     0.1385     0.1635    84.1166     2.4408
  117.0000     7.1147     7.5736   -18.7916     7.9129     0.1342     0.1622    83.8713     2.4408
  117.1000     7.1363     7.5730   -18.7919     7.9102     0.1291     0.1599    83.6259     2.4413
  117.2000     7.1630     7.5939   -18.7922     7.9033     0.1234     0.1575    83.3806     2.4424
  117.3000     7.1647     7.6149   -18.7925     7.8910     0.1176     0.1545    83.1432     2.4441
  117.4000     7.1846     7.6481   -18.7928     7.8799     0.1139     0.1509    83.0010     2.4470
  117.5000     7.2045     7.6758   -18.7931     7.9403     0.1108     0.1472    83.2076     2.4513
  117.6000     7.2106     7.6807   -18.7934     8.0483     0.1057     0.1400    83.5294     2.4647
  117.7000     7.2289     7.7277   -18.7937     8.3392     0.1002     0.1327    83.9463     2.4814
  117.8000     7.2596     7.7271   -18.7940     8.6791     0.0954     0.1241    84.3998     2.4968
  117.9000     7.2591     7.7265   -18.7943     8.9789     0.0921     0.1144    84.6631     2.5090
  118.0000     7.3087     7.7259   -18.7946     9.3601     0.0899     0.1048    84.7783     2.5180
  118.1000     7.3083     7.7363   -18.7949     9.4077     0.0865     0.0962    84.9019     2.5150
  118.2000     7.3078     7.7782   -18.7952     9.2020     0.0793     0.0932    84.9665     2.5140
  118.3000     7.3073     7.7774   -18.7955     8.5284     0.0717     0.0895    84.9671     2.5135
  118.4000     7.3068     7.7768   -18.7958     7.7610     0.0668     0.0859    84.9677     2.5145
  118.5000     7.3063     7.7762   -18.7961     7.6646     0.0617     0.0822    84.9683     2.5173
  118.6000     7.3058     7.7923   -18.7964     7.5926     0.0636     0.0782    84.9689     2.5225
  118.7000     7.3351     7.8359   -18.7970     7.5721     0.0648     0.0760    84.9695     2.5322
  118.8000     7.3554     7.8824   -18.8592     7.5475     0.0658     0.0736    84.9701     2.5408
  118.9000     7.3549     7.9240   -18.9213     7.5274     0.0668     0.0716    84.9707     2.5479
  119.0000     7.3544     7.9358   -18.9475     7.5169     0.0681     0.0704    84.9714     2.5567
  119.1000     7.3538     7.9579   -18.9478     7.5169     0.0704     0.0691    84.9719     2.5735
  119.2000     7.3534     7.9895   -18.9383     7.5169     0.0726     0.0668    84.9725     2.5747
