~VERSION INFORMATION
 VERS.                2.0:   CWLS LOG ASCII STANDARD - VERSION 2.0
 WRAP.                 NO:   ONE LINE PER DEPTH STEP
~WELL INFORMATION
#MNEM.UNIT      DATA TYPE    INFORMATION
#----------   ------------   ------------------------------
 STRT.F          110.5000:   START DEPTH
 STOP.F         1944.0000:   STOP DEPTH
 STEP.F            0.5000:   STEP LENGTH
 NULL.          -999.2500:   NO VALUE
 COMP.    FENIX & SCISSON:   COMPANY
 WELL.   NPR 3 SHX #34-10:   WELL
 FLD .             TEAPOT:   FIELD
 LOC .      S10 T38N R78W:   LOCATION
 CNTY.            NATRONA:   COUNTY
 STAT.            WYOMING:   STATE
 CTRY. UNITED STATES OF AMERICA:   COUNTRY
 SRVC.            Unknown:   SERVICE COMPANY
 DATE.        14-APR-1978:   LOGDATE
 API .       490251061800:   API NUMBER
~CURVE INFORMATION
#MNEM.UNIT       API CODE    CURVE DESCRIPTION
#----------   ------------   ------------------------------
 DEPT.F                  :   
 ILD .OHMM   05 120 46 00:   INDUCTION LOG DEEP
 CILD.MMHO   05 110 00 00:   CONDUCTIVITY INDUCTION LOG
 NPHI.DEC    42 890 01 00:   NEUTRON POROSITY LIMESTONE
 GRD .GAPI   45 310 01 00:   GAMMA RAY FROM DENSITY LOG
~PARAMETER INFORMATION
#MNEM.UNIT          VALUE    DESCRIPTION
#----------   ------------   ------------------------------
 PD  .                 GL:   PERMANENT DATUM
 EPD .F              5244:   ELEVATION PERMANENT DATUM
 LMF .                 KB:   LOG MEASURED FROM
 DMF .                 KB:   DRILLING MEASURED FROM
 EKB .F              5252:   KELLING BUSHING
 EGL .F              5244:   GROUND LEVEL
 DATE.          4-14-1978:   RUN DATE
 RUN .                  1:   RUN NUMBER
 DD  .F              1953:   DEPTH DRILLER
 DL  .F              1950:   DEPTH LOGGER
 BLI .F              1944:   BOTTOM LOG INTERVAL
 TLI .F               715:   TOP LOG INTERVAL
 CS  .IN            9.625:   CASING SIZE
 CBD .F               708:   CASING BOTTOM DRILLER
 CBL .F               712:   CASING BOTTOM LOGGER
 BS  .IN             8.75:   BIT SIZE
 BSD .F              1953:   BIT SIZE AT DEPTH
 DFT .                OIL:   DRILLING FLUID TYPE
 TCS .HRS               5:   TIME CURCULATED STOPPED
 LUN .               2958:   LOGGING UNIT NUMBER
 LUL .               CASP:   LOGGING UNIT LOCATION
 ENGI.             MILLER:   RECORDING ENGINEER
 CLNT.            A2DTECH:   CLIENT CODE
 ORIG.           5" PRINT:   ORIGIN OF DATA
 UWI .       490251061800:   UNIQUE WELL ID
 DICO. A2D Technologies, Inc.:   DIGITIZING COMPANY
~OTHER INFORMATION
~A   DEPT      ILD       CILD       NPHI        GRD   
# ...
  913.5000    10.9706   103.3280  -999.2500  -999.2500
  914.0000    10.9486   103.3950  -999.2500  -999.2500
  914.5000    10.9267   103.4620  -999.2500  -999.2500
  915.0000    10.9047   103.5290  -999.2500  -999.2500
  915.5000    10.8828   103.5960  -999.2500  -999.2500
  916.0000    10.8609   103.6630  -999.2500  -999.2500
  916.5000    10.8389   103.7300  -999.2500  -999.2500
  917.0000    10.8170   103.7970  -999.2500  -999.2500
  917.5000    10.7951   103.8640  -999.2500  -999.2500
  918.0000    10.7731   103.9310  -999.2500  -999.2500
  918.5000    10.7512   103.9980  -999.2500  -999.2500
  919.0000    10.7293   104.0650  -999.2500  -999.2500
  919.5000    10.7073   104.1320  -999.2500  -999.2500
  920.0000    10.6854   104.1990  -999.2500  -999.2500
  920.5000    10.6635   104.2660  -999.2500  -999.2500
  921.0000    10.6416   104.3330  -999.2500  -999.2500
  921.5000    10.6195   104.4000  -999.2500  -999.2500
  922.0000    10.6120   104.4670  -999.2500  -999.2500
  922.5000    10.6164   104.5340  -999.2500  -999.2500
  923.0000    10.6210   104.6010  -999.2500  -999.2500
  923.5000    10.6256   104.6680  -999.2500  -999.2500
  924.0000    10.6302   104.7350  -999.2500  -999.2500
  924.5000    10.6348   104.8020  -999.2500  -999.2500
  925.0000    10.6394   104.8690  -999.2500  -999.2500
  925.5000    10.6441   104.9360  -999.2500  -999.2500
  926.0000    10.6497   105.1704  -999.2500  -999.2500
  926.5000    10.6106   105.6400  -999.2500  -999.2500
  927.0000    10.5634   106.1096  -999.2500  -999.2500
  927.5000    10.5161   106.5792  -999.2500  -999.2500
  928.0000    10.4689   107.0489  -999.2500  -999.2500
  928.5000    10.4216   107.5185  -999.2500  -999.2500
  929.0000    10.3744   107.9881  -999.2500  -999.2500
  929.5000    10.3272   108.4577  -999.2500  -999.2500
  930.0000    10.2800   108.9273  -999.2500  -999.2500
  930.5000    10.2327   109.3969  -999.2500  -999.2500
  931.0000    10.1909   109.8666  -999.2500  -999.2500
  931.5000    10.1532   110.3362  -999.2500  -999.2500
  932.0000    10.1158   110.8058  -999.2500  -999.2500
  932.5000    10.0785   111.2754  -999.2500  -999.2500
  933.0000    10.0411   111.7450  -999.2500  -999.2500
  933.5000    10.0005   112.2146  -999.2500  -999.2500
  934.0000     9.9452   112.6842  -999.2500  -999.2500
  934.5000     9.8897   113.1539  -999.2500  -999.2500
  935.0000     9.8342   113.6235  -999.2500  -999.2500
  935.5000     9.7787   114.0931  -999.2500  -999.2500
  936.0000     9.7232   114.5627  -999.2500  -999.2500
  936.5000     9.6676   114.9466  -999.2500  -999.2500
  937.0000     9.6122   115.0396  -999.2500  -999.2500
  937.5000     9.5633   115.1327  -999.2500  -999.2500
  938.0000     9.5344   115.2257  -999.2500  -999.2500
  938.5000     9.5056   115.3188  -999.2500  -999.2500
  939.0000     9.4768   115.4118  -999.2500  -999.2500
  939.5000     9.4480   115.5049  -999.2500  -999.2500
  940.0000     9.4177   115.5979  -999.2500  -999.2500
  940.5000     9.4178   115.6910  -999.2500  -999.2500
  941.0000     9.4277   115.7819  -999.2500  -999.2500
  941.5000     9.4381   115.8661  -999.2500  -999.2500
  942.0000     9.4512   116.8751  -999.2500  -999.2500
  942.5000     9.3207   119.7166  -999.2500  -999.2500
  943.0000     9.1468   122.5568  -999.2500  -999.2500
  943.5000     8.9745   125.3969  -999.2500  -999.2500
  944.0000     8.5642   128.2371  -999.2500  -999.2500
  944.5000     8.1071   128.5646  -999.2500  -999.2500
  945.0000     8.0888   128.1924  -999.2500  -999.2500
  945.5000     8.0912   127.8202  -999.2500  -999.2500
  946.0000     8.0913   127.4480  -999.2500  -999.2500
  946.5000     8.0913   127.0757  -999.2500  -999.2500
  947.0000     8.1311   124.8134  -999.2500  -999.2500
  947.5000     8.3771   120.1026  -999.2500  -999.2500
  948.0000     8.6152   115.3918  -999.2500  -999.2500
  948.5000     8.8520   111.9403  -999.2500  -999.2500
  949.0000     9.0887   111.9403  -999.2500  -999.2500
  949.5000     9.2092   111.9403  -999.2500  -999.2500
  950.0000     9.2047   111.9403  -999.2500  -999.2500
  950.5000     9.2007   111.9403  -999.2500  -999.2500
  951.0000     9.1964   111.9403  -999.2500  -999.2500
  951.5000     9.1923   111.9403  -999.2500  -999.2500
  952.0000     9.1882   111.9403  -999.2500  -999.2500
  952.5000     9.1841   111.9403  -999.2500  -999.2500
  953.0000     9.1799   111.9403  -999.2500  -999.2500
  953.5000     9.1757   111.9403  -999.2500  -999.2500
  954.0000     9.1701   111.9403  -999.2500  -999.2500
  954.5000     9.2304   111.3982  -999.2500  -999.2500
  955.0000     9.3065   110.7051  -999.2500  -999.2500
  955.5000     9.3829   110.0120  -999.2500  -999.2500
  956.0000     9.4592   109.3189  -999.2500  -999.2500
  956.5000     9.5354   108.6258  -999.2500  -999.2500
  957.0000     9.6116   107.9602  -999.2500  -999.2500
  957.5000     9.6879   106.4677  -999.2500  -999.2500
  958.0000     9.7639   105.0320  -999.2500  -999.2500
  958.5000     9.8369   103.5963  -999.2500  -999.2500
  959.0000     9.9748   102.1606  -999.2500  -999.2500
  959.5000    10.1182   100.7222  -999.2500  -999.2500
  960.0000    10.2618   100.0106  -999.2500  -999.2500
  960.5000    10.4052   100.0567  -999.2500  -999.2500
  961.0000    10.5487   100.1037  -999.2500  -999.2500
  961.5000    10.6923   100.1499  -999.2500  -999.2500
  962.0000    10.8341   100.1954  -999.2500  -999.2500
  962.5000    10.9305   100.2409  -999.2500  -999.2500
  963.0000    10.9289   100.2863  -999.2500  -999.2500
  963.5000    10.9292   100.3318  -999.2500  -999.2500
  964.0000    10.9291   100.3773  -999.2500  -999.2500
  964.5000    10.9291   100.4228  -999.2500  -999.2500
  965.0000    10.9292   100.4682  -999.2500  -999.2500
  965.5000    10.9299   100.5137  -999.2500  -999.2500
  966.0000    10.8984   100.5592  -999.2500  -999.2500
  966.5000    10.8606   100.6047  -999.2500  -999.2500
  967.0000    10.8227   100.6501  -999.2500  -999.2500
  967.5000    10.7849   100.6956  -999.2500  -999.2500
  968.0000    10.7470   100.7411  -999.2500  -999.2500
  968.5000    10.7089   100.7866  -999.2500  -999.2500
  969.0000    10.6695   100.8320  -999.2500  -999.2500
  969.5000    10.6279   100.8775  -999.2500  -999.2500
  970.0000    10.5865   100.9230  -999.2500  -999.2500
  970.5000    10.5449   100.9685  -999.2500  -999.2500
  971.0000    10.5034   101.0139  -999.2500  -999.2500
  971.5000    10.4618   101.0594  -999.2500  -999.2500
  972.0000    10.4186   101.1049  -999.2500  -999.2500
  972.5000    10.4207   101.1504  -999.2500  -999.2500
  973.0000    10.4355   101.1958  -999.2500  -999.2500
  973.5000    10.4506   101.2413  -999.2500  -999.2500
  974.0000    10.4653   101.2868  -999.2500  -999.2500
  974.5000    10.4803   101.3323  -999.2500  -999.2500
  975.0000    10.5050   101.3777  -999.2500  -999.2500
  975.5000    10.5929   101.4232  -999.2500  -999.2500
  976.0000    10.6797   101.4687  -999.2500  -999.2500
  976.5000    10.7666   101.5142  -999.2500  -999.2500
  977.0000    10.8475   101.5596  -999.2500  -999.2500
  977.5000    10.8497   101.6051  -999.2500  -999.2500
  978.0000    10.8492   101.6506  -999.2500  -999.2500
  978.5000    10.8491   101.6960  -999.2500  -999.2500
  979.0000    10.8491   101.7415  -999.2500  -999.2500
  979.5000    10.8491   101.7870  -999.2500  -999.2500
  980.0000    10.8491   101.8325  -999.2500  -999.2500
  980.5000    10.8491   101.8779  -999.2500  -999.2500
  981.0000    10.8491   101.9234  -999.2500  -999.2500
  981.5000    10.8491   101.9685  -999.2500  -999.2500
  982.0000    10.8492   102.2040  -999.2500  -999.2500
  982.5000    10.8493   102.6065  -999.2500  -999.2500
  983.0000    10.8493   103.0090  -999.2500  -999.2500
  983.5000    10.8394   103.4109  -999.2500  -999.2500
  984.0000    10.7762   103.8129  -999.2500  -999.2500
  984.5000    10.7134   104.2149  -999.2500  -999.2500
  985.0000    10.6507   104.6169  -999.2500  -999.2500
  985.5000    10.5881   105.0189  -999.2500  -999.2500
  986.0000    10.5256   105.4209  -999.2500  -999.2500
