~VERSION INFORMATION
 VERS.                2.0:   CWLS LOG ASCII STANDARD - VERSION 2.0
 WRAP.                 NO:   ONE LINE PER DEPTH STEP
~WELL INFORMATION
#MNEM.UNIT      DATA TYPE    INFORMATION
#----------   ------------   ------------------------------
 STRT.F            4.0000:   START DEPTH
 STOP.F          747.0000:   STOP DEPTH
 STEP.F            0.5000:   STEP LENGTH
 NULL.          -999.2500:   NO VALUE
 COMP.          U.S. NAVY:   COMPANY
 WELL. RES 3 TEAPOT DOM #61S-34:   WELL
 FLD .        TRAPOT DOME:   FIELD
 LOC .      S34 T39N R78W:   LOCATION
 CNTY.            NATRONA:   COUNTY
 STAT.            WYOMING:   STATE
 CTRY. UNITED STATES OF AMERICA:   COUNTRY
 SRVC.      NL McCullough:   SERVICE COMPANY
 DATE.        11-AUG-1961:   LOGDATE
 API .       490250656900:   API NUMBER
~CURVE INFORMATION
#MNEM.UNIT       API CODE    CURVE DESCRIPTION
#----------   ------------   ------------------------------
 DEPT.F                  :   
 GRN .GAPI   35 310 30 00:   GAMMA RAY
 NEUT.NAPI   35 330 22 00:   NEUTRON POROSITY
~PARAMETER INFORMATION
#MNEM.UNIT          VALUE    DESCRIPTION
#----------   ------------   ------------------------------
 PD  .                 GL:   PERMANENT DATUM
 EPD .F              5043:   ELEVATION PERMANENT DATUM
 LMF .                 KB:   LOG MEASURED FROM
 DAPD.F                 5:   FEET ABOVE PERMANENT DATUM
 DMF .                 KB:   DRILLING MEASURED FROM
 EKB .F              5048:   KELLING BUSHING
 EGL .F              5043:   GROUND LEVEL
 DATE.        11-AUG-1961:   RUN DATE
 RUN .                  1:   RUN NUMBER
 DD  .F               750:   DEPTH DRILLER
 DL  .F             748.5:   DEPTH LOGGER
 BLI .F               747:   BOTTOM LOG INTERVAL
 TLI .F                 0:   TOP LOG INTERVAL
 BS  .IN            7.875:   BIT SIZE
 BSD .F               750:   BIT SIZE AT DEPTH
 DFT .       OIL EMULSION:   DRILLING FLUID TYPE
 DFD .                9.5:   DRILLING FLUID DENSITY
 ENGI.            JACKSON:   RECORDING ENGINEER
 WITN.          JORGENSON:   WITNESSED BY
 CLNT.            A2DTECH:   CLIENT CODE
 ORIG.        2" 5" PRINT:   ORIGIN OF DATA
 UWI .       490250656900:   UNIQUE WELL ID
 DICO. A2D Technologies, Inc.:   DIGITIZING COMPANY
~OTHER INFORMATION
~A    DEPT       GRN     NEUT   
# ...
  125.5000     5.9792   236.1932
  126.0000     6.0030   236.4405
  126.5000     6.0929   238.4643
  127.0000     6.1005   244.1868
  127.5000     6.0918   268.5060
  128.0000     6.0703   277.8298
  128.5000     6.0628   275.7557
  129.0000     6.0476   271.6877
  129.5000     6.0401   263.4463
  130.0000     6.0419   261.7051
  130.5000     6.0553   261.9322
  131.0000     6.1278   274.7004
  131.5000     6.2326   289.1706
  132.0000     6.2827   306.5970
  132.5000     6.2828   306.7357
  133.0000     6.2828   301.9644
  133.5000     6.3335   297.5468
  134.0000     6.4571   288.6293
  134.5000     6.6087   275.5588
  135.0000     6.7316   272.1142
  135.5000     6.8815   270.1548
  136.0000     6.9042   268.7455
  136.5000     6.9212   270.0806
  137.0000     6.9346   277.8397
  137.5000     6.9353   283.6970
  138.0000     6.9190   288.0445
  138.5000     6.8893   289.1853
  139.0000     6.8216   292.5545
  139.5000     6.4878   300.5438
  140.0000     6.3848   316.4383
  140.5000     6.3743   332.1658
  141.0000     6.3819   336.8782
  141.5000     6.3819   339.1493
  142.0000     6.3820   338.9828
  142.5000     6.3774   333.8500
  143.0000     6.2338   329.6587
  143.5000     6.1927   331.8363
  144.0000     6.1969   339.9062
  144.5000     6.1654   347.9503
  145.0000     6.0564   358.0750
  145.5000     6.0217   364.7810
  146.0000     6.0111   369.8694
  146.5000     6.0035   374.7296
  147.0000     6.0111   375.2522
  147.5000     6.0112   367.7396
  148.0000     6.0292   364.1312
  148.5000     6.0567   363.3742
  149.0000     6.1418   364.8883
  149.5000     6.2601   369.5665
  150.0000     6.3977   375.7394
  150.5000     6.4659   386.0851
  151.0000     6.4665   395.9643
  151.5000     6.5115   398.9546
  152.0000     6.5703   394.2413
  152.5000     6.6176   381.3154
  153.0000     6.6137   373.2155
  153.5000     6.6015   372.4585
  154.0000     6.5799   374.2907
  154.5000     6.5440   380.0288
  155.0000     6.5117   386.0222
  155.5000     6.4997   392.1523
  156.0000     6.4734   397.2589
  156.5000     6.3225   406.8911
  157.0000     6.1794   426.2076
  157.5000     6.1559   440.5536
  158.0000     6.1559   445.8904
  158.5000     6.1407   442.1053
  159.0000     6.0424   435.0220
  159.5000     5.9509   434.5350
  160.0000     5.9192   428.9326
  160.5000     5.8758   413.4265
  161.0000     5.8084   395.1695
  161.5000     5.7547   392.1941
  162.0000     5.7547   378.8128
  162.5000     5.7563   368.6734
  163.0000     5.7624   365.9107
  163.5000     5.7766   361.8601
  164.0000     5.8318   359.4778
  164.5000     5.8888   348.3483
  165.0000     5.9356   313.4102
  165.5000     5.9747   297.5975
  166.0000     6.0709   276.7095
  166.5000     6.1641   269.5025
  167.0000     6.1566   266.0152
  167.5000     6.0163   267.9885
  168.0000     5.8688   299.0540
  168.5000     5.8300   316.3260
  169.0000     5.7202   335.3641
  169.5000     5.6189   367.0679
  170.0000     5.4018   403.4478
  170.5000     5.2849   445.7538
  171.0000     5.2655   510.0157
  171.5000     5.2554   551.1176
  172.0000     5.2555   553.0252
  172.5000     5.2555   553.3887
  173.0000     5.2546   553.3887
  173.5000     5.2536   553.6801
  174.0000     5.2712   555.6941
  174.5000     5.3693   562.8615
  175.0000     5.4729   561.1474
  175.5000     5.5360   537.4910
  176.0000     5.5815   529.9811
  176.5000     5.5935   507.8249
  177.0000     5.5967   462.5450
  177.5000     5.6068   456.9175
  178.0000     5.6581   453.4607
  178.5000     5.7256   451.7927
  179.0000     5.7788   450.2635
  179.5000     5.6681   450.4326
  180.0000     5.4833   468.2502
  180.5000     5.4758   508.5237
  181.0000     5.4834   564.7441
  181.5000     5.5540   583.4113
  182.0000     5.5668   586.6979
  182.5000     5.4760   587.4550
  183.0000     5.3775   583.5471
  183.5000     5.3854   569.2863
  184.0000     5.4026   566.2581
  184.5000     5.4251   566.3047
  185.0000     5.4080   567.0151
  185.5000     5.3437   568.4646
  186.0000     5.2236   571.5573
  186.5000     5.2035   573.0714
  187.0000     5.2036   573.2001
  187.5000     5.2036   573.0714
  188.0000     5.2112   559.1632
  188.5000     5.2217   551.7153
  189.0000     5.2416   544.8469
  189.5000     5.2524   540.8547
  190.0000     5.2568   539.0051
  190.5000     5.2569   538.6429
  191.0000     5.2453   551.1287
  191.5000     5.2266   581.3987
  192.0000     5.2116   586.6473
  192.5000     5.1964   592.7670
  193.0000     5.1889   594.2682
  193.5000     5.2321   594.0776
  194.0000     5.3177   592.7542
  194.5000     5.4150   588.9842
  195.0000     5.4314   585.1838
  195.5000     5.3557   587.4550
  196.0000     5.2657   602.8686
  196.5000     5.2192   626.0635
  197.0000     5.2021   645.3523
  197.5000     5.1303   667.2272
  198.0000     5.0908   688.8969
  198.5000     5.0832   697.4351
  199.0000     5.0833   711.6578
  199.5000     5.0909   738.8608
  200.0000     5.0882   777.1241
  200.5000     5.0749   893.2723
  201.0000     5.0617   966.4492
  201.5000     5.0355   965.8007
  202.0000     4.9329   963.7294
  202.5000     4.9017   953.0379
  203.0000     4.9093   895.6877
  203.5000     4.9403   869.8809
  204.0000     5.0382   840.2755
  204.5000     5.0823   779.0430
  205.0000     5.0989   709.4136
  205.5000     5.0989   681.6445
  206.0000     5.1039   627.3626
  206.5000     5.1823   567.8703
  207.0000     5.4131   516.9857
  207.5000     5.5382   508.0807
  208.0000     5.5688   504.4038
  208.5000     5.5843   498.8497
  209.0000     5.6191   498.2617
  209.5000     5.6825   497.5123
  210.0000     5.7444   496.4603
  210.5000     5.7887   485.4160
  211.0000     5.8039   462.5301
  211.5000     5.8939   458.1365
  212.0000     6.0388   457.4276
  212.5000     6.1269   457.4351
  213.0000     6.2179   458.1998
  213.5000     6.3419   458.9643
  214.0000     6.4148   455.7125
  214.5000     6.4583   439.2972
  215.0000     6.5087   435.4688
  215.5000     6.5453   434.0118
  216.0000     6.6330   430.9929
  216.5000     6.9634   403.6372
  217.0000     7.0153   377.1171
  217.5000     7.1080   374.2388
  218.0000     7.2099   373.6800
  218.5000     7.2406   369.5882
  219.0000     7.2590   358.6553
  219.5000     7.2591   357.6118
  220.0000     7.2455   367.4624
  220.5000     7.1758   371.2549
  221.0000     7.1087   372.0195
  221.5000     7.0672   372.0277
  222.0000     7.0244   371.6611
  222.5000     6.9210   368.0037
  223.0000     6.7421   355.3961
  223.5000     6.6710   349.9219
  224.0000     6.6999   346.2854
  224.5000     6.7367   344.0638
  225.0000     6.7146   344.0699
  225.5000     6.6417   343.3206
  226.0000     6.5323   344.0851
  226.5000     6.4529   347.7059
  227.0000     6.3832   361.5124
  227.5000     6.3278   370.7550
  228.0000     6.3172   377.1931
  228.5000     6.3048   383.4894
  229.0000     6.2825   389.4107
  229.5000     6.2624   391.9017
  230.0000     6.1841   393.3538
  230.5000     6.1644   400.1628
  231.0000     6.1745   403.2090
  231.5000     6.2372   402.4596
  232.0000     6.3518   402.6892
  232.5000     6.3737   404.7462
  233.0000     6.3889   421.8521
  233.5000     6.4390   433.6786
  234.0000     6.5152   441.7894
  234.5000     6.6163   439.6296
  235.0000     6.6087   430.5237
  235.5000     6.6012   417.0253
  236.0000     6.6012   401.7402
  236.5000     6.6592   388.1531
  237.0000     6.8134   382.3149
  237.5000     6.9530   381.3536
  238.0000     7.0194   380.6042
  238.5000     7.0181   380.8238
  239.0000     6.9450   383.6478
  239.5000     6.7328   392.1022
  240.0000     6.6697   413.9447
  240.5000     6.6593   426.0645
  241.0000     6.6622   427.5552
  241.5000     6.6671   429.2888
  242.0000     6.6720   431.3868
  242.5000     6.6775   432.4531
  243.0000     6.5392   433.7023
  243.5000     6.5260   435.1951
  244.0000     6.6094   434.2018
  244.5000     6.7866   429.1526
  245.0000     6.7722   413.7164
  245.5000     6.6481   411.7549
  246.0000     6.5868   419.3344
  246.5000     6.5949   423.5202
