~VERSION INFORMATION
 VERS.                2.0:   CWLS LOG ASCII STANDARD - VERSION 2.0
 WRAP.                 NO:   ONE LINE PER DEPTH STEP
~WELL INFORMATION
#MNEM.UNIT      DATA TYPE    INFORMATION
#----------   ------------   ------------------------------
 STRT.F           17.0000:   START DEPTH
 STOP.F         1345.0000:   STOP DEPTH
 STEP.F            0.5000:   STEP LENGTH
 NULL.          -999.2500:   NO VALUE
 COMP. DEPARTMENT OF ENERGY:   COMPANY
 WELL. RES 3 TEAPOT DOME ##86S-11:   WELL
 FLD .             TEAPOT:   FIELD
 LOC .      S11 T38N R78W:   LOCATION
 CNTY.            NATRONA:   COUNTY
 STAT.            WYOMING:   STATE
 CTRY. UNITED STATES OF AMERICA:   COUNTRY
 SRVC.       Schlumberger:   SERVICE COMPANY
 DATE.        13-AUG-1959:   LOGDATE
 API .       490250633200:   API NUMBER
~CURVE INFORMATION
#MNEM.UNIT       API CODE    CURVE DESCRIPTION
#----------   ------------   ------------------------------
 DEPT.F                  :   
 SPR .MV     05 010 01 00:   SPONTANEOUS POTENTIAL FROM RES.
 CILD.MMHO   05 110 46 00:   CONDUCTIVITY INDUCTION LOG DEEP
 ILD .OHMM   05 120 46 00:   INDUCTION LOG DEEP
 ASN .OHMM   05 041 16 00:   AMPLIFIED SHORT NORMAL 16"
~PARAMETER INFORMATION
#MNEM.UNIT          VALUE    DESCRIPTION
#----------   ------------   ------------------------------
 PD  .                 GL:   PERMANENT DATUM
 EPD .F              5295:   ELEVATION PERMANENT DATUM
 LMF .                 KB:   LOG MEASURED FROM
 DAPD.F                 4:   FEET ABOVE PERMANENT DATUM
 DMF .                 KB:   DRILLING MEASURED FROM
 EKB .F              5299:   KELLING BUSHING
 EGL .F              5295:   GROUND LEVEL
 DATE.            8-13-59:   RUN DATE
 RUN .                  1:   RUN NUMBER
 DD  .F              1350:   DEPTH DRILLER
 DL  .F              1350:   DEPTH LOGGER
 BLI .F              1345:   BOTTOM LOG INTERVAL
 TLI .F                17:   TOP LOG INTERVAL
 CBD .F                17:   CASING BOTTOM DRILLER
 CBL .F                17:   CASING BOTTOM LOGGER
 BS  .IN             6.75:   BIT SIZE
 BSD .F              1350:   BIT SIZE AT DEPTH
 DFT .                GEL:   DRILLING FLUID TYPE
 DFD .                9.8:   DRILLING FLUID DENSITY
 DFV .                 65:   DRILLING FLUID VISCOSITY
 DFPH.                9.5:   DRILLING FLUID PH
 DFL .                5.4:   DRILLING FLUID LOSS
 RMS .OHMM           2.84:   RESISTIVITY MUD SAMPLE
 MST .F                69:   MUD SAMPLE TEMPERATURE
 RMF .OHMM            2.5:   RESISTIVITY MUD FILTRATE SAMPLE
 MFST.F                69:   MUD FILTRATE SAMPLE TEMPERATURE
 RMC .OHMM           2.46:   RESISTIVITY MUD CAKE
 MCST.F                69:   MUD CAKE SAMPLE TEMPERATURE
 MFSS.                  M:   MUD FILTRATE SAMPLE SOURCE
 MCSS.                  M:   MUD CAKE SAMPLE SOURCE
 TCS .HRS               1:   TIME CURCULATED STOPPED
 LUN .               2523:   LOGGING UNIT NUMBER
 LUL .               CSPR:   LOGGING UNIT LOCATION
 ENGI.             KNOBEL:   RECORDING ENGINEER
 WITN.             MARTIN:   WITNESSED BY
 CLNT.            A2DTECH:   CLIENT CODE
 ORIG.         2"5" PRINT:   ORIGIN OF DATA
 UWI .       490250633200:   UNIQUE WELL ID
 DICO. A2D Technologies, Inc.:   DIGITIZING COMPANY
~OTHER INFORMATION
~A   DEPT      SPR        CILD         ILD      ASN   
# ...
  163.0000   -33.8409   169.2256     6.3181     6.9001
  163.5000   -33.5345   169.4256     6.3329     7.0366
  164.0000   -33.6808   169.2291     6.3472     7.1562
  164.5000   -34.3763   168.5091     6.3616     7.1424
  165.0000   -34.9784   167.7892     6.3761     7.1008
  165.5000   -35.0499   167.0692     6.3901     7.0682
  166.0000   -34.9856   166.3493     6.4052     7.0265
  166.5000   -34.9583   165.6293     6.4183     7.0092
  167.0000   -34.9114   164.9094     6.4350     7.0480
  167.5000   -34.8870   164.1263     6.4448     7.1213
  168.0000   -35.0308   162.4843     6.4971     7.2162
  168.5000   -35.2143   160.6845     6.6028     7.2827
  169.0000   -35.3940   158.8846     6.7043     7.3750
  169.5000   -35.5569   157.0848     6.8099     7.5246
  170.0000   -35.3824   155.2849     6.8592     7.6717
  170.5000   -35.1290   153.4850     6.9033     7.8170
  171.0000   -34.9062   151.6852     6.9482     7.9745
  171.5000   -34.9391   149.8853     7.0016     8.0972
  172.0000   -35.0554   148.0855     7.1305     8.1700
  172.5000   -34.9418   146.2856     7.2840     8.2669
  173.0000   -34.6521   144.2782     7.4363     8.3401
  173.5000   -34.3622   139.8197     7.5018     8.5389
  174.0000   -34.0883   134.7801     7.5539     9.1647
  174.5000   -33.7649   131.6477     7.6122     8.9679
  175.0000   -33.7424   134.2790     7.6645     8.2149
  175.5000   -34.2880   135.1984     7.7252     7.4991
  176.0000   -34.3956   132.6272     7.7726     8.0975
  176.5000   -34.2571   130.0560     7.8617     8.9585
  177.0000   -34.0749   127.1367     7.8360     8.6960
  177.5000   -34.0159   132.3892     7.6243     8.3961
  178.0000   -34.1991   138.4637     7.4303     7.9890
  178.5000   -34.3463   144.5382     7.2259     7.9156
  179.0000   -34.5113   151.4957     7.0209     7.8454
  179.5000   -34.6744   154.5722     6.9944     7.7823
  180.0000   -34.6724   156.9088     6.9959     7.7143
  180.5000   -34.5975   155.1885     7.0300     7.6603
  181.0000   -34.5332   153.1636     7.1326     7.6544
  181.5000   -34.4630   151.1388     7.2294     7.6921
  182.0000   -34.3956   148.7892     7.3303     7.7911
  182.5000   -34.3267   146.1698     7.4287     7.8840
  183.0000   -34.2584   143.0501     7.5292     8.0634
  183.5000   -34.1903   139.9303     7.6269     8.2423
  184.0000   -34.1213   136.8106     7.7289     8.4347
  184.5000   -34.0542   133.6908     7.8232     8.4960
  185.0000   -33.9802   130.5711     7.9347     8.5458
  185.5000   -33.9876   127.4513     7.9983     8.6057
  186.0000   -34.0392   125.3324     7.9911     8.6633
  186.5000   -34.0863   125.4279     7.9855     8.6736
  187.0000   -34.1361   125.7278     7.9513     8.6595
  187.5000   -34.1846   126.0278     7.9259     8.6507
  188.0000   -34.2338   126.6821     7.8555     8.5505
  188.5000   -34.2830   128.1219     7.7133     8.3465
  189.0000   -34.3314   129.8433     7.5552     8.1411
  189.5000   -34.3815   134.0667     7.4202     7.9344
  190.0000   -34.4283   139.3162     7.2700     7.7275
  190.5000   -34.4831   144.5658     7.1035     7.5229
  191.0000   -34.5119   149.8154     6.9570     7.3131
  191.5000   -34.4047   155.0650     6.7882     7.1149
  192.0000   -34.2623   161.4198     6.6251     6.8886
  192.5000   -34.1243   163.7449     6.4525     6.7275
  193.0000   -33.9842   166.6902     6.2971     6.6602
  193.5000   -33.8450   169.6354     6.1036     6.6513
  194.0000   -33.7057   172.5806     6.0241     6.6491
  194.5000   -33.5656   175.5258     6.1426     6.6495
  195.0000   -33.4272   178.5612     6.2389     6.6657
  195.5000   -33.2744   175.3089     6.3480     6.7437
  196.0000   -33.2522   171.1092     6.4501     6.8465
  196.5000   -33.2598   166.9095     6.5558     6.9494
  197.0000   -33.3384   162.7099     6.6599     7.0473
  197.5000   -33.4574   159.2601     6.7647     7.1600
  198.0000   -33.5675   157.9103     6.8691     7.2513
  198.5000   -33.6828   156.5604     6.9865     7.3102
  199.0000   -33.7943   155.2105     7.0838     7.3813
  199.5000   -33.9104   153.1987     7.1975     7.4492
  200.0000   -34.0191   149.2341     7.3093     7.5211
  200.5000   -34.1404   144.2782     7.4347     7.5493
  201.0000   -34.2381   144.2782     7.4538     7.6437
  201.5000   -34.3805   144.2782     7.4492     7.7438
  202.0000   -34.5056   144.2782     7.4509     7.8141
  202.5000   -34.3366   144.2782     7.4501     7.7624
  203.0000   -34.2088   144.2782     7.4497     7.7083
  203.5000   -34.0644   144.2782     7.4512     7.6365
  204.0000   -33.9320   144.2782     7.4475     7.6286
  204.5000   -33.7879   144.2782     7.4641     7.8395
  205.0000   -33.6643   142.0228     7.5808     8.0234
  205.5000   -33.5182   139.0155     7.6802     8.2243
  206.0000   -33.3546   136.0082     7.8003     8.2841
  206.5000   -33.2103   133.0009     7.7821     8.3495
  207.0000   -33.0588   130.7455     7.7230     8.2566
  207.5000   -32.9101   134.1287     7.6754     8.0349
  208.0000   -32.7649   136.8352     7.6287     7.9085
  208.5000   -32.7066   139.5418     7.5682     7.8638
  209.0000   -32.7880   141.5717     7.5552     8.0343
  209.5000   -32.9115   141.5717     7.7029     8.3323
  210.0000   -33.0196   136.5403     7.8303     8.5571
  210.5000   -33.1340   132.5152     7.9589     8.8527
  211.0000   -33.2448   128.4900     8.0922     9.0452
  211.5000   -33.3579   124.4649     8.2133     9.0679
  212.0000   -33.4694   120.4398     8.3645     9.0420
  212.5000   -33.5803   115.4084     8.4355     9.0023
  213.0000   -33.6234   114.5062     8.2542     8.8670
  213.5000   -33.6002   118.7013     8.1203     8.6686
  214.0000   -33.4765   124.2949     7.9325     8.5036
  214.5000   -33.3559   129.8884     7.6817     8.3273
  215.0000   -33.2370   135.4820     7.4640     8.1518
  215.5000   -33.1173   142.4739     7.2121     7.9857
  216.0000   -32.9980   143.8272     7.1439     7.7900
  216.5000   -32.8785   145.6315     7.1005     7.6503
  217.0000   -32.7590   147.4359     7.0534     7.6332
  217.5000   -32.6398   148.7892     7.0107     7.5493
  218.0000   -32.5200   149.7558     6.9622     7.4793
  218.5000   -32.4015   150.5291     6.9193     7.3992
  219.0000   -32.2804   151.4957     6.8581     7.3582
  219.5000   -32.1641   153.0082     6.7731     7.3374
  220.0000   -32.0406   155.0249     6.7003     7.2811
  220.5000   -31.9989   157.0415     6.6226     7.1362
  221.0000   -31.9979   159.0582     6.5468     6.9889
  221.5000   -32.0503   161.0748     6.4712     6.8838
  222.0000   -32.1517   163.0914     6.3934     6.8274
  222.5000   -32.2363   165.1081     6.3207     6.7600
  223.0000   -32.3295   167.1247     6.2350     6.6953
  223.5000   -32.4165   168.6372     6.1789     6.6620
  224.0000   -32.5095   169.2011     6.2069     6.6121
  224.5000   -32.5945   169.6522     6.2385     6.6337
  225.0000   -32.6926   170.1033     6.2683     6.7654
  225.5000   -32.7012   170.4416     6.2996     6.9152
  226.0000   -32.4876   168.1861     6.3279     6.9783
  226.5000   -32.2815   165.9307     6.3651     6.7996
  227.0000   -32.0729   167.8854     6.3557     6.6519
  227.5000   -31.8660   170.4917     6.2594     6.5021
  228.0000   -31.6578   173.0980     6.1750     6.3356
  228.5000   -31.4509   175.7043     6.0885     6.2038
  229.0000   -31.2422   178.3107     6.0034     6.2168
  229.5000   -31.0365   180.9170     5.9173     6.3800
  230.0000   -30.8273   183.5233     5.8321     6.3849
  230.5000   -30.7297   186.1296     5.7454     6.2517
  231.0000   -30.8245   189.3875     5.6616     6.1443
  231.5000   -30.9760   191.6429     5.5584     6.0110
  232.0000   -31.1174   193.8984     5.4617     5.9759
  232.5000   -31.2614   199.9881     5.3969     5.9336
  233.0000   -31.4062   204.8599     5.3478     5.9449
  233.5000   -31.5466   209.7317     5.2872     5.6297
  234.0000   -31.6978   214.6035     5.2904     5.5082
  234.5000   -31.7964   218.2574     5.3699     5.6677
  235.0000   -31.6154   214.8221     5.4376     5.7669
  235.5000   -31.4184   210.2418     5.5089     5.8932
