~VERSION INFORMATION
 VERS.                2.0:   CWLS LOG ASCII STANDARD - VERSION 2.0
 WRAP.                 NO:   ONE LINE PER DEPTH STEP
~WELL INFORMATION
#MNEM.UNIT      DATA TYPE    INFORMATION
#----------   ------------   ------------------------------
 STRT.F           29.0000:   START DEPTH
 STOP.F          882.0000:   STOP DEPTH
 STEP.F            0.5000:   STEP LENGTH
 NULL.          -999.2500:   NO VALUE
 COMP. FENIX & SCISSON INC:   COMPANY
 WELL. NAVAL PETROLEUM RESERVE 3 S-14 #42-14:   WELL
 FLD .             TEAPOT:   FIELD
 LOC .      S14 T38N R78W:   LOCATION
 CNTY.            NATRONA:   COUNTY
 STAT.            WYOMING:   STATE
 CTRY. UNITED STATES OF AMERICA:   COUNTRY
 SRVC.              Welex:   SERVICE COMPANY
 DATE.        03-MAY-1977:   LOGDATE
 API .       490251035400:   API NUMBER
~CURVE INFORMATION
#MNEM.UNIT       API CODE    CURVE DESCRIPTION
#----------   ------------   ------------------------------
 DEPT.F                  :   
 CALD.IN     45 280 60 00:   CALIPER FROM DENSITY LOG
 GRD .GAPI   45 310 01 00:   GAMMA RAY FROM DENSITY LOG
 CORR.G/C3   45 356 01 00:   DENSITY CORRECTION
 DPHI.DEC    45 890 12 00:   DENSITY POROSITY SANDSTONE
 RHOB.G/C3   45 350 01 00:   BULK DENSITY
 SPR .MV     07 010 01 00:   SPONTANEOUS POTENTIAL
 ILD .OHMM   07 120 46 00:   INDUCTION LOG DEEP
 ILM .OHMM   07 120 44 00:   INDUCTION LOG MEDIUM
 SGRD.OHMM   07 221 05 00:   SHALLOW SHORT GUARD RESISTIVITY
~PARAMETER INFORMATION
#MNEM.UNIT          VALUE    DESCRIPTION
#----------   ------------   ------------------------------
 PD  .                 GL:   PERMANENT DATUM
 EPD .F              5206:   ELEVATION PERMANENT DATUM
 LMF .                 GL:   LOG MEASURED FROM
 DMF .                 GL:   DRILLING MEASURED FROM
 EGL .F              5206:   GROUND LEVEL
 DATE.        03-MAY-1977:   RUN DATE
 RUN .                  1:   RUN NUMBER
 DD  .F               855:   DEPTH DRILLER
 DL  .F               884:   DEPTH LOGGER
 BLI .F               882:   BOTTOM LOG INTERVAL
 TLI .F                28:   TOP LOG INTERVAL
 CS  .IN            8.625:   CASING SIZE
 BS  .IN               12:   BIT SIZE
 BSD .F               855:   BIT SIZE AT DEPTH
 DFT .            KCL MUD:   DRILLING FLUID TYPE
 DFD .                8.7:   DRILLING FLUID DENSITY
 BHT .F                75:   BOTTOM HOLE TEMPERATURE
 TCS .HRS            0130:   TIME CURCULATED STOPPED
 MRT .F                75:   MAXIMUM RECORDED TEMPERATURE
 ENGI.            C. DOAK:   RECORDING ENGINEER
 WITN.            R. LYON:   WITNESSED BY
 CLNT.            A2DTECH:   CLIENT CODE
 ORIG.           5" PRINT:   ORIGIN OF DATA
 UWI .       490251035400:   UNIQUE WELL ID
 DICO. A2D Technologies, Inc.:   DIGITIZING COMPANY
~OTHER INFORMATION
~A   DEPT       CALD      GRD       CORR       DPHI         RHOB      SPR        ILD        ILM       SGRD   
   29.0000     8.0315   102.5595  -999.2500  -999.2500     2.2025  -999.2500  -999.2500  -999.2500  -999.2500
   29.5000     8.0472   101.2848    -0.2606     0.2841     2.1928  -999.2500  -999.2500  -999.2500  -999.2500
   30.0000     8.0479   104.3413    -0.2305     0.2847     2.1906  -999.2500  -999.2500  -999.2500  -999.2500
   30.5000     8.0785   110.7088    -0.1795     0.2780     2.2063  -999.2500  -999.2500  -999.2500  -999.2500
   31.0000     8.0792   114.6543    -0.1284     0.2740     2.2130  -999.2500  -999.2500  -999.2500  -999.2500
   31.5000     8.0650   115.6949    -0.0624     0.2671     2.2250  -999.2500  -999.2500  -999.2500  -999.2500
   32.0000     8.0199   118.0829     0.0156     0.2483     2.2534  -999.2500  -999.2500  -999.2500  -999.2500
   32.5000     7.9768   122.4169     0.0666     0.1930     2.3967  -999.2500  -999.2500  -999.2500  -999.2500
   33.0000     7.9476   127.3498     0.0758     0.1535     2.4223  -999.2500  -999.2500  -999.2500  -999.2500
   33.5000     7.9485   131.6838     0.0789     0.1471     2.4327  -999.2500  -999.2500  -999.2500  -999.2500
   34.0000     8.0091   131.7664     0.0791     0.1454     2.4268  -999.2500  -999.2500  -999.2500  -999.2500
   34.5000     8.0397   128.5254     0.0777     0.1491     2.4238  -999.2500  -999.2500  -999.2500  -999.2500
   35.0000     8.0404   130.3642     0.0749     0.1500     2.4239  -999.2500  -999.2500  -999.2500  -999.2500
   35.5000     8.0262   130.9062     0.0720     0.1536     2.4148  -999.2500  -999.2500  -999.2500  -999.2500
   36.0000     8.0120   128.0528     0.0677     0.1605     2.4021  -999.2500  -999.2500  -999.2500  -999.2500
   36.5000     8.0426   123.7042     0.0663     0.1539     2.4163  -999.2500  -999.2500  -999.2500  -999.2500
   37.0000     8.0134   123.2478     0.0710     0.1509     2.4223  -999.2500  -999.2500  -999.2500  -999.2500
   37.5000     7.9992   123.9891     0.0787     0.1482     2.4260  -999.2500  -999.2500  -999.2500  -999.2500
   38.0000     8.0300   123.0836     0.0773     0.1489     2.4275  -999.2500  -999.2500  -999.2500  -999.2500
   38.5000     8.1204   119.4835     0.0744     0.1561     2.4215  -999.2500  -999.2500  -999.2500  -999.2500
   39.0000     8.1660   115.8235     0.0686     0.1579     2.4125  -999.2500  -999.2500  -999.2500  -999.2500
   39.5000     8.1817   113.9282     0.0597     0.1669     2.3976  -999.2500  -999.2500  -999.2500  -999.2500
   40.0000     8.1376   114.9688     0.0539     0.1723     2.3812  -999.2500  -999.2500  -999.2500  -999.2500
   40.5000     8.0933   118.8538     0.0540     0.1679     2.3931  -999.2500  -999.2500  -999.2500  -999.2500
   41.0000     8.0792   123.9363     0.0557     0.1609     2.4088  -999.2500  -999.2500  -999.2500  -999.2500
   41.5000     8.1248   124.3800     0.0634     0.1537     2.4148  -999.2500     2.5713     4.4401     4.5020
   42.0000     8.1704   117.3350     0.0742     0.1496     2.4223  -999.2500     3.6581     4.5013     4.5639
   42.5000     8.1861   113.8846     0.0786     0.1436     2.4342  -999.2500     3.7342     4.5951     4.5950
   43.0000     8.1720   115.8727     0.0743     0.1472     2.4260  -999.2500     3.7336     4.7233     4.6907
   43.5000     8.1427   121.3173     0.0699     0.1487     2.4223  -999.2500     3.9455     4.7884     4.7226
   44.0000     8.1135   124.1903     0.0835     0.1401     2.4372  -999.2500     4.5614     4.7876     4.7547
   44.5000     8.0993   124.1830     0.0852     0.1419     2.4350  -999.2500     4.7213     4.8537     4.7871
   45.0000     8.1002   123.4272     0.0883     0.1452     2.4317  -999.2500     4.7864     4.9208     4.8866
   45.5000     8.1159   122.9709     0.0975     0.1443     2.4342  -999.2500     4.8897     5.0231     4.9885
   46.0000     8.1316   125.9576     0.0991     0.1476     2.4256  -999.2500     4.9877     5.1661     5.1632
   46.5000     8.1323   125.9730     0.1053     0.1500     2.4185  -999.2500     5.0218     5.1984     5.2346
   47.0000     8.1330   125.7934     0.1069     0.1527     2.4170  -999.2500     4.9179     5.0908     5.1262
   47.5000     8.1014   127.4700     0.1041     0.1665     2.4043  -999.2500     4.7174     4.9856     4.9800
   48.0000     8.0597   128.6213     0.0982     0.1734     2.3886  -999.2500     4.5251     4.8826     4.8489
   48.5000     8.0455   129.6619     0.0953     0.1785     2.3767  -999.2500     4.3966     4.7817     4.7487
   49.0000     8.0464   130.4032     0.0985     0.1806     2.3670  -999.2500     4.2508     4.7811     4.7154
   49.5000     8.0771   130.8468     0.0882     0.1822     2.3804  -999.2500     4.1629     4.7475     4.7148
   50.0000     8.1280   128.6225     0.0943     0.1734     2.3907  -999.2500     4.0769     4.8128     4.7468
   50.5000     8.1626   122.4497     0.0972     0.1668     2.3981  -999.2500     4.0483     4.7790     4.6809
   51.0000     8.1971   121.0981     0.1017     0.1601     2.4095  -999.2500     4.0478     4.7128     4.5526
   51.5000     8.2317   119.5968     0.1137     0.1531     2.4267  -999.2500     4.0471     4.5207     4.4278
   52.0000     8.2404   116.2991     0.1241     0.1496     2.4289  -999.2500     3.9362     4.3967     4.3664
   52.5000     8.0455   114.6481     0.1256     0.1454     2.4304  -999.2500     3.8283     4.3024     4.3357
   53.0000     7.9405   118.5960     0.1316     0.1406     2.4378  -999.2500     3.7752     4.2757     4.2756
   53.5000     8.0148   121.8241     0.1375     0.1478     2.4169  -999.2500     3.8009     4.3346     4.3047
   54.0000     8.3432   122.2699     0.1341     0.1723     2.3959  -999.2500     3.9614     4.3944     4.3340
   54.5000     8.3727   119.5700     0.1060     0.1846     2.3697  -999.2500     3.9607     4.4243     4.3635
   55.0000     8.3573   116.8710     0.0820     0.1855     2.3600  -999.2500     3.9878     4.4852     4.3931
   55.5000     8.4465   118.0643     0.0805     0.1706     2.3944  -999.2500     4.0707     4.5488     4.3925
   56.0000     8.2965   119.7068     0.0880     0.1664     2.3996  -999.2500     4.1556     4.7062     4.3919
   56.5000     8.1018   119.8522     0.0833     0.1682     2.3921  -999.2500     4.2715     4.8375     4.3913
   57.0000     8.1611   121.4935     0.0684     0.1631     2.3921  -999.2500     4.4576     4.9725     4.4210
   57.5000     8.1906   122.0891     0.0789     0.1580     2.4055  -999.2500     4.6718     5.1113     4.5131
   58.0000     8.0555   118.0418     0.0834     0.1583     2.4092  -999.2500     4.9712     5.2904     4.6391
   58.5000     8.0252   114.1092     0.0758     0.1613     2.4010  -999.2500     5.2170     5.4381     4.7032
   59.0000     8.0995   112.0441     0.0713     0.1656     2.3980  -999.2500     5.3258     5.4751     4.7024
   59.5000     8.1439   109.1955     0.0696     0.1679     2.3912  -999.2500     5.3991     5.4364     4.7016
   60.0000     8.1415   108.2941     0.0653     0.1706     2.3867  -999.2500     5.3562     5.3241     4.6686
   60.5000     8.1131   111.4335     0.0637     0.1680     2.3889  -999.2500     5.2502     5.2503     4.6680
   61.0000     8.0828   110.9790     0.0607     0.1635     2.3971  -999.2500     5.1774     5.1775     4.6674
   61.5000     8.0225   111.9355     0.0562     0.1611     2.4061  -999.2500     5.1768     5.1768     4.6346
   62.0000     7.9324   114.1130     0.0546     0.1608     2.4008  -999.2500     5.1761     5.1761     4.5389
   62.5000     7.8872   115.6057     0.0516     0.1596     2.3978  -999.2500     5.2475     5.2837     4.4759
   63.0000     8.0211   117.6973     0.0501     0.1593     2.4090  -999.2500     5.3566     5.3939     4.4752
   63.5000     8.0657   119.3397     0.0471     0.1659     2.4015  -999.2500     5.4304     5.4683     4.5370
   64.0000     8.0802   121.5989     0.0456     0.1695     2.3850  -999.2500     5.4676     5.5437     4.5679
   64.5000     8.0797   122.4748     0.0470     0.1692     2.3917  -999.2500     5.4667     5.5428     4.6309
   65.0000     8.0643   121.7209     0.0515     0.1659     2.3969  -999.2500     5.3537     5.4660     4.6946
