~VERSION INFORMATION
 VERS.                2.0:   CWLS LOG ASCII STANDARD - VERSION 2.0
 WRAP.                 NO:   ONE LINE PER DEPTH STEP
~WELL INFORMATION
#MNEM.UNIT      DATA TYPE    INFORMATION
#----------   ------------   ------------------------------
 STRT.F           80.0000:   START DEPTH
 STOP.F          739.0000:   STOP DEPTH
 STEP.F            0.5000:   STEP LENGTH
 NULL.          -999.2500:   NO VALUE
 COMP. U S NAVY-INTEX OIL:   COMPANY
 WELL.        NPR #36-S-2:   WELL
 FLD .             TEAPOT:   FIELD
 LOC .       S2 T38N R78W:   LOCATION
 CNTY.            NATRONA:   COUNTY
 STAT.            WYOMING:   STATE
 CTRY. UNITED STATES OF AMERICA:   COUNTRY
 SRVC.       Schlumberger:   SERVICE COMPANY
 DATE.        23-JUN-1962:   LOGDATE
 API .       490250641800:   API NUMBER
~CURVE INFORMATION
#MNEM.UNIT       API CODE    CURVE DESCRIPTION
#----------   ------------   ------------------------------
 DEPT.F                  :   
 ASN .OHMM   05 041 16 00:   AMPLIFIED SHORT NORMAL 16"
 ILD .OHMM   05 120 46 00:   INDUCTION LOG DEEP
 CILD.MMHO   05 110 46 00:   CONDUCTIVITY INDUCTION LOG DEEP
 SPR .MV     05 010 01 00:   SPONTANEOUS POTENTIAL FROM RES.
 GR  .GAPI   30 310 01 00:   GAMMA RAY
~PARAMETER INFORMATION
#MNEM.UNIT          VALUE    DESCRIPTION
#----------   ------------   ------------------------------
 PD  .                 KB:   PERMANENT DATUM
 EPD .F              5143:   ELEVATION PERMANENT DATUM
 EKB .F              5143:   KELLING BUSHING
 EGL .F              5138:   GROUND LEVEL
 DATE.        23-JUN-1962:   RUN DATE
 RUN .                  1:   RUN NUMBER
 DD  .F               738:   DEPTH DRILLER
 DL  .F               740:   DEPTH LOGGER
 BLI .F               739:   BOTTOM LOG INTERVAL
 TLI .F                80:   TOP LOG INTERVAL
 BS  .IN             6.75:   BIT SIZE
 BSD .F               738:   BIT SIZE AT DEPTH
 DFT .       OIL EMULSION:   DRILLING FLUID TYPE
 DFD .               10.0:   DRILLING FLUID DENSITY
 DFV .                 53:   DRILLING FLUID VISCOSITY
 DFL .                3.8:   DRILLING FLUID LOSS
 RMS .OHMM            3.9:   RESISTIVITY MUD SAMPLE
 MST .F                66:   MUD SAMPLE TEMPERATURE
 RMF .OHMM            2.9:   RESISTIVITY MUD FILTRATE SAMPLE
 MFST.F                66:   MUD FILTRATE SAMPLE TEMPERATURE
 RMC .OHMM            4.4:   RESISTIVITY MUD CAKE
 MCST.F                66:   MUD CAKE SAMPLE TEMPERATURE
 TCS .HRS               1:   TIME CURCULATED STOPPED
 LUN .               2503:   LOGGING UNIT NUMBER
 LUL .               CSPR:   LOGGING UNIT LOCATION
 ENGI.             DANNER:   RECORDING ENGINEER
 WITN.          JORGENSON:   WITNESSED BY
 CLNT.            A2DTECH:   CLIENT CODE
 ORIG.           5" PRINT:   ORIGIN OF DATA
 UWI .       490250641800:   UNIQUE WELL ID
 DICO. A2D Technologies, Inc.:   DIGITIZING COMPANY
~OTHER INFORMATION
~A   DEPT        ASN        ILD      CILD       SPR         GR   
# ...
  568.0000     6.8072     6.2855   181.6817   -47.7452    73.9975
  568.5000     6.7620     6.1364   188.4384   -48.1871    75.2339
  569.0000     6.5361     5.9131   195.1952   -49.2258    82.7829
  569.5000     6.2801     5.7644   199.6997   -49.8003    81.4303
  570.0000     5.9639     5.7659   200.4505   -49.6219    89.3336
  570.5000     5.9639     5.7674   192.1922   -49.1395    86.8367
  571.0000     6.1596     5.7689   192.1922   -48.4040    92.9915
  571.5000     6.0542     5.7704   192.9429   -47.7951    93.3210
  572.0000     5.9789     5.9220   190.6907   -47.3654    77.1429
  572.5000     6.5964     6.1488   184.6345   -47.0602    83.0798
  573.0000     6.9127     6.3755   170.9958   -47.6461    78.4787
  573.5000     7.0482     6.6773   158.9865   -48.0872    72.0965
  574.0000     7.1084     7.0541   151.4920   -48.5238    82.7829
  574.5000     7.1386     7.4310   149.3994   -48.5149    86.3451
  575.0000     7.1687     7.5826   150.2753   -48.6575    80.7050
  575.5000     7.1687     7.2838   160.6607   -48.6463    91.8368
  576.0000     7.1235     6.6847   171.1712   -48.4882    88.8683
  576.5000     6.9578     6.0856   188.4384   -48.4792    80.4082
  577.0000     6.5361     5.6367   205.7057   -48.0226    73.8776
  577.5000     5.8886     5.3379   211.7117   -47.7152    65.4174
  578.0000     5.7380     5.1892   213.9640   -47.2585    71.5027
  578.5000     5.7831     5.1156   214.7147   -46.8018    80.8534
  579.0000     5.6928     5.1922   213.2132   -46.3451    87.2357
  579.5000     5.6325     5.2721   210.2102   -46.0377    72.9870
  580.0000     6.2801     5.5005   203.4535   -46.0288    60.6678
  580.5000     6.6867     5.9610   186.9369   -46.4677    61.7069
  581.0000     7.1084     6.7253   171.9219   -46.9065    81.0019
  581.5000     7.5000     7.6227   156.1562   -47.4946    71.7997
  582.0000     7.8313     8.0660   141.1411   -47.7864    70.7607
  582.5000     8.0271     8.2195   134.3844   -48.3723    79.9629
  583.0000     8.2229     8.4327   130.6306   -48.9604    80.1114
  583.5000     8.4036     8.5093   130.6306   -49.1008    70.0186
  584.0000     8.5241     8.5859   130.6306   -48.3456    77.4397
  584.5000     8.5392     8.6624   129.8799   -48.1874    75.0650
  585.0000     8.5392     8.7390   129.8799   -48.1785    72.5418
  585.5000     8.5392     8.7405   129.8799   -48.1696    83.2282
  586.0000     8.5542     8.7420   129.1291   -48.4592    74.7682
  586.5000     8.6145     8.7435   128.3784   -49.4951    80.8534
  587.0000     8.6747     8.7450   126.8769   -49.4862    79.8144
  587.5000     8.7349     8.7465   126.1261   -49.4772    61.1131
  588.0000     8.7952     8.6729   126.1261   -49.4683    59.9258
  588.5000     8.7647     8.5242   129.1291   -49.4594    59.3322
  589.0000     8.6892     8.5257   131.3869   -49.3013    63.3395
  589.5000     8.6129     8.5272   132.8829   -48.5461    76.8461
  590.0000     8.5221     8.4533   131.3814   -47.6416    74.6197
  590.5000     8.4488     8.4551   130.6306   -47.3342    75.5102
  591.0000     8.4667     8.5317   129.0341   -47.3253    82.3376
  591.5000     8.5606     8.5332   125.8911   -47.7642    83.5251
  592.0000     8.8344     8.7599   120.7312   -48.2030    85.3061
  592.5000     9.1174     8.8365   120.1201   -47.8905   100.0000
  593.0000     9.1889     8.9127   128.3784   -47.5881    98.2189
  593.5000     9.1867     8.0136   142.6426   -47.2806    81.1502
  594.0000     8.8463     7.1893   163.6637   -46.9731    64.3784
  594.5000     8.1072     6.7403   183.9339   -46.9642    66.4563
  595.0000     6.9277     6.3665   192.1922   -46.8060    64.3784
  595.5000     6.5211     6.0676   192.1922   -46.9466    60.2226
  596.0000     6.8072     5.9940   190.6907   -46.9373    60.6678
  596.5000     6.9127     6.0706   189.1892   -47.2273    50.7235
  597.0000     6.7018     6.1472   187.6877   -47.8132    53.6920
  597.5000     6.6416     6.2238   184.6847   -48.2520    57.5510
  598.0000     8.5241     6.6006   178.6787   -48.9894    64.3784
  598.5000     9.3524     7.5781   147.8979   -49.7267    68.6827
  599.0000     9.9096     8.5556   122.3724   -49.8693    66.3080
  599.5000    10.3163     9.4580   111.8619   -49.1119    61.1131
  600.0000    10.4747    10.0601   105.6582   -49.1540    52.9499
  600.5000    10.5218    10.1683   102.8459   -49.7437    51.0110
  601.0000    10.6220    10.2869   107.3410   -49.8393    29.9443
  601.5000    10.6996    10.1375   110.3364   -49.2348    34.1002
  602.0000    10.7771    10.1382   111.0815   -48.4825    32.3190
  602.5000    10.8547    10.1390   110.1730   -49.2228    14.2115
  603.0000    11.1582    10.2148   107.8032   -49.8138     5.6030
  603.5000    11.5370    10.2906   100.1070   -49.8079     8.1261
  604.0000    12.5181    10.6668    90.6008   -49.8019     6.9387
  604.5000    13.9511    11.8687    85.3782   -49.7959    21.9294
  605.0000    15.6853    13.6713    79.3538   -51.1332    24.4526
  605.5000    17.1183    14.7982    71.9284   -52.9182    32.3190
  606.0000    18.4007    15.7749    64.4555   -54.5540    29.0538
  606.5000    19.6831    17.2771    58.4609   -56.4884    18.3674
  607.0000    21.8691    19.5302    52.4474   -58.0625    25.3432
  607.5000    24.0551    20.7321    47.9353   -59.6665    21.3358
  608.0000    25.5634    21.6338    45.6755   -60.8518    17.1800
  608.5000    26.3187    21.9348    45.6679   -61.5647    17.1800
  609.0000    26.9986    21.6353    45.6604   -62.2808     9.0166
  609.5000    26.3985    21.4857    45.6528   -62.4452    13.3210
  610.0000    27.0032    21.4114    45.6453   -62.9454    24.8979
  610.5000    27.4572    21.4872    44.8870   -64.2032    25.3432
  611.0000    27.6101    21.5630    44.8794   -63.1522    28.3117
  611.5000    27.5365    21.7890    44.8718   -62.8477    28.3280
  612.0000    27.4635    21.8728    44.1135   -62.5434    19.7032
  612.5000    29.4241    21.9407    44.1060   -63.6192    14.2115
  613.0000    31.3089    21.9459    43.3477   -64.7812    10.0254
  613.5000    32.2901    22.0923    43.3401   -65.3706    -1.2245
  614.0000    32.4424    22.0931    42.5818   -65.5125    10.1510
  614.5000    29.8850    22.2440    42.5742   -66.1083    13.1725
  615.0000    29.3596    22.4700    42.5667   -66.3881    11.3915
  615.5000    30.4167    22.9212    42.5591   -65.4796    11.3797
  616.0000    33.2051    23.2973    41.8008   -64.5813     9.4619
  616.5000    33.5085    23.5984    41.0425   -63.5333    13.0875
  617.0000    32.6825    23.8994    40.2842   -62.7821    17.4768
  617.5000    32.5336    24.5008    40.2766   -63.3731    15.6661
  618.0000    35.3226    25.1021    39.5183   -64.8597     9.0651
  618.5000    36.6802    25.4783    38.7600   -65.4508    -4.2406
  619.0000    36.2307    25.6292    37.2510   -65.1462    -5.0835
  619.5000    34.8776    25.7050    35.7419   -65.7372     9.3221
  620.0000    35.1810    26.3064    34.9836   -66.9253    18.9611
  620.5000    36.4634    27.1329    34.2253   -67.0686    29.3507
  621.0000    37.7458    27.8844    34.2177   -66.9133    22.9685
  621.5000    38.5764    28.2606    34.2117   -65.1163    23.2653
  622.0000    38.3527    27.5857    34.2042   -64.2148    20.1485
  622.5000    37.3008    26.0849    34.1967   -64.6565    21.9294
  623.0000    36.5495    26.2358    34.9401   -66.4416    22.2264
  623.5000    38.2089    26.6870    35.6833   -68.0774    25.7885
  624.0000    37.6088    27.0631    34.1742   -68.4139    22.8200
  624.5000    35.3520    27.2139    32.6651   -66.8714    24.3043
  625.0000    34.1495    26.0136    32.6577   -66.2684    24.3043
  625.5000    33.0975    24.5879    34.9024   -65.8147    27.5696
  626.0000    28.7323    23.3124    37.1471   -65.9582    19.7032
  626.5000    27.5298    22.3372    40.1427   -66.8475    20.2968
  627.0000    27.3056    21.2118    43.1379   -67.7370    19.2579
  627.5000    26.6307    20.4618    44.6322   -67.1340    14.2115
  628.0000    24.4492    19.9371    46.8766   -64.7400    24.6011
  628.5000    23.2467    19.1120    49.1213   -64.4355    30.2411
