~VERSION INFORMATION
 VERS.                2.0:   CWLS LOG ASCII STANDARD - VERSION 2.0
 WRAP.                 NO:   ONE LINE PER DEPTH STEP
~WELL INFORMATION
#MNEM.UNIT      DATA TYPE    INFORMATION
#----------   ------------   ------------------------------
 STRT.F           26.0000:   START DEPTH
 STOP.F          476.0000:   STOP DEPTH
 STEP.F            0.5000:   STEP LENGTH
 NULL.          -999.2500:   NO VALUE
 COMP. FENIX & SCISSON INC:   COMPANY
 WELL.         SX-3 #66-3:   WELL
 FLD .             TEAPOT:   FIELD
 LOC .       S3 T38N R78W:   LOCATION
 CNTY.            NATRONA:   COUNTY
 STAT.            WYOMING:   STATE
 CTRY. UNITED STATES OF AMERICA:   COUNTRY
 SRVC.              Welex:   SERVICE COMPANY
 DATE.        02-APR-1977:   LOGDATE
 API .       490251032800:   API NUMBER
~CURVE INFORMATION
#MNEM.UNIT       API CODE    CURVE DESCRIPTION
#----------   ------------   ------------------------------
 DEPT.F                  :   
 CALD.IN     45 280 60 00:   CALIPER FROM DENSITY LOG
 GRD .GAPI   45 310 01 00:   GAMMA RAY FROM DENSITY LOG
 CORR.G/C3   45 356 01 00:   DENSITY CORRECTION
 DPHI.DEC    45 890 12 00:   DENSITY POROSITY SANDSTONE
 RHOB.G/C3   45 350 01 00:   BULK DENSITY
~PARAMETER INFORMATION
#MNEM.UNIT          VALUE    DESCRIPTION
#----------   ------------   ------------------------------
 PD  .                 GL:   PERMANENT DATUM
 LMF .                 GL:   LOG MEASURED FROM
 DMF .                 GL:   DRILLING MEASURED FROM
 EGL .F              5152:   GROUND LEVEL
 DATE.        02-APR-1977:   RUN DATE
 RUN .                  1:   RUN NUMBER
 DD  .F               485:   DEPTH DRILLER
 DL  .F               480:   DEPTH LOGGER
 BLI .F               478:   BOTTOM LOG INTERVAL
 TLI .F                34:   TOP LOG INTERVAL
 CS  .IN            8.625:   CASING SIZE
 BS  .IN            7.875:   BIT SIZE
 BSD .F               485:   BIT SIZE AT DEPTH
 DFT .                KCL:   DRILLING FLUID TYPE
 DFD .                8.9:   DRILLING FLUID DENSITY
 BHT .F                61:   BOTTOM HOLE TEMPERATURE
 TCS .HRS            0300:   TIME CURCULATED STOPPED
 MRT .F                61:   MAXIMUM RECORDED TEMPERATURE
 ENGI.            C. DOAK:   RECORDING ENGINEER
 WITN.   R. B. HARRINGTON:   WITNESSED BY
 CLNT.            A2DTECH:   CLIENT CODE
 ORIG.           5" PRINT:   ORIGIN OF DATA
 UWI .       490251032800:   UNIQUE WELL ID
 DICO. A2D Technologies, Inc.:   DIGITIZING COMPANY
~OTHER INFORMATION
~A   DEPT       CALD      GRD       CORR       DPHI       RHOB   
# ...
  270.0000     7.9051   107.3848     0.0207     0.0917     2.4963
  270.5000     7.9059   109.6405     0.0223     0.0928     2.4888
  271.0000     7.9068   110.6875     0.0254     0.0955     2.4851
  271.5000     7.8929   111.7444     0.0270     0.0949     2.4844
  272.0000     7.8937   108.0266     0.0286     0.0928     2.4889
  272.5000     7.8798   103.0114     0.0318     0.0984     2.4897
  273.0000     7.8807    97.8003     0.0349     0.1011     2.4800
  273.5000     7.8818    94.6917     0.0382     0.1035     2.4763
  274.0000     7.9123    91.5831     0.0426     0.1109     2.4699
  274.5000     7.9280    84.9084     0.0427     0.1196     2.4540
  275.0000     7.9438    74.9648     0.0380     0.1312     2.4309
  275.5000     7.9595    66.8042     0.0339     0.1394     2.4025
  276.0000     7.9752    63.5441     0.0325     0.1573     2.3682
  276.5000     7.9612    66.5306     0.0311     0.1669     2.3592
  277.0000     7.9473    68.1556     0.0312     0.1741     2.3533
  277.5000     7.9482    70.8633     0.0358     0.1807     2.3488
  278.0000     7.9491    72.0638     0.0389     0.1870     2.3384
  278.5000     7.9349    71.6298     0.0375     0.1917     2.3250
  279.0000     7.9061    72.9789     0.0301     0.1968     2.3176
  279.5000     7.8775    74.0308     0.0242     0.2024     2.3101
  280.0000     7.8337    74.6369     0.0213     0.2060     2.3034
  280.5000     7.7754    73.9058     0.0214     0.2018     2.3050
  281.0000     7.7466    72.0010     0.0200     0.1928     2.3192
  281.5000     7.7327    69.9752     0.0247     0.1925     2.3230
  282.0000     7.7632    67.8490     0.0278     0.1912     2.3275
  282.5000     7.7789    66.8207     0.0309     0.1882     2.3350
  283.0000     7.8095    66.2377     0.0325     0.1826     2.3425
  283.5000     7.8403    67.2900     0.0326     0.1787     2.3508
  284.0000     7.8714    67.0047     0.0327     0.1891     2.3422
  284.5000     7.9012    65.2334     0.0313     0.1957     2.3169
  285.0000     7.9169    64.3536     0.0314     0.2052     2.3071
  285.5000     7.9326    64.6776     0.0315     0.2085     2.3015
  286.0000     7.9337    66.3190     0.0301     0.2067     2.3001
  286.5000     7.9345    66.4695     0.0302     0.1986     2.3122
  287.0000     7.9204    65.8673     0.0348     0.1938     2.3204
  287.5000     7.9065    65.1313     0.0379     0.1902     2.3272
  288.0000     7.8779    63.5358     0.0395     0.1878     2.3302
  288.5000     7.8489    59.9815     0.0411     0.1923     2.3272
  289.0000     7.8500    59.3959     0.0412     0.1985     2.3146
  289.5000     7.8657    59.7079     0.0414     0.2078     2.3086
  290.0000     7.8814    63.5829     0.0415     0.2152     2.2900
  290.5000     7.8971    65.3778     0.0416     0.2224     2.2781
  291.0000     7.8535    66.4297     0.0401     0.2238     2.2721
  291.5000     7.8393    68.9675     0.0403     0.2247     2.2684
  292.0000     7.8105    71.6539     0.0404     0.2196     2.2722
  292.5000     7.7671    73.7459     0.0420     0.2038     2.2971
  293.0000     7.7235    74.7978     0.0421     0.1960     2.3187
  293.5000     7.6947    75.5525     0.0422     0.1870     2.3351
  294.0000     7.6659    76.6044     0.0423     0.1819     2.3419
  294.5000     7.6816    77.6564     0.0409     0.1804     2.3471
  295.0000     7.7122    76.0337     0.0410     0.1801     2.3434
  295.5000     7.7427    74.8568     0.0396     0.1804     2.3412
  296.0000     7.7436    76.2058     0.0397     0.1828     2.3383
  296.5000     7.7445    76.9606     0.0398     0.1892     2.3322
  297.0000     7.7454    76.6752     0.0384     0.1935     2.3217
  297.5000     7.7463    76.3645     0.0370     0.1937     2.3241
  298.0000     7.7323    78.1846     0.0351     0.1815     2.3454
  298.5000     7.7482    80.2767     0.0321     0.1662     2.3684
  299.0000     7.7491    81.6258     0.0292     0.1551     2.3811
  299.5000     7.7500    84.7579     0.0262     0.1545     2.3901
  300.0000     7.7841    87.1471     0.0225     0.1592     2.3862
  300.5000     7.8300    89.3949     0.0211     0.1617     2.3752
  301.0000     7.8759    88.8168     0.0213     0.1685     2.3656
  301.5000     7.8878    87.0500     0.0215     0.1634     2.3627
  302.0000     7.8890    83.9459     0.0230     0.1565     2.3793
  302.5000     7.8902    81.1390     0.0261     0.1532     2.3891
  303.0000     7.8914    77.4406     0.0292     0.1526     2.3914
  303.5000     7.8609    76.4126     0.0309     0.1523     2.3885
  304.0000     7.8195    77.7703     0.0325     0.1525     2.3871
  304.5000     7.7762    79.5696     0.0311     0.1525     2.3894
  305.0000     7.7628    79.7304     0.0313     0.1531     2.3902
  305.5000     7.7344    79.4495     0.0284     0.1552     2.3806
  306.0000     7.7204    81.8472     0.0270     0.1587     2.3732
  306.5000     7.6922    82.8995     0.0241     0.1665     2.3680
  307.0000     7.6934    78.9080     0.0212     0.1703     2.3591
  307.5000     7.6977    78.3258     0.0213     0.1739     2.3518
  308.0000     7.7106    80.2778     0.0184     0.1786     2.3488
  308.5000     7.7266    81.1856     0.0170     0.1798     2.3489
  309.0000     7.7426    80.6075     0.0157     0.1780     2.3490
  309.5000     7.7735    79.5836     0.0158     0.1789     2.3479
  310.0000     7.8043    78.8570     0.0129     0.1818     2.3454
  310.5000     7.8352    78.2789     0.0130     0.1854     2.3373
  311.0000     7.8512    77.8453     0.0101     0.1892     2.3292
  311.5000     7.8524    77.8656     0.0103     0.1871     2.3375
  312.0000     7.8684    79.6650     0.0194     0.1790     2.3495
  312.5000     7.8844    80.4242     0.0270     0.1754     2.3533
  313.0000     7.9003    80.2912     0.0302     0.1733     2.3579
  313.5000     7.9165    80.4567     0.0333     0.1715     2.3610
  314.0000     7.9177    81.5131     0.0334     0.1700     2.3618
  314.5000     7.9337    81.5293     0.0320     0.1706     2.3589
  315.0000     7.9348    80.8027     0.0306     0.1744     2.3544
  315.5000     7.9506    80.0760     0.0292     0.1789     2.3477
  316.0000     7.9075    79.3493     0.0294     0.1824     2.3411
  316.5000     7.8936    79.2169     0.0265     0.1851     2.3398
  317.0000     7.8652    80.8738     0.0251     0.1809     2.3437
  317.5000     7.8514    82.8306     0.0221     0.1794     2.3444
  318.0000     7.8378    83.8720     0.0178     0.1817     2.3429
  318.5000     7.8093    83.1238     0.0150     0.1853     2.3379
  319.0000     7.7956    82.2565     0.0121     0.1889     2.3335
  319.5000     7.7820    81.5270     0.0119     0.1915     2.3283
  320.0000     7.7683    81.1139     0.0093     0.1948     2.3232
  320.5000     7.7995    83.0852     0.0064     0.1918     2.3270
  321.0000     7.8155    82.7301     0.0066     0.1897     2.3293
  321.5000     7.8463    82.5000     0.0067     0.1875     2.3339
  322.0000     7.8623    84.5155     0.0098     0.1842     2.3444
  322.5000     7.8784    85.8014     0.0129     0.1791     2.3535
  323.0000     7.8647    84.4845     0.0146     0.1695     2.3640
  323.5000     7.8659    85.3923     0.0162     0.1618     2.3746
  324.0000     7.8671    87.4888     0.0178     0.1605     2.3784
  324.5000     7.8683    86.6135     0.0179     0.1590     2.3792
  325.0000     7.8694    85.5856     0.0180     0.1566     2.3838
  325.5000     7.8855    87.5376     0.0182     0.1525     2.3913
  326.0000     7.8866    88.8870     0.0198     0.1479     2.3989
  326.5000     7.8878    85.3412     0.0214     0.1434     2.4042
  327.0000     7.8891    84.6146     0.0230     0.1399     2.4102
  327.5000     7.8903    83.8879     0.0246     0.1327     2.4253
  328.0000     7.8915    82.7154     0.0278     0.1263     2.4300
  328.5000     7.8925    83.6232     0.0294     0.1365     2.4090
  329.0000     7.8914    84.2339     0.0310     0.1482     2.3971
  329.5000     7.8801    83.6558     0.0296     0.1511     2.3912
  330.0000     7.8815    82.9291     0.0297     0.1525     2.3891
  330.5000     7.8827    84.1341     0.0283     0.1534     2.3967
