~VERSION INFORMATION
 VERS.                2.0:   CWLS LOG ASCII STANDARD - VERSION 2.0
 WRAP.                 NO:   ONE LINE PER DEPTH STEP
~WELL INFORMATION
#MNEM.UNIT      DATA TYPE    INFORMATION
#----------   ------------   ------------------------------
 STRT.F           36.0000:   START DEPTH
 STOP.F         2324.5000:   STOP DEPTH
 STEP.F            0.5000:   STEP LENGTH
 NULL.          -999.2500:   NO VALUE
 COMP. FENIX & SCISSON INC:   COMPANY
 WELL.           SX #57-3:   WELL
 FLD .             TEAPOT:   FIELD
 LOC .       S3 T38N R78W:   LOCATION
 CNTY.            NATRONA:   COUNTY
 STAT.            WYOMING:   STATE
 CTRY. UNITED STATES OF AMERICA:   COUNTRY
 SRVC.           BIRDWELL:   SERVICE COMPANY
 DATE.        15-JUN-1978:   LOGDATE
 API .       490251028800:   API NUMBER
~CURVE INFORMATION
#MNEM.UNIT       API CODE    CURVE DESCRIPTION
#----------   ------------   ------------------------------
 DEPT.F                  :   
 CALD.IN     45 280 60 00:   CALIPER FROM DENSITY LOG
 GRD .GAPI   45 310 01 00:   GAMMA RAY FROM DENSITY LOG
 CORR.G/C3   45 356 01 00:   DENSITY CORRECTION
 RHOB.G/C3   45 350 01 00:   BULK DENSITY
 DPHI.DEC    45 890 12 00:   DENSITY POROSITY SANDSTONE
 SPR .MV     07 010 01 00:   SPONTANEOUS POTENTIAL
 ILD .OHMM   07 120 46 00:   INDUCTION LOG DEEP
 ILM .OHMM   07 120 44 00:   INDUCTION LOG MEDIUM
 SGRD.OHMM   07 220 05 00:   SHALLOW GUARD RESISTIVITY
~PARAMETER INFORMATION
#MNEM.UNIT          VALUE    DESCRIPTION
#----------   ------------   ------------------------------
 PD  .                 GL:   PERMANENT DATUM
 EPD .F              5184:   ELEVATION PERMANENT DATUM
 LMF .                 KB:   LOG MEASURED FROM
 DAPD.F                10:   FEET ABOVE PERMANENT DATUM
 DMF .                 KB:   DRILLING MEASURED FROM
 EKB .F              5184:   KELLING BUSHING
 EGL .F              5184:   GROUND LEVEL
 DATE.            6-15-78:   RUN DATE
 RUN .                  1:   RUN NUMBER
 DD  .F              2340:   DEPTH DRILLER
 DL  .F              2324:   DEPTH LOGGER
 BLI .F              2324:   BOTTOM LOG INTERVAL
 TLI .F                50:   TOP LOG INTERVAL
 CS  .IN            9.625:   CASING SIZE
 CBD .F               600:   CASING BOTTOM DRILLER
 CBL .F               601:   CASING BOTTOM LOGGER
 BS  .IN             8.75:   BIT SIZE
 BSD .F              2340:   BIT SIZE AT DEPTH
 DFT .           AIR MIST:   DRILLING FLUID TYPE
 BHT .F                68:   BOTTOM HOLE TEMPERATURE
 MRT .F                68:   MAXIMUM RECORDED TEMPERATURE
 LUN .               2958:   LOGGING UNIT NUMBER
 LUL .               CASP:   LOGGING UNIT LOCATION
 ENGI.           REYNOLDS:   RECORDING ENGINEER
 WITN.           MCGINLEY:   WITNESSED BY
 CLNT.            A2DTECH:   CLIENT CODE
 ORIG.   2" 2.5" 5" PRINT:   ORIGIN OF DATA
 UWI .       490251028800:   UNIQUE WELL ID
 DICO. A2D Technologies, Inc.:   DIGITIZING COMPANY
~OTHER INFORMATION
~A   DEPT       CALD      GRD        CORR      RHOB         DPHI      SPR        ILD        ILM       SGRD   
# ...
  729.5000     9.0537   133.8161     0.0460     2.5219     0.0127  -999.2500  -999.2500  -999.2500  -999.2500
  730.0000     9.0196   133.8944     0.0466     2.5263     0.0127  -999.2500  -999.2500  -999.2500  -999.2500
  730.5000     9.0079   133.6811     0.0472     2.5253     0.0181  -999.2500  -999.2500  -999.2500  -999.2500
  731.0000     8.9979   135.5855     0.0478     2.5237     0.0143  -999.2500  -999.2500  -999.2500  -999.2500
  731.5000     8.9882   138.8900     0.0486     2.5228     0.0107  -999.2500  -999.2500  -999.2500  -999.2500
  732.0000     8.9784   141.2777     0.0493     2.5260     0.0121  -999.2500  -999.2500  -999.2500  -999.2500
  732.5000     8.9686   137.2987     0.0500     2.5295     0.0137  -999.2500  -999.2500  -999.2500  -999.2500
  733.0000     8.9588   132.3228     0.0507     2.5296     0.0150  -999.2500  -999.2500  -999.2500  -999.2500
  733.5000     8.9490   127.1199     0.0513     2.5275     0.0150  -999.2500  -999.2500  -999.2500  -999.2500
  734.0000     8.9394   123.7922     0.0510     2.5267     0.0116  -999.2500  -999.2500  -999.2500  -999.2500
  734.5000     8.9289   124.8015     0.0507     2.5299     0.0071  -999.2500  -999.2500  -999.2500  -999.2500
  735.0000     8.9204   128.6037     0.0504     2.5345     0.0097  -999.2500  -999.2500  -999.2500  -999.2500
  735.5000     8.9095   131.8919     0.0501     2.5352     0.0139  -999.2500  -999.2500  -999.2500  -999.2500
  736.0000     8.8966   134.1726     0.0497     2.5302     0.0190  -999.2500  -999.2500  -999.2500  -999.2500
  736.5000     8.8434   129.1965     0.0494     2.5262     0.0174  -999.2500  -999.2500  -999.2500  -999.2500
  737.0000     8.7891   130.1674     0.0491     2.5211     0.0158  -999.2500  -999.2500  -999.2500  -999.2500
  737.5000     8.7892   129.2961     0.0487     2.5212     0.0191  -999.2500  -999.2500  -999.2500  -999.2500
  738.0000     8.8013   127.6963     0.0484     2.5217     0.0213  -999.2500  -999.2500  -999.2500  -999.2500
  738.5000     8.8122   130.8327     0.0481     2.5226     0.0213  -999.2500  -999.2500  -999.2500  -999.2500
  739.0000     8.8423   137.2458     0.0477     2.5154     0.0221  -999.2500  -999.2500  -999.2500  -999.2500
  739.5000     8.8529   137.9738     0.0474     2.5149     0.0235  -999.2500  -999.2500  -999.2500  -999.2500
  740.0000     8.8351   138.1758     0.0454     2.5145     0.0245  -999.2500  -999.2500  -999.2500  -999.2500
  740.5000     8.8201   136.9538     0.0435     2.5102     0.0352  -999.2500  -999.2500  -999.2500  -999.2500
  741.0000     8.8069   136.7772     0.0415     2.5032     0.0379  -999.2500  -999.2500  -999.2500  -999.2500
  741.5000     8.7867   137.0785     0.0395     2.4965     0.0343  -999.2500  -999.2500  -999.2500  -999.2500
  742.0000     8.8155   137.3945     0.0375     2.4918     0.0312  -999.2500  -999.2500  -999.2500  -999.2500
  742.5000     8.8800   136.8772     0.0356     2.4981     0.0281  -999.2500  -999.2500  -999.2500  -999.2500
  743.0000     8.9016   136.3993     0.0336     2.5043     0.0269  -999.2500  -999.2500  -999.2500  -999.2500
  743.5000     8.8684   135.7640     0.0316     2.5069     0.0287  -999.2500  -999.2500  -999.2500  -999.2500
  744.0000     8.8433   135.2187     0.0297     2.5088     0.0292  -999.2500  -999.2500  -999.2500  -999.2500
  744.5000     8.8174   132.3551     0.0279     2.5071     0.0269  -999.2500  -999.2500  -999.2500  -999.2500
  745.0000     8.7852   129.5964     0.0304     2.5056     0.0241  -999.2500  -999.2500  -999.2500  -999.2500
  745.5000     8.8030   128.7198     0.0330     2.5065     0.0212  -999.2500  -999.2500  -999.2500  -999.2500
  746.0000     8.8532   131.3185     0.0357     2.5112     0.0183  -999.2500  -999.2500  -999.2500  -999.2500
  746.5000     8.9023   140.6650     0.0385     2.5154     0.0166  -999.2500  -999.2500  -999.2500  -999.2500
  747.0000     8.9405   142.8876     0.0391     2.5207     0.0180  -999.2500  -999.2500  -999.2500  -999.2500
  747.5000     8.9421   141.7975     0.0383     2.5228     0.0194  -999.2500  -999.2500  -999.2500  -999.2500
  748.0000     8.9686   141.3214     0.0373     2.5202     0.0205  -999.2500  -999.2500  -999.2500  -999.2500
  748.5000     8.9943   144.9810     0.0366     2.5179     0.0205  -999.2500  -999.2500  -999.2500  -999.2500
  749.0000     9.0213   146.2622     0.0364     2.5151     0.0203  -999.2500  -999.2500  -999.2500  -999.2500
  749.5000     9.0488   143.2740     0.0397     2.5147     0.0200  -999.2500  -999.2500  -999.2500  -999.2500
  750.0000     9.0596   140.5392     0.0385     2.5159     0.0198  -999.2500  -999.2500  -999.2500  -999.2500
  750.5000     9.0588   138.8543     0.0382     2.5182     0.0202  -999.2500  -999.2500  -999.2500  -999.2500
  751.0000     9.0589   138.7349     0.0376     2.5202     0.0205  -999.2500  -999.2500  -999.2500  -999.2500
  751.5000     9.0586   136.5339     0.0370     2.5187     0.0205  -999.2500  -999.2500  -999.2500  -999.2500
  752.0000     9.0650   134.3323     0.0365     2.5161     0.0269  -999.2500  -999.2500  -999.2500  -999.2500
  752.5000     9.0779   138.3450     0.0357     2.5134     0.0265  -999.2500  -999.2500  -999.2500  -999.2500
  753.0000     9.0922   140.5547     0.0371     2.5105     0.0260  -999.2500  -999.2500  -999.2500  -999.2500
  753.5000     9.0855   137.5422     0.0403     2.5087     0.0255  -999.2500  -999.2500  -999.2500  -999.2500
  754.0000     9.0453   135.1012     0.0434     2.5093     0.0250  -999.2500  -999.2500  -999.2500  -999.2500
  754.5000     9.0072   136.9195     0.0465     2.5111     0.0245  -999.2500  -999.2500  -999.2500  -999.2500
  755.0000     8.9655   142.1045     0.0495     2.5107     0.0256  -999.2500  -999.2500  -999.2500  -999.2500
  755.5000     8.9318   141.5142     0.0527     2.5109     0.0269  -999.2500  -999.2500  -999.2500  -999.2500
  756.0000     8.9122   139.4734     0.0556     2.5078     0.0253  -999.2500  -999.2500  -999.2500  -999.2500
  756.5000     8.8892   138.1161     0.0590     2.5088     0.0198  -999.2500  -999.2500  -999.2500  -999.2500
  757.0000     8.8663   138.9795     0.0579     2.5123     0.0220  -999.2500  -999.2500  -999.2500  -999.2500
  757.5000     8.8448   139.7970     0.0564     2.5147     0.0271  -999.2500  -999.2500  -999.2500  -999.2500
  758.0000     8.8229   139.9595     0.0546     2.5132     0.0300  -999.2500  -999.2500  -999.2500  -999.2500
  758.5000     8.8375   139.1012     0.0531     2.5110     0.0285  -999.2500  -999.2500  -999.2500  -999.2500
  759.0000     8.8621   140.9903     0.0515     2.5076     0.0242  -999.2500  -999.2500  -999.2500  -999.2500
  759.5000     8.8855   141.9045     0.0526     2.5054     0.0206  -999.2500  -999.2500  -999.2500  -999.2500
  760.0000     8.9083   140.8454     0.0538     2.5108     0.0202  -999.2500  -999.2500  -999.2500  -999.2500
  760.5000     8.9318   138.2396     0.0550     2.5158     0.0212  -999.2500  -999.2500  -999.2500  -999.2500
  761.0000     8.9547   136.8015     0.0548     2.5186     0.0223  -999.2500  -999.2500  -999.2500  -999.2500
  761.5000     8.9782   138.0552     0.0539     2.5165     0.0234  -999.2500  -999.2500  -999.2500  -999.2500
  762.0000     9.0012   139.1663     0.0531     2.5150     0.0239  -999.2500  -999.2500  -999.2500  -999.2500
  762.5000     9.0190   138.4740     0.0523     2.5134     0.0241  -999.2500  -999.2500  -999.2500  -999.2500
  763.0000     9.0030   137.8833     0.0514     2.5128     0.0242  -999.2500  -999.2500  -999.2500  -999.2500
  763.5000     8.9823   136.3311     0.0502     2.5129     0.0244  -999.2500  -999.2500  -999.2500  -999.2500
  764.0000     8.9614   134.3425     0.0487     2.5120     0.0290  -999.2500  -999.2500  -999.2500  -999.2500
  764.5000     8.9400   140.7742     0.0474     2.5082     0.0355  -999.2500  -999.2500  -999.2500  -999.2500
  765.0000     8.9198   147.7677     0.0460     2.5019     0.0375  -999.2500  -999.2500  -999.2500  -999.2500
  765.5000     8.9044   145.1140     0.0446     2.4958     0.0395  -999.2500  -999.2500  -999.2500  -999.2500
