~VERSION INFORMATION
 VERS.                2.0:   CWLS LOG ASCII STANDARD - VERSION 2.0
 WRAP.                 NO:   ONE LINE PER DEPTH STEP
~WELL INFORMATION
#MNEM.UNIT      DATA TYPE    INFORMATION
#----------   ------------   ------------------------------
 STRT.F           24.0000:   START DEPTH
 STOP.F          609.0000:   STOP DEPTH
 STEP.F            0.5000:   STEP LENGTH
 NULL.          -999.2500:   NO VALUE
 COMP. FENIX & SCISSON INC:   COMPANY
 WELL.        S 34 #48-34:   WELL
 FLD .            NPR - 3:   FIELD
 LOC .      S34 T39N R78W:   LOCATION
 CNTY.            NATRONA:   COUNTY
 STAT.            WYOMING:   STATE
 CTRY. UNITED STATES OF AMERICA:   COUNTRY
 SRVC.              Welex:   SERVICE COMPANY
 DATE.        03-MAY-1977:   LOGDATE
 API .       490251035700:   API NUMBER
~CURVE INFORMATION
#MNEM.UNIT       API CODE    CURVE DESCRIPTION
#----------   ------------   ------------------------------
 DEPT.F                  :   
 CALD.IN     45 280 60 00:   CALIPER FROM DENSITY LOG
 CORR.G/C3   45 356 01 00:   DENSITY CORRECTION
 DPHI.DEC    45 890 12 00:   DENSITY POROSITY SANDSTONE
 GRD .GAPI   45 310 01 00:   GAMMA RAY FROM DENSITY LOG
 RHOB.G/C3   45 350 01 00:   BULK DENSITY
 GURD.OHMM   07 220 05 00:   SHALLOW GUARD RESISTIVITY
 ILD .OHMM   07 120 46 00:   INDUCTION LOG DEEP
 ILM .OHMM   07 120 44 00:   INDUCTION LOG MEDIUM
 SPR .MV     07 010 01 00:   SPONTANEOUS POTENTIAL FROM RES.
~PARAMETER INFORMATION
#MNEM.UNIT          VALUE    DESCRIPTION
#----------   ------------   ------------------------------
 PD  .                 GL:   PERMANENT DATUM
 EPD .F              5160:   ELEVATION PERMANENT DATUM
 LMF .                 GL:   LOG MEASURED FROM
 DMF .                 GL:   DRILLING MEASURED FROM
 EGL .F              5160:   GROUND LEVEL
 DATE.        03-MAY-1977:   RUN DATE
 RUN .                  1:   RUN NUMBER
 DD  .F               610:   DEPTH DRILLER
 DL  .F               611:   DEPTH LOGGER
 BLI .F               609:   BOTTOM LOG INTERVAL
 TLI .F                30:   TOP LOG INTERVAL
 CS  .IN            8.625:   CASING SIZE
 CBD .F                40:   CASING BOTTOM DRILLER
 CBL .F                32:   CASING BOTTOM LOGGER
 BS  .IN            7.875:   BIT SIZE
 BSD .F               610:   BIT SIZE AT DEPTH
 DFT .            KCL GEL:   DRILLING FLUID TYPE
 DFD .                8.9:   DRILLING FLUID DENSITY
 DFV .                 33:   DRILLING FLUID VISCOSITY
 DFPH.                8.0:   DRILLING FLUID PH
 DFL .                7.2:   DRILLING FLUID LOSS
 MSS .            MUD PIT:   MUD SAMPLE SOURCE
 RMS .OHMM           0.19:   RESISTIVITY MUD SAMPLE
 MST .F                65:   MUD SAMPLE TEMPERATURE
 RMF .OHMM           0.16:   RESISTIVITY MUD FILTRATE SAMPLE
 MFST.F                65:   MUD FILTRATE SAMPLE TEMPERATURE
 RMC .OHMM           0.24:   RESISTIVITY MUD CAKE
 MCST.F                65:   MUD CAKE SAMPLE TEMPERATURE
 MFSS.               MEAS:   MUD FILTRATE SAMPLE SOURCE
 MCSS.               MEAS:   MUD CAKE SAMPLE SOURCE
 RMB .OHMM           0.17:   RESISTIVITY MUD AT BHT
 BHT .F                72:   BOTTOM HOLE TEMPERATURE
 TCS .HRS               2:   TIME CURCULATED STOPPED
 MRT .F                72:   MAXIMUM RECORDED TEMPERATURE
 LUN .               8766:   LOGGING UNIT NUMBER
 LUL .             CASPER:   LOGGING UNIT LOCATION
 ENGI.          T. JOYNER:   RECORDING ENGINEER
 WITN.           ROB LYON:   WITNESSED BY
 CLNT.            A2DTECH:   CLIENT CODE
 ORIG.           5" PRINT:   ORIGIN OF DATA
 UWI .       490251035700:   UNIQUE WELL ID
 DICO. A2D Technologies, Inc.:   DIGITIZING COMPANY
~OTHER INFORMATION
~A   DEPT       CALD      CORR        DPHI      GRD         RHOB     GURD        ILD        ILM        SPR   
# ...
  389.0000     7.7769     0.0254     0.1208   114.5967     2.4796    11.5673     7.1539     8.7610   -28.1005
  389.5000     7.7785     0.0315     0.1202   117.8780     2.4826    11.1072     7.1608     8.5853   -28.0814
  390.0000     7.7804     0.0361     0.1241   119.5272     2.4790    11.0385     7.1677    10.0763   -27.7647
  390.5000     7.7820     0.0302     0.1333   120.8797     2.4647    11.6006     7.0760     9.9445   -27.7456
  391.0000     7.7683     0.0243     0.1396   124.4578     2.4514    12.1885     6.9372     9.2855   -27.7265
  391.5000     7.7550     0.0200     0.1417   125.5135     2.4395    12.7178     6.6156     8.7304   -27.4097
  392.0000     7.7570     0.0139     0.1434   122.9450     2.4471    13.1785     6.1792     8.3230   -27.0930
  392.5000     7.7585     0.0082     0.1291   113.8312     2.4831    13.1001     5.8521     7.7152   -26.9251
  393.0000     7.7602     0.0083     0.1162   110.8767     2.4922    12.8230     5.4284     6.8662   -26.7572
  393.5000     7.7621     0.0130     0.1152   114.3107     2.4908     9.6998     4.9661     5.8999   -26.4405
  394.0000     7.7637     0.0146     0.1170   114.4763     2.4864     4.9492     4.8352     5.3215   -25.9749
  394.5000     7.7653     0.0192     0.1163   112.8614     2.4857     4.9185     4.8398     5.6676   -25.3606
  395.0000     7.7669     0.0208     0.1154   110.9498     2.4889     5.8959     4.9473     7.4816   -24.8950
  395.5000     7.7685     0.0240     0.1163   109.0060     2.4896    13.4544     5.1298     8.8404   -24.1319
  396.0000     7.7700     0.0271     0.1174   110.9885     2.4875    13.8455     5.3143     9.3504   -23.5175
  396.5000     7.7716     0.0302     0.1186   115.1600     2.4853    13.8588     5.6331     9.8216   -22.9032
  397.0000     7.7733     0.0333     0.1171   115.7707     2.4884    13.8721     6.0818    10.3165   -22.4325
  397.5000     7.7752     0.0349     0.1149   115.0461     2.4937    13.8854     6.4007    10.8363   -21.8105
  398.0000     7.7765     0.0395     0.1146   112.8378     2.4960    14.3884     7.0330    11.2258   -21.1885
  398.5000     7.7782     0.0396     0.1180   109.7393     2.4871    14.7045     7.4921    11.5490   -20.2688
  399.0000     7.7799     0.0428     0.1245   103.1256     2.4722    14.6167     7.9812    11.7181   -19.2315
  399.5000     7.7815     0.0444     0.1364    91.5287     2.4580    14.4298     8.3854    11.6452   -18.4683
  400.0000     7.7831     0.0415     0.1481    79.0830     2.4446    14.3440     9.0573    11.4929   -17.5563
  400.5000     7.7847     0.0401     0.1546    74.9459     2.4279    14.2586     9.6486    11.5008   -16.7932
  401.0000     7.7866     0.0403     0.1579    73.9245     2.4165    14.3718     9.9289    11.6763   -16.0300
  401.5000     7.7882     0.0404     0.1609    73.7890     2.4052    14.3997     9.6671    11.9442   -15.1921
  402.0000     7.7898     0.0405     0.1626    78.2616     2.4097    15.0497     9.9480    12.7443   -13.9395
  402.5000     7.7914     0.0406     0.1583    77.9377     2.4173    17.5011    10.8949    12.8858   -13.0350
  403.0000     7.7929     0.0467     0.1559    71.7508     2.4204    21.5504    11.9319    15.5457   -12.7258
  403.5000     7.7945     0.0469     0.1538    68.9347     2.4250    26.1847    12.9612    16.2164   -12.4165
  404.0000     7.7629     0.0440     0.1505    68.0742     2.4311    20.3900    14.1228    16.9160   -12.2560
  404.5000     7.7654     0.0351     0.1481    67.6399     2.4349    18.0469    15.1500    18.0161   -12.0952
  405.0000     7.7654     0.0292     0.1469    68.5482     2.4357    19.6322    16.3648    18.9240   -12.0810
  405.5000     7.7654     0.0233     0.1474    71.5300     2.4328    22.8832    17.9233    19.3345   -12.0694
  406.0000     7.6241     0.0219     0.1504    77.0340     2.4290    24.8879    19.3605    21.0242   -11.7601
  406.5000     7.7449     0.0236     0.1546    78.9773     2.4238    27.8285    20.9173    23.1805   -11.7484
  407.0000     7.8060     0.0297     0.1593    79.2885     2.4151    30.2664    22.6260    25.0324   -11.5880
  407.5000     7.8250     0.0298     0.1641    79.0059     2.4076    32.4651    22.0008    26.2938   -11.4275
  408.0000     7.8115     0.0357     0.1692    78.2612     2.3980    33.6384    20.2682    27.4281   -11.4159
  408.5000     7.8136     0.0358     0.1758    77.2547     2.3868    33.6064    17.4236    28.2178   -11.1066
  409.0000     7.8154     0.0359     0.1816    76.6756     2.3764    29.1431    14.1716    27.2762   -11.0949
  409.5000     7.8169     0.0375     0.1861    76.1002     2.3690    27.0292    11.5266    24.4321   -10.7857
  410.0000     7.8187     0.0421     0.1870    75.5212     2.3675    23.0697    11.2984    20.5622   -10.4762
  410.5000     7.8206     0.0422     0.1888    74.9422     2.3661    22.4542    12.0396    18.9355   -10.3155
  411.0000     7.8223     0.0423     0.1929    73.7697     2.3535    23.2708    13.8407    20.1671   -10.1525
  411.5000     7.8092     0.0424     0.1978    70.0750     2.3438    24.7891    16.1627    21.6284    -9.9921
  412.0000     7.7961     0.0380     0.2076    60.7422     2.3332    26.7747    19.9576    20.9005    -9.6828
  412.5000     7.7982     0.0351     0.2108    61.3501     2.3244    24.8326    20.8826    19.6342    -9.3735
  413.0000     7.7703     0.0307     0.2096    65.5826     2.3283    27.0234    19.9154    18.1958    -9.3619
  413.5000     7.7720     0.0278     0.2066    69.2462     2.3337    29.8359    21.6671    17.6189    -9.2014
  414.0000     7.7736     0.0249     0.2032    72.0796     2.3397    30.2257    22.9236    17.6340    -8.8922
  414.5000     7.7753     0.0250     0.1980    74.4679     2.3496    32.1978    23.9195    17.6461    -8.5829
  415.0000     7.7772     0.0267     0.1921    77.7465     2.3639    28.6470    25.3066    17.6582    -8.5712
  415.5000     7.7789     0.0313     0.1798    80.7283     2.3787    30.7348    27.1473    17.7931    -8.8601
  416.0000     7.7807     0.0374     0.1744    83.2650     2.3893    36.5763    28.3268    18.1791    -9.1587
  416.5000     7.7825     0.0435     0.1725    85.2082     2.3916    37.3769    29.1674    18.0660    -9.7238
  417.0000     7.7842     0.0451     0.1704    85.6736     2.3932    34.1890    29.5950    17.5845    -9.8610
  417.5000     7.7863     0.0437     0.1671    84.6142     2.3995    30.8429    29.6249    17.5965    -9.8493
  418.0000     7.7881     0.0393     0.1671    82.8011     2.4031    30.0266    29.4430    18.6116    -9.9865
  418.5000     7.7898     0.0379     0.1685    79.9284     2.4015    30.2628    28.6754    20.8067    -9.9749
  419.0000     7.8213     0.0320     0.1697    78.3108     2.3980    30.0859    27.7283    20.9620   -10.2608
  419.5000     7.8527     0.0321     0.1703    78.6220     2.3958    26.7681    26.6275    19.8493   -10.4009
  420.0000     7.8396     0.0307     0.1675    79.9718     2.3974    26.7916    25.9268    18.6627   -10.5380
  420.5000     7.6928     0.0308     0.1633    81.0248     2.4035    27.0014    25.2439    17.7918   -10.5235
  421.0000     7.6499     0.0324     0.1597    79.4072     2.4088    27.0251    24.4085    17.8040   -10.6607
  421.5000     7.6814     0.0325     0.1570    77.3445     2.4134    27.2368    23.4245    18.8311   -10.6488
  422.0000     7.7430     0.0371     0.1554    77.6717     2.4172    28.2212    22.6674    19.5202   -10.7861
  422.5000     7.7447     0.0372     0.1584    81.3897     2.4188    29.0393    22.0709    19.1199   -10.7716
  423.0000     7.7465     0.0328     0.1632    86.5903     2.4113    27.0884    21.0539    18.8698   -10.7599
  423.5000     7.7482     0.0260     0.1658    88.8303     2.4039    25.6867    20.0787    18.8829   -10.7483
  424.0000     7.7499     0.0210     0.1661    84.2453     2.3995    25.0014    18.7552    19.0378   -10.8883
  424.5000     7.7517     0.0257     0.1639    81.2924     2.4026    24.6792    18.5115    19.4568   -11.0255
  425.0000     7.7386     0.0273     0.1614    79.5264     2.4071    24.3611    18.4063    20.0232   -11.0109
