~VERSION INFORMATION
 VERS.                2.0:   CWLS LOG ASCII STANDARD - VERSION 2.0
 WRAP.                 NO:   ONE LINE PER DEPTH STEP
~WELL INFORMATION
#MNEM.UNIT      DATA TYPE    INFORMATION
#----------   ------------   ------------------------------
 STRT.F          660.0000:   START DEPTH
 STOP.F         2899.5000:   STOP DEPTH
 STEP.F            0.5000:   STEP LENGTH
 NULL.          -999.2500:   NO VALUE
 COMP. LAWRENCE/ALLISON INC:   COMPANY
 WELL. NPR #3 22 X 10 #22-10:   WELL
 FLD .             TEAPOT:   FIELD
 LOC .      S10 T38N R78W:   LOCATION
 CNTY.            NATRONA:   COUNTY
 STAT.            WYOMING:   STATE
 CTRY. UNITED STATES OF AMERICA:   COUNTRY
 SRVC.            Unknown:   SERVICE COMPANY
 DATE.        11-SEP-1986:   LOGDATE
 API .       490251106200:   API NUMBER
~CURVE INFORMATION
#MNEM.UNIT       API CODE    CURVE DESCRIPTION
#----------   ------------   ------------------------------
 DEPT.F                  :   
 ROP .MIN/FT 91 810 01 00:   RATE OF DRILLING PENETRATION
 TGAS.UNITS  91 830 01 00:   TOTAL GAS FROM HOTWIRE
~PARAMETER INFORMATION
#MNEM.UNIT          VALUE    DESCRIPTION
#----------   ------------   ------------------------------
 DATE.          9-11-1986:   RUN DATE
 DD  .F              2900:   DEPTH DRILLER
 TLI .F              1380:   TOP LOG INTERVAL
 WITN. R. HUSK/K. FREDERICK:   WITNESSED BY
 CLNT.            A2DTECH:   CLIENT CODE
 ORIG.           5" PRINT:   ORIGIN OF DATA
 UWI .       490251106200:   UNIQUE WELL ID
 DICO. A2D Technologies, Inc.:   DIGITIZING COMPANY
~OTHER INFORMATION
~A   DEPT      ROP         TGAS 
# ...
 1389.0000     0.2690   119.8562
 1389.5000     0.2696   119.9062
 1390.0000     0.2701   119.9562
 1390.5000     0.2706   120.0062
 1391.0000     0.2711   120.0563
 1391.5000     0.2717   120.1063
 1392.0000     0.2722   120.1563
 1392.5000     0.2727   120.2063
 1393.0000     0.2733   120.2564
 1393.5000     0.2738   120.3064
 1394.0000     0.2743   120.3564
 1394.5000     0.2748   120.4064
 1395.0000     0.2754   120.4565
 1395.5000     0.2759   120.5065
 1396.0000     0.2764   120.5565
 1396.5000     0.2770   120.6065
 1397.0000     0.2775   120.6566
 1397.5000     0.2780   120.7066
 1398.0000     0.2785   120.7566
 1398.5000     0.2791   120.8066
 1399.0000     0.2796   120.8567
 1399.5000     0.2801   120.9067
 1400.0000     0.2807   120.9567
 1400.5000     0.3769   121.0592
 1401.0000     0.4602   121.1617
 1401.5000     0.5096   121.2642
 1402.0000     0.5288   121.3667
 1402.5000     0.5368   121.4692
 1403.0000     0.5359   121.5718
 1403.5000     0.5351   121.6743
 1404.0000     0.5344   121.7768
 1404.5000     0.5344   121.8793
 1405.0000     0.5344   121.9818
 1405.5000     0.5345   122.0843
 1406.0000     0.5345   122.1868
 1406.5000     0.5346   122.2893
 1407.0000     0.5346   122.3918
 1407.5000     0.5346   122.4943
 1408.0000     0.5347   122.5968
 1408.5000     0.5347   122.6993
 1409.0000     0.5347   122.8018
 1409.5000     0.5348   122.9043
 1410.0000     0.5348   123.0068
 1410.5000     0.5349   123.1093
 1411.0000     0.5349   123.2118
 1411.5000     0.5349   123.3143
 1412.0000     0.5350   123.4169
 1412.5000     0.5350   123.5194
 1413.0000     0.5350   123.6219
 1413.5000     0.5351   123.7244
 1414.0000     0.5351   123.8269
 1414.5000     0.5352   123.9294
 1415.0000     0.5352   124.0319
 1415.5000     0.5352   124.1344
 1416.0000     0.5353   124.2369
 1416.5000     0.5353   124.3394
 1417.0000     0.5353   124.4419
 1417.5000     0.5354   124.5444
 1418.0000     0.5354   124.6469
 1418.5000     0.5355   124.7494
 1419.0000     0.5355   124.8519
 1419.5000     0.5355   124.9544
 1420.0000     0.5356   125.0569
 1420.5000     0.5356   124.9246
 1421.0000     0.5356   124.7923
 1421.5000     0.5357   124.6600
 1422.0000     0.5357   124.5277
 1422.5000     0.5358   124.3954
 1423.0000     0.5358   124.2631
 1423.5000     0.5358   124.1308
 1424.0000     0.5359   123.9985
 1424.5000     0.5359   123.8662
 1425.0000     0.5359   123.7339
 1425.5000     0.5360   123.6016
 1426.0000     0.5360   123.4693
 1426.5000     0.5361   123.3369
 1427.0000     0.5361   123.2046
 1427.5000     0.5361   123.0723
 1428.0000     0.5362   122.9400
 1428.5000     0.5362   122.8077
 1429.0000     0.5362   122.6754
 1429.5000     0.5254   122.5431
 1430.0000     0.4712   122.4108
 1430.5000     0.4276   122.2785
 1431.0000     0.3749   122.1462
 1431.5000     0.3319   122.0139
 1432.0000     0.2905   121.8816
 1432.5000     0.2619   121.7493
 1433.0000     0.2531   121.6170
 1433.5000     0.2649   121.4846
 1434.0000     0.3261   121.3523
 1434.5000     0.4201   121.2200
 1435.0000     0.5373   121.0877
 1435.5000     0.6474   120.9554
 1436.0000     0.7433   120.8231
 1436.5000     0.7981   120.6908
 1437.0000     0.7916   120.5585
 1437.5000     0.7913   120.4262
 1438.0000     0.7911   120.2939
 1438.5000     0.7908   120.1616
 1439.0000     0.7905   120.0293
 1439.5000     0.7903   119.8969
 1440.0000     0.7770   119.7646
 1440.5000     0.7162   119.6323
 1441.0000     0.6466   119.5000
 1441.5000     0.5956   119.3677
 1442.0000     0.5516   119.2354
 1442.5000     0.5216   119.1031
 1443.0000     0.5153   118.9708
 1443.5000     0.5150   118.8385
 1444.0000     0.5147   118.7062
 1444.5000     0.5144   118.5739
 1445.0000     0.5141   118.4416
 1445.5000     0.5138   118.3428
 1446.0000     0.5135   132.2271
 1446.5000     0.5132   168.1883
 1447.0000     0.5129   206.0667
 1447.5000     0.5126   244.2198
 1448.0000     0.5123   277.9944
 1448.5000     0.5120   278.3559
 1449.0000     0.5117   247.9646
 1449.5000     0.5114   215.3174
 1450.0000     0.5111   190.3189
 1450.5000     0.5108   171.9525
 1451.0000     0.5105   154.9542
 1451.5000     0.5102   139.5248
 1452.0000     0.5099   129.9673
 1452.5000     0.5096   127.8676
 1453.0000     0.5093   127.8180
 1453.5000     0.5090   125.7183
 1454.0000     0.5602   125.6687
 1454.5000     0.6218   125.4983
 1455.0000     0.6834   125.2705
 1455.5000     0.7347   125.0427
 1456.0000     0.7860   124.8149
 1456.5000     0.7955   124.5871
 1457.0000     0.7947   124.3593
 1457.5000     0.7939   124.1316
 1458.0000     0.7931   123.9038
 1458.5000     0.7924   123.6760
 1459.0000     0.7942   123.4482
 1459.5000     0.8012   123.2204
 1460.0000     0.8004   123.0110
 1460.5000     0.7988   123.0177
 1461.0000     0.7958   123.0240
 1461.5000     0.7928   123.0302
 1462.0000     0.7751   123.0365
 1462.5000     0.7281   123.0427
 1463.0000     0.6653   123.0490
 1463.5000     0.6004   123.0552
 1464.0000     0.5416   123.0614
 1464.5000     0.5060   123.0677
 1465.0000     0.5016   123.0739
 1465.5000     0.5082   123.0802
 1466.0000     0.5598   123.0864
 1466.5000     0.6210   123.0927
 1467.0000     0.6750   123.0989
 1467.5000     0.7367   123.1052
 1468.0000     0.7770   123.1114
 1468.5000     0.7841   123.1177
 1469.0000     0.7843   123.1239
 1469.5000     0.7846   123.1302
 1470.0000     0.7849   123.1364
 1470.5000     0.7853   123.1427
 1471.0000     0.7858   123.1489
 1471.5000     0.7863   123.1552
 1472.0000     0.7868   123.1614
 1472.5000     0.7873   123.1676
 1473.0000     0.7877   123.1739
 1473.5000     0.7882   123.1801
 1474.0000     0.7887   123.1864
 1474.5000     0.7892   123.1926
 1475.0000     0.7897   123.1989
 1475.5000     0.7902   123.2051
 1476.0000     0.7906   123.2114
 1476.5000     0.7911   123.2176
 1477.0000     0.7916   123.2239
 1477.5000     0.7921   123.2301
 1478.0000     0.7926   123.2118
 1478.5000     0.7930   136.8512
 1479.0000     0.7935   172.8253
 1479.5000     0.7940   223.0970
 1480.0000     0.7945   222.9463
 1480.5000     0.7950   183.3935
 1481.0000     0.7954   152.6216
 1481.5000     0.7959   130.6307
 1482.0000     0.7964   121.8794
 1482.5000     0.7969   120.7005
 1483.0000     0.7974   120.6391
 1483.5000     0.7979   120.7105
 1484.0000     0.7983   120.7994
 1484.5000     0.7988   120.8883
 1485.0000     0.7993   120.9772
 1485.5000     0.7998   121.0661
 1486.0000     0.8003   121.1550
 1486.5000     0.8007   121.2439
 1487.0000     0.8012   121.3328
 1487.5000     0.8017   121.4217
 1488.0000     0.8022   121.5106
 1488.5000     0.8027   121.5995
 1489.0000     0.8032   121.6884
 1489.5000     0.8036   121.7773
 1490.0000     0.8041   121.8662
 1490.5000     0.8046   121.9551
 1491.0000     0.8051   122.0440
 1491.5000     0.8056   122.1329
 1492.0000     0.8060   122.2218
 1492.5000     0.8065   122.3107
 1493.0000     0.8070   122.3960
 1493.5000     0.8051   119.7263
 1494.0000     0.7953   111.7656
 1494.5000     0.7599   109.5701
 1495.0000     0.6782   107.6310
 1495.5000     0.6260   107.5285
 1496.0000     0.5738   107.4260
 1496.5000     0.5423   108.4775
 1497.0000     0.5421   113.3713
 1497.5000     0.5314   113.7388
 1498.0000     0.5208   135.7175
 1498.5000     0.5101   269.8645
 1499.0000     0.5099   512.8121
 1499.5000     0.5096   686.8802
 1500.0000     0.5094   637.5771
 1500.5000     0.5089   543.1714
 1501.0000     0.4984   415.9639
 1501.5000     0.4982   346.1596
 1502.0000     0.4998   227.1526
 1502.5000     0.5872   128.3053
 1503.0000     0.6694   112.1454
 1503.5000     0.7515   112.2267
 1504.0000     0.7817   112.3047
 1504.5000     0.7911   112.3828
 1505.0000     0.7901   112.4608
 1505.5000     0.8099   112.5388
 1506.0000     0.8084   112.6169
 1506.5000     0.8059   112.6949
 1507.0000     0.8034   112.7730
 1507.5000     0.8009   112.8510
 1508.0000     0.7983   112.9290
 1508.5000     0.7958   113.0071
 1509.0000     0.7933   113.0851
 1509.5000     0.7908   113.1632
 1510.0000     0.7883   113.2412
