~VERSION INFORMATION
 VERS.                2.0:   CWLS LOG ASCII STANDARD - VERSION 2.0
 WRAP.                 NO:   ONE LINE PER DEPTH STEP
~WELL INFORMATION
#MNEM.UNIT      DATA TYPE    INFORMATION
#----------   ------------   ------------------------------
 STRT.F           39.0000:   START DEPTH
 STOP.F          478.0000:   STOP DEPTH
 STEP.F            0.5000:   STEP LENGTH
 NULL.          -999.2500:   NO VALUE
 COMP. FENIX & SCISSON, INC.:   COMPANY
 WELL.  S-3 NPR #3 #46S-3:   WELL
 FLD .              NPR-3:   FIELD
 LOC .       S3 T38N R78W:   LOCATION
 CNTY.            NATRONA:   COUNTY
 STAT.            WYOMING:   STATE
 CTRY. UNITED STATES OF AMERICA:   COUNTRY
 SRVC.      Dresser Atlas:   SERVICE COMPANY
 DATE.        28-MAR-1977:   LOGDATE
 API .       490251034100:   API NUMBER
~CURVE INFORMATION
#MNEM.UNIT       API CODE    CURVE DESCRIPTION
#----------   ------------   ------------------------------
 DEPT.F                  :   
 ILD .OHMM   07 120 46 00:   INDUCTION LOG DEEP
 ILM .OHMM   07 120 44 00:   INDUCTION LOG MEDIUM
 SFL .OHMM   07 220 01 00:   SHALLOW FOCUSED LOG RESISTIVITY
 SPR .MV     07 010 01 00:   SPONTANEOUS POTENTIAL
 CALD.IN     45 280 60 00:   CALIPER FROM DENSITY LOG
 GRD .GAPI   45 310 01 00:   GAMMA RAY FROM DENSITY LOG
 DPHI.DEC    45 890 12 00:   DENSITY POROSITY SANDSTONE
 RHOB.G/C3   45 350 01 00:   BULK DENSITY
 DRHO.G/C3   45 356 01 00:   DENSITY CORRECTION
~PARAMETER INFORMATION
#MNEM.UNIT          VALUE    DESCRIPTION
#----------   ------------   ------------------------------
 PD  .                 GL:   PERMANENT DATUM
 EPD .F              5186:   ELEVATION PERMANENT DATUM
 LMF .                 KB:   LOG MEASURED FROM
 DAPD.F                 3:   FEET ABOVE PERMANENT DATUM
 DMF .                 KB:   DRILLING MEASURED FROM
 EKB .F              5189:   KELLING BUSHING
 EGL .F              5186:   GROUND LEVEL
 DATE.        28-MAR-1977:   RUN DATE
 RUN .                  1:   RUN NUMBER
 DD  .F               480:   DEPTH DRILLER
 DL  .F               480:   DEPTH LOGGER
 BLI .F               478:   BOTTOM LOG INTERVAL
 TLI .F                40:   TOP LOG INTERVAL
 CS  .IN            8.625:   CASING SIZE
 CBD .F                40:   CASING BOTTOM DRILLER
 CBL .F                40:   CASING BOTTOM LOGGER
 BS  .IN            7.875:   BIT SIZE
 BSD .F               480:   BIT SIZE AT DEPTH
 DFT .           CHEM GEL:   DRILLING FLUID TYPE
 DFD .                8.9:   DRILLING FLUID DENSITY
 DFV .                 39:   DRILLING FLUID VISCOSITY
 DFPH.                 11:   DRILLING FLUID PH
 DFL .                 16:   DRILLING FLUID LOSS
 MSS .           FLOWLINE:   MUD SAMPLE SOURCE
 RMS .OHMM           0.41:   RESISTIVITY MUD SAMPLE
 MST .F                40:   MUD SAMPLE TEMPERATURE
 RMF .OHMM           0.29:   RESISTIVITY MUD FILTRATE SAMPLE
 MFST.F                62:   MUD FILTRATE SAMPLE TEMPERATURE
 RMC .OHMM           0.28:   RESISTIVITY MUD CAKE
 MCST.F                62:   MUD CAKE SAMPLE TEMPERATURE
 MFSS.               MEAS:   MUD FILTRATE SAMPLE SOURCE
 MCSS.               MEAS:   MUD CAKE SAMPLE SOURCE
 RMB .OHMM           0.26:   RESISTIVITY MUD AT BHT
 BHT .F                62:   BOTTOM HOLE TEMPERATURE
 TCS .HRS               6:   TIME CURCULATED STOPPED
 MRT .F                62:   MAXIMUM RECORDED TEMPERATURE
 LUN .               6145:   LOGGING UNIT NUMBER
 LUL .              GLTTE:   LOGGING UNIT LOCATION
 ENGI.              RANCK:   RECORDING ENGINEER
 WITN.     MR. STUEBINGER:   WITNESSED BY
 CLNT.            A2DTECH:   CLIENT CODE
 ORIG.           5" PRINT:   ORIGIN OF DATA
 UWI .       490251034100:   UNIQUE WELL ID
 DICO. A2D Technologies, Inc.:   DIGITIZING COMPANY
~OTHER INFORMATION
~A   DEPT      ILD        ILM        SFL        SPR       CALD         GRD      DPHI       RHOB       DRHO   
# ...
  404.0000     9.8052    11.2289    14.7080   -25.2180     7.7506    84.8447     0.1183     2.4628     0.0443
  404.5000     9.8008    11.2385    14.7212   -25.6502     7.7530    85.4680     0.1195     2.4621     0.0475
  405.0000     9.7964    11.2504    14.7361   -26.2312     7.7403    86.2357     0.1201     2.4577     0.0492
  405.5000     9.7921    11.4158    14.7510   -26.6662     7.7274    87.0034     0.1209     2.4510     0.0543
  406.0000     9.7877    11.8338    14.6603   -26.9435     7.6533    87.1733     0.1209     2.4480     0.0661
  406.5000     9.7833    12.4377    14.4721   -26.9197     7.5981    87.0434     0.1202     2.4467     0.0738
  407.0000     9.7789    13.4433    14.3833   -26.7504     7.5854    87.0644     0.1193     2.4513     0.0800
  407.5000     9.7745    12.9920    14.1959   -26.1308     7.6480    86.7858     0.1184     2.4559     0.0846
  408.0000     9.7701    12.2951    14.0108   -25.6612     7.6205    86.6567     0.1174     2.4597     0.0848
  408.5000     9.7657    11.7971    13.8282   -25.3419     7.5333    88.1769     0.1171     2.4605     0.0835
  409.0000     9.7613    11.4831    13.7461   -25.1726     7.4610    89.5425     0.1186     2.4584     0.0791
  409.5000     9.7569    11.3331    13.5670   -24.7642     7.4034    90.4597     0.1221     2.4494     0.0705
  410.0000     9.7525    11.2634    13.5780   -24.7409     7.3592    91.0779     0.1255     2.4341     0.0602
  410.5000     9.7481    11.2730    13.5890   -24.7175     7.3485    91.5467     0.1290     2.4204     0.0513
  411.0000     9.7437    11.2842    13.5052   -24.6942     7.3813    90.2217     0.1325     2.4144     0.0425
  411.5000     9.7393    11.3283    13.3294   -24.8268     7.4433    89.3428     0.1310     2.4175     0.0337
  412.0000     9.7349    11.3807    13.2478   -24.9536     7.4754    89.0666     0.1265     2.4378     0.0294
  412.5000     9.7306    11.3913    13.2591   -25.2247     7.4778    88.6436     0.1189     2.4672     0.0326
  413.0000     9.7262    11.4006    13.2721   -25.2014     7.4353    88.2155     0.1069     2.4875     0.0405
  413.5000     9.7218    11.4094    13.3757   -25.6285     7.3779    87.4884     0.0981     2.4989     0.0510
  414.0000     9.7174    11.4190    13.3866   -25.7553     7.4137    87.6582     0.0907     2.5043     0.0572
  414.5000     9.7136    11.4286    13.4912   -25.8821     7.5772    89.7712     0.0875     2.5065     0.0646
  415.0000     9.7248    11.3764    13.5014   -26.0089     7.6839    91.8843     0.0890     2.5096     0.0741
  415.5000     9.7333    11.3675    13.5131   -26.1357     7.7012    92.5025     0.0851     2.5142     0.0833
  416.0000     9.7425    11.4575    13.5940   -25.9564     7.7035    92.5232     0.0820     2.5195     0.0924
  416.5000     9.7518    11.4684    13.6300   -25.9331     7.6909    92.6977     0.0802     2.5226     0.1002
  417.0000     9.7609    11.5583    13.5461   -25.9097     7.6634    92.4191     0.0913     2.5159     0.1079
  417.5000     9.7702    11.5669    13.3723   -25.8859     7.6209    91.3931     0.1011     2.4898     0.1111
  418.0000     9.7811    11.6585    13.2696   -26.0132     7.5604    91.2589     0.1122     2.4599     0.1112
  418.5000     9.7901    11.6681    13.1143   -25.9840     7.4619    91.7327     0.1218     2.4329     0.1099
  419.0000     9.7288    11.6776    12.8561   -25.9607     7.3896    91.7531     0.1269     2.4188     0.1101
  419.5000     9.7378    11.6872    12.6005   -26.0933     7.3472    91.1755     0.1316     2.4098     0.1103
  420.0000     9.6806    11.6967    12.6107   -26.0641     7.3340    90.1495     0.1349     2.4032     0.1135
  420.5000     9.6224    11.5437    12.4463   -26.0408     7.3369    90.2227     0.1367     2.3972     0.1137
  421.0000     9.5646    11.4726    12.3700   -26.0174     7.3392    92.7363     0.1351     2.3921     0.1079
  421.5000     9.5737    11.4020    12.3825   -26.1466     7.3714    93.2051     0.1327     2.3906     0.0991
  422.0000     9.4486    11.4137    12.3041   -26.4212     7.4121    93.5244     0.1289     2.3995     0.0858
  422.5000     9.3552    11.1859    12.3152   -26.5480     7.4811    93.8437     0.1221     2.4253     0.0725
  423.0000     9.3368    11.1147    12.2924   -26.6748     7.5281    92.6682     0.1173     2.4472     0.0592
  423.5000     9.2821    10.9705    12.2485   -26.8016     7.5902    92.5340     0.1130     2.4630     0.0444
  424.0000     9.2489    10.9764    12.0049   -27.0727     7.6373    93.4562     0.1037     2.4758     0.0355
  424.5000     9.1515    10.7573    11.7685   -27.0494     7.6843    94.2317     0.0970     2.4902     0.0313
  425.0000     9.1144    10.5423    11.6151   -27.4765     7.7314    94.6936     0.0943     2.4978     0.0330
  425.5000     9.0597    10.4039    11.4197   -27.7538     7.7636    94.1202     0.0928     2.5008     0.0317
  426.0000     9.0053    10.1899    11.3089   -28.1806     7.7809    93.3932     0.0921     2.5017     0.0319
  426.5000     8.8890     9.9255    11.0915   -28.4575     7.7837    92.6610     0.0930     2.4995     0.0336
  427.0000     8.8974     9.7254    10.9469   -28.5843     7.8010    93.5833     0.0935     2.4988     0.0353
  427.5000     8.8436     9.4667    10.7292   -28.7111     7.8033    94.7995     0.0941     2.4982     0.0370
  428.0000     8.4320     9.1488    10.4429   -28.9823     7.8011    98.7062     0.0941     2.4983     0.0380
  428.5000     7.3927     8.6581    10.2352   -29.2651     7.7926   101.1182     0.0937     2.4983     0.0389
  429.0000     6.7553     7.8022    10.1018   -29.3919     7.7953   102.4993     0.0934     2.4984     0.0391
  429.5000     6.3563     6.8849     9.8995   -29.8131     7.7976   103.7050     0.0961     2.4977     0.0393
  430.0000     5.9573     5.8667     9.3776   -29.7898     7.8000   104.9212     0.1033     2.4955     0.0364
  430.5000     5.6142     5.1409     7.8817   -29.7658     7.8024   107.1837     0.1119     2.4844     0.0336
  431.0000     4.9913     4.8651     7.0070   -29.7373     7.8048   109.5956     0.1185     2.4620     0.0278
  431.5000     4.6594     4.7348     6.0583   -29.7139     7.8224   111.4097     0.1251     2.4328     0.0220
  432.0000     4.5991     5.4511     4.9530   -29.5404     7.8247   112.1774     0.1334     2.3939     0.0148
  432.5000     4.6412     6.1874     6.5972   -29.3669     7.8270   111.1514     0.1259     2.3879     0.0104
  433.0000     4.8392     6.7464     8.9711   -29.0433     7.8139   109.6472     0.1180     2.4136     0.0091
  433.5000     5.5685     7.0288    12.9886   -28.5695     7.7869   103.5545     0.1090     2.4376     0.0138
  434.0000     6.0600     7.4393    12.1957   -28.2459     7.7272    98.3625     0.0965     2.4939     0.0185
  434.5000     6.6411     8.4441    11.3729   -27.7718     7.5533    98.0788     0.0849     2.5196     0.0202
  435.0000     7.6953     9.3856    11.0178   -27.1471     7.4213    97.5063     0.0807     2.5219     0.0204
  435.5000     8.2586     9.3278    10.9479   -26.6685     7.3783    96.9287     0.0788     2.5235     0.0174
  436.0000     8.6194     9.2702    10.8808   -26.3448     7.4110    96.0522     0.0779     2.5236     0.0163
  436.5000     8.9959     9.2132    10.9680   -26.1714     7.4730    96.3715     0.0842     2.5207     0.0165
  437.0000     9.2612     9.3584    10.9769   -26.4742     7.5350    96.9897     0.0871     2.5117     0.0182
  437.5000     9.4747     9.6931    11.2179   -26.6047     7.6120    97.1972     0.0832     2.5058     0.0214
  438.0000     9.6745     9.9762    11.5443   -26.7027     7.7343   100.4734     0.0804     2.5044     0.0186
  438.5000     9.8881    10.3396    11.9634   -26.8288     7.8107   102.2824     0.0792     2.5046     0.0173
  439.0000     9.9665    10.7163    12.5149   -26.8048     7.8434    99.7667     0.0831     2.5068     0.0130
  439.5000    10.0455    11.0292    12.8499   -26.6261     7.8457    98.4417     0.0911     2.5092     0.0132
  440.0000    10.0548    11.1936    12.9502   -26.6027     7.8480    98.3075     0.1142     2.5115     0.0164
