~VERSION INFORMATION
 VERS.                2.0:   CWLS LOG ASCII STANDARD - VERSION 2.0
 WRAP.                 NO:   ONE LINE PER DEPTH STEP
~WELL INFORMATION
#MNEM.UNIT      DATA TYPE    INFORMATION
#----------   ------------   ------------------------------
 STRT.F           43.0000:   START DEPTH
 STOP.F          466.0000:   STOP DEPTH
 STEP.F            0.5000:   STEP LENGTH
 NULL.          -999.2500:   NO VALUE
 COMP. JOHn BROWN E & C INC:   COMPANY
 WELL. NPR # #3 64-25-SX-10:   WELL
 FLD .        TEAPOT DOME:   FIELD
 LOC .      S10 T38N R78W:   LOCATION
 CNTY.            NATRONA:   COUNTY
 STAT.            WYOMING:   STATE
 CTRY. UNITED STATES OF AMERICA:   COUNTRY
 SRVC.       Schlumberger:   SERVICE COMPANY
 DATE.        26-SEP-1990:   LOGDATE
 API .       490251132200:   API NUMBER
~CURVE INFORMATION
#MNEM.UNIT       API CODE    CURVE DESCRIPTION
#----------   ------------   ------------------------------
 DEPT.F                  :   
 ILD .OHMM   07 120 46 00:   INDUCTION LOG DEEP RESISTIVITY
 ILM .OHMM   07 120 44 00:   INDUCTION LOG MEDIUM
 GRR .GAPI   07 310 01 00:   GAMMA RAY FROM RES. LOG.
~PARAMETER INFORMATION
#MNEM.UNIT          VALUE    DESCRIPTION
#----------   ------------   ------------------------------
 PD  .                 GL:   PERMANENT DATUM
 EPD .F              5190:   ELEVATION PERMANENT DATUM
 LMF .                 KB:   LOG MEASURED FROM
 DAPD.F                10:   FEET ABOVE PERMANENT DATUM
 DMF .                 KB:   DRILLING MEASURED FROM
 EKB .F              5200:   KELLING BUSHING
 EDF .F              5199:   DRILLING FLOOR
 EGL .F              5190:   GROUND LEVEL
 DATE.            9-29-90:   RUN DATE
 RUN .                  1:   RUN NUMBER
 DD  .F               470:   DEPTH DRILLER
 DL  .F               473:   DEPTH LOGGER
 BLI .F               467:   BOTTOM LOG INTERVAL
 TLI .F                46:   TOP LOG INTERVAL
 CS  .IN            8.625:   CASING SIZE
 CBL .F                55:   CASING BOTTOM LOGGER
 BS  .IN            7.875:   BIT SIZE
 BSD .F               470:   BIT SIZE AT DEPTH
 DFT .                AIR:   DRILLING FLUID TYPE
 TCS .HRS            1900:   TIME CURCULATED STOPPED
 TLAB.HRS            2000:   TIME LOGGER AT BOTTOM
 LUN .               5982:   LOGGING UNIT NUMBER
 LUL .               CODY:   LOGGING UNIT LOCATION
 ENGI.             FISHER:   RECORDING ENGINEER
 WITN.             STRONG:   WITNESSED BY
 CLNT.            A2DTECH:   CLIENT CODE
 ORIG.       2", 5" PRINT:   ORIGIN OF DATA
 UWI .       490251132200:   UNIQUE WELL ID
 DICO. A2D Technologies, Inc.:   DIGITIZING COMPANY
~OTHER INFORMATION
~A   DEPT      ILD        ILM         GRR  
# ...
  407.0000    12.4390    12.1374   108.3547
  407.5000    12.5919    12.3125   112.8192
  408.0000    12.7467    12.4886   116.8629
  408.5000    12.9035    12.6673   116.6187
  409.0000    13.0621    12.8485   115.2676
  409.5000    13.2227    13.0323   115.7654
  410.0000    13.3638    13.1811   115.4982
  410.5000    13.4431    13.3108   114.3080
  411.0000    13.5229    13.4419   111.8483
  411.5000    13.6108    13.5742   109.4118
  412.0000    13.7604    13.7079   110.0624
  412.5000    13.9789    13.8495   109.8571
  413.0000    13.9559    13.7790   107.6627
  413.5000    13.9146    13.7030   104.8897
  414.0000    13.8736    13.6550   102.1432
  414.5000    13.8325    13.6072   100.6285
  415.0000    13.7916    13.5596   103.9244
  415.5000    13.7509    13.5121   108.6751
  416.0000    13.7102    13.4683   112.0248
  416.5000    13.6697    13.4255   113.5388
  417.0000    13.6293    13.3859   112.5938
  417.5000    13.5942    13.3463   111.1346
  418.0000    13.4856    13.3068   109.6610
  418.5000    13.3700    13.2674   108.1830
  419.0000    13.2554    13.2195   107.7106
  419.5000    13.1418    13.2211   109.7470
  420.0000    13.0291    13.0703   111.5354
  420.5000    12.9165    12.9285   111.3157
  421.0000    12.8125    12.7260   111.1012
  421.5000    12.6315    12.5267   111.8104
  422.0000    12.4556    12.3306   113.3743
  422.5000    12.2817    12.1375   115.8921
  423.0000    12.1103    11.9474   118.4077
  423.5000    11.9412    11.7603   119.6821
  424.0000    11.7745    11.5761   119.1977
  424.5000    11.6101    11.3948   116.7065
  425.0000    11.4481    11.2163   114.7895
  425.5000    11.2882    11.0407   116.7841
  426.0000    11.1307    10.8926   119.0371
  426.5000    10.9755    10.7611   120.4184
  427.0000    10.8211    10.6312   118.6378
  427.5000    10.6846    10.5029   117.0098
  428.0000    10.5534    10.3762   116.7548
  428.5000    10.4247    10.2509   121.2336
  429.0000    10.2974    10.1272   121.9259
  429.5000    10.1707    10.0005   121.1359
  430.0000    10.0945     9.9079   120.2671
  430.5000    10.1814     9.9848   122.2377
  431.0000    10.2470    10.0939   126.0327
  431.5000    10.2832    10.0534   129.9683
  432.0000    10.1896     9.9887   132.8220
  432.5000    10.1238     9.9244   132.3675
  433.0000    10.0585     9.8607   131.2528
  433.5000     9.9791     9.7924   129.6215
  434.0000     9.7764     9.5632   127.9548
  434.5000     9.5779     9.3392   127.7337
  435.0000     9.3833     9.1203   127.8846
  435.5000     9.1927     8.9062   127.9805
  436.0000     9.0060     8.6979   126.7968
  436.5000     8.8612     8.6979   125.5752
  437.0000     8.9155     8.6979   124.3525
  437.5000     8.8877     8.6979   123.6731
  438.0000     8.8585     8.6979   124.5118
  438.5000     8.8679     8.5527   125.5962
  439.0000     8.5740     8.4187   125.3047
  439.5000     8.2857     8.0807   125.8135
  440.0000     8.0071     7.6766   127.3251
  440.5000     7.7791     7.3981   129.6116
  441.0000     7.8179     7.2886   131.8851
  441.5000     7.8516     7.3993   134.1977
  442.0000     7.8855     7.5929   135.0513
  442.5000     7.9195     7.7791  -999.2500
  443.0000     8.0301     7.9105  -999.2500
  443.5000     8.3169     8.1213  -999.2500
  444.0000     8.7022     8.4556  -999.2500
  444.5000     9.1055     8.8223  -999.2500
  445.0000     9.5274     9.2049  -999.2500
  445.5000     9.9373     9.6046  -999.2500
  446.0000    10.1568    10.0195  -999.2500
  446.5000    10.3803    10.3796  -999.2500
  447.0000    10.5077    10.4276  -999.2500
  447.5000    10.5829    10.4771  -999.2500
  448.0000    10.6600    10.5269  -999.2500
  448.5000    10.7500    10.5744  -999.2500
  449.0000    10.8738    10.5487  -999.2500
  449.5000    10.8375    10.5235  -999.2500
  450.0000    10.7834    10.4985  -999.2500
  450.5000    10.7296    10.3796  -999.2500
  451.0000    10.6734    10.3930  -999.2500
  451.5000    10.6737    10.4112  -999.2500
  452.0000    10.6735    10.4297  -999.2500
  452.5000    10.6734    10.4483  -999.2500
  453.0000    10.6734    10.4666  -999.2500
  453.5000    10.6734    10.4755  -999.2500
  454.0000    10.6749    10.4274  -999.2500
  454.5000    10.6751    10.3949  -999.2500
  455.0000    10.6767    10.1845  -999.2500
  455.5000    10.1877     9.8305  -999.2500
  456.0000     9.7717     9.4888  -999.2500
  456.5000     9.4704     9.1590  -999.2500
  457.0000     9.0630     8.8407  -999.2500
  457.5000     8.7080     8.5334  -999.2500
  458.0000     8.4478     8.2421  -999.2500
  458.5000     8.1622     7.9240  -999.2500
  459.0000     7.6357     7.3364  -999.2500
  459.5000     7.0932     6.6298  -999.2500
  460.0000     6.4094     5.8839  -999.2500
  460.5000     5.5793     5.1912  -999.2500
  461.0000     4.8515     4.4798  -999.2500
  461.5000     4.2049     3.8660  -999.2500
  462.0000     3.9132     3.3362  -999.2500
  462.5000     3.8329     2.8482  -999.2500
  463.0000     3.7645     2.8218  -999.2500
  463.5000     3.7652     3.1605  -999.2500
  464.0000     3.7651     3.5258  -999.2500
  464.5000     3.7651     3.9333  -999.2500
  465.0000     3.7651     4.1878  -999.2500
  465.5000     3.7651     4.3290  -999.2500
  466.0000     3.7651     4.4103  -999.2500
