~VERSION INFORMATION
 VERS.                2.0:   CWLS LOG ASCII STANDARD - VERSION 2.0
 WRAP.                 NO:   ONE LINE PER DEPTH STEP
~WELL INFORMATION
#MNEM.UNIT      DATA TYPE    INFORMATION
#----------   ------------   ------------------------------
 STRT.F           43.0000:   START DEPTH
 STOP.F          973.0000:   STOP DEPTH
 STEP.F            0.5000:   STEP LENGTH
 NULL.          -999.2500:   NO VALUE
 COMP. LAWRENCE/ALLISON INC:   COMPANY
 WELL.    68-11 SX #11-11:   WELL
 FLD .           NPR NO 3:   FIELD
 LOC .      S11 T38N R78W:   LOCATION
 CNTY.            NATRONA:   COUNTY
 STAT.            WYOMING:   STATE
 CTRY. UNITED STATES OF AMERICA:   COUNTRY
 SRVC.           Gearhart:   SERVICE COMPANY
 DATE.        15-MAY-1986:   LOGDATE
 API .       490251105800:   API NUMBER
~CURVE INFORMATION
#MNEM.UNIT       API CODE    CURVE DESCRIPTION
#----------   ------------   ------------------------------
 DEPT.F                  :   
 GRN .GAPI   42 310 01 00:   GAMMA RAY FROM COMPENSATED NEUTRON LOG
 CNS .DEC    42 890 01 00:   NEUTRON POROSITY LIMESTONE
~PARAMETER INFORMATION
#MNEM.UNIT          VALUE    DESCRIPTION
#----------   ------------   ------------------------------
 PD  .                 GL:   PERMANENT DATUM
 LMF .                 KB:   LOG MEASURED FROM
 DMF .                 KB:   DRILLING MEASURED FROM
 DATE.        15-MAY-1986:   RUN DATE
 RUN .                  1:   RUN NUMBER
 DD  .F               974:   DEPTH DRILLER
 DL  .F               974:   DEPTH LOGGER
 BLI .F               973:   BOTTOM LOG INTERVAL
 TLI .F                39:   TOP LOG INTERVAL
 CS  .IN              4.5:   CASING SIZE
 BS  .IN             7.87:   BIT SIZE
 BSD .F               974:   BIT SIZE AT DEPTH
 DFT .              WATER:   DRILLING FLUID TYPE
 DFD .               8.34:   DRILLING FLUID DENSITY
 BHT .F                66:   BOTTOM HOLE TEMPERATURE
 LUN .               6084:   LOGGING UNIT NUMBER
 LUL .           GILLETTE:   LOGGING UNIT LOCATION
 ENGI.              BAUER:   RECORDING ENGINEER
 WITN.       STRONG/FIVAS:   WITNESSED BY
 CLNT.            A2DTECH:   CLIENT CODE
 ORIG.           5" PRINT:   ORIGIN OF DATA
 UWI .       490251105800:   UNIQUE WELL ID
 DICO. A2D Technologies, Inc.:   DIGITIZING COMPANY
 R1  . POROSITY WITH LIMESTONE:   REMARKS 1
~OTHER INFORMATION
~A   DEPT       GRN       CNS   
# ...
  893.5000    78.8287     0.2431
  894.0000    79.4552     0.2437
  894.5000    82.2057     0.2467
  895.0000    82.8285     0.2470
  895.5000    83.1436     0.2467
  896.0000    81.6425     0.2476
  896.5000    79.5297     0.2497
  897.0000    80.4565     0.2555
  897.5000    83.8148     0.2597
  898.0000    84.4376     0.2597
  898.5000    80.7485     0.2573
  899.0000    79.9082     0.2627
  899.5000    81.1426     0.2668
  900.0000    82.4519     0.2733
  900.5000    80.8550     0.2763
  901.0000    79.6627     0.2773
  901.5000    78.7695     0.2724
  902.0000    79.0884     0.2627
  902.5000    80.6232     0.2553
  903.0000    81.8541     0.2471
  903.5000    82.1732     0.2455
  904.0000    82.1356     0.2546
  904.5000    80.9870     0.2564
  905.0000    81.3096     0.2582
  905.5000    82.8443     0.2633
  906.0000    84.9869     0.2765
  906.5000    87.1296     0.2853
  907.0000    88.0564     0.2844
  907.5000    87.7636     0.2711
  908.0000    87.4747     0.2602
  908.5000    85.9736     0.2518
  909.0000    83.5570     0.2512
  909.5000    81.7482     0.2561
  910.0000    81.4592     0.2605
  910.5000    80.5623     0.2632
  911.0000    79.3253     0.2623
  911.5000    77.8567     0.2599
  912.0000    79.2578     0.2593
  912.5000    80.9299     0.2599
  913.0000    78.2093     0.2584
  913.5000    76.7045     0.2593
  914.0000    75.8076     0.2662
  914.5000    76.1265     0.2761
  915.0000    75.8337     0.2758
  915.5000    76.1564     0.2682
  916.0000    75.8637     0.2649
  916.5000    77.0982     0.2625
  917.0000    78.0250     0.2616
  917.5000    78.0748     0.2646
  918.0000    78.9668     0.2658
  918.5000    80.2006     0.2676
  919.0000    80.5167     0.2803
  919.5000    79.8826     0.2872
  920.0000    79.0266     0.2918
  920.5000    78.4337     0.2842
  921.0000    78.7563     0.2703
  921.5000    80.2910     0.2522
  922.0000    82.1297     0.2432
  922.5000    83.0565     0.2476
  923.0000    82.7675     0.2585
  923.5000    82.7825     0.2673
  924.0000    82.7975     0.2655
  924.5000    81.5966     0.2549
  925.0000    80.6997     0.2516
  925.5000    81.3226     0.2555
  926.0000    82.5533     0.2673
  926.5000    81.9533     0.2772
  927.0000    80.7337     0.2703
  927.5000    78.2521     0.2567
  928.0000    77.4460     0.2522
  928.5000    79.5924     0.2543
  929.0000    79.9113     0.2570
  929.5000    79.6186     0.2633
  930.0000    79.3296     0.2684
  930.5000    78.4364     0.2651
  931.0000    78.1437     0.2594
  931.5000    79.0742     0.2539
  932.0000    80.0011     0.2500
  932.5000    81.8397     0.2491
  933.0000    84.2863     0.2503
  933.5000    86.1250     0.2530
  934.0000    87.6597     0.2485
  934.5000    87.9787     0.2406
  935.0000    87.3555     0.2361
  935.5000    84.8207     0.2431
  936.0000    82.2521     0.2481
  936.5000    81.6592     0.2490
  937.0000    81.9781     0.2469
  937.5000    83.2089     0.2451
  938.0000    84.4396     0.2463
  938.5000    84.1506     0.2496
  939.0000    83.2538     0.2562
  939.5000    81.4450     0.2556
  940.0000    80.8483     0.2562
  940.5000    81.1710     0.2580
  941.0000    81.4899     0.2607
  941.5000    81.5049     0.2610
  942.0000    81.2159     0.2604
  942.5000    80.9117     0.2605
  943.0000    79.7260     0.2628
  943.5000    79.0801     0.2680
  944.0000    77.9360     0.2740
  944.5000    75.8233     0.2707
  945.0000    74.0145     0.2691
  945.5000    72.5060     0.2664
  946.0000    72.5247     0.2589
  946.5000    74.9713     0.2471
  947.0000    78.3297     0.2459
  947.5000    80.1684     0.2483
  948.0000    81.7031     0.2498
  948.5000    80.5022     0.2511
  949.0000    80.2127     0.2531
  949.5000    81.1401     0.2510
  950.0000    83.2827     0.2486
  950.5000    82.1026     0.2471
  951.0000    80.9098     0.2476
  951.5000    81.8600     0.2499
  952.0000    84.1337     0.2545
  952.5000    86.3222     0.2609
  953.0000    87.1114     0.2597
  953.5000    84.6203     0.2452
  954.0000    80.7700     0.2416
  954.5000    82.0669     0.2404
  955.0000    85.1064     0.2414
  955.5000    88.4805     0.2458
  956.0000    90.9428     0.2550
  956.5000    90.9734     0.2629
  957.0000    89.7873     0.2608
  957.5000    86.4754     0.2503
  958.0000    84.9848     0.2469
  958.5000    87.7525     0.2478
  959.0000    90.2148     0.2460
  959.5000    89.3336     0.2436
  960.0000    86.9326     0.2400
  960.5000    86.0438     0.2357
  961.0000    85.7705     0.2354
  961.5000    87.3285     0.2415
  962.0000    88.8790     0.2439
  962.5000    86.4780     0.2405
  963.0000    84.9889     0.2378
  963.5000    83.1958     0.2372
  964.0000    82.0030     0.2387
  964.5000  -999.2500     0.2402
  965.0000  -999.2500     0.2426
  965.5000  -999.2500     0.2430
  966.0000  -999.2500     0.2314
  966.5000  -999.2500     0.2260
  967.0000  -999.2500     0.2331
  967.5000  -999.2500     0.2431
  968.0000  -999.2500     0.2526
  968.5000  -999.2500     0.2510
  969.0000  -999.2500     0.2425
  969.5000  -999.2500     0.2296
  970.0000  -999.2500     0.2229
  970.5000  -999.2500     0.2268
  971.0000  -999.2500     0.2323
  971.5000  -999.2500     0.2338
  972.0000  -999.2500     0.2359
  972.5000  -999.2500     0.2431
  973.0000  -999.2500     0.3088
