~VERSION INFORMATION
 VERS.                2.0:   CWLS LOG ASCII STANDARD - VERSION 2.0
 WRAP.                 NO:   ONE LINE PER DEPTH STEP
~WELL INFORMATION
#MNEM.UNIT      DATA TYPE    INFORMATION
#----------   ------------   ------------------------------
 STRT.F           40.0000:   START DEPTH
 STOP.F          534.0000:   STOP DEPTH
 STEP.F            0.5000:   STEP LENGTH
 NULL.          -999.2500:   NO VALUE
 COMP. LAWRENCE/ALLISON INC:   COMPANY
 WELL.   55-41 SX FI #3-3:   WELL
 FLD .             TEAPOT:   FIELD
 LOC .       S3 T38N R78W:   LOCATION
 CNTY.            NATRONA:   COUNTY
 STAT.            WYOMING:   STATE
 CTRY. UNITED STATES OF AMERICA:   COUNTRY
 SRVC.      Dresser Atlas:   SERVICE COMPANY
 DATE.        12-DEC-1983:   LOGDATE
 API .       490251089400:   API NUMBER
~CURVE INFORMATION
#MNEM.UNIT       API CODE    CURVE DESCRIPTION
#----------   ------------   ------------------------------
 DEPT.F                  :   
 RILD.OHMM   07 120 46 00:   INDUCTION LOG DEEP RESISTIVITY
 RILM.OHMM   07 120 44 00:   INDUCTION LOG MEDIUM RESISTIVITY
 RFOC.OHMM   07 220 04 00:   RESISTIVITY FOCUSED LOG
 CALD.IN     45 280 60 00:   CALIPER FROM DENSITY LOG
 GRD .GAPI   45 310 01 00:   GAMMA RAY FROM DENSITY LOG
 CORR.G/C3   45 356 01 00:   DENSITY CORRECTION
 DPHI.DEC    45 890 12 00:   DENSITY POROSITY SANDSTONE
 RHOB.G/C3   45 350 01 00:   BULK DENSITY
~PARAMETER INFORMATION
#MNEM.UNIT          VALUE    DESCRIPTION
#----------   ------------   ------------------------------
 PD  .                 GL:   PERMANENT DATUM
 EPD .F              5161:   ELEVATION PERMANENT DATUM
 LMF .                 KB:   LOG MEASURED FROM
 DAPD.F                10:   FEET ABOVE PERMANENT DATUM
 DMF .                 KB:   DRILLING MEASURED FROM
 EKB .F              5171:   KELLING BUSHING
 EGL .F              5161:   GROUND LEVEL
 DATE.        12-DEC-1983:   RUN DATE
 RUN .                  1:   RUN NUMBER
 DD  .F               490:   DEPTH DRILLER
 DL  .F               489:   DEPTH LOGGER
 BLI .F               487:   BOTTOM LOG INTERVAL
 CS  .IN            10.75:   CASING SIZE
 CBD .F                52:   CASING BOTTOM DRILLER
 CBL .F                46:   CASING BOTTOM LOGGER
 BS  .IN             8.75:   BIT SIZE
 BSD .F               490:   BIT SIZE AT DEPTH
 DFT .           AIR FOAM:   DRILLING FLUID TYPE
 TCS .HRS               3:   TIME CURCULATED STOPPED
 MRT .F                72:   MAXIMUM RECORDED TEMPERATURE
 LUN .               6274:   LOGGING UNIT NUMBER
 LUL .               GLTE:   LOGGING UNIT LOCATION
 ENGI.             RAUTIO:   RECORDING ENGINEER
 WITN.             GROOMS:   WITNESSED BY
 CLNT.            A2DTECH:   CLIENT CODE
 ORIG.           5" PRINT:   ORIGIN OF DATA
 UWI .       490251089400:   UNIQUE WELL ID
 DICO. A2D Technologies, Inc.:   DIGITIZING COMPANY
~OTHER INFORMATION
~A   DEPT     RILD       RILM       RFOC       CALD         GRD      CORR       DPHI       RHOB   
# ...
  364.0000    11.9549    11.7697  -999.2500    11.6896    63.5868     0.0287     0.1250     2.4795
  364.5000    12.0511    11.8584  -999.2500    11.6755    61.3834     0.0250     0.1423     2.4571
  365.0000    12.2213    11.9477  -999.2500    11.6916    60.7354     0.0198     0.1540     2.4234
  365.5000    12.3143    12.1209  -999.2500    11.6775    62.3172     0.0146     0.1617     2.4039
  366.0000    12.4938    12.2966  -999.2500    11.6639    64.1041     0.0094     0.1662     2.3980
  366.5000    12.5905    12.3892  -999.2500    11.6716    65.2273     0.0050     0.1671     2.4010
  367.0000    12.6861    12.4825  -999.2500    11.6716    65.9064     0.0013     0.1635     2.4078
  367.5000    12.6948    12.3193  -999.2500    11.6864    65.9176    -0.0002     0.1578     2.4160
  368.0000    12.4436    12.0747  -999.2500    11.6864    65.9287     0.0005     0.1536     2.4251
  368.5000    12.0305    11.9168  -999.2500    11.6864    65.9399     0.0028     0.1506     2.4296
  369.0000    11.7115    11.6784  -999.2500    11.6864    65.9511     0.0065     0.1479     2.4341
  369.5000    11.5592    11.3697  -999.2500    11.6864    67.0767     0.0117     0.1443     2.4401
  370.0000    11.3305    11.1440  -999.2500    11.6864    69.0938     0.0170     0.1407     2.4521
  370.5000    11.0301    10.8478  -999.2500    11.6864    69.9965     0.0185     0.1443     2.4424
  371.0000    10.8100    10.7797  -999.2500    11.6864    70.8992     0.0155     0.1479     2.4335
  371.5000    10.5251    10.4934  -999.2500    11.6864    71.3561     0.0125     0.1497     2.4290
  372.0000    10.3882    10.3561  -999.2500    11.6864    70.9215     0.0133     0.1454     2.4328
  372.5000    10.2513    10.2208  -999.2500    11.6716    70.4866     0.0171     0.1404     2.4470
  373.0000    10.1180    10.1833  -999.2500    11.6716    69.6066     0.0231     0.1362     2.4576
  373.5000    10.1266    10.1311  -999.2500    11.6716    68.7262     0.0283     0.1344     2.4577
  374.0000    10.2741    10.0990  -999.2500    11.6716    67.4001     0.0336     0.1385     2.4494
  374.5000    10.7890    10.6060  -999.2500    11.6568    66.0740     0.0364     0.1543     2.4209
  375.0000    11.4869    11.4480  -999.2500    11.6568    64.3021     0.0318     0.1907     2.3603
  375.5000    12.2300    12.1877  -999.2500    11.6716    62.5302     0.0258     0.2185     2.3159
  376.0000    13.0212    13.1552  -999.2500    11.6716    59.4210     0.0171     0.2304     2.2875
  376.5000    13.9593    14.3966  -999.2500    11.6716    56.3118     0.0120     0.2326     2.2847
  377.0000    15.1726    16.0840  -999.2500    11.6716    53.6484     0.0172     0.2247     2.2980
  377.5000    17.0772    18.4712  -999.2500    11.6716    52.3223     0.0217     0.2116     2.3170
  378.0000    19.7693    20.3539  -999.2500    11.6716    52.5564     0.0246     0.1975     2.3370
  378.5000    21.7946    21.8189  -999.2500    11.6716    52.7904     0.0276     0.1769     2.3741
  379.0000    23.0627    23.3893  -999.2500    11.6716    52.3558     0.0321     0.1644     2.4100
  379.5000    24.1821    24.3913  -999.2500    11.6716    51.4727     0.0351     0.1542     2.4317
  380.0000    24.6796    24.9159  -999.2500    11.6716    50.8152     0.0426     0.1494     2.4348
  380.5000    24.8672    24.9312  -999.2500    11.6716    51.0520     0.0359     0.1649     2.3921
  381.0000    24.5437    24.2685  -999.2500    11.6716    51.5090     0.0277     0.1900     2.3539
  381.5000    23.7289    23.6234  -999.2500    11.6716    52.1888     0.0203     0.1998     2.3457
  382.0000    22.6272    22.9935  -999.2500    11.6716    54.2059     0.0143     0.2031     2.3412
  382.5000    21.8760    22.3767  -999.2500    11.6568    56.6688     0.0129     0.2055     2.3345
  383.0000    20.8604    21.6143  -999.2500    11.6568    58.2373     0.0136     0.2073     2.3308
  383.5000    20.1679    20.5991  -999.2500    11.6568    56.0225     0.0159     0.2091     2.3294
  384.0000    19.9021    19.7890  -999.2500    11.6716    54.2506     0.0189     0.2108     2.3241
  384.5000    19.6432    19.5512  -999.2500    11.6716    56.0420     0.0167     0.2162     2.3122
  385.0000    19.6600    19.5662  -999.2500    11.6716    55.1645     0.0100     0.2230     2.3002
  385.5000    19.8094    19.7136  -999.2500    11.6716    53.6155     0.0048     0.2305     2.2868
  386.0000    19.9599    19.8621  -999.2500    11.6716    52.0665     0.0033     0.2299     2.2898
  386.5000    19.9736    20.0117  -999.2500    11.6716    51.6291     0.0070     0.2176     2.3056
  387.0000    20.1254    20.0240  -999.2500    11.6716    52.7575     0.0115     0.2120     2.3296
  387.5000    20.1391    20.0363  -999.2500    11.6716    54.7746     0.0145     0.1991     2.3423
  388.0000    19.7407    19.6385  -999.2500    11.6716    57.4603     0.0086     0.1839     2.3678
  388.5000    19.2172    19.1165  -999.2500    11.6716    57.0257     0.0034     0.1627     2.4016
  389.0000    18.4517    18.6083  -999.2500    11.6716    55.4767     0.0041     0.1435     2.4495
  389.5000    17.8392    17.9894  -999.2500    11.6716    53.4820     0.0101     0.1244     2.4982
  390.0000    17.3662    17.5112  -999.2500    11.6716    52.8217     0.0228     0.1176     2.5103
  390.5000    17.0226    17.1609  -999.2500    11.6716    56.4018     0.0252     0.1283     2.4923
  391.0000    16.8011    16.8228  -999.2500    11.6716    58.4189     0.0198     0.1575     2.3995
  391.5000    16.5825    16.7150  -999.2500    11.6716    59.9902     0.0154     0.1862     2.3553
  392.0000    16.3668    16.4990  -999.2500    11.6716    61.3387     0.0132     0.1951     2.3478
  392.5000    16.3780    16.3933  -999.2500    11.6864    62.2414     0.0132     0.1984     2.3434
  393.0000    16.1649    16.2927  -999.2500    11.6864    61.5839     0.0169     0.2002     2.3427
  393.5000    16.0649    16.4159  -999.2500    11.6864    60.0349     0.0237     0.2011     2.3479
  394.0000    16.1897    16.4260  -999.2500    11.6864    58.7088     0.0288     0.1998     2.3532
  394.5000    16.3128    16.6641  -999.2500    11.6864    57.3827     0.0221     0.1998     2.3479
  395.0000    16.4368    16.7896  -999.2500    11.6864    58.7312     0.0139     0.2046     2.3359
  395.5000    16.4480    16.7999  -999.2500    11.6864    60.5254     0.0064     0.2085     2.3277
  396.0000    16.5730    16.9266  -999.2500    11.6864    63.2111     0.0051     0.2114     2.3225
  396.5000    16.6990    17.0542  -999.2500    11.6864    61.2164     0.0106     0.2138     2.3203
  397.0000    16.8259    17.1827  -999.2500    11.6864    58.9987     0.0157     0.2153     2.3173
  397.5000    16.9537    17.1934  -999.2500    11.6864    58.7842     0.0193     0.2159     2.3197
  398.0000    16.9653    17.2040  -999.2500    11.7012    60.8041     0.0171     0.2150     2.3242
  398.5000    16.8575    16.9812  -999.2500    11.7012    63.4899     0.0134     0.2126     2.3265
  399.0000    16.6382    16.8724  -999.2500    11.7012    65.0612     0.0074     0.2108     2.3273
  399.5000    16.4245    16.4264  -999.2500    11.7012    63.9580     0.0037     0.2093     2.3306
  400.0000    16.2022    16.3111  -999.2500    11.7012    60.1783     0.0112     0.2081     2.3351
  400.5000    16.1664    16.1900  -999.2500    11.7012    57.5000     0.0082     0.2048     2.3411
  401.0000    16.1307    16.0688  -999.2500    11.7012    57.9642     0.0045     0.1992     2.3471
  401.5000    16.0130    15.9045  -999.2500    11.7012    59.0862     0.0060     0.1898     2.3561
  402.0000    16.0240    15.6955  -999.2500    11.7012    60.3856     0.0120     0.1815     2.3666
  402.5000    15.8141    15.5962  -999.2500    11.7016    60.1590     0.0211     0.1758     2.3884
  403.0000    15.7113    15.4977  -999.2500    11.7021    59.0410     0.0185     0.1811     2.3779
  403.5000    15.6137    15.5065  -999.2500    11.7026    59.2602     0.0106     0.1886     2.3638
  404.0000    15.5150    15.4081  -999.2500    11.7031    60.8167     0.0121     0.1954     2.3533
