~VERSION INFORMATION
 VERS.                2.0:   CWLS LOG ASCII STANDARD - VERSION 2.0
 WRAP.                 NO:   ONE LINE PER DEPTH STEP
~WELL INFORMATION
#MNEM.UNIT      DATA TYPE    INFORMATION
#----------   ------------   ------------------------------
 STRT.F           64.0000:   START DEPTH
 STOP.F          795.0000:   STOP DEPTH
 STEP.F            0.5000:   STEP LENGTH
 NULL.          -999.2500:   NO VALUE
 COMP. LAWRENCE/ALLISON INC:   COMPANY
 WELL.      23-61 SX #2-2:   WELL
 FLD .             TEAPOT:   FIELD
 LOC .       S2 T38N R78W:   LOCATION
 CNTY.            NATRONA:   COUNTY
 STAT.            WYOMING:   STATE
 CTRY. UNITED STATES OF AMERICA:   COUNTRY
 SRVC.              Welex:   SERVICE COMPANY
 DATE.        14-AUG-1985:   LOGDATE
 API .       490251103800:   API NUMBER
~CURVE INFORMATION
#MNEM.UNIT       API CODE    CURVE DESCRIPTION
#----------   ------------   ------------------------------
 DEPT.F                  :   
 SPR .MV     07 010 01 00:   SPONTANEOUS POTENTIAL
 ILD .OHMM   07 120 46 00:   INDUCTION LOG DEEP
 ILM .OHMM   07 120 44 00:   INDUCTION LOG MEDIUM
 SGRD.OHMM   07 221 05 00:   SHALLOW SHORT GUARD RESISTIVITY
 DPHI.DEC    45 890 12 00:   DENSITY POROSITY SANDSTONE
 NPHI.DEC    42 890 03 00:   NEUTRON POROSITY SANDSTONE
 GRD .GAPI   45 310 01 00:   GAMMA RAY FROM DENSITY LOG
 CALD.IN     45 280 60 00:   CALIPER FROM DENSITY
 CORR.G/C3   45 356 01 00:   DENSITY CORRECTION
 RHOB.G/C3   45 350 01 00:   BULK DENSITY
~PARAMETER INFORMATION
#MNEM.UNIT          VALUE    DESCRIPTION
#----------   ------------   ------------------------------
 PD  .                 GL:   PERMANENT DATUM
 EPD .F              5112:   ELEVATION PERMANENT DATUM
 LMF .                 GL:   LOG MEASURED FROM
 DMF .                 GL:   DRILLING MEASURED FROM
 EGL .F              5112:   GROUND LEVEL
 DATE.        14-AUG-1985:   RUN DATE
 RUN .                  1:   RUN NUMBER
 DD  .F               800:   DEPTH DRILLER
 DL  .F               797:   DEPTH LOGGER
 BLI .F               795:   BOTTOM LOG INTERVAL
 TLI .F                76:   TOP LOG INTERVAL
 CS  .IN            8.625:   CASING SIZE
 CBD .F                76:   CASING BOTTOM DRILLER
 CBL .F                76:   CASING BOTTOM LOGGER
 BS  .IN            7.875:   BIT SIZE
 BSD .F               800:   BIT SIZE AT DEPTH
 DFT .                KCL:   DRILLING FLUID TYPE
 MSS .               TANK:   MUD SAMPLE SOURCE
 RMS .OHMM           0.22:   RESISTIVITY MUD SAMPLE
 MST .F                64:   MUD SAMPLE TEMPERATURE
 MFSS.               MEAS:   MUD FILTRATE SAMPLE SOURCE
 TCS .HRS            2230:   TIME CURCULATED STOPPED
 TLAB.HRS            0200:   TIME LOGGER AT BOTTOM
 LUN .               1892:   LOGGING UNIT NUMBER
 LUL .             CASPER:   LOGGING UNIT LOCATION
 ENGI.         T. QUINLAN:   RECORDING ENGINEER
 WITN.        N. JENNINGS:   WITNESSED BY
 CLNT.            A2DTECH:   CLIENT CODE
 ORIG.        2" 5" PRINT:   ORIGIN OF DATA
 UWI .       490251103800:   UNIQUE WELL ID
 DICO. A2D Technologies, Inc.:   DIGITIZING COMPANY
 R1  . POROSITY WITH SANDSTONE:   REMARKS 1
~OTHER INFORMATION
~A   DEPT      SPR        ILD        ILM       SGRD       DPHI       NPHI         GRD      CALD       CORR       RHOB   
# ...
  533.0000   -51.8685     4.6540     4.9445     7.2271     0.1512     0.3388   119.8393     7.9842     0.0367     2.4371
  533.5000   -50.6726     4.7835     5.2631     8.2113     0.1421     0.3268   118.0565     7.9841     0.0290     2.4421
  534.0000   -49.7758     4.9158     5.7216     8.4389     0.1403     0.3180   118.9761     7.9839     0.0183     2.4309
  534.5000   -50.9716     5.0863     6.0032     8.6727     0.1564     0.3138   121.7591     7.9838     0.0145     2.4101
  535.0000   -51.4200     5.1915     6.0400     8.9130     0.1652     0.3147   124.6137     7.9836     0.0083     2.3972
  535.5000   -51.7190     5.1874     5.8156     9.2125     0.1710     0.3178   124.9142     7.9835     0.0045     2.3850
  536.0000   -52.0179     5.1482     5.2473     7.9499     0.1804     0.3237   124.9172     7.9833     0.0043     2.3758
  536.5000   -52.4664     5.0384     5.0956     6.3992     0.1841     0.3345   125.2177     7.9832     0.0058     2.3742
  537.0000   -53.8117     5.0002     4.9569     5.6399     0.1817     0.3415   125.8159     7.9830     0.0095     2.3832
  537.5000   -52.0179     4.8936     4.9947     5.4059     0.1749     0.3282   127.0093     7.9829     0.0170     2.3983
  538.0000   -49.6263     4.8905     5.2129     6.7055     0.1496     0.3128   128.5003     7.9976     0.0270     2.4270
  538.5000   -47.9821     5.0610     5.8911     7.9778     0.1324     0.3047   129.9913     7.9975     0.0360     2.4565
  539.0000   -46.3378     5.3110     6.2258     9.1025     0.1297     0.3029   130.5895     7.9974     0.0388     2.4632
  539.5000   -46.0389     5.6517     6.3985     9.0961     0.1309     0.3051   125.2353     7.9972     0.0319     2.4601
  540.0000   -46.0389     5.9309     6.5302     9.0282     0.1310     0.3078   117.7978     7.9971     0.0288     2.4592
  540.5000   -46.3378     6.0949     6.5723     9.0851     0.1313     0.3081   116.3126     7.9969     0.0272     2.4592
  541.0000   -46.6368     6.2635     6.6618     9.0772     0.1325     0.3058   115.7202     7.9968     0.0264     2.4591
  541.5000   -46.6368     6.3044     6.7048     9.1344     0.1323     0.3043   118.1042     7.9966     0.0255     2.4598
  542.0000   -48.4305     6.2557     6.7001     9.1281     0.1302     0.3055   121.7021     7.9965     0.0262     2.4627
  542.5000   -51.1211     5.9124     6.1585     9.1217     0.1284     0.3083   121.6518     7.9963     0.0261     2.4657
  543.0000   -52.9148     5.4722     5.6607     9.1154     0.1266     0.3129   120.4464     7.9962     0.0283     2.4678
  543.5000   -53.8117     4.9945     5.3132     8.9828     0.1351     0.3187   119.0095     7.9960     0.0298     2.4549
  544.0000   -54.1106     4.8203     5.2003     7.7531     0.1454     0.3240   116.9291     7.9809     0.0327     2.4381
  544.5000   -54.1106     4.7175     5.0543     5.3154     0.1485     0.3290   121.6939     7.9808     0.0372     2.4274
  545.0000   -53.6622     4.7145     4.9815     5.0585     0.1482     0.3315   125.8635     7.9806     0.0409     2.4319
  545.5000   -52.1674     4.8120     5.0841     5.2345     0.1372     0.3230   128.8427     7.9954     0.0461     2.4470
  546.0000   -49.6263     4.8758     5.2251     6.6313     0.1249     0.3143   130.0361     7.9952     0.0498     2.4688
  546.5000   -46.6368     5.0811     5.5219     8.2845     0.1180     0.3082   128.8485     7.9951     0.0520     2.4794
  547.0000   -45.7399     5.3694     5.9592     9.1283     0.1159     0.3046   125.8753     7.9949     0.0406     2.4838
  547.5000   -45.2915     5.7139     6.3419     9.7132     0.1190     0.3044   122.0091     7.9948     0.0352     2.4807
  548.0000   -45.1420     6.2090     6.8440    10.1214     0.1208     0.3056   119.9287     7.9946     0.0313     2.4768
  548.5000   -44.9925     6.6073     7.2328    10.3284     0.1230     0.3054   118.7412     7.9945     0.0274     2.4715
  549.0000   -44.8430     6.9338     7.5907    10.3953     0.1221     0.3045   116.9584     7.9943     0.0304     2.4767
  549.5000   -44.8430     7.2256     7.7469    10.5340     0.1206     0.3012   113.0923     7.9942     0.0342     2.4796
  550.0000   -44.5441     7.3226     7.7343    10.6108     0.1181     0.2961   108.9286     7.9940     0.0371     2.4833
  550.5000   -44.3311     7.3470     7.6290    10.6668     0.1155     0.2943   107.7351     7.9942     0.0310     2.4863
  551.0000   -44.0957     7.3629     7.5703    10.3644     0.1134     0.2952   110.4579     7.9943     0.0293     2.4892
  551.5000   -43.7967     7.3560     7.5647    10.3573     0.1140     0.2977   115.5151     7.9945     0.0247     2.4877
  552.0000   -43.7967     7.3513     7.5590    10.3503     0.1195     0.2990   119.6791     7.9946     0.0216     2.4815
  552.5000   -43.7967     7.3456     7.5534    10.3433     0.1190     0.3008   121.1161     7.9948     0.0215     2.4807
  553.0000   -43.6422     7.3400     7.5477    10.3362     0.1202     0.3045   119.8754     7.9949     0.0214     2.4784
  553.5000   -43.1988     7.2834     7.5949    10.3290     0.1233     0.3075   118.4036     7.9951     0.0213     2.4738
  554.0000   -43.9462     7.2778     7.5878    10.3945     0.1245     0.3094   116.5798     7.9952     0.0212     2.4714
  554.5000   -44.3946     7.2712     7.6887    10.6054     0.1233     0.3061   114.5565     7.9954     0.0212     2.4699
  555.0000   -44.8430     7.2658     7.7382    10.5245     0.1206     0.3046   112.6886     7.9955     0.0241     2.4781
  555.5000   -44.9925     7.2099     7.7865    10.2278     0.1116     0.3037   110.9792     7.9957     0.0308     2.4871
  556.0000   -45.1420     7.0552     7.8901     9.8018     0.1004     0.3023   111.0713     7.9958     0.0390     2.5052
  556.5000   -45.1420     7.0499     7.9949     9.4593     0.0956     0.3008   116.6399     7.9960     0.0511     2.5173
  557.0000   -44.9925     7.1950     8.0997     9.3219     0.0923     0.2978   122.8558     7.9961     0.0586     2.5240
  557.5000   -44.8430     7.4435     8.1504     9.7139     0.0944     0.2933   126.7405     7.9962     0.0608     2.5247
  558.0000   -44.0957     7.8649     8.1442    10.4224     0.1006     0.2909   125.8447     7.9964     0.0463     2.5118
  558.5000   -43.6472     8.2053     8.1380    11.0740     0.1110     0.2891   120.4845     7.9965     0.0348     2.4958
  559.0000   -43.3483     8.4797     7.9621    11.3797     0.1174     0.2885   116.9101     7.9967     0.0264     2.4866
  559.5000   -43.7967     8.2386     7.6834    11.6938     0.1230     0.2874   113.6334     7.9968     0.0202     2.4813
  560.0000   -44.6936     7.4143     7.3117    11.8501     0.1397     0.2886   109.7614     7.9970     0.0141     2.4714
  560.5000   -45.2915     6.3545     6.5344    11.7597     0.1585     0.2971   106.1870     7.9971     0.0087     2.4228
  561.0000   -45.5904     5.2228     5.9219    10.2211     0.1825     0.3075   103.5054     7.9973     0.0048     2.3796
  561.5000   -46.0389     4.7341     5.1827     6.0103     0.2037     0.3169   101.4191     7.9975     0.0047     2.3340
  562.0000   -45.4211     4.9079     5.0605     4.1786     0.2197     0.3242    99.6312     7.9827     0.0137     2.3150
  562.5000   -44.2451     5.1383     5.5490     4.5967     0.2002     0.3179   109.7465     7.9829     0.0197     2.3203
  563.0000   -43.6472     5.3540     6.1321     7.3421     0.1700     0.3073   118.0769     7.9830     0.0226     2.3535
  563.5000   -43.0493     5.6967     6.8295    12.1257     0.1485     0.2949   125.2168     7.9832     0.0294     2.4141
  564.0000   -43.0493     6.0614     7.0680    12.7261     0.1361     0.2813   122.8329     7.9833     0.0338     2.4504
  564.5000   -43.3483     6.7722     7.2626    12.7153     0.1337     0.2792   114.4966     7.9835     0.0133     2.4556
  565.0000   -44.2451     7.7265     7.6724    12.7067     0.1279     0.2802   108.2436     7.9836     0.0117     2.4617
  565.5000   -44.9925     8.8769     8.0504    12.8765     0.1215     0.2811   106.7525     7.9838     0.0161     2.4722
  566.0000   -45.4510     9.7805     8.1023    13.0486     0.1183     0.2797   106.7496     7.9839     0.0191     2.4805
