~VERSION INFORMATION
 VERS.                2.0:   CWLS LOG ASCII STANDARD - VERSION 2.0
 WRAP.                 NO:   ONE LINE PER DEPTH STEP
~WELL INFORMATION
#MNEM.UNIT      DATA TYPE    INFORMATION
#----------   ------------   ------------------------------
 STRT.F            8.5000:   START DEPTH
 STOP.F          642.0000:   STOP DEPTH
 STEP.F            0.5000:   STEP LENGTH
 NULL.          -999.2500:   NO VALUE
 COMP. FENIX & SCISSON INC:   COMPANY
 WELL. 26-36 S11 W1 #26-36 SX11:   WELL
 FLD .             TEAPOT:   FIELD
 LOC .      S11 T38N R78W:   LOCATION
 CNTY.            NATRONA:   COUNTY
 STAT.            WYOMING:   STATE
 CTRY. UNITED STATES OF AMERICA:   COUNTRY
 SRVC.      Dresser Atlas:   SERVICE COMPANY
 DATE.        16-JUL-1980:   LOGDATE
 API .       490251083500:   API NUMBER
~CURVE INFORMATION
#MNEM.UNIT       API CODE    CURVE DESCRIPTION
#----------   ------------   ------------------------------
 DEPT.F                  :   
 NPHI.DEC    42 890 03 00:   NEUTRON POROSITY SANDSTONE
 RHOB.G/C3   45 350 01 00:   BULK DENSITY
 CORR.G/C3   45 356 01 00:   DENSITY CORRECTION
 GRD .GAPI   45 310 01 00:   GAMMA RAY FROM DENSITY LOG
 CALD.IN     45 280 60 00:   CALIPER
 SPR .MV     07 010 01 00:   SPONTANEOUS POTENTIAL
 SFL .OHMM   07 220 01 00:   SHALLOW FOCUSED LOG RESISTIVITY
 ILD .OHMM   07 120 46 00:   INDUCTION LOG DEEP
 ILM .OHMM   07 120 44 00:   INDUCTION LOG MEDIUM
 DPHI.DEC    45 890 12 00:   DENSITY POROSITY SANDSTONE
~PARAMETER INFORMATION
#MNEM.UNIT          VALUE    DESCRIPTION
#----------   ------------   ------------------------------
 PD  .                 GL:   PERMANENT DATUM
 EPD .F              5184:   ELEVATION PERMANENT DATUM
 LMF .                 KB:   LOG MEASURED FROM
 DAPD.F                 5:   FEET ABOVE PERMANENT DATUM
 DMF .                 KB:   DRILLING MEASURED FROM
 EKB .F              5189:   KELLING BUSHING
 EGL .F              5184:   GROUND LEVEL
 DATE.            7-16-80:   RUN DATE
 RUN .                  1:   RUN NUMBER
 DD  .F               630:   DEPTH DRILLER
 DL  .F               637:   DEPTH LOGGER
 BLI .F               635:   BOTTOM LOG INTERVAL
 TLI .F                 8:   TOP LOG INTERVAL
 BS  .IN            7.875:   BIT SIZE
 BSD .F               630:   BIT SIZE AT DEPTH
 DFT .           CHEM GEL:   DRILLING FLUID TYPE
 DFD .                9.2:   DRILLING FLUID DENSITY
 DFV .                 65:   DRILLING FLUID VISCOSITY
 DFPH.                 10:   DRILLING FLUID PH
 DFL .                  8:   DRILLING FLUID LOSS
 MSS .           FLOWLINE:   MUD SAMPLE SOURCE
 RMS .OHMM            .61:   RESISTIVITY MUD SAMPLE
 MST .F                60:   MUD SAMPLE TEMPERATURE
 RMC .OHMM            .62:   RESISTIVITY MUD CAKE
 MCST.F                58:   MUD CAKE SAMPLE TEMPERATURE
 MFSS.               MEAS:   MUD FILTRATE SAMPLE SOURCE
 MCSS.               MEAS:   MUD CAKE SAMPLE SOURCE
 RMB .OHMM            .41:   RESISTIVITY MUD AT BHT
 BHT .F                90:   BOTTOM HOLE TEMPERATURE
 TCS .HRS               5:   TIME CURCULATED STOPPED
 MRT .F                90:   MAXIMUM RECORDED TEMPERATURE
 LUN .               6109:   LOGGING UNIT NUMBER
 LUL .              GLTTE:   LOGGING UNIT LOCATION
 ENGI.            GARONER:   RECORDING ENGINEER
 WITN.              AMEND:   WITNESSED BY
 CLNT.            A2DTECH:   CLIENT CODE
 ORIG.           5" PRINT:   ORIGIN OF DATA
 UWI .       490251083500:   UNIQUE WELL ID
 DICO. A2D Technologies, Inc.:   DIGITIZING COMPANY
~OTHER INFORMATION
~A    DEPT    NPHI       RHOB       CORR        GRD       CALD        SPR        SFL          ILD      ILM       DPHI   
# ...
  343.5000     0.2803     2.4959     0.0516    79.8172     7.9440   -38.5551     9.0183     6.4674     6.8847     0.1265
  344.0000     0.2898     2.4798     0.0480    81.3818     7.9392   -38.0880     8.4624     6.3369     6.8565     0.1216
  344.5000     0.3017     2.4663     0.0441    82.8587     7.9342   -37.6058     7.6594     6.2090     6.8565     0.1090
  345.0000     0.3102     2.4697     0.0416    82.7434     7.9352   -37.1330     8.0466     6.1377     6.8565     0.1024
  345.5000     0.2992     2.4785     0.0463    81.8577     7.9451   -36.7558     9.0169     6.1373     6.7311     0.1016
  346.0000     0.2982     2.4932     0.0532    80.9954     7.9392   -36.9340    10.4826     6.1377     6.7311     0.0976
  346.5000     0.2910     2.5060     0.0555    80.1361     7.9323   -37.1654    10.1148     6.2626     6.7311     0.0936
  347.0000     0.2989     2.5124     0.0578    79.2747     7.9300   -37.4086     9.5952     6.3813     6.7899     0.0983
  347.5000     0.3017     2.5188     0.0585    78.4131     7.9300   -37.6428     9.1022     6.5020     6.9101     0.1004
  348.0000     0.3070     2.5182     0.0597    78.2870     7.9300   -37.8829     8.8782     6.6249     7.0324     0.1052
  348.5000     0.2999     2.5112     0.0597    78.6955     7.9300   -37.9565     9.3133     6.7502     7.1569     0.1187
  349.0000     0.2993     2.5067     0.0610    79.1603     7.9300   -37.9530     9.7146     6.8778     7.2836     0.1155
  349.5000     0.2987     2.4966     0.0637    79.2986     7.9300   -37.9522    10.1333     7.0080     7.4125     0.1112
  350.0000     0.2982     2.4864     0.0556    79.3304     7.9293   -37.9533    10.4820     7.1143     7.5437     0.1151
  350.5000     0.2795     2.4900     0.0476    79.4607     7.9266   -37.9531    10.4816     7.1566     7.6773     0.1121
  351.0000     0.2820     2.4920     0.0461    79.6173     7.9240   -37.9523    10.4291     7.2098     7.8132     0.1076
  351.5000     0.2843     2.4874     0.0405    80.7327     7.9213   -37.9515    10.3794     7.2632     7.9515     0.1036
  352.0000     0.2866     2.4954     0.0378    81.8623     7.9187   -37.9556    10.3054     7.3172     8.0955     0.1082
  352.5000     0.2877     2.5062     0.0408    82.9902     7.9160   -37.9101    10.3351     7.3832     8.1273     0.1104
  353.0000     0.2831     2.5025     0.0437    84.1146     7.9134   -37.8255    10.5454     7.3809     8.1600     0.1016
  353.5000     0.2773     2.4979     0.0397    84.9092     7.9107   -37.7474    10.7601     7.3609     8.1929     0.0992
  354.0000     0.2743     2.5035     0.0351    83.7951     7.9120   -37.6620    10.9792     7.2903     8.2258     0.1035
  354.5000     0.2819     2.5135     0.0338    82.5668     7.9147   -37.5879    11.2026     7.2468     8.2463     0.1085
  355.0000     0.2793     2.5115     0.0338    81.6815     7.9175   -37.5683    11.2902     7.2468     8.1676     0.1139
  355.5000     0.2763     2.4995     0.0338    81.7584     7.9203   -37.8861    11.1306     7.2145     8.0892     0.1166
  356.0000     0.2751     2.4939     0.0310    82.3350     7.9231   -38.1594    10.7937     7.1454     8.0117     0.1171
  356.5000     0.2813     2.4871     0.0254    82.6079     7.9258   -38.4443    10.4666     7.0768     7.9475     0.1230
  357.0000     0.2873     2.4846     0.0238    82.1248     7.9286   -38.7381    10.1494     7.0090     7.7276     0.1233
  357.5000     0.2882     2.4815     0.0250    81.9078     7.9241   -38.7385     9.9179     6.8637     7.5437     0.1303
  358.0000     0.2817     2.4752     0.0259    82.2853     7.9123   -38.7995     9.9179     6.6773     7.3641     0.1315
  358.5000     0.2800     2.4692     0.0244    82.4501     7.9005   -38.4190     9.9179     6.4871     7.1889     0.1156
  359.0000     0.2824     2.4618     0.0224    81.9877     7.8905   -38.1163     9.7182     5.6981     6.5545     0.1005
  359.5000     0.2857     2.4776     0.0237    81.5196     7.8947   -37.8026     9.5123     4.9710     5.6725     0.1043
  360.0000     0.2918     2.4975     0.0365    81.1039     7.8991   -37.5544     9.3108     4.3368     4.9092     0.1193
  360.5000     0.3016     2.5105     0.0506    81.0966     7.9035   -37.6798     8.9920     3.7835     4.2486     0.1447
  361.0000     0.2994     2.4977     0.0577    80.8162     7.9078   -38.0739     8.5564     3.3936     3.6606     0.1749
  361.5000     0.3125     2.4615     0.0572    79.7093     7.9122   -38.4698     6.4035     3.2030     3.4290     0.2048
  362.0000     0.3353     2.4280     0.0561    77.8392     7.9165   -38.7525     4.8300     3.1003     3.2169     0.2347
  362.5000     0.3580     2.3755     0.0521    75.9513     7.9209   -38.7517     4.3127     3.0436     3.1581     0.2521
  363.0000     0.3699     2.3147     0.0394    74.1025     7.9252   -38.7570     4.9911     3.1003     3.3022     0.2031
  363.5000     0.3582     2.2597     0.0271    74.5204     7.9296   -38.7561     6.1722     3.3622     3.5975     0.1622
  364.0000     0.3377     2.3108     0.0303    76.7406     7.9300   -38.7556     6.8844     3.6530     3.9192     0.1348
  364.5000     0.3241     2.4147     0.0562    78.9338     7.9300   -38.7560     7.6769     3.9691     4.2696     0.1147
  365.0000     0.3178     2.4416     0.0598    81.0011     7.9300   -38.7555     8.5606     4.3124     4.6514     0.1139
  365.5000     0.3114     2.4688     0.0620    82.0733     7.9300   -38.7550     9.3837     4.6855     5.0673     0.1201
  366.0000     0.3053     2.4920     0.0755    83.1298     7.9300   -38.7538     9.1249     5.0908     5.5205     0.1291
  366.5000     0.3005     2.4842     0.0734    84.1976     7.9300   -38.7685     8.8011     5.5966     5.8163     0.1145
  367.0000     0.2974     2.4711     0.0689    85.7250     7.9290   -38.8081     8.4888     5.8071     6.0062     0.1172
  367.5000     0.3052     2.4711     0.0676    87.3047     7.9198   -38.8463     8.4000     5.8071     6.2022     0.1092
  368.0000     0.3133     2.4884     0.0671    87.7696     7.9105   -38.8848     8.4000     5.8071     6.3685     0.1149
  368.5000     0.3213     2.4931     0.0628    86.5963     7.9012   -38.9236     8.8520     5.6129     6.3685     0.1230
  369.0000     0.3227     2.4984     0.0595    85.4275     7.8919   -38.9623     9.2393     5.4530     6.1621     0.1273
  369.5000     0.3210     2.4857     0.0525    85.3179     7.8826   -39.0007     9.9179     5.2977     5.8546     0.1387
  370.0000     0.3203     2.4717     0.0446    87.1664     7.8733   -39.0398     9.6471     5.1467     5.5625     0.1500
  370.5000     0.3210     2.4580     0.0364    87.8996     7.8639   -39.0784     8.5873     5.0001     5.2849     0.1691
  371.0000     0.3213     2.4348     0.0304    87.9048     7.8547   -39.1154     6.0254     4.8576     5.0212     0.1636
  371.5000     0.3240     2.4104     0.0183    87.9015     7.8500   -39.1582     6.2459     4.7192     4.7707     0.1508
  372.0000     0.3229     2.4005     0.0106    87.9161     7.8500   -39.1210     7.1021     4.6533     4.6533     0.1423
  372.5000     0.3195     2.4302     0.0187    87.0724     7.8500   -39.0488     8.0955     4.6533     4.7400     0.1511
  373.0000     0.3253     2.4386     0.0257    85.8998     7.8500   -38.9785     7.3475     4.7071     4.9610     0.1336
  373.5000     0.3160     2.4316     0.0107    84.7269     7.8500   -38.9096     6.9700     4.9659     5.1969     0.1248
  374.0000     0.2995     2.4502     0.0131    83.8856     7.8500   -38.8407     8.1335     5.2389     5.4440     0.1156
  374.5000     0.3023     2.4705     0.0227    84.0240     7.8500   -38.7712     9.4010     5.5270     5.7028     0.1163
  375.0000     0.3069     2.4805     0.0288    84.4600     7.8500   -38.7540     8.2572     5.8309     5.9740     0.1087
  375.5000     0.3102     2.4866     0.0388    84.1803     7.8500   -38.7544     8.5261     6.1515     6.2581     0.1044
  376.0000     0.3035     2.4940     0.0487    83.7314     7.8500   -38.7550     9.0194     6.4898     6.5557     0.1056
  376.5000     0.2980     2.5034     0.0549    83.7620     7.8500   -38.7547     9.5423     6.7889     6.8674     0.0993
