~VERSION INFORMATION
 VERS.                2.0:   CWLS LOG ASCII STANDARD - VERSION 2.0
 WRAP.                 NO:   ONE LINE PER DEPTH STEP
~WELL INFORMATION
#MNEM.UNIT      DATA TYPE    INFORMATION
#----------   ------------   ------------------------------
 STRT.F            0.0000:   START DEPTH
 STOP.F         2838.0000:   STOP DEPTH
 STEP.F            0.5000:   STEP LENGTH
 NULL.          -999.2500:   NO VALUE
 COMP. INTEX OIL CO U S NAVY:   COMPANY
 WELL. NAVAL PETROLEUM RESERVE 3 29 #NPR #3 (204A29)-29:   WELL
 FLD .                N/A:   FIELD
 LOC .      S29 T39N R78W:   LOCATION
 CNTY.            NATRONA:   COUNTY
 STAT.            WYOMING:   STATE
 CTRY. UNITED STATES OF AMERICA:   COUNTRY
 SRVC.      NL McCullough:   SERVICE COMPANY
 DATE.        24-JUN-1965:   LOGDATE
 API .       490251021700:   API NUMBER
~CURVE INFORMATION
#MNEM.UNIT       API CODE    CURVE DESCRIPTION
#----------   ------------   ------------------------------
 DEPT.F                  :   
 GR  .GAPI   30 310 01 00:   GAMMA RAY
 HD  .IN     70 280 01 00:   DAIMETER
~PARAMETER INFORMATION
#MNEM.UNIT          VALUE    DESCRIPTION
#----------   ------------   ------------------------------
 PD  .                 GL:   PERMANENT DATUM
 LMF .                 GL:   LOG MEASURED FROM
 EDF .F              5016:   DRILLING FLOOR
 DATE.        24-JUN-1965:   RUN DATE
 RUN .                  1:   RUN NUMBER
 DD  .F              2838:   DEPTH DRILLER
 DL  .F              2838:   DEPTH LOGGER
 BLI .F              2836:   BOTTOM LOG INTERVAL
 TLI .F              2400:   TOP LOG INTERVAL
 CS  .IN            6.625:   CASING SIZE
 CBD .F              2820:   CASING BOTTOM DRILLER
 BSD .F              2838:   BIT SIZE AT DEPTH
 LUN .               1497:   LOGGING UNIT NUMBER
 ENGI.         COWLTHORPE:   RECORDING ENGINEER
 WITN.         MR. HUDSON:   WITNESSED BY
 CLNT.            A2DTECH:   CLIENT CODE
 ORIG.           5" PRINT:   ORIGIN OF DATA
 UWI .       490251021700:   UNIQUE WELL ID
 DICO. A2D Technologies, Inc.:   DIGITIZING COMPANY
~OTHER INFORMATION
~A    DEPT      GR           HD 
# ...
 1093.5000  -999.2500     6.4750
 1094.0000  -999.2500     6.4603
 1094.5000  -999.2500     6.4606
 1095.0000  -999.2500     6.4608
 1095.5000  -999.2500     6.4611
 1096.0000  -999.2500     6.4602
 1096.5000  -999.2500     6.4467
 1097.0000  -999.2500     6.4470
 1097.5000  -999.2500     6.4473
 1098.0000  -999.2500     6.4476
 1098.5000  -999.2500     6.4479
 1099.0000  -999.2500     6.4482
 1099.5000  -999.2500     6.4636
 1100.0000  -999.2500     6.4674
 1100.5000  -999.2500     6.4765
 1101.0000  -999.2500     6.4856
 1101.5000  -999.2500     6.4949
 1102.0000  -999.2500     6.4948
 1102.5000  -999.2500     6.4948
 1103.0000  -999.2500     6.4947
 1103.5000  -999.2500     6.4946
 1104.0000  -999.2500     6.4946
 1104.5000  -999.2500     6.4945
 1105.0000  -999.2500     6.4944
 1105.5000  -999.2500     6.4944
 1106.0000  -999.2500     6.4943
 1106.5000  -999.2500     6.4942
 1107.0000  -999.2500     6.4941
 1107.5000  -999.2500     6.4941
 1108.0000  -999.2500     6.4940
 1108.5000  -999.2500     6.4956
 1109.0000  -999.2500     6.4976
 1109.5000  -999.2500     6.4996
 1110.0000  -999.2500     6.5016
 1110.5000  -999.2500     6.5036
 1111.0000  -999.2500     6.5056
 1111.5000  -999.2500     6.5076
 1112.0000  -999.2500     6.5096
 1112.5000  -999.2500     6.5116
 1113.0000  -999.2500     6.5136
 1113.5000  -999.2500     6.5156
 1114.0000  -999.2500     6.5175
 1114.5000  -999.2500     6.5195
 1115.0000  -999.2500     6.5215
 1115.5000  -999.2500     6.5235
 1116.0000  -999.2500     6.5255
 1116.5000  -999.2500     6.5275
 1117.0000  -999.2500     6.5295
 1117.5000  -999.2500     6.5315
 1118.0000  -999.2500     6.5335
 1118.5000  -999.2500     6.5355
 1119.0000  -999.2500     6.5375
 1119.5000  -999.2500     6.5395
 1120.0000  -999.2500     6.5415
 1120.5000  -999.2500     6.5435
 1121.0000  -999.2500     6.5455
 1121.5000  -999.2500     6.5475
 1122.0000  -999.2500     6.5495
 1122.5000  -999.2500     6.5514
 1123.0000  -999.2500     6.5534
 1123.5000  -999.2500     6.5542
 1124.0000  -999.2500     6.5542
 1124.5000  -999.2500     6.5542
 1125.0000  -999.2500     6.5542
 1125.5000  -999.2500     6.5541
 1126.0000  -999.2500     6.5537
 1126.5000  -999.2500     6.5533
 1127.0000  -999.2500     6.5529
 1127.5000  -999.2500     6.5525
 1128.0000  -999.2500     6.5521
 1128.5000  -999.2500     6.5517
 1129.0000  -999.2500     6.5513
 1129.5000  -999.2500     6.5510
 1130.0000  -999.2500     6.5506
 1130.5000  -999.2500     6.5502
 1131.0000  -999.2500     6.5498
 1131.5000  -999.2500     6.5494
 1132.0000  -999.2500     6.5490
 1132.5000  -999.2500     6.5486
 1133.0000  -999.2500     6.5482
 1133.5000  -999.2500     6.5478
 1134.0000  -999.2500     6.5474
 1134.5000  -999.2500     6.5470
 1135.0000  -999.2500     6.5466
 1135.5000  -999.2500     6.5462
 1136.0000  -999.2500     6.5458
 1136.5000  -999.2500     6.5454
 1137.0000  -999.2500     6.5450
 1137.5000  -999.2500     6.5446
 1138.0000  -999.2500     6.5442
 1138.5000  -999.2500     6.5438
 1139.0000  -999.2500     6.5435
 1139.5000  -999.2500     6.5431
 1140.0000  -999.2500     6.5427
 1140.5000  -999.2500     6.5423
 1141.0000  -999.2500     6.5419
 1141.5000  -999.2500     6.5415
 1142.0000  -999.2500     6.5411
 1142.5000  -999.2500     6.5407
 1143.0000  -999.2500     6.5403
 1143.5000  -999.2500     6.5399
 1144.0000  -999.2500     6.5395
 1144.5000  -999.2500     6.5392
 1145.0000  -999.2500     6.5392
 1145.5000  -999.2500     6.5392
 1146.0000  -999.2500     6.5241
 1146.5000  -999.2500     6.5241
 1147.0000  -999.2500     6.5392
 1147.5000  -999.2500     6.5392
 1148.0000  -999.2500     6.5392
 1148.5000  -999.2500     6.5392
 1149.0000  -999.2500     6.5392
 1149.5000  -999.2500     6.5392
 1150.0000  -999.2500     6.5392
 1150.5000  -999.2500     6.5392
 1151.0000  -999.2500     6.5392
 1151.5000  -999.2500     6.5392
 1152.0000  -999.2500     6.5392
 1152.5000  -999.2500     6.5389
 1153.0000  -999.2500     6.5377
 1153.5000  -999.2500     6.5365
 1154.0000  -999.2500     6.5353
 1154.5000  -999.2500     6.5342
 1155.0000  -999.2500     6.5330
 1155.5000  -999.2500     6.5318
 1156.0000  -999.2500     6.5307
 1156.5000  -999.2500     6.5295
 1157.0000  -999.2500     6.5283
 1157.5000  -999.2500     6.5271
 1158.0000  -999.2500     6.5260
 1158.5000  -999.2500     6.5248
 1159.0000  -999.2500     6.5236
 1159.5000  -999.2500     6.5224
 1160.0000  -999.2500     6.5213
 1160.5000  -999.2500     6.5201
 1161.0000  -999.2500     6.5189
 1161.5000  -999.2500     6.5177
 1162.0000  -999.2500     6.5166
 1162.5000  -999.2500     6.5154
 1163.0000  -999.2500     6.5142
 1163.5000  -999.2500     6.5130
 1164.0000  -999.2500     6.5119
 1164.5000  -999.2500     6.5107
 1165.0000  -999.2500     6.5095
 1165.5000  -999.2500     6.5083
 1166.0000  -999.2500     6.5072
 1166.5000  -999.2500     6.5060
 1167.0000  -999.2500     6.5048
 1167.5000  -999.2500     6.5037
 1168.0000  -999.2500     6.5025
 1168.5000  -999.2500     6.5013
 1169.0000  -999.2500     6.5001
 1169.5000  -999.2500     6.4990
 1170.0000  -999.2500     6.4978
 1170.5000  -999.2500     6.4966
 1171.0000  -999.2500     6.4954
 1171.5000  -999.2500     6.4943
 1172.0000  -999.2500     6.4931
 1172.5000  -999.2500     6.4919
 1173.0000  -999.2500     6.4907
 1173.5000  -999.2500     6.4896
 1174.0000  -999.2500     6.4884
 1174.5000  -999.2500     6.4872
 1175.0000  -999.2500     6.4860
 1175.5000  -999.2500     6.4849
 1176.0000  -999.2500     6.4837
 1176.5000  -999.2500     6.4825
 1177.0000  -999.2500     6.4813
 1177.5000  -999.2500     6.4804
 1178.0000  -999.2500     6.4657
 1178.5000  -999.2500     6.4660
 1179.0000  -999.2500     6.4663
 1179.5000  -999.2500     6.4666
 1180.0000  -999.2500     6.4669
 1180.5000  -999.2500     6.4672
 1181.0000  -999.2500     6.4675
 1181.5000  -999.2500     6.4678
 1182.0000  -999.2500     6.4681
 1182.5000  -999.2500     6.4684
 1183.0000  -999.2500     6.4687
 1183.5000  -999.2500     6.4690
 1184.0000  -999.2500     6.4693
 1184.5000  -999.2500     6.4696
 1185.0000  -999.2500     6.4549
 1185.5000  -999.2500     6.4552
 1186.0000  -999.2500     6.4705
 1186.5000  -999.2500     6.4707
 1187.0000  -999.2500     6.4560
 1187.5000  -999.2500     6.4563
 1188.0000  -999.2500     6.4566
 1188.5000  -999.2500     6.4569
 1189.0000  -999.2500     6.4572
 1189.5000  -999.2500     6.4575
 1190.0000  -999.2500     6.4578
 1190.5000  -999.2500     6.4582
 1191.0000  -999.2500     6.4584
 1191.5000  -999.2500     6.4588
 1192.0000  -999.2500     6.4590
 1192.5000  -999.2500     6.4594
 1193.0000  -999.2500     6.4597
 1193.5000  -999.2500     6.4584
 1194.0000  -999.2500     6.4602
 1194.5000  -999.2500     6.4605
 1195.0000  -999.2500     6.4608
 1195.5000  -999.2500     6.4611
 1196.0000  -999.2500     6.4615
 1196.5000  -999.2500     6.4618
 1197.0000  -999.2500     6.4621
 1197.5000  -999.2500     6.4774
 1198.0000  -999.2500     6.4777
 1198.5000  -999.2500     6.4780
 1199.0000  -999.2500     6.4783
 1199.5000  -999.2500     6.4786
 1200.0000  -999.2500     6.4789
 1200.5000  -999.2500     6.4943
 1201.0000  -999.2500     6.4946
 1201.5000  -999.2500     6.4951
 1202.0000  -999.2500     6.4957
 1202.5000  -999.2500     6.4963
 1203.0000  -999.2500     6.4970
 1203.5000  -999.2500     6.4976
 1204.0000  -999.2500     6.4982
 1204.5000  -999.2500     6.4989
 1205.0000  -999.2500     6.4995
 1205.5000  -999.2500     6.5002
 1206.0000  -999.2500     6.5008
 1206.5000  -999.2500     6.5014
 1207.0000  -999.2500     6.5021
 1207.5000  -999.2500     6.5027
 1208.0000  -999.2500     6.5033
 1208.5000  -999.2500     6.5040
 1209.0000  -999.2500     6.5046
 1209.5000  -999.2500     6.5053
 1210.0000  -999.2500     6.5059
 1210.5000  -999.2500     6.5065
 1211.0000  -999.2500     6.5072
 1211.5000  -999.2500     6.5078
 1212.0000  -999.2500     6.5084
 1212.5000  -999.2500     6.5091
 1213.0000  -999.2500     6.5097
 1213.5000  -999.2500     6.5103
 1214.0000  -999.2500     6.5109
 1214.5000  -999.2500     6.4964
