~VERSION INFORMATION
 VERS.                2.0:   CWLS LOG ASCII STANDARD - VERSION 2.0
 WRAP.                 NO:   ONE LINE PER DEPTH STEP
~WELL INFORMATION
#MNEM.UNIT      DATA TYPE    INFORMATION
#----------   ------------   ------------------------------
 STRT.F           30.0000:   START DEPTH
 STOP.F          458.0000:   STOP DEPTH
 STEP.F            0.5000:   STEP LENGTH
 NULL.          -999.2500:   NO VALUE
 COMP. FENIX & SCISSON INC:   COMPANY
 WELL. NPR 3 #53 SX 10-10:   WELL
 FLD .             TEAPOT:   FIELD
 LOC .      S10 T38N R78W:   LOCATION
 CNTY.            NATRONA:   COUNTY
 STAT.            WYOMING:   STATE
 CTRY. UNITED STATES OF AMERICA:   COUNTRY
 SRVC.              Welex:   SERVICE COMPANY
 DATE.        16-APR-1977:   LOGDATE
 API .       490251033200:   API NUMBER
~CURVE INFORMATION
#MNEM.UNIT       API CODE    CURVE DESCRIPTION
#----------   ------------   ------------------------------
 DEPT.F                  :   
 SPR .MV     07 010 01 00:   SPONTANEOUS POTENTIAL FROM RES.
 ILD .OHMM   07 120 46 00:   INDUCTION LOG DEEP
 ILM .OHMM   07 120 44 00:   INDUCTION LOG MEDIUM
 SGRD.OHMM   07 220 05 00:   SHALLOW GUARD RESISTIVITY
 GRD .GAPI   45 310 01 00:   GAMMA RAY FROM DENSITY LOG
 CALD.IN     45 280 60 00:   CALIPER FROM DENSITY LOG
 CORR.G/C3   45 356 01 00:   DENSITY CORRECTION
 RHOB.G/C3   45 350 01 00:   BULK DENSITY
 DPHI.DEC    45 890 12 00:   DENSITY POROSITY SANDSTONE
~PARAMETER INFORMATION
#MNEM.UNIT          VALUE    DESCRIPTION
#----------   ------------   ------------------------------
 PD  .                 GL:   PERMANENT DATUM
 EPD .F              5180:   ELEVATION PERMANENT DATUM
 LMF .                 GL:   LOG MEASURED FROM
 DMF .                 GL:   DRILLING MEASURED FROM
 EGL .F              5180:   GROUND LEVEL
 DATE.        16-APR-1977:   RUN DATE
 RUN .                  1:   RUN NUMBER
 DD  .F               455:   DEPTH DRILLER
 DL  .F               461:   DEPTH LOGGER
 BLI .F               459:   BOTTOM LOG INTERVAL
 TLI .F                30:   TOP LOG INTERVAL
 CS  .IN            8.625:   CASING SIZE
 BS  .IN            7.875:   BIT SIZE
 BSD .F               455:   BIT SIZE AT DEPTH
 DFT .            KCL MUD:   DRILLING FLUID TYPE
 DFD .                8.9:   DRILLING FLUID DENSITY
 TCS .HRS            0600:   TIME CURCULATED STOPPED
 MRT .F                66:   MAXIMUM RECORDED TEMPERATURE
 ENGI.               DOAK:   RECORDING ENGINEER
 WITN.      B. HARRINGTON:   WITNESSED BY
 CLNT.            A2DTECH:   CLIENT CODE
 ORIG.           5" PRINT:   ORIGIN OF DATA
 UWI .       490251033200:   UNIQUE WELL ID
 DICO. A2D Technologies, Inc.:   DIGITIZING COMPANY
~OTHER INFORMATION
~A   DEPT      SPR        ILD        ILM       SGRD         GRD        CALD      CORR        RHOB     DPHI   
# ...
   66.5000   -44.6588    10.5116    12.6890    18.1231    99.9232     7.7876     0.0271     2.4670     0.1164
   67.0000   -44.6588    10.5182    13.0544    16.9250    99.7880     7.7898     0.0287     2.4723     0.1151
   67.5000   -44.6588    10.5247    13.1549    17.4128    99.8102     7.7916     0.0319     2.4761     0.1142
   68.0000   -44.6588    10.5313    13.0718    18.1606   100.7195     7.7934     0.0335     2.4792     0.1139
   68.5000   -44.6588    10.5379    13.2662    16.8463   102.8174     7.7951     0.0321     2.4785     0.1129
   69.0000   -44.6588    10.5445    13.5544    16.3960   105.3612     7.7968     0.0292     2.4695     0.1141
   69.5000   -44.6588    10.5511    13.8487    16.4114   108.9451     7.7986     0.0279     2.4576     0.1164
   70.0000   -44.6588    10.5577    13.5749    17.0015   109.9985     7.8155     0.0250     2.4464     0.1224
   70.5000   -44.6588    10.5643    13.1239    17.2512   107.0490     7.8173     0.0236     2.4367     0.1257
   71.0000   -44.6588    10.5710    12.5137    17.3807   105.2836     7.8339     0.0222     2.4345     0.1271
   71.5000   -44.6588    10.5776    12.0980    16.1228   103.6669     7.8357     0.0209     2.4354     0.1268
   72.0000   -44.8071    10.5096    11.6960    15.1614   101.3073     7.8221     0.0195     2.4347     0.1247
   72.5000   -45.1039    10.4437    11.3858    14.6572   101.0234     7.8244     0.0166     2.4287     0.1270
   73.0000   -45.1039    10.4519    11.1607    14.5644   102.5315     7.8261     0.0108     2.4220     0.1300
   73.5000   -45.2522    10.3848    10.9400    15.4073   101.8063     7.8279     0.0064     2.4146     0.1339
   74.0000   -45.2522    10.3213    10.9483    16.4089    99.0009     7.8297     0.0080     2.4169     0.1353
   74.5000   -45.2522    10.2566    10.9566    15.9732    96.0469     7.8315     0.0112     2.4290     0.1302
   75.0000   -45.2522    10.2630    11.0410    15.3356    92.4985     7.8332     0.0143     2.4381     0.1268
   75.5000   -45.2522    10.2694    11.2031    15.7775    93.1106     7.8350     0.0190     2.4441     0.1238
   76.0000   -45.2522    10.2759    11.4464    16.5724    96.2487     7.8368     0.0221     2.4502     0.1205
   76.5000   -45.2522    10.2823    11.6950    16.3571    98.6395     7.8386     0.0237     2.4555     0.1180
   77.0000   -45.2522    10.3585    11.9490    15.9229    95.9871     7.8408     0.0239     2.4533     0.1189
   77.5000   -45.2522    10.0822    12.1245    15.0773    98.5308     7.8425     0.0240     2.4474     0.1204
   78.0000   -45.2522     9.8149    11.8029    14.6742   102.1147     7.8443     0.0242     2.4407     0.1236
   78.5000   -45.2522     9.8210    11.4108    15.0999   102.5738     7.8461     0.0243     2.4446     0.1230
   79.0000   -45.2522     9.7579    11.1851    14.8011   101.4073     7.8479     0.0260     2.4476     0.1215
   79.5000   -45.2522     9.6299    10.8885    14.2102   100.3849     7.8496     0.0261     2.4507     0.1202
   80.0000   -45.4006     9.5696    10.5997    13.7376    99.5111     7.8365     0.0277     2.4508     0.1202
   80.5000   -45.4006     9.5770    10.1770    13.6507    98.6329     7.8383     0.0294     2.4501     0.1199
   81.0000   -45.4006     9.5830     9.9052    14.0467    98.2049     7.8401     0.0295     2.4479     0.1201
   81.5000   -45.4006     9.5215     9.9146    14.7544    99.2672     7.8418     0.0281     2.4449     0.1213
   82.0000   -45.4006     9.4618     9.9909    14.8679   101.6624     7.8436     0.0267     2.4428     0.1216
   82.5000   -45.4006     9.3377    10.0678    14.5736   102.8689     7.8454     0.0269     2.4413     0.1227
   83.0000   -45.5490     9.3437    10.1453    14.5846   102.1437     7.8472     0.0255     2.4354     0.1248
   83.5000   -45.8457     9.2785    10.0812    14.7988   101.2699     7.8638     0.0211     2.4205     0.1283
   84.0000   -45.8457     9.1000     9.9522    14.0129   100.5447     7.8656     0.0183     2.4153     0.1331
   84.5000   -45.8457     8.8539     9.8912    13.8282    99.9681     7.8674     0.0154     2.4146     0.1391
   85.0000   -45.8457     8.6211     9.8987    14.1313    99.5401     7.8691     0.0140     2.4147     0.1402
   85.5000   -45.8457     8.5670     9.8361    13.4738    99.5579     7.8709     0.0126     2.4177     0.1393
   86.0000   -45.8457     8.5724     9.9137    14.0551   101.9530     7.8727     0.0128     2.4223     0.1378
   86.5000   -45.9941     8.5186    10.1993    13.6819   103.0624     7.8745     0.0144     2.4216     0.1356
   87.0000   -45.9941     8.4652    10.4930    12.9554   101.8400     7.8762     0.0146     2.4187     0.1374
   87.5000   -45.9941     8.4706    10.7953    12.6965    99.4803     7.8780     0.0147     2.4202     0.1377
   88.0000   -45.9941     8.4759    11.0297    14.5905    94.0003     7.8798     0.0163     2.4226     0.1346
   88.5000   -45.9941     8.4812    11.1917    12.9821    90.0062     7.8667     0.0195     2.4279     0.1307
   89.0000   -45.9941     8.4865    10.8199    14.8187    89.1324     7.8684     0.0226     2.4340     0.1267
   89.5000   -46.1424     8.4331    10.2458    12.8255    91.0818     7.8255     0.0273     2.4385     0.1252
   90.0000   -46.1424     8.4971    10.0413    13.1951    93.6256     7.8124     0.0289     2.4334     0.1246
   90.5000   -46.1496     8.5614     9.9812    14.0503    98.5617     7.7839     0.0259     2.4252     0.1272
   91.0000   -46.2908     8.6861    10.0584    13.1947   102.0020     7.7708     0.0170     2.4140     0.1305
   91.5000   -46.4392     8.4544    10.2769    13.2752   103.6419     7.7730     0.0096     2.4035     0.1365
   92.0000   -46.4392     8.3435    10.4390    14.3953   104.4052     7.7752     0.0069     2.4043     0.1421
   92.5000   -46.7359     8.1774    10.3638    13.9798   105.0198     7.7919     0.0085     2.4052     0.1445
   93.0000   -47.0326     8.0145    10.0195    13.4084   105.6196     7.8235     0.0087     2.4045     0.1454
   93.5000   -47.0326     8.0195     9.5537    12.8879   106.2318     7.8252     0.0103     2.4045     0.1462
   94.0000   -47.0326     8.0245     9.0468    12.2044   106.7152     7.8419     0.0104     2.4031     0.1471
   94.5000   -47.0326     8.0296     8.7460    11.4489   106.8612     7.8437     0.0106     2.4017     0.1489
   95.0000   -47.0326     7.9780     8.5141    11.2596   103.6602     7.8455     0.0107     2.3957     0.1500
   95.5000   -47.0326     7.9280     8.3457    11.1676   100.6691     7.8472     0.0093     2.3958     0.1515
   96.0000   -47.0326     7.8783     8.2946    11.2411    99.1878     7.8639     0.0095     2.4041     0.1475
   96.5000   -47.0326     7.8289     8.2438    13.1752   101.5874     7.8955     0.0096     2.4104     0.1418
   97.0000   -47.0326     7.7798     8.1368    13.6115   102.0465     7.9122     0.0113     2.4140     0.1394
   97.5000   -47.0326     7.6248     8.1430    12.2705   104.0004     7.9139     0.0129     2.4163     0.1384
   98.0000   -47.0326     7.7908     8.0930    12.1202   106.3955     7.8859     0.0130     2.4172     0.1345
   98.5000   -47.0326     7.8497     8.1554    12.3011   109.9794     7.8574     0.0162     2.4232     0.1312
   99.0000   -47.0326     7.8546     8.2182    11.7242   113.1175     7.8443     0.0178     2.4316     0.1284
   99.5000   -47.0326     7.8596     8.1352    11.6539   115.6613     7.8163     0.0179     2.4264     0.1272
  100.0000   -47.1894     7.8645     8.1403    12.2417   117.7593     7.8031     0.0181     2.4114     0.1299
  100.5000   -47.1746     7.9790     8.1454    12.1637   120.1544     7.8053     0.0167     2.4138     0.1334
  101.0000   -47.1597     8.0394     8.1505    12.0070   117.7948     7.8071     0.0169     2.4154     0.1343
  101.5000   -47.1449     8.1002     8.2691    11.9305   113.4951     7.8089     0.0156     2.4207     0.1324
  102.0000   -47.1300     8.3326     8.5063    11.2204   105.4849     7.8105     0.0157     2.4261     0.1303
  102.5000   -47.2631     8.3378     8.6302    11.1489   104.7449     7.8123     0.0159     2.4292     0.1279
