~VERSION INFORMATION
 VERS.                2.0:   CWLS LOG ASCII STANDARD - VERSION 2.0
 WRAP.                 NO:   ONE LINE PER DEPTH STEP
~WELL INFORMATION
#MNEM.UNIT      DATA TYPE    INFORMATION
#----------   ------------   ------------------------------
 STRT.F          610.5000:   START DEPTH
 STOP.F         2311.0000:   STOP DEPTH
 STEP.F            0.5000:   STEP LENGTH
 NULL.          -999.2500:   NO VALUE
 COMP. BROWN JOHN E&C INC:   COMPANY
 WELL.  48-1SHX-34 #48-34:   WELL
 FLD .             TEAPOT:   FIELD
 LOC .      S34 T39N R78W:   LOCATION
 CNTY.            NATRONA:   COUNTY
 STAT.            WYOMING:   STATE
 CTRY. UNITED STATES OF AMERICA:   COUNTRY
 SRVC.            Unknown:   SERVICE COMPANY
 DATE.        16-SEP-1991:   LOGDATE
 API .       490251109000:   API NUMBER
~CURVE INFORMATION
#MNEM.UNIT       API CODE    CURVE DESCRIPTION
#----------   ------------   ------------------------------
 DEPT.F                  :   
 ROP .MIN/FT 91 810 01 00:   RAT OF DRILLING PENETRATION
 TGAS.UNITS  91 830 01 00:   TOTAL GAS FROM HOTWIRE
~PARAMETER INFORMATION
#MNEM.UNIT          VALUE    DESCRIPTION
#----------   ------------   ------------------------------
 EKB .F              5163:   KELLING BUSHING
 EGL .F              5152:   GROUND LEVEL
 DATE.            9-16-91:   RUN DATE
 DD  .F              2311:   DEPTH DRILLER
 TCS .HRS            0200:   TIME CURCULATED STOPPED
 TLAB.HRS            0115:   TIME LOGGER AT BOTTOM
 ENGI.             HENDRY:   RECORDING ENGINEER
 WITN.               HUSK:   WITNESSED BY
 CLNT.            A2DTECH:   CLIENT CODE
 ORIG.           5" PRINT:   ORIGIN OF DATA
 UWI .       490251109000:   UNIQUE WELL ID
 DICO. A2D Technologies, Inc.:   DIGITIZING COMPANY
~OTHER INFORMATION
~A   DEPT        ROP       TGAS 
# ...
 1461.0000     0.7851     7.2940
 1461.5000     0.7851     7.2552
 1462.0000     0.7968     7.2093
 1462.5000     0.8789     7.1625
 1463.0000     0.9550     7.1157
 1463.5000     0.9850     7.0688
 1464.0000     1.0115     7.0220
 1464.5000     1.0071     6.9751
 1465.0000     1.0032     6.9283
 1465.5000     0.9984     6.8815
 1466.0000     1.0468     6.8346
 1466.5000     1.1096     6.7878
 1467.0000     1.1727     6.7409
 1467.5000     1.2359     6.6941
 1468.0000     1.2470     6.6473
 1468.5000     1.1522     6.6004
 1469.0000     1.0671     6.5536
 1469.5000     1.0368     6.5067
 1470.0000     1.0241     6.4599
 1470.5000     1.0239     6.4130
 1471.0000     1.0239     6.3663
 1471.5000     1.0242     6.3186
 1472.0000     1.0225     6.3241
 1472.5000     0.9750     6.3565
 1473.0000     0.9250     6.3895
 1473.5000     0.8754     6.4225
 1474.0000     0.8344     6.4555
 1474.5000     0.8353     6.4885
 1475.0000     0.8354     6.5215
 1475.5000     0.8354     6.5544
 1476.0000     0.8354     6.5874
 1476.5000     0.8358     6.6204
 1477.0000     0.8575     6.6533
 1477.5000     0.9131     6.6863
 1478.0000     0.9679     6.7193
 1478.5000     1.0115     6.7522
 1479.0000     1.0060     6.7849
 1479.5000     1.0018     6.8118
 1480.0000     1.0236     6.8457
 1480.5000     1.0841     6.8801
 1481.0000     1.1442     6.9143
 1481.5000     1.2046     6.9484
 1482.0000     1.2607     6.9826
 1482.5000     1.2338     7.0168
 1483.0000     1.1548     7.0510
 1483.5000     1.0767     7.0852
 1484.0000     1.0436     7.1193
 1484.5000     1.0343     7.1535
 1485.0000     1.0253     7.1877
 1485.5000     1.0160     7.2219
 1486.0000     0.9932     7.2560
 1486.5000     0.9586     7.2902
 1487.0000     0.9185     7.3244
 1487.5000     0.8773     7.3586
 1488.0000     0.8362     7.3927
 1488.5000     0.7986     7.4269
 1489.0000     0.8026     7.4611
 1489.5000     0.8079     7.4953
 1490.0000     0.8237     7.5294
 1490.5000     0.8532     7.5636
 1491.0000     0.8825     7.5978
 1491.5000     0.8983     7.6320
 1492.0000     0.8982     7.6661
 1492.5000     0.8982     7.7003
 1493.0000     0.8983     7.7345
 1493.5000     0.8980     7.7687
 1494.0000     0.9123     7.8028
 1494.5000     0.9308     7.8370
 1495.0000     1.0262     7.8712
 1495.5000     1.1305     7.9054
 1496.0000     1.1620     7.9395
 1496.5000     1.1601     7.9737
 1497.0000     1.1185     8.0079
 1497.5000     1.0778     8.0421
 1498.0000     1.0476     8.0763
 1498.5000     1.0448     8.1104
 1499.0000     1.0416     8.1446
 1499.5000     1.0384     8.1788
 1500.0000     1.0352     8.2130
 1500.5000     1.0319     8.2472
 1501.0000     1.0288     8.2814
 1501.5000     1.0258     8.3156
 1502.0000     1.0448     8.3108
 1502.5000     1.0924     8.2985
 1503.0000     1.2153     8.2861
 1503.5000     1.3349     8.2737
 1504.0000     1.3486     8.2614
 1504.5000     1.2384     8.2490
 1505.0000     1.1319     8.2366
 1505.5000     1.0260     8.2242
 1506.0000     1.0052     8.2119
 1506.5000     0.9981     8.1995
 1507.0000     0.9915     8.1871
 1507.5000     0.9913     8.1748
 1508.0000     1.0171     8.1624
 1508.5000     1.0423     8.1500
 1509.0000     1.0748     8.1377
 1509.5000     1.1384     8.1253
 1510.0000     1.1996     8.1129
 1510.5000     1.1764     8.1006
 1511.0000     1.0685     8.0882
 1511.5000     1.0353     8.0758
 1512.0000     1.0329     8.0635
 1512.5000     1.0301     8.0511
 1513.0000     1.0272     8.0387
 1513.5000     1.0239     8.0263
 1514.0000     1.0436     8.0140
 1514.5000     1.0678     8.0016
 1515.0000     1.1316     7.9892
 1515.5000     1.2048     7.9769
 1516.0000     1.2782     7.9645
 1516.5000     1.3516     7.9521
 1517.0000     1.4253     7.9398
 1517.5000     1.5016     7.9274
 1518.0000     1.5152     7.9150
 1518.5000     1.4608     7.9027
 1519.0000     1.3906     7.8903
 1519.5000     1.3200     7.8779
 1520.0000     1.2424     7.8655
 1520.5000     1.1578     7.8532
 1521.0000     1.0735     7.8408
 1521.5000     0.9893     7.8284
 1522.0000     0.9061     7.8156
 1522.5000     0.8470     7.8043
 1523.0000     0.8484     7.7928
 1523.5000     0.8342     7.7811
 1524.0000     0.8152     7.7695
 1524.5000     0.7882     7.7579
 1525.0000     0.7059     7.7463
 1525.5000     0.6204     7.7346
 1526.0000     0.6363     7.7230
 1526.5000     0.6909     7.7114
 1527.0000     0.7467     7.6998
 1527.5000     0.7974     7.6881
 1528.0000     0.8025     7.6765
 1528.5000     0.8065     7.6649
 1529.0000     0.8106     7.6533
 1529.5000     0.8147     7.6416
 1530.0000     0.8185     7.6300
 1530.5000     0.8256     7.6184
 1531.0000     0.8888     7.6068
 1531.5000     0.9530     7.5951
 1532.0000     0.9251     7.5835
 1532.5000     0.8825     7.5719
 1533.0000     0.8396     7.5603
 1533.5000     0.7973     7.5486
 1534.0000     0.7857     7.5370
 1534.5000     0.8174     7.5254
 1535.0000     0.8488     7.5138
 1535.5000     0.8604     7.5021
 1536.0000     0.8606     7.4905
 1536.5000     0.8606     7.4789
 1537.0000     0.8605     7.4673
 1537.5000     0.8599     7.4556
 1538.0000     0.8856     7.4440
 1538.5000     0.9168     7.4324
 1539.0000     0.9481     7.4208
 1539.5000     0.9749     7.4092
 1540.0000     0.9781     7.3975
 1540.5000     0.9817     7.3859
 1541.0000     0.9853     7.3743
 1541.5000     0.9890     7.3627
 1542.0000     0.9927     7.3510
 1542.5000     0.9964     7.3394
 1543.0000     0.9988     7.3278
 1543.5000     0.9988     7.3161
 1544.0000     0.9844     7.3168
 1544.5000     0.9584     7.3272
 1545.0000     0.9258     7.3377
 1545.5000     0.8575     7.3482
 1546.0000     0.8162     7.3587
 1546.5000     0.8457     7.3692
 1547.0000     0.9236     7.3798
 1547.5000     0.9632     7.3903
 1548.0000     0.9693     7.4008
 1548.5000     0.9748     7.4113
 1549.0000     0.9801     7.4218
 1549.5000     0.9861     7.4323
 1550.0000     1.0191     7.4428
 1550.5000     1.0559     7.4533
 1551.0000     1.1085     7.4638
 1551.5000     1.1762     7.4743
 1552.0000     1.2049     7.4848
 1552.5000     1.1320     7.4954
 1553.0000     1.0613     7.5059
 1553.5000     0.9969     7.5164
 1554.0000     0.9985     7.5269
 1554.5000     0.9987     7.5374
 1555.0000     0.9987     7.5479
 1555.5000     0.9987     7.5584
 1556.0000     0.9987     7.5689
 1556.5000     0.9988     7.5794
 1557.0000     0.9990     7.5899
 1557.5000     0.9982     7.6004
 1558.0000     0.9571     7.6110
 1558.5000     0.9121     7.6215
 1559.0000     0.8670     7.6320
 1559.5000     0.8206     7.6425
 1560.0000     0.8021     7.6530
 1560.5000     0.7907     7.6635
 1561.0000     0.7795     7.6740
 1561.5000     0.7684     7.6845
 1562.0000     0.7571     7.6950
 1562.5000     0.7395     7.7055
 1563.0000     0.6855     7.7160
 1563.5000     0.6320     7.7265
 1564.0000     0.5964     7.7371
 1564.5000     0.6141     7.7476
 1565.0000     0.6643     7.7581
 1565.5000     0.7140     7.7686
 1566.0000     0.7638     7.7791
 1566.5000     0.8136     7.7896
 1567.0000     0.8633     7.8001
 1567.5000     0.9131     7.8107
 1568.0000     0.9630     7.8151
 1568.5000     1.0139     7.8151
 1569.0000     1.0253     7.8151
 1569.5000     1.0274     7.8151
 1570.0000     1.0292     7.8151
 1570.5000     1.0311     7.8151
 1571.0000     1.0329     7.8151
 1571.5000     1.0349     7.8151
 1572.0000     1.0455     7.8151
 1572.5000     1.0993     7.8151
 1573.0000     1.1524     7.8151
 1573.5000     1.2047     7.8151
 1574.0000     1.2175     7.8151
 1574.5000     1.1641     7.8151
 1575.0000     1.1117     7.8151
 1575.5000     1.0584     7.8151
 1576.0000     1.0468     7.8151
 1576.5000     1.0439     7.8151
 1577.0000     1.0412     7.8151
 1577.5000     1.0386     7.8151
 1578.0000     1.0409     7.8151
 1578.5000     1.0647     7.8151
 1579.0000     1.1167     7.8151
 1579.5000     1.1845     7.8151
 1580.0000     1.2136     7.8151
 1580.5000     1.1853     7.8151
 1581.0000     1.1295     7.8151
 1581.5000     1.0719     7.8151
 1582.0000     1.0683     7.8151
