~VERSION INFORMATION
 VERS.                2.0:   CWLS LOG ASCII STANDARD - VERSION 2.0
 WRAP.                 NO:   ONE LINE PER DEPTH STEP
~WELL INFORMATION
#MNEM.UNIT      DATA TYPE    INFORMATION
#----------   ------------   ------------------------------
 STRT.F            2.0000:   START DEPTH
 STOP.F          482.0000:   STOP DEPTH
 STEP.F            0.5000:   STEP LENGTH
 NULL.          -999.2500:   NO VALUE
 COMP. LAWRENCE/ALLISON INC:   COMPANY
 WELL.  NPR 3 #67-65-SX-3:   WELL
 FLD .             TEAPOT:   FIELD
 LOC .       S3 T38N R78W:   LOCATION
 CNTY.            NATRONA:   COUNTY
 STAT.            WYOMING:   STATE
 CTRY. UNITED STATES OF AMERICA:   COUNTRY
 SRVC.           Gearhart:   SERVICE COMPANY
 DATE.        13-JUN-1988:   LOGDATE
 API .       490251121900:   API NUMBER
~CURVE INFORMATION
#MNEM.UNIT       API CODE    CURVE DESCRIPTION
#----------   ------------   ------------------------------
 DEPT.F                  :   
 GRR .GAPI   07 310 01 00:   GAMMA RAY FROM RES. LOG.
 ILD .OHMM   07 120 46 00:   INDUCTION LOG DEEP
 ILM .OHMM   07 120 44 00:   INDUCTION LOG MEDIUM
~PARAMETER INFORMATION
#MNEM.UNIT          VALUE    DESCRIPTION
#----------   ------------   ------------------------------
 PD  .                 GL:   PERMANENT DATUM
 EPD .F              5172:   ELEVATION PERMANENT DATUM
 LMF .                 KB:   LOG MEASURED FROM
 DAPD.F                 5:   FEET ABOVE PERMANENT DATUM
 DMF .                 KB:   DRILLING MEASURED FROM
 EKB .F              5177:   KELLING BUSHING
 EGL .F              5172:   GROUND LEVEL
 DATE.            6-13-88:   RUN DATE
 RUN .                  1:   RUN NUMBER
 DD  .F               490:   DEPTH DRILLER
 DL  .F               490:   DEPTH LOGGER
 BLI .F             481.5:   BOTTOM LOG INTERVAL
 TLI .F                40:   TOP LOG INTERVAL
 CS  .IN            8.625:   CASING SIZE
 CBD .F                40:   CASING BOTTOM DRILLER
 CBL .F                40:   CASING BOTTOM LOGGER
 BS  .IN            7.875:   BIT SIZE
 BSD .F               490:   BIT SIZE AT DEPTH
 DFT .                AIR:   DRILLING FLUID TYPE
 TLAB.HRS            2345:   TIME LOGGER AT BOTTOM
 MRT .F                70:   MAXIMUM RECORDED TEMPERATURE
 LUN .               7597:   LOGGING UNIT NUMBER
 LUL .           GILLETTE:   LOGGING UNIT LOCATION
 ENGI.          HUCKFELDT:   RECORDING ENGINEER
 WITN.             STRONG:   WITNESSED BY
 CLNT.            A2DTECH:   CLIENT CODE
 ORIG.       2", 5" PRINT:   ORIGIN OF DATA
 UWI .       490251121900:   UNIQUE WELL ID
 DICO. A2D Technologies, Inc.:   DIGITIZING COMPANY
~OTHER INFORMATION
~A    DEPT      GRR       ILD        ILM   
    2.0000    63.1048  -999.2500  -999.2500
    2.5000    63.3054  -999.2500  -999.2500
    3.0000    64.2042  -999.2500  -999.2500
    3.5000    65.3267  -999.2500  -999.2500
    4.0000    66.7289  -999.2500  -999.2500
    4.5000    68.1305  -999.2500  -999.2500
    5.0000    69.5338  -999.2500  -999.2500
    5.5000    70.9334  -999.2500  -999.2500
    6.0000    72.3724  -999.2500  -999.2500
    6.5000    71.8888  -999.2500  -999.2500
    7.0000    70.6084  -999.2500  -999.2500
    7.5000    68.6280  -999.2500  -999.2500
    8.0000    65.8777  -999.2500  -999.2500
    8.5000    64.4382  -999.2500  -999.2500
    9.0000    62.9077  -999.2500  -999.2500
    9.5000    62.0435  -999.2500  -999.2500
   10.0000    61.0926  -999.2500  -999.2500
   10.5000    60.1323  -999.2500  -999.2500
   11.0000    59.1726  -999.2500  -999.2500
   11.5000    58.1867  -999.2500  -999.2500
   12.0000    58.4836  -999.2500  -999.2500
   12.5000    59.9889  -999.2500  -999.2500
   13.0000    62.2419  -999.2500  -999.2500
   13.5000    64.2785  -999.2500  -999.2500
   14.0000    64.3232  -999.2500  -999.2500
   14.5000    64.3181  -999.2500  -999.2500
   15.0000    64.5510  -999.2500  -999.2500
   15.5000    65.6837  -999.2500  -999.2500
   16.0000    66.7257  -999.2500  -999.2500
   16.5000    67.0685  -999.2500  -999.2500
   17.0000    67.3833  -999.2500  -999.2500
   17.5000    67.7002  -999.2500  -999.2500
   18.0000    68.0178  -999.2500  -999.2500
   18.5000    68.3358  -999.2500  -999.2500
   19.0000    68.6534  -999.2500  -999.2500
   19.5000    68.9683  -999.2500  -999.2500
   20.0000    69.0834  -999.2500  -999.2500
   20.5000    68.9090  -999.2500  -999.2500
   21.0000    68.7733  -999.2500  -999.2500
   21.5000    69.3054  -999.2500  -999.2500
   22.0000    69.8584  -999.2500  -999.2500
   22.5000    70.4069  -999.2500  -999.2500
   23.0000    70.9625  -999.2500  -999.2500
   23.5000    71.0310  -999.2500  -999.2500
   24.0000    70.8316  -999.2500  -999.2500
   24.5000    69.6730  -999.2500  -999.2500
   25.0000    68.3871  -999.2500  -999.2500
   25.5000    68.5006  -999.2500  -999.2500
   26.0000    69.4234  -999.2500  -999.2500
   26.5000    70.5975  -999.2500  -999.2500
   27.0000    72.2007  -999.2500  -999.2500
   27.5000    73.1962  -999.2500  -999.2500
   28.0000    73.1896  -999.2500  -999.2500
   28.5000    73.5724  -999.2500  -999.2500
   29.0000    74.5918  -999.2500  -999.2500
   29.5000    75.5711  -999.2500  -999.2500
   30.0000    75.6114  -999.2500  -999.2500
   30.5000    75.6062  -999.2500  -999.2500
   31.0000    75.6047  -999.2500  -999.2500
   31.5000    75.6037  -999.2500  -999.2500
   32.0000    75.6037  -999.2500  -999.2500
   32.5000    75.6857  -999.2500  -999.2500
   33.0000    76.1877  -999.2500  -999.2500
   33.5000    77.4450  -999.2500  -999.2500
   34.0000    79.2607  -999.2500  -999.2500
   34.5000    80.0354  -999.2500  -999.2500
   35.0000    78.9664  -999.2500  -999.2500
   35.5000    77.0768  -999.2500  -999.2500
   36.0000    75.1844  -999.2500  -999.2500
   36.5000    73.5118  -999.2500  -999.2500
   37.0000    73.3236  -999.2500  -999.2500
   37.5000    73.1057  -999.2500  -999.2500
   38.0000    72.8774  -999.2500  -999.2500
   38.5000    73.6820  -999.2500  -999.2500
   39.0000    76.8430  -999.2500   360.2162
   39.5000    84.9439    17.8402   337.5936
   40.0000    95.1824     7.2173   372.6730
   40.5000   105.4065     2.7406    61.9406
   41.0000   114.3371     2.1942     9.0461
   41.5000   119.1646     2.0755     3.7730
   42.0000   121.1615     3.5088     3.6866
   42.5000   121.9920     8.5128     3.9224
   43.0000   120.9896    15.6051     5.0338
   43.5000   119.1346    18.8787     6.4601
   44.0000   117.1573    11.7978     8.7857
   44.5000   118.7699     8.4846    14.1294
   45.0000   121.0322     8.8051    13.0795
   45.5000   123.2966     8.6709    11.2078
   46.0000   123.5026     8.4100     9.6635
   46.5000   120.6215     8.2319     9.9144
   47.0000   117.7294     8.1552    10.2916
   47.5000   117.9342     8.1036    10.8024
   48.0000   120.1118     8.2825    10.5039
   48.5000   120.4780     8.7473     9.5744
   49.0000   120.8884     9.0566     9.3036
   49.5000   121.5317     8.9787     9.2206
   50.0000   122.7757     8.9192     9.1385
   50.5000   124.0136     8.8600     9.0570
   51.0000   125.3167     8.8013     8.9756
   51.5000   124.6879     8.7271     8.8907
   52.0000   123.4072     8.7620     8.9668
   52.5000   122.7268     8.8102     9.0516
   53.0000   122.5760     8.8588     9.1365
   53.5000   122.4510     8.9076     9.2222
   54.0000   120.2263     8.9567     9.3088
   54.5000   116.1910     9.0060     9.3986
   55.0000   112.1483     9.0566     9.3647
   55.5000   109.7757     9.0119     9.3210
   56.0000   111.2900     8.9665     9.2776
   56.5000   115.5090     8.9214     9.2344
   57.0000   119.6564     8.8764     9.1914
   57.5000   122.3557     8.8317     9.1481
   58.0000   122.1232     8.7873     9.1118
   58.5000   121.9464     8.7430     9.0642
   59.0000   121.7584     8.7200     9.0174
   59.5000   121.5844     8.7091     8.9731
   60.0000   121.7888     8.6981     8.9684
   60.5000   122.0154     8.6871     8.9582
   61.0000   122.2495     8.6761     8.9480
   61.5000   122.9240     8.6652     8.9378
   62.0000   124.3426     8.6542     8.9277
   62.5000   125.2885     8.6461     8.9175
   63.0000   125.4765     8.6203     8.9074
   63.5000   125.6758     8.5969     8.8972
   64.0000   125.8727     8.5733     8.8861
   64.5000   126.0702     8.5498     8.8516
   65.0000   126.2680     8.5263     8.8171
   65.5000   126.4670     8.5029     8.7828
   66.0000   126.6621     8.4678     8.7486
   66.5000   126.7083     8.4095     8.7271
   67.0000   126.1478     8.5367     8.8780
   67.5000   125.5351     8.6707     9.0099
   68.0000   123.5081     8.8083     9.1438
   68.5000   121.4784     8.8389     9.2574
   69.0000   119.9175     8.8700     9.3378
   69.5000   120.0085     8.9010     9.4189
   70.0000   121.1357     8.9322     9.5007
   70.5000   121.9803     8.9636     9.5833
   71.0000   121.2712     8.9951     9.6635
   71.5000   119.7365     9.0268     9.7535
   72.0000   118.3351     9.0562     9.6808
   72.5000   119.3228     9.0360     9.6307
   73.0000   120.4547     9.0163     9.5809
   73.5000   121.5778     8.9968     9.5313
   74.0000   122.3423     8.9773     9.4820
   74.5000   122.1048     8.9578     9.4326
   75.0000   121.8919     8.9383     9.3552
   75.5000   121.6772     8.9191     9.2564
   76.0000   121.8092     8.9002     9.1945
   76.5000   122.2722     8.8532     9.1334
   77.0000   122.7925     8.7392     9.0727
   77.5000   124.6957     8.6266     9.0204
   78.0000   124.9806     8.5154     8.9533
   78.5000   125.1604     8.4057     8.8866
   79.0000   125.8876     8.2973     8.8205
   79.5000   127.1540     8.1904     8.7548
   80.0000   126.5121     8.0288     8.7271
   80.5000   125.5844     8.0898     8.7806
   81.0000   124.9526     8.1954     8.8263
   81.5000   126.2423     8.3024     8.8722
   82.0000   126.4991     8.4108     8.9184
   82.5000   125.6411     8.5207     8.9648
   83.0000   125.6165     8.6319     9.0458
   83.5000   124.9059     8.7446     9.1352
   84.0000   123.9990     8.8310     9.2255
   84.5000   123.0840     8.8828     9.3166
   85.0000   122.1474     8.9347     9.4087
   85.5000   122.1866     8.9870     9.5016
   86.0000   122.4502     9.0396     9.5955
   86.5000   122.6913     9.0926     9.6824
   87.0000   124.4125     9.1458     9.7496
   87.5000   125.1744     9.1993     9.8173
   88.0000   124.2009     9.2532     9.8854
   88.5000   122.4651     9.3119     9.9541
   89.0000   121.6062     9.2920    10.0284
   89.5000   122.1471     9.2697    10.0284
   90.0000   122.7344     9.2476     9.8795
   90.5000   123.3152     9.2257     9.7686
   91.0000   123.8933     9.2038     9.6589
   91.5000   124.4658     9.1820     9.5507
   92.0000   124.6080     9.1602     9.4437
   92.5000   124.1521     9.1385     9.3986
