~VERSION INFORMATION
 VERS.                2.0:   CWLS LOG ASCII STANDARD - VERSION 2.0
 WRAP.                 NO:   ONE LINE PER DEPTH STEP
~WELL INFORMATION
#MNEM.UNIT      DATA TYPE    INFORMATION
#----------   ------------   ------------------------------
 STRT.F           20.0000:   START DEPTH
 STOP.F          478.0000:   STOP DEPTH
 STEP.F            0.5000:   STEP LENGTH
 NULL.          -999.2500:   NO VALUE
 COMP. FENIX & SCISSON INC:   COMPANY
 WELL.   56 31 SX #56-3FP:   WELL
 FLD .             TEAPOT:   FIELD
 LOC .       S3 T38N R78W:   LOCATION
 CNTY.            NATRONA:   COUNTY
 STAT.            WYOMING:   STATE
 CTRY. UNITED STATES OF AMERICA:   COUNTRY
 SRVC.              Welex:   SERVICE COMPANY
 DATE.        06-JUN-1980:   LOGDATE
 API .       490251082300:   API NUMBER
~CURVE INFORMATION
#MNEM.UNIT       API CODE    CURVE DESCRIPTION
#----------   ------------   ------------------------------
 DEPT.F                  :   
 RHOB.G/C3   45 350 01 00:   BULK DENSITY
 CORR.G/C3   45 356 01 00:   DENSITY CORRECTION
 GRD .GAPI   45 310 01 00:   GAMMA RAY FROM DENSITY LOG
 CALD.IN     45 280 60 00:   CALIPER
 DPHI.DEC    45 890 12 00:   DENSITY POROSITY SANDSTONE
 NPHI.DEC    42 890 03 00:   NEUTRON POROSITY SANDSTONE
 SPR .MV     07 010 01 00:   SPONTANEOUS POTENTIAL
 ILD .OHMM   07 120 46 00:   INDUCTION LOG DEEP
 ILM .OHMM   07 120 44 00:   INDUCTION LOG MEDIUM
 SGRD.OHMM   07 220 05 00:   SHALLOW GUARD RESISTIVITY
~PARAMETER INFORMATION
#MNEM.UNIT          VALUE    DESCRIPTION
#----------   ------------   ------------------------------
 PD  .                 GL:   PERMANENT DATUM
 EPD .F              5173:   ELEVATION PERMANENT DATUM
 LMF .                 KB:   LOG MEASURED FROM
 DAPD.F                 5:   FEET ABOVE PERMANENT DATUM
 DMF .                 KB:   DRILLING MEASURED FROM
 EKB .F              5178:   KELLING BUSHING
 EGL .F              5173:   GROUND LEVEL
 DATE.             6-6-80:   RUN DATE
 RUN .                  1:   RUN NUMBER
 DD  .F               450:   DEPTH DRILLER
 DL  .F               476:   DEPTH LOGGER
 BLI .F               474:   BOTTOM LOG INTERVAL
 TLI .F                30:   TOP LOG INTERVAL
 BS  .IN            9.875:   BIT SIZE
 BSD .F               450:   BIT SIZE AT DEPTH
 DFT .            KCL MUD:   DRILLING FLUID TYPE
 DFD .                9.5:   DRILLING FLUID DENSITY
 DFV .                 48:   DRILLING FLUID VISCOSITY
 DFPH.                7.5:   DRILLING FLUID PH
 DFL .                  7:   DRILLING FLUID LOSS
 MSS .           FLOWLINE:   MUD SAMPLE SOURCE
 RMS .OHMM           1.56:   RESISTIVITY MUD SAMPLE
 MST .F                62:   MUD SAMPLE TEMPERATURE
 RMF .OHMM           1.24:   RESISTIVITY MUD FILTRATE SAMPLE
 MFST.F                62:   MUD FILTRATE SAMPLE TEMPERATURE
 RMC .OHMM           1.87:   RESISTIVITY MUD CAKE
 MCST.F                62:   MUD CAKE SAMPLE TEMPERATURE
 MFSS.           MEASURED:   MUD FILTRATE SAMPLE SOURCE
 MCSS.           MEASURED:   MUD CAKE SAMPLE SOURCE
 RMB .OHMM           1.32:   RESISTIVITY MUD AT BHT
 BHT .F                73:   BOTTOM HOLE TEMPERATURE
 TCS .HRS               6:   TIME CURCULATED STOPPED
 MRT .F                73:   MAXIMUM RECORDED TEMPERATURE
 LUN .               1892:   LOGGING UNIT NUMBER
 LUL .             CASPER:   LOGGING UNIT LOCATION
 ENGI.               REIN:   RECORDING ENGINEER
 WITN.              AMEND:   WITNESSED BY
 CLNT.            A2DTECH:   CLIENT CODE
 ORIG.        2" 5" PRINT:   ORIGIN OF DATA
 UWI .       490251082300:   UNIQUE WELL ID
 DICO. A2D Technologies, Inc.:   DIGITIZING COMPANY
~OTHER INFORMATION
~A   DEPT     RHOB       CORR        GRD       CALD       DPHI       NPHI        SPR          ILD        ILM     SGRD   
# ...
  321.5000     2.4125     0.0806    74.2173     9.9365     0.1619     0.2317   -19.3260     7.3154     8.9480    10.3821
  322.0000     2.4197     0.0807    74.3412     9.9384     0.1544     0.2319   -19.0542     7.1445     9.1973    10.2709
  322.5000     2.4327     0.0937    74.4653     9.9404     0.1482     0.2334   -18.7823     6.9776     9.3689    10.3925
  323.0000     2.4453     0.1073    74.5897     9.9423     0.1443     0.2354   -18.5096     6.8145     9.3873    10.4888
  323.5000     2.4527     0.1125    74.7154     9.9442     0.1524     0.2372   -18.2388     6.6551     9.4144    10.5581
  324.0000     2.4317     0.1036    74.8439     9.9461     0.1529     0.2348   -18.2055     6.5933     9.4416    10.4407
  324.5000     2.4408     0.0996    74.6455     9.9480     0.1396     0.2370   -18.2230     6.5737     9.4554    10.3102
  325.0000     2.4518     0.1034    74.4135     9.9500     0.1432     0.2388   -18.5153     6.5541     9.1677    10.1806
  325.5000     2.4557     0.1057    74.1807     9.9468     0.1466     0.2388   -18.8001     6.5347     8.9801    10.0537
  326.0000     2.4445     0.0907    73.9481     9.9394     0.1500     0.2388   -19.0829     6.5153     8.7960     9.9916
  326.5000     2.4376     0.0780    73.7125     9.9321     0.1531     0.2412   -19.3643     6.4963     8.6163    10.1433
  327.0000     2.4353     0.0782    73.4810     9.9249     0.1590     0.2420   -19.6478     6.4655     8.3904    10.9274
  327.5000     2.4247     0.0784    73.8760     9.9175     0.1704     0.2445   -19.7810     6.3997     8.4411    13.3966
  328.0000     2.4049     0.0671    74.3305     9.8988     0.1917     0.2501   -19.7836     6.3344     8.5122    12.5784
  328.5000     2.3692     0.0588    74.7818     9.7993     0.1875     0.2595   -19.7837     6.2697     8.6330    11.0864
  329.0000     2.3776     0.0723    75.2371     9.7534     0.1833     0.2591   -19.7835     6.2057     8.8006     9.7659
  329.5000     2.3810     0.0731    75.2419     9.7525     0.1936     0.2600   -19.7835     6.1384     8.9480     9.2309
  330.0000     2.3666     0.0553    74.8732     9.7524     0.2015     0.2623   -19.7835     6.0674     8.8505     9.0275
  330.5000     2.3525     0.0390    74.5050     9.7525     0.2099     0.2569   -19.7835     5.9925     8.7654     9.2653
  331.0000     2.3403     0.0345    74.2663     9.7525     0.2095     0.2543   -19.7836     5.9185     8.6812     9.5915
  331.5000     2.3573     0.0424    74.3622     9.7525     0.1882     0.2584   -19.7833     5.8455     8.5977     9.8095
  332.0000     2.3786     0.0591    74.4509     9.7525     0.1732     0.2611   -19.7844     5.7559     8.5151     9.4553
  332.5000     2.3999     0.0654    74.4065     9.7525     0.1683     0.2631   -19.6636     5.7861     8.4332     9.0307
  333.0000     2.4112     0.0748    74.2626     9.7525     0.1542     0.2579   -19.4507     5.8262     8.3522     9.1090
  333.5000     2.4409     0.0961    74.1206     9.7525     0.1387     0.2539   -19.2371     5.8667     8.2376     9.2832
  334.0000     2.4593     0.1094    73.9785     9.7525     0.1498     0.2495   -19.0233     5.9075     8.3393     9.1199
  334.5000     2.4339     0.0933    73.8364     9.7525     0.1622     0.2512   -18.8095     5.9486     8.5208     8.9480
  335.0000     2.4105     0.0779    73.6938     9.7525     0.1734     0.2530   -18.5950     5.9899     8.7830     9.2132
  335.5000     2.3949     0.0654    73.5506     9.7525     0.1773     0.2533   -18.3820     6.0315     8.5306     9.5427
  336.0000     2.3935     0.0629    73.4769     9.7525     0.1814     0.2520   -18.2361     6.0734     8.0157     9.5170
  336.5000     2.3900     0.0602    73.9305     9.7525     0.1785     0.2520   -18.4310     6.1156     8.0944     9.4554
  337.0000     2.3954     0.0659    74.4057     9.7525     0.1743     0.2549   -18.6204     6.1580     8.1954     9.6297
  337.5000     2.3903     0.0725    74.8798     9.7525     0.1698     0.2579   -18.8094     6.2008     8.2998     9.9916
  338.0000     2.4045     0.0727    75.3531     9.7525     0.1760     0.2599   -18.9923     6.2523     8.4049     9.9066
  338.5000     2.3821     0.0647    75.8265     9.7525     0.1829     0.2572   -19.0478     6.1935     8.4679     9.7669
  339.0000     2.3841     0.0602    76.3000     9.7525     0.1908     0.2539   -19.0978     6.1212     8.2509     9.6308
  339.5000     2.3735     0.0670    76.7730     9.7525     0.1847     0.2617   -19.1483     6.0497     8.1000     9.7819
  340.0000     2.3846     0.0770    77.2497     9.7525     0.1756     0.2703   -19.1990     5.9790     8.0135     9.9013
  340.5000     2.3983     0.0857    77.4890     9.7525     0.1710     0.2789   -19.2498     5.9092     8.3579     9.6808
  341.0000     2.3998     0.0778    77.5957     9.7525     0.1801     0.2797   -19.3010     5.8402     8.7047     9.4687
  341.5000     2.3814     0.0697    77.6995     9.7525     0.1870     0.2772   -19.3508     5.7720     8.5505     9.2618
  342.0000     2.3753     0.0628    77.7980     9.7525     0.1909     0.2747   -19.3460     5.7046     8.3111     9.0597
  342.5000     2.3867     0.0721    78.1094     9.7525     0.1820     0.2722   -19.1224     5.6380     8.0875     8.9480
  343.0000     2.4049     0.0815    78.4531     9.7525     0.1739     0.2722   -18.9050     5.5722     8.1060     8.9714
  343.5000     2.3994     0.0874    78.7985     9.7525     0.1682     0.2744   -18.6880     5.4973     8.1239     8.9883
  344.0000     2.4121     0.0832    79.1396     9.7525     0.1762     0.2766   -18.4711     5.5472     8.1417     9.0050
  344.5000     2.3903     0.0792    79.5062     9.7525     0.1841     0.2788   -18.2542     5.6066     8.1596     9.0218
  345.0000     2.3881     0.0756    78.5900     9.7525     0.1806     0.2793   -18.0369     5.6666     8.1776     9.0426
  345.5000     2.3805     0.0730    77.0906     9.7525     0.1874     0.2747   -17.8194     5.7273     8.1956     9.0925
  346.0000     2.3758     0.0704    75.5696     9.7525     0.1927     0.2686   -17.6210     5.7886     8.2136     9.1421
  346.5000     2.3666     0.0768    74.0551     9.7525     0.2001     0.2617   -17.6171     5.9311     8.2317     9.1919
  347.0000     2.3726     0.0793    73.7169     9.7528     0.2140     0.2541   -17.6152     6.1984     8.3574     9.2726
  347.5000     2.3330     0.0667    72.6810     9.7401     0.2320     0.2465   -17.5012     6.4791     8.5428     9.3586
  348.0000     2.2962     0.0549    70.6217     9.7259     0.2376     0.2389   -17.2025     6.7713     8.7312     9.5427
  348.5000     2.2670     0.0672    68.5745     9.7117     0.2286     0.2340   -16.8899     7.0822     8.8662    12.5285
  349.0000     2.2951     0.1052    67.5571     9.6975     0.2157     0.2394   -16.5735     7.5231     8.6250    16.0340
  349.5000     2.3325     0.1334    67.6311     9.6833     0.2093     0.2448   -16.2569     8.0672     9.5256    19.0455
  350.0000     2.3507     0.1246    67.7000     9.6691     0.2215     0.2432   -15.9278     8.6447    10.6469    26.9631
  350.5000     2.3152     0.1016    67.7716     9.6550     0.2373     0.2454   -15.7838     9.2644    11.9003    21.7636
  351.0000     2.2872     0.0788    67.8399     9.6408     0.2566     0.2428   -15.6924     9.7592    12.8365    18.6677
  351.5000     2.2615     0.0584    67.9351     9.6385     0.2551     0.2401   -15.6032     9.8887    13.5322    19.2626
  352.0000     2.2648     0.0595    68.1133     9.6478     0.2624     0.2408   -15.5133    10.0838    13.3114    20.0921
  352.5000     2.2538     0.0435    68.1186     9.6572     0.2703     0.2427   -15.4237    10.0678    13.0078    19.9042
  353.0000     2.2408     0.0323    68.1186     9.6667     0.2663     0.2433   -15.3338    10.0368    12.7111    19.7261
  353.5000     2.2407     0.0398    68.1164     9.6761     0.2585     0.2463   -15.2041    10.0060    12.3454    19.9083
  354.0000     2.2546     0.0479    68.1355     9.6855     0.2501     0.2465   -14.8385     9.9753    12.4490    19.5864
  354.5000     2.2661     0.0565    68.4511     9.6950     0.2530     0.2467   -14.4709     9.9446    12.5926    19.1896
