~VERSION INFORMATION
 VERS.                2.0:   CWLS LOG ASCII STANDARD - VERSION 2.0
 WRAP.                 NO:   ONE LINE PER DEPTH STEP
~WELL INFORMATION
#MNEM.UNIT      DATA TYPE    INFORMATION
#----------   ------------   ------------------------------
 STRT.F          142.0000:   START DEPTH
 STOP.F          940.5000:   STOP DEPTH
 STEP.F            0.5000:   STEP LENGTH
 NULL.          -999.2500:   NO VALUE
 COMP. U S NAVY-INTEX OIL:   COMPANY
 WELL.     RESERVE #44S-2:   WELL
 FLD .             TEAPOT:   FIELD
 LOC .       S2 T38N R78W:   LOCATION
 CNTY.            NATRONA:   COUNTY
 STAT.            WYOMING:   STATE
 CTRY. UNITED STATES OF AMERICA:   COUNTRY
 SRVC. Schlumberger Well Surveying Corp:   SERVICE COMPANY
 DATE.        06-AUG-1959:   LOGDATE
 API .       490250644200:   API NUMBER
~CURVE INFORMATION
#MNEM.UNIT       API CODE    CURVE DESCRIPTION
#----------   ------------   ------------------------------
 DEPT.F                  :   
 ASN .OHMM   05 041 16 00:   AMPLIFIER SHORT NORMAL 16"
 CILD.MMHO   05 110 46 00:   CONDUCTIVITY INDUCTION LOG DEEP
 ILD .OHMM   05 110 46 00:   INDUCTION LOG DEEP
 SPR .MV     05 010 01 00:   SPONTANEOUS POTENTIAL FROM RES.
~PARAMETER INFORMATION
#MNEM.UNIT          VALUE    DESCRIPTION
#----------   ------------   ------------------------------
 LMF .                 KB:   LOG MEASURED FROM
 DMF .                 KB:   DRILLING MEASURED FROM
 EDF .F              5146:   DRILLING FLOOR
 EGL .F              5142:   GROUND LEVEL
 DATE.        06-AUG-1959:   RUN DATE
 RUN .                  1:   RUN NUMBER
 DD  .F               948:   DEPTH DRILLER
 DL  .F               946:   DEPTH LOGGER
 BLI .F               940:   BOTTOM LOG INTERVAL
 TLI .F               143:   TOP LOG INTERVAL
 CBD .F                17:   CASING BOTTOM DRILLER
 BS  .IN             6.75:   BIT SIZE
 BSD .F               948:   BIT SIZE AT DEPTH
 DFT .                GEL:   DRILLING FLUID TYPE
 RMS .OHMM             75:   RESISTIVITY MUD SAMPLE
 MST .F                75:   MUD SAMPLE TEMPERATURE
 TCS .HRS               1:   TIME CURCULATED STOPPED
 LUN .               2754:   LOGGING UNIT NUMBER
 LUL .                 NC:   LOGGING UNIT LOCATION
 ENGI.             QUINBY:   RECORDING ENGINEER
 WITN.             MARTIN:   WITNESSED BY
 CLNT.            A2DTECH:   CLIENT CODE
 ORIG.        2" 5" PRINT:   ORIGIN OF DATA
 UWI .       490250644200:   UNIQUE WELL ID
 DICO. A2D Technologies, Inc.:   DIGITIZING COMPANY
~OTHER INFORMATION
~A   DEPT      ASN       CILD        ILD        SPR   
# ...
  726.0000     6.8428   171.3698     5.5777   -55.7510
  726.5000     6.4905   178.8512     5.4404   -55.6157
  727.0000     6.1518   185.6548     5.2354   -55.7510
  727.5000     5.7859   190.4252     5.1658   -56.2923
  728.0000     5.7317   193.1626     5.0961   -56.8426
  728.5000     5.7609   199.9661     5.1739   -57.1042
  729.0000     5.7171   208.1252     5.4299   -57.1042
  729.5000     6.0705   214.9288     5.7662   -57.1042
  730.0000     6.4869   208.8559     6.3055   -57.2395
  730.5000     7.1426   190.4587     6.6418   -57.2395
  731.0000     7.5745   172.6658     6.9781   -56.4276
  731.5000     7.7778   156.7582     7.2468   -55.6157
  732.0000     8.0352   143.9082     7.4482   -55.3451
  732.5000     8.2385   139.1907     7.5139   -55.3451
  733.0000     8.3740   135.1509     7.6468   -55.3451
  733.5000     8.4688   133.1377     7.7801   -55.4804
  734.0000     8.4959   131.8087     7.8457   -56.0217
  734.5000     8.5230   131.1575     7.8437   -56.1570
  735.0000     8.5637   131.1906     7.8417   -56.1570
  735.5000     8.6043   131.2171     7.8393   -56.0126
  736.0000     8.6721   131.9217     7.8313   -55.8683
  736.5000     8.7127   132.6265     7.7676   -55.6157
  737.0000     8.7127   132.7349     7.7656   -55.4804
  737.5000     8.7127   133.3629     7.6960   -55.3451
  738.0000     8.6585   133.3893     7.6940   -55.2097
  738.5000     8.5637   133.4158     7.7596   -55.0744
  739.0000     8.4688   132.7580     7.7576   -54.9391
  739.5000     8.3875   131.4335     7.8238   -54.9391
  740.0000     8.3604   130.7822     7.8890   -54.8038
  740.5000     8.4824   130.1310     7.8870   -54.8038
  741.0000     8.6856   128.8087     7.8164   -54.8038
  741.5000     8.8618   128.8352     7.6065   -54.8038
  742.0000     8.9837   128.8617     7.2504   -54.8038
  742.5000     9.0108   131.5990     6.7960   -54.8038
  743.0000     8.9024   138.4026     6.3880   -54.6685
  743.5000     8.6503   149.2725     6.0477   -54.6685
  744.0000     7.8879   173.0189     5.7074   -54.6685
  744.5000     6.3550   177.1116     5.4348   -54.8038
  745.0000     6.1924   180.6632     5.0945   -54.9391
  745.5000     6.4363   188.3342     4.8896   -55.3451
  746.0000     6.3144   212.4387     4.8199   -55.7510
  746.5000     6.3821   217.2025     5.7651   -55.6157
  747.0000     7.7778   206.3923     6.9133   -55.0744
  747.5000     9.1463   182.6989     7.5203   -55.0744
  748.0000     9.6748   148.1621     8.3438   -54.9391
  748.5000    10.0379   129.8904     9.0683   -54.9391
  749.0000    10.1613   114.3295     9.1353   -54.9391
  749.5000    10.1619   108.2566     9.2023   -54.9391
  750.0000    10.1626   106.2500     9.1339   -54.9391
  750.5000    10.1633   108.3102     9.1332   -54.8038
  751.0000    10.1762   110.3759     9.1325   -54.8038
  751.5000    10.2325   111.0801     9.1319   -54.6685
  752.0000    10.3687   111.1066     9.1990   -54.6685
  752.5000    10.5726   110.4487     9.3335   -54.6685
  753.0000    10.9797   109.1198     9.5358   -54.8038
  753.5000    11.5902   106.4421    10.0088   -54.8038
  754.0000    12.4038   101.7246    10.5602   -55.2097
  754.5000    13.7595    97.0071    11.3399   -56.1570
  755.0000    15.2507    88.9010    13.2543   -57.2395
  755.5000    17.0806    80.7413    15.0804   -58.3071
  756.0000    18.4011    73.8555    17.1095   -60.7415
  756.5000    20.2675    65.6215    18.3267   -63.0744
  757.0000    22.2318    57.7431    19.4086   -64.6181
  757.5000    23.6553    53.6968    20.4905   -66.9619
  758.0000    24.4012    51.0008    21.5047   -67.9078
  758.5000    24.8761    48.3148    22.5189   -68.1774
  759.0000    25.1478    46.9793    22.9242   -68.3114
  759.5000    25.2838    48.3546    22.3535   -67.4978
  760.0000    24.8103    49.7299    21.1636   -68.8497
  760.5000    24.7960    51.7829    20.6217   -69.6603
  761.0000    25.9634    53.1582    20.1474   -69.3883
  761.5000    27.0576    53.8562    19.7408   -67.7632
  762.0000    27.2520    53.8765    19.5371   -64.6495
  762.5000    25.6946    53.8968    19.6718   -63.8363
  763.0000    25.2887    53.9204    19.8741   -63.9703
  763.5000    26.7799    53.9375    20.1441   -64.2393
  764.0000    27.5936    53.9602    20.5494   -64.7792
  764.5000    27.7975    52.6247    21.0277   -65.9957
  765.0000    27.7982    51.2891    21.6486   -66.6710
  765.5000    27.9343    49.9536    22.4417   -65.7225
  766.0000    28.5447    48.6181    23.2529   -65.9918
  766.5000    30.1714    47.2825    23.9965   -68.5615
  767.0000    32.1693    45.9067    24.9431   -69.3721
  767.5000    33.5129    43.8329    25.7543   -69.7767
  768.0000    34.1031    41.9255    26.4979   -70.3166
  768.5000    34.4425    39.9122    27.1738   -70.8678
  769.0000    34.7819    38.5767    27.6468   -71.2612
  769.5000    34.8503    38.5966    27.3078   -71.3952
  770.0000    34.7155    39.2942    26.4185   -70.1757
  770.5000    33.0224    39.3140    25.7287   -69.0918
  771.0000    31.1261    40.6883    24.9376   -68.6849
  771.5000    30.2460    41.6811    24.3957   -68.4126
  772.0000    29.9079    43.4400    23.7861   -66.9228
  772.5000    29.0176    44.8155    23.2442   -65.0270
  773.0000    28.5542    45.6083    22.6346   -63.5372
  773.5000    28.7583    47.5708    22.2280   -62.8592
  774.0000    27.8782    48.3735    21.8214   -65.2936
  774.5000    25.9141    48.9631    21.4824   -68.4609
  775.0000    25.0340    49.6636    21.2111   -70.4331
  775.5000    24.8314    49.6835    20.9335   -69.8901
  776.0000    23.6803    50.3811    20.3300   -68.8063
  776.5000    22.8002    50.4010    19.5175   -68.3990
  777.0000    22.3266    51.0986    18.8402   -67.5858
  777.5000    21.9885    53.1516    17.8923   -65.2840
  778.0000    21.7154    55.9373    16.8091   -60.2759
  778.5000    21.3801    60.7351    16.1995   -58.9214
  779.0000    21.1097    65.4150    15.9959   -58.2435
  779.5000    20.7718    65.4349    16.1982   -57.8362
  780.0000    20.4337    64.0944    16.3329   -57.8349
  780.5000    19.8246    62.7638    16.2592   -59.7731
  781.0000    19.0800    63.4614    15.8579   -61.8242
  781.5000    18.5387    64.1590    15.7218   -62.9727
  782.0000    18.4037    64.8566    15.7211   -63.3773
  782.5000    18.4146    65.5542    15.7881   -63.6466
  783.0000    18.2697    65.5741    15.8553   -63.7809
  783.5000    17.9993    65.5941    15.9223   -64.1852
  784.0000    18.2792    66.2922    15.9893   -64.4546
  784.5000    18.4751    65.6387    15.9885   -64.4532
  785.0000    18.2725    65.6586    15.9878   -64.0460
  785.5000    18.0697    64.9096    15.9871   -63.0974
  786.0000    18.1383    64.3396    15.9901   -63.3667
  786.5000    18.3422    64.0060    16.1310   -63.5007
  787.0000    18.5461    63.0223    16.4586   -63.2851
  787.5000    18.8178    62.3695    16.7286   -62.9564
  788.0000    19.1572    61.7116    17.1339   -62.6845
  788.5000    19.6321    61.0535    17.5392   -62.2772
  789.0000    19.9729    60.3960    17.9445   -61.3287
  789.5000    20.0400    59.7382    18.1468   -59.9742
  790.0000    19.4310    58.4076    18.2139   -58.3490
  790.5000    18.9574    57.7448    18.4161   -57.9417
  791.0000    18.6193    56.4142    18.4154   -58.0757
  791.5000    18.1458    57.1118    17.8627   -59.0216
  792.0000    17.5367    60.5203    17.2963   -60.6441
  792.5000    17.0631    63.9287    16.3158   -61.6125
  793.0000    16.4540    65.9817    15.7063   -61.9946
  793.5000    16.1836    68.0347    15.0290   -61.9930
  794.0000    15.9810    69.4100    14.7577   -61.7210
  794.5000    15.8449    70.1144    14.5541   -61.5844
  795.0000    15.5691    71.4834    14.1475   -61.4477
  795.5000    15.3057    72.1855    13.9438   -61.4464
  796.0000    15.1709    73.5608    13.7366   -61.4451
  796.5000    15.0358    74.2584    13.5278   -61.7147
  797.0000    14.9010    74.9560    13.4004   -61.9838
  797.5000    14.8339    75.6536    13.3997   -62.2530
  798.0000    14.8348    75.6735    13.3991   -62.1164
  798.5000    14.8354    76.3711    13.3984   -61.6978
