~VERSION INFORMATION
 VERS.                2.0:   CWLS LOG ASCII STANDARD - VERSION 2.0
 WRAP.                 NO:   ONE LINE PER DEPTH STEP
~WELL INFORMATION
#MNEM.UNIT      DATA TYPE    INFORMATION
#----------   ------------   ------------------------------
 STRT.F           88.0000:   START DEPTH
 STOP.F          893.0000:   STOP DEPTH
 STEP.F            0.5000:   STEP LENGTH
 NULL.          -999.2500:   NO VALUE
 COMP.          U.S. NAVY:   COMPANY
 WELL. RES 3 TEAPOT DOM #24S-35:   WELL
 FLD .        TEAPOT DOME:   FIELD
 LOC .      S35 T39N R78W:   LOCATION
 CNTY.            NATRONA:   COUNTY
 STAT.            WYOMING:   STATE
 CTRY. UNITED STATES OF AMERICA:   COUNTRY
 SRVC.       Schlumberger:   SERVICE COMPANY
 DATE.        26-JUL-1963:   LOGDATE
 API .       490250654800:   API NUMBER
~CURVE INFORMATION
#MNEM.UNIT       API CODE    CURVE DESCRIPTION
#----------   ------------   ------------------------------
 DEPT.F                  :   
 CALS.IN     60 280 50 00:   CALIPER FROM SONIC LOG
 DT  .US/F   60 520 00 00:   INTERVAL TRANSIT TIME
 GR  .GAPI   30 310 01 00:   GAMMA RAY
 ASN .OHMM   05 041 16 00:   AMPLIFIED SHORT NORMAL 16"
 CILD.MMHO   05 110 46 00:   CONDUCTIVITY INDUCTION LOG DEEP
 ILD .OHMM   05 120 46 00:   INDUCTION LOG DEEP
 SPR .MV     05 010 01 00:   SPONTANEOUS POTENTIAL FROM RES.
~PARAMETER INFORMATION
#MNEM.UNIT          VALUE    DESCRIPTION
#----------   ------------   ------------------------------
 PD  .                 GL:   PERMANENT DATUM
 EPD .F              5116:   ELEVATION PERMANENT DATUM
 LMF .                 KB:   LOG MEASURED FROM
 DAPD.F                 5:   FEET ABOVE PERMANENT DATUM
 DMF .                 KB:   DRILLING MEASURED FROM
 EKB .F              5121:   KELLING BUSHING
 EGL .F              5116:   GROUND LEVEL
 DATE.        26-JUL-1963:   RUN DATE
 RUN .                  1:   RUN NUMBER
 DD  .F               900:   DEPTH DRILLER
 DL  .F               894:   DEPTH LOGGER
 BLI .F               893:   BOTTOM LOG INTERVAL
 TLI .F                88:   TOP LOG INTERVAL
 CBD .F                10:   CASING BOTTOM DRILLER
 BS  .IN             6.75:   BIT SIZE
 BSD .F               900:   BIT SIZE AT DEPTH
 DFT .            GEL-OIL:   DRILLING FLUID TYPE
 DFD .                9.5:   DRILLING FLUID DENSITY
 DFV .                 92:   DRILLING FLUID VISCOSITY
 DFPH.                9.5:   DRILLING FLUID PH
 DFL .                5.8:   DRILLING FLUID LOSS
 MSS .           FLOWLINE:   MUD SAMPLE SOURCE
 RMS .OHMM           4.05:   RESISTIVITY MUD SAMPLE
 MST .F                75:   MUD SAMPLE TEMPERATURE
 RMF .OHMM           3.91:   RESISTIVITY MUD FILTRATE SAMPLE
 MFST.F                75:   MUD FILTRATE SAMPLE TEMPERATURE
 RMC .OHMM           3.54:   RESISTIVITY MUD CAKE
 MCST.F                75:   MUD CAKE SAMPLE TEMPERATURE
 MFSS.               MEAS:   MUD FILTRATE SAMPLE SOURCE
 MCSS.               MEAS:   MUD CAKE SAMPLE SOURCE
 TCS .HRS             0.5:   TIME CURCULATED STOPPED
 LUN .               4507:   LOGGING UNIT NUMBER
 LUL .               CSPR:   LOGGING UNIT LOCATION
 ENGI.             KNOBEL:   RECORDING ENGINEER
 WITN.          JORGENSON:   WITNESSED BY
 CLNT.            A2DTECH:   CLIENT CODE
 ORIG.           5" PRINT:   ORIGIN OF DATA
 UWI .       490250654800:   UNIQUE WELL ID
 DICO. A2D Technologies, Inc.:   DIGITIZING COMPANY
~OTHER INFORMATION
~A   DEPT     CALS         DT         GR          ASN      CILD         ILD      SPR   
# ...
  361.0000     6.6281  -999.2500  -999.2500     4.4109   287.1324     3.9361   -17.4620
  361.5000     6.6290  -999.2500  -999.2500     4.1232   284.1152     4.0844   -17.6241
  362.0000     6.6247  -999.2500  -999.2500     4.5161   265.9200     4.3081   -17.6353
  362.5000     6.6155  -999.2500  -999.2500     4.9546   237.8613     4.4656   -17.8002
  363.0000     6.6013  -999.2500  -999.2500     5.1964   211.9529     4.6246   -17.9623
  363.5000     6.6021  -999.2500  -999.2500     5.2717   199.9569     4.8277   -18.1244
  364.0000     6.5726  -999.2500  -999.2500     5.2865   195.4187     4.9004   -18.2906
  364.5000     6.5583  -999.2500  -999.2500     5.3165   196.1940     4.9731   -18.4514
  365.0000     6.4984  -999.2500  -999.2500     5.3787   197.7256     5.0458   -18.6135
  365.5000     6.4537  -999.2500  -999.2500     5.4974   199.2572     5.0423   -18.4736
  366.0000     6.5308  -999.2500  -999.2500     5.3307   199.2716     4.9632   -18.3372
  366.5000     6.5621  -999.2500  -999.2500     5.2546   199.2891     4.8849   -18.1948
  367.0000     6.5020  -999.2500  -999.2500     5.2393   200.0620     4.8821   -17.9072
  367.5000     6.4421  -999.2500  -999.2500     5.1936   202.3523     4.7275   -17.9186
  368.0000     6.5496  -999.2500  -999.2500     5.0572   206.9224     4.6492   -17.7789
  368.5000     6.6113  -999.2500  -999.2500     4.7845   219.0762     4.5708   -17.6421
  369.0000     6.6147  -999.2500  -999.2500     4.5270   269.9250     4.3399   -17.6534
  369.5000     6.5979  -999.2500  -999.2500     4.2847   319.1039     3.9602   -17.6647
  370.0000     6.5836  -999.2500  -999.2500     3.9738   396.6640     3.5043   -17.5251
  370.5000     6.5845  -999.2500  -999.2500     3.4217   441.4429     3.1993   -17.5392
  371.0000     6.5879  -999.2500  -999.2500     3.1491   449.8031     2.8182   -17.3996
  371.5000     6.6169  -999.2500  -999.2500     3.0278   449.0585     2.5888   -17.4137
  372.0000     6.6330  -999.2500  -999.2500     3.2090   445.2826     2.5104   -17.2713
  372.5000     6.6643  -999.2500  -999.2500     3.2844   437.7095     2.4320   -17.1345
  373.0000     6.6956  -999.2500  -999.2500     3.2085   428.5175     2.5796   -17.1486
  373.5000     6.7116  -999.2500  -999.2500     3.0079   408.9099     2.8789   -17.1599
  374.0000     6.6363  -999.2500  -999.2500     3.4650   345.1911     3.3292   -17.1711
  374.5000     6.5615  -999.2500  -999.2500     4.1304   279.1962     3.7789   -17.1825
  375.0000     6.5319  -999.2500  -999.2500     4.4327   242.7951     4.0782   -17.1964
  375.5000     6.5784  -999.2500  -999.2500     4.5534   220.8062     4.2271   -17.3585
  376.0000     6.6401  -999.2500  -999.2500     4.6136   210.1982     4.3747   -17.3698
  376.5000     6.6410  -999.2500  -999.2500     4.7041   214.7902     4.3712   -17.5347
  377.0000     6.6419  -999.2500  -999.2500     4.7341   220.0935     4.3683   -17.5445
  377.5000     6.6430  -999.2500  -999.2500     4.6429   223.9013     4.3656   -17.5566
  378.0000     6.6285  -999.2500  -999.2500     4.5973   226.9504     4.2865   -17.5686
  378.5000     6.6296  -999.2500  -999.2500     4.6734   228.4856     4.2081   -17.5826
  379.0000     6.6305  -999.2500  -999.2500     4.6420   230.0172     4.2054   -17.5938
  379.5000     6.6314  -999.2500  -999.2500     4.5510   230.7901     4.2024   -17.4540
  380.0000     6.6323  -999.2500  -999.2500     4.4902   236.1153     4.1234   -17.3147
  380.5000     6.6332  -999.2500  -999.2500     4.2931   255.8599     4.0451   -17.1779
  381.0000     6.6493  -999.2500  -999.2500     4.1718   283.1882     3.8912   -17.0377
  381.5000     6.6502  -999.2500  -999.2500     4.0051   305.9641     3.7366   -16.8988
  382.0000     6.6511  -999.2500  -999.2500     3.8638   333.8493     3.5828   -16.7602
  382.5000     6.6520  -999.2500  -999.2500     3.6414   370.4876     3.1268   -16.7733
  383.0000     6.6681  -999.2500  -999.2500     3.4898   389.4700     2.9622   -16.6335
  383.5000     6.6537  -999.2500  -999.2500     3.3837   396.3127     2.8939   -16.4947
  384.0000     6.6549  -999.2500  -999.2500     3.3379   397.0855     2.8910   -16.5082
  384.5000     6.6558  -999.2500  -999.2500     3.3679   384.9637     2.8882   -16.5195
  385.0000     6.6566  -999.2500  -999.2500     3.5189   371.3208     2.9609   -16.5309
  385.5000     6.6575  -999.2500  -999.2500     3.6396   353.8470     3.0329   -16.7205
  386.0000     6.6432  -999.2500  -999.2500     3.3972   324.3117     3.2567   -16.8577
  386.5000     6.5807  -999.2500  -999.2500     4.0475   290.9419     3.6308   -16.8690
  387.0000     6.5386  -999.2500  -999.2500     5.5020   243.1564     4.0812   -16.8831
  387.5000     6.6005  -999.2500  -999.2500     5.4841   210.5489     4.5315   -17.0451
  388.0000     6.6470  -999.2500  -999.2500     5.3779   194.6299     4.9124   -17.2072
  388.5000     6.6479  -999.2500  -999.2500     5.3601   192.3643     5.0546   -17.3806
  389.0000     6.6639  -999.2500  -999.2500     5.4076   193.8998     5.0511   -17.5342
  389.5000     6.6648  -999.2500  -999.2500     5.3921   196.9521     4.8972   -17.5455
  390.0000     6.6503  -999.2500  -999.2500     5.3616   198.4837     4.8867   -17.5567
  390.5000     6.6514  -999.2500  -999.2500     5.3599   199.2566     4.7876   -17.4172
  391.0000     6.6371  -999.2500  -999.2500     5.3155   201.5505     4.6615   -17.4299
  391.5000     6.6228  -999.2500  -999.2500     5.2094   225.0852     4.5023   -17.5933
  392.0000     6.6237  -999.2500  -999.2500     4.9065   258.4832     4.0509   -17.6048
  392.5000     6.6094  -999.2500  -999.2500     4.5885   287.7710     3.5949   -17.6187
  393.0000     6.6103  -999.2500  -999.2500     4.2402   315.4196     3.2900   -17.3283
  393.5000     6.6114  -999.2500  -999.2500     3.9374   325.2971     3.2109   -17.1885
  394.0000     6.6731  -999.2500  -999.2500     3.7555   328.3462     3.2081   -16.9011
  394.5000     6.6892  -999.2500  -999.2500     3.8460   330.6401     3.2053   -16.7587
  395.0000     6.7357  -999.2500  -999.2500     3.8760   331.4095     3.2780   -16.7728
  395.5000     6.7366  -999.2500  -999.2500     3.6933   329.1510     3.3507   -16.7843
  396.0000     6.7223  -999.2500  -999.2500     3.9055   313.8391     3.4990   -16.6445
  396.5000     6.6773  -999.2500  -999.2500     4.2684   275.3134     3.5710   -16.8094
  397.0000     6.6177  -999.2500  -999.2500     4.3437   256.3594     3.7185   -16.9715
  397.5000     6.6186  -999.2500  -999.2500     4.4493   233.6118     3.8668   -17.1364
  398.0000     6.6498  -999.2500  -999.2500     4.5700   221.4899     3.9402   -17.2985
  398.5000     6.6508  -999.2500  -999.2500     4.6908   219.9831     4.0877   -17.4606
  399.0000     6.6491  -999.2500  -999.2500     4.7825   224.5532     4.2359   -17.4721
  399.5000     6.6221  -999.2500  -999.2500     4.8414   226.8818     4.2324   -17.4859
  400.0000     6.6232   109.0136  -999.2500     4.9471   232.1688     4.3807   -17.4972
  400.5000     6.6696   109.2446  -999.2500     4.8714   245.8270     4.0754   -17.0543
  401.0000     6.6705   109.0172  -999.2500     4.7480   245.8270     3.7704   -16.9149
  401.5000     6.6562   108.8655  -999.2500     4.4781   247.3445     3.6157   -16.7783
  402.0000     6.6419   112.0346  -999.2500     4.2663   248.8619     3.4618   -16.6391
  402.5000     6.6276   113.0905  -999.2500     4.2057   264.8964     3.4104   -16.4997
  403.0000     6.6287   114.0709  -999.2500     4.1301   285.2807     3.3805   -16.3620
  403.5000     6.6296   114.2967  -999.2500     4.0085   303.4901     3.3021   -16.3747
  404.0000     6.6305   114.3713  -999.2500     3.8578   319.4234     3.2236   -16.3862
  404.5000     6.6313   114.5275  -999.2500     3.7973   321.6996     3.1445   -16.4005
  405.0000     6.6323   114.0679  -999.2500     3.7670   317.1472     3.0661   -16.4120
  405.5000     6.6331   115.2747  -999.2500     3.6611   317.1472     3.0632   -16.4235
  406.0000     6.6340   116.7834  -999.2500     3.6157   323.9757     2.9848   -16.4349
