~VERSION INFORMATION
 VERS.                2.0:   CWLS LOG ASCII STANDARD - VERSION 2.0
 WRAP.                 NO:   ONE LINE PER DEPTH STEP
~WELL INFORMATION
#MNEM.UNIT      DATA TYPE    INFORMATION
#----------   ------------   ------------------------------
 STRT.F          660.0000:   START DEPTH
 STOP.F         2899.5000:   STOP DEPTH
 STEP.F            0.5000:   STEP LENGTH
 NULL.          -999.2500:   NO VALUE
 COMP. LAWRENCE/ALLISON INC:   COMPANY
 WELL. NPR #3 22 X 10 #22-10:   WELL
 FLD .             TEAPOT:   FIELD
 LOC .      S10 T38N R78W:   LOCATION
 CNTY.            NATRONA:   COUNTY
 STAT.            WYOMING:   STATE
 CTRY. UNITED STATES OF AMERICA:   COUNTRY
 SRVC.            Unknown:   SERVICE COMPANY
 DATE.        11-SEP-1986:   LOGDATE
 API .       490251106200:   API NUMBER
~CURVE INFORMATION
#MNEM.UNIT       API CODE    CURVE DESCRIPTION
#----------   ------------   ------------------------------
 DEPT.F                  :   
 ROP .MIN/FT 91 810 01 00:   RATE OF DRILLING PENETRATION
 TGAS.UNITS  91 830 01 00:   TOTAL GAS FROM HOTWIRE
~PARAMETER INFORMATION
#MNEM.UNIT          VALUE    DESCRIPTION
#----------   ------------   ------------------------------
 DATE.          9-11-1986:   RUN DATE
 DD  .F              2900:   DEPTH DRILLER
 TLI .F              1380:   TOP LOG INTERVAL
 WITN. R. HUSK/K. FREDERICK:   WITNESSED BY
 CLNT.            A2DTECH:   CLIENT CODE
 ORIG.           5" PRINT:   ORIGIN OF DATA
 UWI .       490251106200:   UNIQUE WELL ID
 DICO. A2D Technologies, Inc.:   DIGITIZING COMPANY
~OTHER INFORMATION
~A   DEPT      ROP         TGAS 
# ...
 2361.0000     2.0374  -999.2500
 2361.5000     2.0374  -999.2500
 2362.0000     2.0390  -999.2500
 2362.5000     2.2327  -999.2500
 2363.0000     2.4991  -999.2500
 2363.5000     2.7764  -999.2500
 2364.0000     3.0353  -999.2500
 2364.5000     2.8849  -999.2500
 2365.0000     2.7618  -999.2500
 2365.5000     2.6644  -999.2500
 2366.0000     2.5700  -999.2500
 2366.5000     2.5609  -999.2500
 2367.0000     2.6829  -999.2500
 2367.5000     2.8238  -999.2500
 2368.0000     2.9373  -999.2500
 2368.5000     2.9076  -999.2500
 2369.0000     2.7553  -999.2500
 2369.5000     2.6178  -999.2500
 2370.0000     2.5494  -999.2500
 2370.5000     2.5405  -999.2500
 2371.0000     2.5468  -999.2500
 2371.5000     2.5468  -999.2500
 2372.0000     2.5031  -999.2500
 2372.5000     2.4074  -999.2500
 2373.0000     2.3117  -999.2500
 2373.5000     2.1993  -999.2500
 2374.0000     2.1298  -999.2500
 2374.5000     2.2172  -999.2500
 2375.0000     2.4062  -999.2500
 2375.5000     2.5626  -999.2500
 2376.0000     2.6970  -999.2500
 2376.5000     2.8212  -999.2500
 2377.0000     2.9237  -999.2500
 2377.5000     3.0045  -999.2500
 2378.0000     2.9633  -999.2500
 2378.5000     2.8623  -999.2500
 2379.0000     2.7642  -999.2500
 2379.5000     2.6715  -999.2500
 2380.0000     2.5780  -999.2500
 2380.5000     2.5149  -999.2500
 2381.0000     2.4582  -999.2500
 2381.5000     2.3985  -999.2500
 2382.0000     2.3518  -999.2500
 2382.5000     2.2974  -999.2500
 2383.0000     2.2394  -999.2500
 2383.5000     2.1783  -999.2500
 2384.0000     2.1152  -999.2500
 2384.5000     2.1604  -999.2500
 2385.0000     2.3683  -999.2500
 2385.5000     2.5182  -999.2500
 2386.0000     2.5582  -999.2500
 2386.5000     2.5515  -999.2500
 2387.0000     2.5463  -999.2500
 2387.5000     2.5455  -999.2500
 2388.0000     2.4546  -999.2500
 2388.5000     2.2927  -999.2500
 2389.0000     2.1659  -999.2500
 2389.5000     2.0500  -999.2500
 2390.0000     1.9971  -999.2500
 2390.5000     2.1768  -999.2500
 2391.0000     2.3840  -999.2500
 2391.5000     2.5495  -999.2500
 2392.0000     2.5592  -999.2500
 2392.5000     2.4545  -999.2500
 2393.0000     2.3394  -999.2500
 2393.5000     2.2336  -999.2500
 2394.0000     2.1282  -999.2500
 2394.5000     2.0876  -999.2500
 2395.0000     2.2830  -999.2500
 2395.5000     2.4513  -999.2500
 2396.0000     2.4404  -999.2500
 2396.5000     2.3197  -999.2500
 2397.0000     2.1902  -999.2500
 2397.5000     2.0771  -999.2500
 2398.0000     2.0241  -999.2500
 2398.5000     2.0086  -999.2500
 2399.0000     2.0041  -999.2500
 2399.5000     1.9966  -999.2500
 2400.0000     1.9965  -999.2500
 2400.5000     1.9975  -999.2500
 2401.0000     1.9985  -999.2500
 2401.5000     1.9994  -999.2500
 2402.0000     2.0004  -999.2500
 2402.5000     2.0013  -999.2500
 2403.0000     2.0023  -999.2500
 2403.5000     2.0032  -999.2500
 2404.0000     2.0042  -999.2500
 2404.5000     2.0052  -999.2500
 2405.0000     2.0061  -999.2500
 2405.5000     2.0071  -999.2500
 2406.0000     2.0080  -999.2500
 2406.5000     2.0090  -999.2500
 2407.0000     2.0099  -999.2500
 2407.5000     2.0109  -999.2500
 2408.0000     2.0119  -999.2500
 2408.5000     2.0128  -999.2500
 2409.0000     2.0138  -999.2500
 2409.5000     2.0147  -999.2500
 2410.0000     2.0157  -999.2500
 2410.5000     2.0166  -999.2500
 2411.0000     2.0176  -999.2500
 2411.5000     2.0186  -999.2500
 2412.0000     2.0195  -999.2500
 2412.5000     2.0205  -999.2500
 2413.0000     2.0214  -999.2500
 2413.5000     2.0224  -999.2500
 2414.0000     2.0233  -999.2500
 2414.5000     2.0243  -999.2500
 2415.0000     2.0252  -999.2500
 2415.5000     2.0165  -999.2500
 2416.0000     1.9227  -999.2500
 2416.5000     1.8059  -999.2500
 2417.0000     1.7065  -999.2500
 2417.5000     1.6238  -999.2500
 2418.0000     1.6297  -999.2500
 2418.5000     1.7448  -999.2500
 2419.0000     1.8810  -999.2500
 2419.5000     2.0222  -999.2500
 2420.0000     2.1925  -999.2500
 2420.5000     2.3707  -999.2500
 2421.0000     2.5161  -999.2500
 2421.5000     2.5771  -999.2500
 2422.0000     2.4800  -999.2500
 2422.5000     2.3439  -999.2500
 2423.0000     2.1870  -999.2500
 2423.5000     2.0509  -999.2500
 2424.0000     2.0270  -999.2500
 2424.5000     2.0304  -999.2500
 2425.0000     2.0374  -999.2500
 2425.5000     2.0374  -999.2500
 2426.0000     2.0374  -999.2500
 2426.5000     2.0374   350.4289
 2427.0000     2.0374   347.8844
 2427.5000     2.0374   343.7234
 2428.0000     2.0374   341.7833
 2428.5000     2.0374   341.2104
 2429.0000     2.0434   338.4163
 2429.5000     2.0478   334.5961
 2430.0000     2.0413   332.9971
 2430.5000     1.9561   331.3128
 2431.0000     1.7997   326.8938
 2431.5000     1.6656   323.4172
 2432.0000     1.5482   320.1107
 2432.5000     1.5967   316.8035
 2433.0000     1.7526   314.5215
 2433.5000     1.9127   310.9578
 2434.0000     1.9751   307.9072
 2434.5000     1.7983   304.1725
 2435.0000     1.6528   301.2938
 2435.5000     1.5800   299.0120
 2436.0000     1.5177   298.4146
 2436.5000     1.5177   294.1738
 2437.0000     1.5177   291.9831
 2437.5000     1.5177   289.7924
 2438.0000     1.5177   287.6017
 2438.5000     1.5186   287.3698
 2439.0000     1.5281   285.0888
 2439.5000     1.5295   283.0622
 2440.0000     1.5385   282.5737
 2440.5000     1.4929   280.7191
 2441.0000     1.4174   280.5727
 2441.5000     1.3516   279.8277
 2442.0000     1.2994   278.2297
 2442.5000     1.2966   276.5449
 2443.0000     1.2924   273.8049
 2443.5000     1.3033   272.8398
 2444.0000     1.3008   271.8451
 2444.5000     1.2636   270.9862
 2445.0000     1.1920   269.0348
 2445.5000     1.1167   267.0834
 2446.0000     1.0577   266.3098
 2446.5000     1.0981   263.9960
 2447.0000     1.1857   261.2278
 2447.5000     1.2786   259.2759
 2448.0000     1.3202   258.7244
 2448.5000     1.3202   255.9664
 2449.0000     1.3202   253.4203
 2449.5000     1.3199   251.4676
 2450.0000     1.3098   251.1389
 2450.5000     1.3098   249.2697
 2451.0000     1.3098   249.4194
 2451.5000     1.3098   247.5190
 2452.0000     1.3098   247.6687
 2452.5000     1.3098   245.7683
 2453.0000     1.3098   243.8679
 2453.5000     1.3098   241.9675
 2454.0000     1.3098   242.1172
 2454.5000     1.3098   240.1491
 2455.0000     1.3098   238.3164
 2455.5000     1.3168   238.4795
 2456.0000     1.3659   238.6158
 2456.5000     1.4398   236.7154
 2457.0000     1.5073   236.8906
 2457.5000     1.5385   236.6393
 2458.0000     1.5489   235.1481
 2458.5000     1.5593   235.3018
 2459.0000     1.5800   235.4556
 2459.5000     1.5777   234.3530
 2460.0000     1.5350   231.6274
 2460.5000     1.4966   229.9454
 2461.0000     1.4964   227.3403
 2461.5000     1.4961   227.2415
 2462.0000     1.4958   223.0425
 2462.5000     1.4971   220.8936
 2463.0000     1.5058   220.7948
 2463.5000     1.5037   220.6948
 2464.0000     1.4872   220.5922
 2464.5000     1.4428   220.4897
 2465.0000     1.3877   220.3872
 2465.5000     1.3266   220.2847
 2466.0000     1.2859   220.1822
 2466.5000     1.3137   220.0797
 2467.0000     1.4239   219.9772
 2467.5000     1.5071   219.8747
 2468.0000     1.5447   219.7722
 2468.5000     1.5444   219.6697
 2469.0000     1.5442   219.5672
 2469.5000     1.5439   219.4647
 2470.0000     1.5055   219.3622
 2470.5000     1.3895   219.2597
 2471.0000     1.2772   219.1572
 2471.5000     1.1640   219.0547
 2472.0000     1.0733   218.9522
 2472.5000     1.0826   217.4404
 2473.0000     1.1560   216.6970
 2473.5000     1.2250   215.0315
 2474.0000     1.2654   214.4221
 2474.5000     1.2710   212.2732
 2475.0000     1.2708   212.1744
 2475.5000     1.2705   210.0255
 2476.0000     1.2703   207.8766
 2476.5000     1.2700   207.7778
 2477.0000     1.2698   203.5763
 2477.5000     1.2695   203.3461
 2478.0000     1.2692   201.3212
 2478.5000     1.2690   201.2187
 2479.0000     1.2687   201.1162
 2479.5000     1.2685   201.0137
 2480.0000     1.2743   200.9111
 2480.5000     1.2765   200.8087
 2481.0000     1.2733   200.7061
 2481.5000     1.2700   200.5870
 2482.0000     1.2667   200.4898
