~VERSION INFORMATION
 VERS.                2.0:   CWLS LOG ASCII STANDARD - VERSION 2.0
 WRAP.                 NO:   ONE LINE PER DEPTH STEP
~WELL INFORMATION
#MNEM.UNIT      DATA TYPE    INFORMATION
#----------   ------------   ------------------------------
 STRT.F           87.0000:   START DEPTH
 STOP.F          987.0000:   STOP DEPTH
 STEP.F            0.5000:   STEP LENGTH
 NULL.          -999.2500:   NO VALUE
 COMP.   FLUOR DANIEL INC:   COMPANY
 WELL. NAVAL PETROLEUM RESERVE 3 SH-2 #53-2:   WELL
 FLD .        TEAPOT DOME:   FIELD
 LOC .       S2 T38N R78W:   LOCATION
 CNTY.            NATRONA:   COUNTY
 STAT.            WYOMING:   STATE
 CTRY. UNITED STATES OF AMERICA:   COUNTRY
 SRVC. Schlumberger Well Surveying Corp:   SERVICE COMPANY
 DATE.        17-JUL-1963:   LOGDATE
 API .       490250645200:   API NUMBER
~CURVE INFORMATION
#MNEM.UNIT       API CODE    CURVE DESCRIPTION
#----------   ------------   ------------------------------
 DEPT.F                  :   
 GR  .GAPI   30 310 01 00:   GAMMA RAY
 SPR .MV     05 010 01 00:   SPONTANEOUS POTENTIAL
 CILD.MMHO   05 110 46 00:   CONDUCTIVITY INDUCTION LOG DEEP
 ILD .OHMM   05 120 46 00:   INDUCTION LOG DEEP
 ASN .OHMM   05 041 16 00:   AMPLIFIED SHORT NORMAL 16"
~PARAMETER INFORMATION
#MNEM.UNIT          VALUE    DESCRIPTION
#----------   ------------   ------------------------------
 PD  .                 GL:   PERMANENT DATUM
 EPD .F              5165:   ELEVATION PERMANENT DATUM
 LMF .                 KB:   LOG MEASURED FROM
 DAPD.F                 5:   FEET ABOVE PERMANENT DATUM
 DMF .                 KB:   DRILLING MEASURED FROM
 EKB .F              5170:   KELLING BUSHING
 EGL .F              5165:   GROUND LEVEL
 DATE.          7-17-1963:   RUN DATE
 RUN .                  1:   RUN NUMBER
 DD  .F               986:   DEPTH DRILLER
 DL  .F               987:   DEPTH LOGGER
 BLI .F               986:   BOTTOM LOG INTERVAL
 TLI .F                30:   TOP LOG INTERVAL
 CS  .IN            8.625:   CASING SIZE
 CBD .F                10:   CASING BOTTOM DRILLER
 BS  .IN            7.875:   BIT SIZE
 BSD .F               986:   BIT SIZE AT DEPTH
 DFT .            GEL-OIL:   DRILLING FLUID TYPE
 DFD .                9.4:   DRILLING FLUID DENSITY
 DFV .                 67:   DRILLING FLUID VISCOSITY
 DFPH.                8.5:   DRILLING FLUID PH
 DFL .                4.6:   DRILLING FLUID LOSS
 MSS .           FLOWLINE:   MUD SAMPLE SOURCE
 RMS .OHMM           3.37:   RESISTIVITY MUD SAMPLE
 MST .F                79:   MUD SAMPLE TEMPERATURE
 RMF .OHMM           1.49:   RESISTIVITY MUD FILTRATE SAMPLE
 MFST.F                83:   MUD FILTRATE SAMPLE TEMPERATURE
 MFSS.           MEASURED:   MUD FILTRATE SAMPLE SOURCE
 BHT .F                80:   BOTTOM HOLE TEMPERATURE
 TCS .HRS            0030:   TIME CURCULATED STOPPED
 MRT .F                80:   MAXIMUM RECORDED TEMPERATURE
 LUN .               4507:   LOGGING UNIT NUMBER
 LUL .              CSPR.:   LOGGING UNIT LOCATION
 ENGI.            WINKLER:   RECORDING ENGINEER
 WITN.          JORGENSON:   WITNESSED BY
 CLNT.            A2DTECH:   CLIENT CODE
 ORIG.      2" & 5" PRINT:   ORIGIN OF DATA
 UWI .       490250645200:   UNIQUE WELL ID
 DICO. A2D Technologies, Inc.:   DIGITIZING COMPANY
~OTHER INFORMATION
~A   DEPT       GR        SPR       CILD          ILD        ASN 
   87.0000  -999.2500   -69.7289  -999.2500     5.8292     5.5427
   87.5000  -999.2500   -69.5582  -999.2500     5.7793     6.1482
   88.0000  -999.2500   -69.3733   177.9899     5.6786     6.4322
   88.5000  -999.2500   -69.3394   180.0431     5.6794     6.6377
   89.0000  -999.2500   -69.2977   182.1967     5.6035     6.6264
   89.5000  -999.2500   -69.2554   185.0502     5.4974     6.4557
   90.0000  -999.2500   -69.2132   189.6267     5.3906     6.3035
   90.5000  -999.2500   -69.2123   194.2929     5.2840     6.3120
   91.0000  -999.2500   -69.5423   198.7940     5.1772     6.3170
   91.5000  -999.2500   -69.7836   201.5793     5.0704     6.2758
   92.0000  -999.2500   -69.7792   202.2972     4.9752     6.1616
   92.5000  -999.2500   -69.7418   201.6332     4.9742     6.0681
   93.0000  -999.2500   -69.6997   200.0000     4.9720     6.0036
   93.5000  -999.2500   -69.6578   195.0307     5.1161     5.9570
   94.0000  -999.2500   -69.6160   190.5639     5.3162     6.0135
   94.5000  -999.2500   -69.5741   185.9297     5.5175     6.2455
   95.0000  -999.2500   -69.5323   180.9045     5.7186     6.4935
   95.5000  -999.2500   -69.4905   175.8794     5.9206     6.6656
   96.0000  -999.2500   -69.4489   170.8543     6.0757     6.8130
   96.5000  -999.2500   -69.4064   165.8291     6.2131     6.9501
   97.0000  -999.2500   -69.3256   164.3216     6.2722     7.0064
   97.5000  -999.2500   -69.1445   164.4724     6.2535     7.0464
   98.0000  -999.2500   -68.9652   164.9752     6.2349     7.0260
   98.5000  -999.2500   -68.7857   165.4779     6.2162     6.9987
   99.0000  -999.2500   -68.6063   165.9802     6.1975     7.0185
   99.5000  -999.2500   -68.4234   166.4825     6.1789     7.0853
  100.0000  -999.2500   -68.4447   166.9834     6.1602     7.1524
  100.5000  -999.2500   -68.5442   167.8459     6.1416     7.1158
  101.0000  -999.2500   -68.6452   168.3417     6.1230     6.9813
  101.5000  -999.2500   -68.7479   168.3417     6.1043     6.9242
  102.0000  -999.2500   -68.9056   168.3417     6.0844     7.0740
  102.5000  -999.2500   -69.0895   167.1089     6.1030     6.9934
  103.0000  -999.2500   -69.1441   165.7635     6.1344     6.9282
  103.5000  -999.2500   -69.0866   164.3216     6.1655     7.0776
  104.0000  -999.2500   -69.0274   159.9504     6.3149     7.2099
  104.5000  -999.2500   -68.9679   155.2415     6.5672     7.3345
  105.0000  -999.2500   -68.9086   150.2592     6.8165     7.4584
  105.5000  -999.2500   -68.8493   149.6436     6.9880     7.5842
  106.0000  -999.2500   -68.7900   150.8487     6.9263     7.6721
  106.5000  -999.2500   -68.7307   152.0603     6.8210     7.6023
  107.0000  -999.2500   -68.6715   153.2616     6.7149     7.5215
  107.5000  -999.2500   -68.6120   154.6734     6.6103     7.6283
  108.0000  -999.2500   -68.5290   160.6964     6.3633     7.4365
  108.5000  -999.2500   -68.3991   167.8191     6.0745     7.1806
  109.0000  -999.2500   -68.3735   174.9418     5.7849     6.9964
  109.5000  -999.2500   -68.3728   181.2864     5.5954     6.8283
  110.0000  -999.2500   -68.3733   185.5678     5.4757     6.6735
  110.5000  -999.2500   -68.3976   187.1615     5.4772     6.5435
  111.0000  -999.2500   -68.5436   186.4322     5.5041     6.4315
  111.5000  -999.2500   -68.6868   183.3166     5.5514     6.4304
  112.0000  -999.2500   -68.7764   178.9907     5.6856     6.5459
  112.5000  -999.2500   -68.7734   172.8643     5.9651     6.7949
  113.0000  -999.2500   -68.9298   166.7380     6.2423     7.0501
  113.5000  -999.2500   -69.1781   160.8080     6.5195     7.3049
  114.0000  -999.2500   -69.3168   155.0060     6.7593     7.5603
  114.5000  -999.2500   -68.9876   149.1997     6.9422     7.8025
  115.0000  -999.2500   -69.0339   143.3979     7.1259     7.8106
  115.5000  -999.2500   -69.0948   139.1984     7.3098     7.8207
  116.0000  -999.2500   -69.1567   136.0000     7.4850     7.8796
  116.5000  -999.2500   -69.0750   134.1709     7.5313     7.9372
  117.0000  -999.2500   -68.9174   134.9698     7.5742     7.9691
  117.5000  -999.2500   -68.7582   136.1809     7.5267     7.8478
  118.0000  -999.2500   -68.5959   138.3668     7.4333     7.6873
  118.5000  -999.2500   -68.7421   140.4690     7.3378     7.8313
  119.0000  -999.2500   -68.9587   142.5712     7.2248     8.0216
  119.5000  -999.2500   -68.6734   144.6734     7.0866     8.1158
  120.0000  -999.2500   -68.6054   147.4689     6.9505     7.7343
  120.5000  -999.2500   -68.7392   152.2486     6.8070     7.4648
  121.0000  -999.2500   -68.8713   157.0283     6.6385     7.3613
  121.5000  -999.2500   -69.0025   161.8080     6.4702     7.2987
  122.0000  -999.2500   -69.1385   165.5176     6.3025     7.2726
  122.5000  -999.2500   -69.0255   168.0402     6.1783     7.1510
  123.0000  -999.2500   -68.8097   168.3417     6.1807     7.0443
  123.5000  -999.2500   -68.5892   167.9914     6.1803     7.0041
  124.0000  -999.2500   -68.3676   167.3367     6.1776     6.9859
  124.5000  -999.2500   -68.1967   164.2930     6.2891     7.0092
  125.0000  -999.2500   -68.5622   161.5065     6.4110     7.0365
  125.5000  -999.2500   -68.5160   158.7163     6.5331     7.1161
  126.0000  -999.2500   -68.4603   155.9286     6.6549     7.2717
  126.5000  -999.2500   -68.4054   153.1395     6.7767     7.4815
  127.0000  -999.2500   -68.3509   150.3523     6.8985     7.6648
  127.5000  -999.2500   -68.2964   147.5641     7.0203     7.7087
  128.0000  -999.2500   -68.2419   145.2008     7.1421     7.7607
  128.5000  -999.2500   -68.1854   143.2266     7.2639     7.8611
  129.0000  -999.2500   -68.1728   141.2523     7.3858     7.9415
  129.5000  -999.2500   -68.1723   139.2781     7.5063     7.9740
  130.0000  -999.2500   -68.1722   137.1945     7.5896     8.0527
  130.5000  -999.2500   -68.1747   137.1582     7.5908     8.1705
  131.0000  -999.2500   -68.2863   139.8800     7.4551     8.2894
  131.5000  -999.2500   -68.6087   143.5068     7.2776     8.2816
  132.0000  -999.2500   -68.7655   147.1290     7.0992     7.7807
  132.5000  -999.2500   -68.6017   150.7512     6.9211     7.3134
  133.0000  -999.2500   -68.4118   154.3734     6.7429     7.4039
  133.5000  -999.2500   -68.3736   157.9956     6.5640     7.4986
  134.0000  -999.2500   -68.3730   161.6178     6.3868     7.2933
  134.5000  -999.2500   -68.3737   165.3266     6.3202     7.0723
  135.0000  -999.2500   -68.3762   166.2500     6.2807     7.0122
  135.5000  -999.2500   -68.2642   167.1960     6.2815     6.9598
  136.0000  -999.2500   -68.1245   168.1420     6.2814     6.9064
  136.5000  -999.2500   -67.9842   167.4889     6.2814     6.8670
  137.0000  -999.2500   -67.8441   166.4077     6.2814     7.0072
  137.5000  -999.2500   -67.7040   165.3266     6.2814     7.0955
  138.0000  -999.2500   -67.5643   165.3266     6.2814     7.0883
  138.5000  -999.2500   -67.4223   165.3266     6.2814     7.0271
  139.0000  -999.2500   -67.4294   166.6868     6.2814     7.0253
  139.5000  -999.2500   -67.5238   168.3417     6.2814     7.0225
  140.0000  -999.2500   -67.6199   167.4874     6.2814     6.9459
  140.5000  -999.2500   -67.7156   166.6466     6.2815     6.8670
  141.0000  -999.2500   -67.7716   166.8576     6.2814     6.7887
  141.5000  -999.2500   -67.7710   167.8019     6.2742     6.7433
  142.0000  -999.2500   -67.7714   168.8830     6.2372     6.7439
  142.5000  -999.2500   -67.7712   169.9800     6.2000     6.7436
  143.0000  -999.2500   -67.7679   171.9138     6.1127     6.7773
  143.5000  -999.2500   -67.6228   176.4226     5.9562     6.7042
  144.0000  -999.2500   -67.3632   181.0075     5.8007     6.5696
  144.5000  -999.2500   -67.3691   183.4171     5.7786     6.4386
  145.0000  -999.2500   -67.3694   182.9548     5.7785     6.3032
  145.5000  -999.2500   -67.3695   181.9457     5.7785     6.1712
  146.0000  -999.2500   -67.3695   180.9367     5.7808     6.1074
  146.5000  -999.2500   -67.3695   179.9276     5.8237     6.1279
  147.0000  -999.2500   -67.3695   178.5997     5.8645     6.3095
  147.5000  -999.2500   -67.3695   176.3819     5.9849     6.5034
