~VERSION INFORMATION
 VERS.                2.0:   CWLS LOG ASCII STANDARD - VERSION 2.0
 WRAP.                 NO:   ONE LINE PER DEPTH STEP
~WELL INFORMATION
#MNEM.UNIT      DATA TYPE    INFORMATION
#----------   ------------   ------------------------------
 STRT.F           28.0000:   START DEPTH
 STOP.F          630.0000:   STOP DEPTH
 STEP.F            0.5000:   STEP LENGTH
 NULL.          -999.2500:   NO VALUE
 COMP. FENIX & SCISSON INC:   COMPANY
 WELL. NAVAL PETROLEUM RESERVE 3 SX-1 #81-15:   WELL
 FLD .             TEAPOT:   FIELD
 LOC .      S15 T38N R78W:   LOCATION
 CNTY.            NATRONA:   COUNTY
 STAT.            WYOMING:   STATE
 CTRY. UNITED STATES OF AMERICA:   COUNTRY
 SRVC.           BIRDWELL:   SERVICE COMPANY
 DATE.        03-JUN-1978:   LOGDATE
 API .       490251063900:   API NUMBER
~CURVE INFORMATION
#MNEM.UNIT       API CODE    CURVE DESCRIPTION
#----------   ------------   ------------------------------
 DEPT.F                  :   
 SPR .MV     05 010 01 00:   SPONTANEOUS POTENTIAL FROM RES.
 SN  .OHMM   05 040 16 00:   SHORT NORMAL 16"
 ILD .OHMM   05 120 46 00:   INDUCTION LOG DEEP
 CALD.IN     45 280 60 00:   CALIPER FROM DENSITY LOG
 GRD .GAPI   45 310 01 00:   GAMMA RAY FROM DENSITY LOG
 CORR.G/C3   45 356 01 00:   DENSITY CORRECTION
 DPHI.DEC    45 890 12 00:   DENSITY POROSITY SANDSTONE
 DEN .G/C3   45 350 01 00:   COMPENSATED BULK DENSITY
~PARAMETER INFORMATION
#MNEM.UNIT          VALUE    DESCRIPTION
#----------   ------------   ------------------------------
 PD  .                 GL:   PERMANENT DATUM
 EPD .F              5263:   ELEVATION PERMANENT DATUM
 LMF .                 KB:   LOG MEASURED FROM
 DAPD.F                 4:   FEET ABOVE PERMANENT DATUM
 DMF .                 KB:   DRILLING MEASURED FROM
 EKB .F              5267:   KELLING BUSHING
 EGL .F              5263:   GROUND LEVEL
 DATE.        03-JUN-1978:   RUN DATE
 RUN .                  1:   RUN NUMBER
 DD  .F               632:   DEPTH DRILLER
 DL  .F               636:   DEPTH LOGGER
 BLI .F               630:   BOTTOM LOG INTERVAL
 TLI .F                40:   TOP LOG INTERVAL
 CS  .IN            8.625:   CASING SIZE
 CBD .F                40:   CASING BOTTOM DRILLER
 CBL .F                40:   CASING BOTTOM LOGGER
 BS  .IN            7.875:   BIT SIZE
 BSD .F               632:   BIT SIZE AT DEPTH
 DFT .                KCL:   DRILLING FLUID TYPE
 DFD .                8.7:   DRILLING FLUID DENSITY
 DFV .                 31:   DRILLING FLUID VISCOSITY
 DFPH.                 10:   DRILLING FLUID PH
 DFL .                9.2:   DRILLING FLUID LOSS
 MSS .           FLOWLINE:   MUD SAMPLE SOURCE
 RMS .OHMM            .26:   RESISTIVITY MUD SAMPLE
 MST .F                66:   MUD SAMPLE TEMPERATURE
 RMF .OHMM            .24:   RESISTIVITY MUD FILTRATE SAMPLE
 MFST.F                74:   MUD FILTRATE SAMPLE TEMPERATURE
 RMC .OHMM            .34:   RESISTIVITY MUD CAKE
 MCST.F                75:   MUD CAKE SAMPLE TEMPERATURE
 MFSS.               MEAS:   MUD FILTRATE SAMPLE SOURCE
 MCSS.               MEAS:   MUD CAKE SAMPLE SOURCE
 RMB .OHMM            .23:   RESISTIVITY MUD AT BHT
 BHT .F                74:   BOTTOM HOLE TEMPERATURE
 TCS .HRS            0100:   TIME CURCULATED STOPPED
 MRT .F                74:   MAXIMUM RECORDED TEMPERATURE
 LUN .               2958:   LOGGING UNIT NUMBER
 LUL .               CASP:   LOGGING UNIT LOCATION
 ENGI.             MILLER:   RECORDING ENGINEER
 WITN.           MCGINLEY:   WITNESSED BY
 CLNT.            A2DTECH:   CLIENT CODE
 ORIG.           5" PRINT:   ORIGIN OF DATA
 UWI .       490251063900:   UNIQUE WELL ID
 DICO. A2D Technologies, Inc.:   DIGITIZING COMPANY
~OTHER INFORMATION
~A   DEPT      SPR         SN        ILD       CALD         GRD      CORR       DPHI        DEN   
# ...
  352.0000   -26.6061     3.2327     2.9121     8.6005    72.6296     0.0699     0.2549     2.2231
  352.5000   -26.4631     3.2543     2.9515     8.7203    71.3977     0.0697     0.2367     2.2679
  353.0000   -26.3202     3.2761     3.1184     8.8557    71.2345     0.0525     0.2036     2.3339
  353.5000   -26.3292     3.3904     3.4393     8.3692    69.6197     0.0406     0.1861     2.3582
  354.0000   -26.3364     3.5825     4.0534     8.3527    65.7923     0.0604     0.1676     2.3847
  354.5000   -26.3438     3.9190     4.6216     8.3210    67.3849     0.0660     0.1519     2.4196
  355.0000   -26.3527     4.4380     5.2330     8.2894    73.1745     0.0324     0.1433     2.4279
  355.5000   -26.3599     5.0259     5.6060     8.2577    76.8281     0.0292     0.1376     2.4378
  356.0000   -26.2170     5.4700     5.8415     8.2564    76.8176     0.0291     0.1364     2.4462
  356.5000   -26.2242     5.8494     6.0449     8.2547    75.5857     0.0259     0.1352     2.4490
  357.0000   -26.2314     6.0121     6.0886     8.2534    71.9110     0.0242     0.1405     2.4375
  357.5000   -26.0885     6.1367     6.1243     8.2369    69.3051     0.0240     0.1426     2.4397
  358.0000   -26.0963     6.1351     6.0790     8.0689    69.4472     0.0239     0.1478     2.4305
  358.5000   -25.9546     6.0911     5.9105     8.0524    70.6581     0.0237     0.1527     2.4213
  359.0000   -25.9618     5.9629     5.7468     8.0511    70.8002     0.0221     0.1546     2.4182
  359.5000   -25.8188     5.7594     5.5875     8.0497    70.4843     0.0234     0.1589     2.4136
  360.0000   -25.6765     5.6005     5.4327     8.0639    70.3211     0.0278     0.1635     2.4082
  360.5000   -25.6832     5.4839     5.3188     8.0622    71.2266     0.0352     0.1647     2.4028
  361.0000   -25.6922     5.3697     5.2431     8.0760    73.5062     0.0457     0.1572     2.4020
  361.5000   -25.6994     5.3312     5.2048     8.0898    75.4804     0.0470     0.1526     2.4141
  362.0000   -25.5546     5.3298     5.2394     8.1339    77.0716     0.0468     0.1454     2.4208
  362.5000   -25.7138     5.4058     5.3103     8.1932    77.1374     0.0527     0.1393     2.4337
  363.0000   -25.7210     5.5143     5.4568     8.2534    76.9742     0.0586     0.1345     2.4511
  363.5000   -25.7283     5.6677     5.6879     8.2966    75.4356     0.0509     0.1342     2.4564
  364.0000   -25.7357     5.8253     5.9654     8.3255    74.2037     0.0461     0.1309     2.4570
  364.5000   -25.7445     6.0708     6.2160     8.3393    73.8879     0.0460     0.1261     2.4631
  365.0000   -25.7517     6.4149     6.4325     8.3531    73.8773     0.0443     0.1228     2.4668
  365.5000   -25.7589     6.7785     6.7027     8.3670    74.1721     0.0441     0.1210     2.4713
  366.0000   -25.7662     7.1198     6.9360     8.3653    75.2303     0.0440     0.1201     2.4750
  366.5000   -25.7734     7.3620     7.1775     8.3639    77.6625     0.0438     0.1226     2.4803
  367.0000   -25.7968     7.5662     7.3253     8.3626    80.5528     0.0436     0.1251     2.4703
  367.5000   -25.9398     7.6173     7.4237     8.3767    81.3056     0.0435     0.1215     2.4710
  368.0000   -25.9470     7.6681     7.4731     8.4054    77.7836     0.0433     0.1194     2.4747
  368.5000   -25.9542     7.7189     7.4693     8.4195    75.3303     0.0431     0.1243     2.4747
  369.0000   -26.1116     7.7168     7.4663     8.4330    74.5565     0.0384     0.1255     2.4716
  369.5000   -26.1188     7.6610     7.4118     8.4468    75.7673     0.0367     0.1271     2.4685
  370.0000   -26.1261     7.6061     7.3577     8.4455    75.9094     0.0320     0.1306     2.4653
  370.5000   -26.1350     7.4995     7.3547     8.4441    75.7449     0.0318     0.1338     2.4590
  371.0000   -26.1422     7.4457     7.3004     8.4427    76.0397     0.0377     0.1336     2.4531
  371.5000   -26.1495     7.3413     7.2471     8.4411    79.7697     0.0437     0.1278     2.4554
  372.0000   -26.1567     7.2887     7.1942     8.4400    81.8189     0.0481     0.1169     2.4626
  372.5000   -26.1639     7.2826     7.0924     8.4386    79.5183     0.0433     0.1231     2.4794
  373.0000   -26.1712     7.1842     6.9921     8.4373    75.8436     0.0371     0.1298     2.4725
  373.5000   -26.1787     7.1327     6.8907     8.4359    75.0698     0.0308     0.1365     2.4649
  374.0000   -26.1874     7.0816     6.6093     8.4345    75.8226     0.0307     0.1426     2.4526
  374.5000   -26.1946     6.9341     6.2506     8.4332    79.3235     0.0320     0.1472     2.4343
  375.0000   -26.2024     6.6963     5.9113     8.4167    81.1450     0.0349     0.1521     2.4213
  375.5000   -26.2090     6.3778     5.6685     8.3698    82.5086     0.0362     0.1561     2.4182
  376.0000   -26.0655     6.0687     5.5114     8.3362    82.6507     0.0406     0.1646     2.4090
  376.5000   -26.0745     5.8657     5.4712     8.3369    81.7241     0.0436     0.1719     2.3945
  377.0000   -25.9298     5.7834     5.4312     8.4564    80.0342     0.0525     0.1665     2.3892
  377.5000   -25.7893     5.6630     5.4662     8.5763    77.4283     0.0661     0.1586     2.3997
  378.0000   -25.7965     5.6224     5.5026     8.6507    76.1964     0.0475     0.1392     2.4240
  378.5000   -25.6535     5.6600     5.6153     8.7100    78.0929     0.0428     0.1347     2.4391
  379.0000   -25.6608     5.6991     5.7707     8.7238    81.4412     0.0411     0.1332     2.4550
  379.5000   -25.5178     6.2325     6.0549     8.7224    82.4230     0.0455     0.1307     2.4602
  380.0000   -25.5255     6.9129     6.3531     8.7211    81.1898     0.0514     0.1269     2.4678
  380.5000   -25.3821     7.3554     6.7730     8.7046    78.1258     0.0558     0.1236     2.4715
  381.0000   -25.3911     7.6655     7.1900     8.7033    75.6725     0.0632     0.1212     2.4730
  381.5000   -25.3984     7.8792     7.4920     8.6716    74.8987     0.0691     0.1116     2.4767
  382.0000   -25.4062     7.9864     7.6470     8.6551    74.5828     0.0644     0.1131     2.4827
  382.5000   -25.4129     7.9842     7.7498     8.6235    76.2516     0.0521     0.1189     2.4940
  383.0000   -25.2699     7.9816     7.7467     8.6060    77.4625     0.0459     0.1120     2.4864
  383.5000   -25.2789     7.9795     7.7435     8.5733    77.4520     0.0442     0.1217     2.4757
  384.0000   -25.2867     7.9223     7.7397     8.5434    79.7315     0.0440     0.1261     2.4695
  384.5000   -25.2933     7.9202     7.7366     8.5117    81.0950     0.0439     0.1160     2.4757
  385.0000   -25.1502     7.8634     7.7335     8.4952    79.2524     0.0437     0.1191     2.4815
  385.5000   -25.1577     7.8613     7.7849     8.4787    77.8679     0.0451     0.1152     2.4815
  386.0000   -25.1654     7.8049     7.7810     8.4622    78.6207     0.0449     0.1198     2.4838
  386.5000   -25.1739     7.7485     7.7779     8.4458    81.3583     0.0447     0.1189     2.4832
  387.0000   -25.1817     7.7465     7.8288     8.4293    80.1250     0.0445     0.1147     2.4812
  387.5000   -25.1883     7.7444     7.8249     8.4279    75.6870     0.0459     0.1081     2.4850
  388.0000   -25.1955     7.7423     7.8218     8.4270    75.3712     0.0442     0.1136     2.4933
  388.5000   -25.2027     7.7403     7.8186     8.4265    77.3440     0.0380     0.1178     2.4963
  389.0000   -25.3604     7.7382     7.7616     8.4259    78.8602     0.0348     0.1218     2.4833
  389.5000   -25.3691     7.7899     7.7585     8.4254    79.3077     0.0346     0.1197     2.4786
  390.0000   -25.3763     7.8419     7.7554     8.4248    77.9231     0.0330     0.1170     2.4808
  390.5000   -25.3836     7.8938     7.7521     8.4242    76.9966     0.0358     0.1146     2.4861
  391.0000   -25.3908     7.8917     7.7484     8.4237    76.6807     0.0356     0.1159     2.4883
  391.5000   -25.3980     7.8896     7.7453     8.4231    76.8228     0.0355     0.1211     2.4829
  392.0000   -25.4054     7.8330     7.7422     8.4226    77.2703     0.0353     0.1225     2.4745
