~VERSION INFORMATION
 VERS.                2.0:   CWLS LOG ASCII STANDARD - VERSION 2.0
 WRAP.                 NO:   ONE LINE PER DEPTH STEP
~WELL INFORMATION
#MNEM.UNIT      DATA TYPE    INFORMATION
#----------   ------------   ------------------------------
 STRT.F           64.0000:   START DEPTH
 STOP.F          390.0000:   STOP DEPTH
 STEP.F            0.5000:   STEP LENGTH
 NULL.          -999.2500:   NO VALUE
 COMP. DEPARTMENT OF ENERGY:   COMPANY
 WELL. NPR-3 55-65-SX C-2 #55-3:   WELL
 FLD . TEAPOT NAVAL RESERVE:   FIELD
 LOC .       S3 T38N R78W:   LOCATION
 CNTY.            NATRONA:   COUNTY
 STAT.            WYOMING:   STATE
 CTRY. UNITED STATES OF AMERICA:   COUNTRY
 SRVC.      Dresser Atlas:   SERVICE COMPANY
 DATE.        29-JUN-1985:   LOGDATE
 API .       490251134500:   API NUMBER
~CURVE INFORMATION
#MNEM.UNIT       API CODE    CURVE DESCRIPTION
#----------   ------------   ------------------------------
 DEPT.F                  :   
 CALD.IN     45 280 60 00:   CALIPER FROM DENSITY LOG
 CNC .DEC    42 890 03 00:   NEUTRON POROSITY SANDSTONE
 CORR.G/C3   45 356 01 00:   DENSITY CORRECTION
 GRD .GAPI   45 310 01 00:   GAMMA RAY FROM DENSITY LOG
 PORD.DEC    45 890 12 00:   POROSITY DENSITY SANDSTONE
 RHOB.G/C3   45 350 01 00:   BULK DENSITY
 SPR .MV     07 010 01 00:   SPONTANEOUS POTENTIAL
 ILD .OHMM   06 120 46 00:   INDUCTION LOG DEEP
 ILM .OHMM   07 120 44 00:   INDUCTION LOG MEDIUM
~PARAMETER INFORMATION
#MNEM.UNIT          VALUE    DESCRIPTION
#----------   ------------   ------------------------------
 PD  .                 GL:   PERMANENT DATUM
 EPD .F              5168:   ELEVATION PERMANENT DATUM
 LMF .                 GL:   LOG MEASURED FROM
 DMF .                 GL:   DRILLING MEASURED FROM
 EGL .F              5168:   GROUND LEVEL
 DATE.        29-JUN-1985:   RUN DATE
 RUN .                  1:   RUN NUMBER
 DD  .F               394:   DEPTH DRILLER
 DL  .F               394:   DEPTH LOGGER
 BLI .F               386:   BOTTOM LOG INTERVAL
 CS  .IN                7:   CASING SIZE
 CBD .F                80:   CASING BOTTOM DRILLER
 CBL .F                82:   CASING BOTTOM LOGGER
 BS  .IN            4.875:   BIT SIZE
 BSD .F               394:   BIT SIZE AT DEPTH
 DFT .           FOAM AIR:   DRILLING FLUID TYPE
 TCS .HRS               5:   TIME CURCULATED STOPPED
 MRT .F               238:   MAXIMUM RECORDED TEMPERATURE
 LUN .               6274:   LOGGING UNIT NUMBER
 LUL .               GLTE:   LOGGING UNIT LOCATION
 ENGI.             RAUTIO:   RECORDING ENGINEER
 WITN.           JENNINGS:   WITNESSED BY
 CLNT.            A2DTECH:   CLIENT CODE
 ORIG.           5" PRINT:   ORIGIN OF DATA
 UWI .       490251134500:   UNIQUE WELL ID
 DICO. A2D Technologies, Inc.:   DIGITIZING COMPANY
~OTHER INFORMATION
~A   DEPT     CALD          CNC     CORR        GRD       PORD       RHOB        SPR        ILD        ILM   
# ...
  210.0000     7.1266     0.2741     0.1998   171.7269     0.3485     2.0757   -66.6654     3.0120     3.1326
  210.5000     6.5848     0.2959     0.1472   171.0964     0.3229     2.0938   -65.7458     3.1665     3.3119
  211.0000     6.4949     0.2953     0.0960   169.6451     0.2535     2.2535   -65.4295     3.3626     3.5015
  211.5000     6.4954     0.2907     0.0553   167.8408     0.1569     2.4178   -65.7264     3.6545     3.6531
  212.0000     6.5109     0.2925     0.0177   166.6389     0.1273     2.4442   -68.8788     3.9717     3.7842
  212.5000     6.4962     0.2983    -0.0034   166.0387     0.1230     2.4480   -71.4187     4.1694     3.8605
  213.0000     6.4967     0.2999    -0.0140   171.1629     0.1278     2.4352   -70.1938     4.2278     3.9150
  213.5000     6.4972     0.3011     0.0101   175.6839     0.1372     2.4209   -67.4642     4.2281     3.9156
  214.0000     6.4977     0.3023     0.0521   176.8916     0.1447     2.4104   -60.2097     4.2284     3.9160
  214.5000     6.4981     0.3032     0.0626   173.2801     0.1484     2.4051   -56.2735     4.2287     3.8894
  215.0000     6.4986     0.3029     0.0029   168.3433     0.1493     2.4044   -56.5605     4.2584     3.8364
  215.5000     6.4990     0.3014    -0.0172   166.3583     0.1484     2.4082   -58.6574     4.2588     3.8104
  216.0000     6.4994     0.2996    -0.0022   166.0600     0.1468     2.4104   -62.0612     4.2296     3.7584
  216.5000     6.4999     0.2984    -0.0143   167.2685     0.1447     2.4127   -65.8679     4.1717     3.7051
  217.0000     6.5003     0.2975    -0.0203   168.7775     0.1435     2.4150   -64.0397     4.1145     3.6313
  217.5000     6.5008     0.2984    -0.0099   169.9852     0.1420     2.4173   -61.0084     4.0302     3.5570
  218.0000     6.5012     0.3007     0.0036   169.3858     0.1393     2.4225   -60.6958     3.9475     3.5084
  218.5000     6.5017     0.3078     0.0096   161.5572     0.1363     2.4278   -63.6940     3.8398     3.4604
  219.0000     6.5021     0.3096     0.0035   161.5603     0.1338     2.4294   -69.1093     3.7351     3.4133
  219.5000     6.5026     0.3072    -0.0040   161.5632     0.1335     2.4286   -72.1112     3.6585     3.3900
  220.0000     6.5181     0.3041    -0.0056   161.5663     0.1363     2.4218   -74.2081     3.6301     3.3670
  220.5000     6.5186     0.3020     0.0079   164.8831     0.1399     2.4189   -72.2775     3.5837     3.3676
  221.0000     6.5040     0.3012     0.0605   170.9101     0.1372     2.4324   -68.1420     3.5346     3.3680
  221.5000     6.5195     0.3054     0.0905   173.0215     0.1230     2.4603   -65.7141     3.5104     3.3426
  222.0000     6.5350     0.3096     0.1341   173.3256     0.1130     2.4694   -65.0961     3.5351     3.2767
  222.5000     6.5354     0.3102     0.1416   173.3286     0.1100     2.4702   -64.1765     3.5354     3.2096
  223.0000     6.5660     0.3075     0.1175   173.6327     0.1082     2.4724   -62.0502     3.4870     3.1439
  223.5000     6.5973     0.3060     0.0558   174.2381     0.1067     2.4762   -58.7173     3.4392     3.0583
  224.0000     6.6745     0.3054    -0.0074   174.2410     0.1106     2.4566   -54.1777     3.2766     2.9750
  224.5000     6.7481     0.3073    -0.0436   172.6617     0.1323     2.4356   -53.2579     3.0114     2.7567
  225.0000     6.7787     0.3067    -0.0466   169.7288     0.1395     2.4220   -53.1925     2.7878     2.5018
  225.5000     6.7489     0.3048    -0.0390   173.0457     0.1423     2.4174   -50.2085     2.6806     2.3834
  226.0000     6.7193     0.3052    -0.0302   182.0848     0.1417     2.4198   -48.0823     2.6256     2.4346
  226.5000     6.7047     0.3076    -0.0197   190.5215     0.1380     2.4251   -47.4680     2.5540     2.4683
  227.0000     6.7052     0.3058     0.0088   195.0425     0.1579     2.3686   -51.0695     2.4332     2.4347
  227.5000     6.7056     0.3000     0.1020   195.9483     0.2187     2.2902   -55.2781     2.3021     2.3683
  228.0000     6.7211     0.3025     0.1155   186.6146     0.2751     2.1968   -56.1689     2.1186     2.2563
  228.5000     6.7215     0.3082     0.0598   177.8826     0.2615     2.2028   -56.1538     1.8832     2.0907
  229.0000     6.7220     0.3073     0.0297   177.8855     0.1993     2.3121   -56.1388     1.6857     1.7579
  229.5000     6.7375     0.3061     0.0312   179.4528     0.1453     2.4048   -55.8228     1.5492     1.5517
  230.0000     6.7229     0.3049     0.0041   179.9998     0.1259     2.4455   -57.3128     1.4677     1.2778
  230.5000     6.7234     0.3043    -0.0321   173.3770     0.1226     2.4508   -58.8064     1.4476     1.3139
  231.0000     6.7389     0.3227    -0.0289   174.5848     0.1214     2.4481   -60.6017     1.4377     1.3906
  231.5000     6.7996     0.3253     0.0084   175.7925     0.1271     2.3544   -63.6037     1.4378     1.5051
  232.0000     6.9356     0.3158     0.0851   166.7593     0.2153     2.2188   -67.8122     1.4479     1.6301
  232.5000     6.9963     0.2801     0.1437   161.9430     0.3230     2.0989   -66.8926     1.5095     1.7115
  233.0000     6.5449     0.2729     0.1797   159.5363     0.4100     2.0002   -62.6143     1.6519     1.7845
  233.5000     6.4098     0.2847     0.0714   158.0332     0.3904     2.1073   -58.6274     1.8586     1.9130
  234.0000     6.3801     0.2968     0.0157   157.1245     0.3236     2.2761   -57.1919     2.0493     2.0225
  234.5000     6.3806     0.2977    -0.0009   157.1747     0.1673     2.3349   -60.4955     2.1650     2.0797
  235.0000     6.3962     0.2932    -0.0069   160.1512     0.1350     2.4321   -65.6127     2.1802     2.0959
  235.5000     6.3816     0.2902    -0.0145   162.8649     0.1271     2.4404   -66.1977     2.0916     2.0092
  236.0000     6.3971     0.2862    -0.0191   165.2775     0.1419     2.4177   -67.9930     1.9517     1.7944
  236.5000     6.3975     0.2817    -0.0109   167.0877     0.1443     2.4141   -72.2016     1.7229     1.6321
  237.0000     6.3979     0.2757     0.0109   162.2713     0.1443     2.4148   -78.5217     1.5000     1.4915
  237.5000     6.3984     0.2690     0.0380   154.4430     0.1459     2.3922   -84.8419     1.3150     1.3074
  238.0000     6.4440     0.2621     0.0966   147.8194     0.1565     2.3689   -82.1087     1.1609     1.1948
  238.5000     6.5499     0.2500     0.1657   150.2320     0.1709     2.3810   -70.3293     1.1292     1.0994
  239.0000     6.7009     0.2618     0.2153   160.6566     0.1437     2.4601   -61.8682     1.1056     1.0919
  239.5000     6.7779     0.2895     0.2258   170.3634     0.1038     2.4857   -58.8370     1.0897     1.1465
  240.0000     6.8544     0.2911     0.2347   174.0367     0.0933     2.4925   -58.2227     1.0760     1.1708
  240.5000     6.9433     0.2775     0.2365   174.3408     0.1325     2.3238   -60.6176     1.0987     1.2210
  241.0000     6.9888     0.2769     0.2181   174.9462     0.2502     2.2122   -63.3179     1.1454     1.2753
  241.5000     6.8237     0.2890     0.1137   176.4551     0.2681     2.2100   -66.6365     1.2277     1.3645
  242.0000     6.6133     0.2930     0.0812   176.7585     0.2469     2.3039   -70.6083     1.3159     1.4527
  242.5000     6.4933     0.2884     0.0977   169.8345     0.1890     2.3713   -72.3237     1.4400     1.5042
  243.0000     6.3883     0.2842     0.0420   155.9820     0.1527     2.3894   -68.0821     1.5435     1.5684
  243.5000     6.3134     0.2803    -0.0047   147.8524     0.1446     2.4067   -65.9559     1.6203     1.6467
  244.0000     6.2837     0.2739    -0.0153   147.5541     0.1376     2.4309   -67.4495     1.6775     1.6584
  244.5000     6.2842     0.2655    -0.0018   150.2687     0.1295     2.4392   -71.0548     1.6432     1.6586
  245.0000     6.2696     0.2603     0.0268   153.2836     0.1299     2.4136   -70.7385     1.6206     1.6246
  245.5000     6.2700     0.2603     0.0433   156.9010     0.1522     2.3849   -68.6122     1.5984     1.6136
  246.0000     6.2706     0.2619     0.0282   158.7105     0.1651     2.3782   -68.9592     1.5765     1.6138
