~VERSION INFORMATION
 VERS.                2.0:   CWLS LOG ASCII STANDARD - VERSION 2.0
 WRAP.                 NO:   ONE LINE PER DEPTH STEP
~WELL INFORMATION
#MNEM.UNIT      DATA TYPE    INFORMATION
#----------   ------------   ------------------------------
 STRT.F           30.5000:   START DEPTH
 STOP.F          692.0000:   STOP DEPTH
 STEP.F            0.5000:   STEP LENGTH
 NULL.          -999.2500:   NO VALUE
 COMP. FENIX & SCISSON INC:   COMPANY
 WELL.   27-S-11-WP #3-11:   WELL
 FLD .  TEAPOT DOME NPR-3:   FIELD
 LOC .      S11 T38N R78W:   LOCATION
 CNTY.            NATRONA:   COUNTY
 STAT.            WYOMING:   STATE
 CTRY. UNITED STATES OF AMERICA:   COUNTRY
 SRVC.       Schlumberger:   SERVICE COMPANY
 DATE.        18-FEB-1978:   LOGDATE
 API .       490251058100:   API NUMBER
~CURVE INFORMATION
#MNEM.UNIT       API CODE    CURVE DESCRIPTION
#----------   ------------   ------------------------------
 DEPT.F                  :   
 CALD.IN     45 280 60 00:   CALIPER FROM DENSITY LOG
 CORR.G/C3   45 356 01 00:   DENSITY CORRECTION
 DPHI.DEC    45 890 12 00:   DENSITY POROSITY SANDSTONE
 GRD .GAPI   45 310 01 00:   GAMMA RAY FROM DENSITY LOG
 RHOB.G/C3   45 350 01 00:   BULK DENSITY
 ILD .OHMM   05 110 46 00:   INDUCTION LOG DEEP
 SN  .OHMM   05 040 16 00:   SHORT NORMAL 16"
 SPR .MV     05 010 01 00:   SPONTANEOUS POTENSIAL FROM RES.
~PARAMETER INFORMATION
#MNEM.UNIT          VALUE    DESCRIPTION
#----------   ------------   ------------------------------
 PD  .                 GL:   PERMANENT DATUM
 EPD .F              5195:   ELEVATION PERMANENT DATUM
 LMF .                 KB:   LOG MEASURED FROM
 DAPD.F                 4:   FEET ABOVE PERMANENT DATUM
 DMF .                 KB:   DRILLING MEASURED FROM
 EKB .F              5199:   KELLING BUSHING
 EGL .F              5195:   GROUND LEVEL
 DATE.        18-FEB-1978:   RUN DATE
 RUN .                  1:   RUN NUMBER
 DD  .F               690:   DEPTH DRILLER
 DL  .F               695:   DEPTH LOGGER
 BLI .F               688:   BOTTOM LOG INTERVAL
 TLI .F                40:   TOP LOG INTERVAL
 CS  .IN            8.625:   CASING SIZE
 CBD .F                40:   CASING BOTTOM DRILLER
 CBL .F                40:   CASING BOTTOM LOGGER
 BS  .IN            7.875:   BIT SIZE
 BSD .F               690:   BIT SIZE AT DEPTH
 DFT .       LIGNO/ SULF.:   DRILLING FLUID TYPE
 DFD .                8.8:   DRILLING FLUID DENSITY
 DFV .                 33:   DRILLING FLUID VISCOSITY
 DFPH.               10.0:   DRILLING FLUID PH
 DFL .                5.0:   DRILLING FLUID LOSS
 MSS .           FLOWLINE:   MUD SAMPLE SOURCE
 RMS .OHMM            1.7:   RESISTIVITY MUD SAMPLE
 MST .F                66:   MUD SAMPLE TEMPERATURE
 RMF .OHMM            2.0:   RESISTIVITY MUD FILTRATE SAMPLE
 MFST.F                58:   MUD FILTRATE SAMPLE TEMPERATURE
 RMC .OHMM            3.0:   RESISTIVITY MUD CAKE
 MCST.F                60:   MUD CAKE SAMPLE TEMPERATURE
 MFSS.               MEAS:   MUD FILTRATE SAMPLE SOURCE
 RMB .OHMM           1.65:   RESISTIVITY MUD AT BHT
 BHT .F                68:   BOTTOM HOLE TEMPERATURE
 TCS .HRS               2:   TIME CURCULATED STOPPED
 MRT .F                68:   MAXIMUM RECORDED TEMPERATURE
 LUN .               2958:   LOGGING UNIT NUMBER
 LUL .             CASPER:   LOGGING UNIT LOCATION
 ENGI.            POINTER:   RECORDING ENGINEER
 WITN.           MCGINLEY:   WITNESSED BY
 CLNT.            A2DTECH:   CLIENT CODE
 ORIG.           5" PRINT:   ORIGIN OF DATA
 UWI .       490251058100:   UNIQUE WELL ID
~OTHER INFORMATION
~A   DEPT     CALD       CORR       DPHI         GRD      RHOB        ILD         SN        SPR   
# ...
   71.0000     7.8521     0.0536     0.1341    80.6412     2.4223    11.1194    11.0758   -32.3432
   71.5000     7.7730     0.0655     0.1299    78.8063     2.4320    11.2652    11.3801   -32.5213
   72.0000     7.6172     0.0775     0.1285    76.9430     2.4372    11.5995    11.8549   -32.6995
   72.5000     7.4613     0.0910     0.1355    75.0797     2.4325    11.8910    12.0956   -32.7252
   73.0000     7.3362     0.0909     0.1440    73.8281     2.4218    12.0469    12.1699   -32.5921
   73.5000     7.3187     0.0907     0.1577    73.4938     2.4095    11.9485    12.1587   -32.4654
   74.0000     7.3164     0.0921     0.1666    75.3003     2.3858    11.8537    11.8091   -32.3386
   74.5000     7.3141     0.0919     0.1699    78.0242     2.3696    11.5962    11.4758   -32.8281
   75.0000     7.3114     0.0933     0.1717    79.2202     2.3672    11.3443    11.3060   -33.0063
   75.5000     7.3245     0.0947     0.1770    80.1080     2.3626    11.1758    11.1368   -33.3369
   76.0000     7.3223     0.0976     0.1789    81.4618     2.3541    11.1650    11.0492   -33.0577
   76.5000     7.3200     0.1004     0.1698    81.8861     2.3495    11.1542    11.0393   -32.9246
   77.0000     7.3178     0.1064     0.1553    81.5447     2.3615    11.1434    11.0295   -33.1092
   77.5000     7.4691     0.1123     0.1420    81.0576     2.3903    11.1327    11.0995   -32.9760
   78.0000     7.6819     0.0970     0.1436    81.0292     2.4069    10.9673    10.9329   -33.1606
   78.5000     7.7872     0.0665     0.1767    81.0008     2.3999    10.5062    10.6216   -33.4912
   79.0000     7.8925     0.0238     0.1931    80.9724     2.3427    10.2063    10.3916   -33.3645
   79.5000     7.9209     0.0237     0.1925    81.4027     2.3229    10.0547    10.3099   -32.9329
   80.0000     7.9186     0.0267     0.1780    82.4446     2.3364     9.9052    10.1575   -32.5013
   80.5000     7.9005     0.0294     0.1659    83.7923     2.3561     9.8180    10.1484   -32.0697
   81.0000     7.8982     0.0293     0.1629    83.9307     2.3643     9.7484    10.0686   -32.0954
   81.5000     7.8806     0.0291     0.1605    80.6743     2.3719     9.7370    10.1302   -32.1211
   82.0000     7.7862     0.0290     0.1590    77.8532     2.3758     9.7276    10.1211   -32.1469
   82.5000     7.7225     0.0273     0.1582    77.7154     2.3799     9.7865    10.3266   -32.4775
   83.0000     7.7202     0.0287     0.1564    79.8205     2.3813     9.9149    10.4026   -32.3507
   83.5000     7.7180     0.0285     0.1553    84.0735     2.3820     9.8362    10.5269   -32.0701
   84.0000     7.7157     0.0284     0.1517    86.7973     2.3833     9.8267    10.5151   -31.4817
   84.5000     7.7135     0.0297     0.1414    87.8464     2.3923     9.4135    10.4324   -31.0560
   85.0000     7.7112     0.0311     0.1287    87.5050     2.4112     9.0177    10.2782   -30.9292
   85.5000     7.7551     0.0310     0.1184    88.2411     2.4225     8.8218    10.0556   -30.9558
   86.0000     7.7983     0.0338     0.1021    89.5889     2.4475     8.5102     9.6335   -30.8282
   86.5000     7.8421     0.0337     0.1018    90.4779     2.4672     8.2096     8.7878   -30.5491
   87.0000     7.9013     0.0366     0.1049    90.1437     2.4731     7.7010     8.1294   -30.2699
   87.5000     7.9457     0.0364     0.1095    89.0316     2.4745     7.1735     8.0092   -29.9908
   88.0000     7.8815     0.0362     0.1096    88.5578     2.4691     6.8240     7.3574   -30.0229
   88.5000     7.9253     0.0392     0.1084    90.3572     2.4568     6.6291     6.9506   -30.9633
   89.0000     7.9390     0.0359     0.1075    94.9159     2.4667     6.6226     7.0423   -31.2939
   89.5000     7.9669     0.0282     0.1103    95.6591     2.4687     6.6095     7.2357   -31.3196
   90.0000     7.9646     0.0281     0.1231    94.5533     2.4587     6.4711     7.0230   -31.3453
   90.5000     7.9624     0.0295     0.1268    94.3719     2.4312     6.4197     6.8293   -31.3710
   91.0000     7.9601     0.0262     0.1286    94.3435     2.4326     6.3688     6.8697   -31.3968
   91.5000     7.9886     0.0231     0.1296    94.3151     2.4348     6.3627     6.9133   -31.4225
   92.0000     7.9858     0.0199     0.1293    94.4404     2.4354     6.4027     6.8574   -31.4482
   92.5000     7.9835     0.0197     0.1269    94.8699     2.4330     6.4851     6.6621   -31.3151
   93.0000     7.9812     0.0196     0.1230    95.3002     2.4397     6.5259     6.7044   -31.1883
   93.5000     7.9483     0.0194     0.1191    95.4247     2.4472     6.5181     6.7929   -31.2205
   94.0000     7.9307     0.0193     0.1177    94.9305     2.4524     6.5591     6.8809   -31.2462
   94.5000     7.9443     0.0191     0.1168    93.8317     2.4515     6.5988     6.9732   -31.2719
   95.0000     7.9728     0.0189     0.1181    92.7330     2.4499     6.5908     7.0159   -31.2977
   95.5000     7.9700     0.0188     0.1187    92.3988     2.4482     6.6775     6.9592   -31.3234
   96.0000     7.9831     0.0186     0.1184    90.8413     2.4490     6.6708     7.0018   -31.3491
   96.5000     8.0115     0.0185     0.1175    92.4948     2.4526     6.6644     6.9955   -31.3748
   97.0000     7.9939     0.0183     0.1170    93.9955     2.4532     6.6579     6.9892   -31.0957
   97.5000     8.0224     0.0182     0.1168    95.0374     2.4523     6.5590     6.9830   -31.1214
   98.0000     8.0509     0.0165     0.1177    95.9264     2.4507     6.5525     6.9279   -31.4520
   98.5000     8.0481     0.0164     0.1184    96.6814     2.4490     6.5461     6.9216   -31.4777
   99.0000     8.0612     0.0162     0.1187    97.4445     2.4489     6.5385     6.9141   -31.5034
   99.5000     8.0589     0.0176     0.1154    98.5864     2.4526     6.5322     6.9079   -31.2241
  100.0000     8.0413     0.0175     0.1091    99.4754     2.4587     6.6200     6.7579   -30.9451
  100.5000     7.9786     0.0203     0.1064    99.9057     2.4638     6.6600     6.9893   -30.7804
  101.0000     7.9774     0.0201     0.1052   100.3745     2.4667     6.7003     6.9801   -30.6156
  101.5000     7.9762     0.0198     0.1004   100.2066     2.4741     6.6921     7.0692   -30.7217
  102.0000     7.9750     0.0196     0.0978    96.2190     2.4831     6.6856     7.1594   -31.3572
  102.5000     7.9738     0.0164     0.0978    90.2436     2.4875     6.6791     7.2507   -31.9927
  103.0000     7.9726     0.0131     0.1068    87.6322     2.4859     6.6726     7.2412   -32.0184
  103.5000     7.9714     0.0099     0.1201    88.5376     2.4508     6.6661     7.1311   -31.8852
  104.0000     7.9702     0.0097     0.1207    92.8069     2.4491     6.7535     7.2221   -32.0698
  104.5000     7.9689     0.0094     0.1192    97.3821     2.4475     6.7470     7.3142   -31.9367
  105.0000     7.9677     0.0092     0.1156    98.7462     2.4474     6.8354     7.4076   -31.9688
  105.5000     7.9665     0.0090     0.1123    98.8871     2.4488     6.9250     7.4522   -32.1470
  106.0000     7.9653     0.0088     0.1117    96.3262     2.4600     7.0158     7.5978   -32.7825
  106.5000     7.9641     0.0086     0.1130    93.0496     2.4645     7.0090     7.6973   -32.6557
  107.0000     7.9626     0.0099     0.1137    91.9672     2.4643     7.1009     7.6846   -32.2177
  107.5000     7.9614     0.0082     0.1149    91.8023     2.4601     7.0938     7.7288   -31.6401
  108.0000     7.9602     0.0080     0.1171    91.6373     2.4548     7.1440     7.7182   -31.3610
  108.5000     7.9746     0.0076     0.1183    91.7812     2.4525     7.1800     7.6543   -31.3867
  109.0000     7.9731     0.0045     0.1187    91.4604     2.4524     7.2741     7.5379   -31.4124
  109.5000     7.9719     0.0043     0.1181    91.4483     2.4523     7.2653     7.5280   -31.4381
  110.0000     7.9864     0.0041     0.1185    92.0479     2.4499     7.1573     7.5181   -31.1590
  110.5000     7.9695     0.0039     0.1201    92.9533     2.4444     7.1504     7.5081   -31.0322
  111.0000     7.9683     0.0067     0.1222    93.5559     2.4397     7.0441     7.4423   -30.9055
