~VERSION INFORMATION
 VERS.                2.0:   CWLS LOG ASCII STANDARD - VERSION 2.0
 WRAP.                 NO:   ONE LINE PER DEPTH STEP
~WELL INFORMATION
#MNEM.UNIT      DATA TYPE    INFORMATION
#----------   ------------   ------------------------------
 STRT.F           85.0000:   START DEPTH
 STOP.F          780.0000:   STOP DEPTH
 STEP.F            0.5000:   STEP LENGTH
 NULL.          -999.2500:   NO VALUE
 COMP. U S NAVY-INTEX OIL:   COMPANY
 WELL.        NPR #47-S-2:   WELL
 FLD .             TEAPOT:   FIELD
 LOC .       S2 T38N R78W:   LOCATION
 CNTY.            NATRONA:   COUNTY
 STAT.            WYOMING:   STATE
 CTRY. UNITED STATES OF AMERICA:   COUNTRY
 SRVC.       Schlumberger:   SERVICE COMPANY
 DATE.        30-JUN-1962:   LOGDATE
 API .       490250640200:   API NUMBER
~CURVE INFORMATION
#MNEM.UNIT       API CODE    CURVE DESCRIPTION
#----------   ------------   ------------------------------
 DEPT.F                  :   
 SPR .MV     05 010 01 00:   SPONTANEOUS POTENTIAL FROM RES.
 ASN .OHMM   05 041 18 00:   AMPLIFIED SHORT NORMAL 18"
 ILD .OHMM   05 120 46 00:   INDUCTION LOG DEEP
 CILD.MMHO   05 110 46 00:   CONDUCTIVITY INDUCTION LOG DEEP
 CALM.IN     15 280 01 00:   CALIPER FROM MICRO LOG
 GR  .GAPI   30 310 01 00:   GAMMA RAY
~PARAMETER INFORMATION
#MNEM.UNIT          VALUE    DESCRIPTION
#----------   ------------   ------------------------------
 PD  .                 KB:   PERMANENT DATUM
 LMF .                 KB:   LOG MEASURED FROM
 DMF .                 KB:   DRILLING MEASURED FROM
 EKB .F              5175:   KELLING BUSHING
 EGL .F              5170:   GROUND LEVEL
 DATE.          6-30-1962:   RUN DATE
 RUN .                  1:   RUN NUMBER
 DD  .F               775:   DEPTH DRILLER
 DL  .F               781:   DEPTH LOGGER
 BLI .F               780:   BOTTOM LOG INTERVAL
 TLI .F                86:   TOP LOG INTERVAL
 BS  .IN             6.75:   BIT SIZE
 BSD .F               775:   BIT SIZE AT DEPTH
 DFT .            GEL-OIL:   DRILLING FLUID TYPE
 DFD .                 10:   DRILLING FLUID DENSITY
 DFV .                 50:   DRILLING FLUID VISCOSITY
 DFL .                3.6:   DRILLING FLUID LOSS
 MSS .           FLOWLINE:   MUD SAMPLE SOURCE
 RMS .OHMM           5.75:   RESISTIVITY MUD SAMPLE
 MST .F                69:   MUD SAMPLE TEMPERATURE
 RMF .OHMM           4.96:   RESISTIVITY MUD FILTRATE SAMPLE
 MFST.F                69:   MUD FILTRATE SAMPLE TEMPERATURE
 RMC .OHMM           4.80:   RESISTIVITY MUD CAKE
 MCST.F                69:   MUD CAKE SAMPLE TEMPERATURE
 RMB .OHMM           5.13:   RESISTIVITY MUD AT BHT
 BHT .F                78:   BOTTOM HOLE TEMPERATURE
 TCS .HRS               1:   TIME CURCULATED STOPPED
 MRT .F                78:   MAXIMUM RECORDED TEMPERATURE
 LUN .               2503:   LOGGING UNIT NUMBER
 LUL .              CSPR.:   LOGGING UNIT LOCATION
 ENGI.             KNOBEL:   RECORDING ENGINEER
 WITN.          JORGENSEN:   WITNESSED BY
 CLNT.            A2DTECH:   CLIENT CODE
 ORIG.      2" & 5" PRINT:   ORIGIN OF DATA
 UWI .       490250640200:   UNIQUE WELL ID
 DICO. A2D Technologies, Inc.:   DIGITIZING COMPANY
~OTHER INFORMATION
~A   DEPT      SPR        ASN        ILD         CILD     CALM         GR   
# ...
  137.0000   -31.9940     7.6608     7.2139   154.5234  -999.2500  -999.2500
  137.5000   -31.9940     7.1395     6.9131   159.0198  -999.2500  -999.2500
  138.0000   -32.4405     6.9042     6.6126   163.5161  -999.2500  -999.2500
  138.5000   -32.5893     6.7032     6.3122   168.0125  -999.2500  -999.2500
  139.0000   -32.5893     6.5237     5.9370   172.5088  -999.2500  -999.2500
  139.5000   -32.5893     6.4190     5.6366   176.2533  -999.2500  -999.2500
  140.0000   -31.9940     6.3892     5.5604   177.7421  -999.2500  -999.2500
  140.5000   -31.8452     6.3894     5.5589   177.7272  -999.2500  -999.2500
  141.0000   -31.9940     6.3745     5.6325   176.2085  -999.2500  -999.2500
  141.5000   -32.1429     6.3897     5.7801   174.6898  -999.2500  -999.2500
  142.0000   -32.1429     6.4497     5.8537   172.4193  -999.2500  -999.2500
  142.5000   -31.8452     6.5696     6.0014   169.3968  -999.2500  -999.2500
  143.0000   -31.6964     6.7494     6.2241   164.8706  -999.2500  -999.2500
  143.5000   -31.5476     6.9292     6.5216   160.3444  -999.2500  -999.2500
  144.0000   -31.6964     7.0641     6.8190   156.5701  -999.2500  -999.2500
  144.5000   -31.8452     7.1990     7.0418   150.5401  -999.2500  -999.2500
  145.0000   -31.9940     7.3488     7.1897   144.5101  -999.2500  -999.2500
  145.5000   -32.2917     7.4987     7.2634   139.9839  -999.2500  -999.2500
  146.0000   -32.5893     7.6336     7.3364   136.2096  -999.2500  -999.2500
  146.5000   -32.5893     7.7535     7.4842   133.9391  -999.2500  -999.2500
  147.0000   -32.5893     7.8734     7.5576   132.4204  -999.2500  -999.2500
  147.5000   -32.5893     7.9633     7.7055   132.4054  -999.2500  -999.2500
  148.0000   -32.5893     8.0234     7.7787   133.1424  -999.2500  -999.2500
  148.5000   -32.5893     7.9936     7.7025   135.3831  -999.2500  -999.2500
  149.0000   -32.4405     7.8141     7.4768   139.1276  -999.2500  -999.2500
  149.5000   -32.2917     7.7094     7.1764   143.6239  -999.2500  -999.2500
  150.0000   -32.1429     7.5898     6.8759   149.6241  -999.2500  -999.2500
  150.5000   -32.1397     7.2810     6.4800   157.9469  -999.2500  -999.2500
  151.0000   -31.9879     7.0341     6.0538   163.1734  -999.2500  -999.2500
  151.5000   -31.5385     6.8165     5.9791   168.4440  -999.2500  -999.2500
  152.0000   -31.3868     6.5209     5.9791   171.4590  -999.2500  -999.2500
  152.5000   -31.3641     6.3788     6.0538   171.5790  -999.2500  -999.2500
  153.0000   -31.3810     6.3641     6.1286   169.2182  -999.2500  -999.2500
  153.5000   -31.5267     6.4692     6.2033   166.9701  -999.2500  -999.2500
  154.0000   -31.8214     6.6941     6.2043   165.4737  -999.2500  -999.2500
  154.5000   -32.1161     6.6195     6.2822   165.4812  -999.2500  -999.2500
  155.0000   -31.8155     6.5748     6.4275   164.7119  -999.2500  -999.2500
  155.5000   -31.4991     6.7249     6.5877   163.2405  -999.2500  -999.2500
  156.0000   -31.2143     7.0246     6.8012   163.2481  -999.2500  -999.2500
  156.5000   -31.0625     6.9949     6.8759   164.1155  -999.2500  -999.2500
  157.0000   -31.0590     6.9204     6.5770   168.7969  -999.2500  -999.2500
  157.5000   -31.0560     6.6363     5.9791   174.5503  -999.2500  -999.2500
  158.0000   -31.0531     6.3821     5.7549   179.0691  -999.2500  -999.2500
  158.5000   -31.0501     6.2626     5.7549   182.8359  -999.2500  -999.2500
  159.0000   -31.0472     6.1581     5.7549   184.3471  -999.2500  -999.2500
  159.5000   -31.0442     6.0536     5.7549   184.3546  -999.2500  -999.2500
  160.0000   -31.0413     5.9640     5.7549   184.3620  -999.2500  -999.2500
  160.5000   -31.0383     5.9794     5.7549   184.3695  -999.2500  -999.2500
  161.0000   -30.8866     6.0395     5.7549   185.1288  -999.2500  -999.2500
  161.5000   -30.7348     6.1296     5.7549   185.1362  -999.2500  -999.2500
  162.0000   -30.7319     6.2198     5.7549   185.1437  -999.2500  -999.2500
  162.5000   -30.7289     6.2051     5.7549   185.1512  -999.2500  -999.2500
  163.0000   -30.8755     6.0844     5.7549   185.9105  -999.2500  -999.2500
  163.5000   -31.0214     6.0099     5.7549   186.6698  -999.2500  -999.2500
  164.0000   -31.0177     5.9497     5.7549   186.6773  -999.2500  -999.2500
  164.5000   -30.8659     5.8919     5.7549   186.6847  -999.2500  -999.2500
  165.0000   -30.8630     5.8324     5.7549   186.6922  -999.2500  -999.2500
  165.5000   -30.8601     5.8027     5.7549   186.6996  -999.2500  -999.2500
  166.0000   -30.8571     5.8480     5.7549   185.9549  -999.2500  -999.2500
  166.5000   -30.8542     5.9081     5.7549   185.9626  -999.2500  -999.2500
  167.0000   -30.8512     5.9533     5.7549   185.9701  -999.2500  -999.2500
  167.5000   -30.8482     6.0135     5.7549   185.9775  -999.2500  -999.2500
  168.0000   -30.8452     6.0438     5.7549   185.2331  -999.2500  -999.2500
  168.5000   -30.8423     6.0141     5.6801   186.0100  -999.2500  -999.2500
  169.0000   -30.8393     5.9695     5.6054   189.0525  -999.2500  -999.2500
  169.5000   -30.6869     5.8650     5.4559   192.8473  -999.2500  -999.2500
  170.0000   -30.6840     5.7156     5.3064   199.7490  -999.2500  -999.2500
  170.5000   -30.5322     5.6111     5.1570   206.5794  -999.2500  -999.2500
  171.0000   -30.5293     5.4467     5.0075   213.8511  -999.2500  -999.2500
  171.5000   -30.5263     5.2973     4.8580   219.8736  -999.2500  -999.2500
  172.0000   -30.6729     5.1779     4.7085   223.6404  -999.2500  -999.2500
  172.5000   -30.6693     5.0883     4.4096   227.4073  -999.2500  -999.2500
  173.0000   -30.8158     5.0737     4.3348   228.1647  -999.2500  -999.2500
  173.5000   -30.8122     5.0740     4.3348   226.6685  -999.2500  -999.2500
  174.0000   -30.8092     5.0892     4.3348   224.4221  -999.2500  -999.2500
  174.5000   -30.6575     5.1195     4.4096   222.1739  -999.2500  -999.2500
  175.0000   -30.6545     5.1347     4.4096   220.6776  -999.2500  -999.2500
  175.5000   -30.6516     5.1650     4.4843   219.1795  -999.2500  -999.2500
  176.0000   -30.7982     5.1952     4.4843   217.6831  -999.2500  -999.2500
  176.5000   -30.9433     5.2105     4.5590   215.4368  -999.2500  -999.2500
  177.0000   -30.9403     5.2281     4.6338   213.9393  -999.2500  -999.2500
  177.5000   -30.9374     5.2710     4.6338   212.4442  -999.2500  -999.2500
  178.0000   -30.7856     5.2863     4.6338   210.9479  -999.2500  -999.2500
  178.5000   -30.9316     5.3016     4.7085   210.2035  -999.2500  -999.2500
  179.0000   -30.9286     5.3168     4.7967   209.4572  -999.2500  -999.2500
  179.5000   -30.9216     5.3471     5.0075   207.9624  -999.2500  -999.2500
  180.0000   -30.7738     5.3773     5.0822   206.4664  -999.2500  -999.2500
  180.5000   -30.6220     5.4075     5.1570   204.9701  -999.2500  -999.2500
  181.0000   -30.6191     5.4527     5.1570   203.4737  -999.2500  -999.2500
  181.5000   -30.6161     5.4979     5.2317   201.9774  -999.2500  -999.2500
  182.0000   -30.4637     5.5731     5.1570   200.4715  -999.2500  -999.2500
  182.5000   -30.4608     5.6333     5.0822   198.9474  -999.2500  -999.2500
  183.0000   -30.4578     5.5886     5.0822   197.4238  -999.2500  -999.2500
  183.5000   -30.3061     5.5739     5.0822   195.8996  -999.2500  -999.2500
  184.0000   -30.1543     5.6940     5.0822   193.7441  -999.2500  -999.2500
  184.5000   -30.0026     5.7093     5.2317   191.4977  -999.2500  -999.2500
  185.0000   -29.8508     5.7246     5.3812   189.2495  -999.2500  -999.2500
  185.5000   -29.9967     5.7997     5.5306   187.0014  -999.2500  -999.2500
  186.0000   -30.2913     5.9198     5.6801   184.7532  -999.2500  -999.2500
  186.5000   -30.8836     6.0847     5.6801   181.7531  -999.2500  -999.2500
  187.0000   -31.1783     6.1898     5.6054   178.7530  -999.2500  -999.2500
  187.5000   -31.3249     6.2350     5.6801   175.7511  -999.2500  -999.2500
  188.0000   -31.3212     6.2198     5.7549   175.0067  -999.2500  -999.2500
  188.5000   -31.1695     6.1757     5.6799   187.0461  -999.2500  -999.2500
