~VERSION INFORMATION
 VERS.                2.0:   CWLS LOG ASCII STANDARD - VERSION 2.0
 WRAP.                 NO:   ONE LINE PER DEPTH STEP
~WELL INFORMATION
#MNEM.UNIT      DATA TYPE    INFORMATION
#----------   ------------   ------------------------------
 STRT.F           20.0000:   START DEPTH
 STOP.F          744.0000:   STOP DEPTH
 STEP.F            0.5000:   STEP LENGTH
 NULL.          -999.2500:   NO VALUE
 COMP. FENIX & SCISSON INCORP.:   COMPANY
 WELL.          SX #53-15:   WELL
 FLD .             TEAPOT:   FIELD
 LOC .      S15 T38N R78W:   LOCATION
 CNTY.            NATRONA:   COUNTY
 STAT.            WYOMING:   STATE
 CTRY. UNITED STATES OF AMERICA:   COUNTRY
 SRVC.              Welex:   SERVICE COMPANY
 DATE.        02-MAR-1977:   LOGDATE
 API .       490251030000:   API NUMBER
~CURVE INFORMATION
#MNEM.UNIT       API CODE    CURVE DESCRIPTION
#----------   ------------   ------------------------------
 DEPT.F                  :   
 SGRD.OHMM   07 220 05 00:   SHALLOW RESISTIVITY
 ILD .OHMM   07 120 46 00:   INDUCTION LOG DEEP
 ILM .OHMM   07 120 44 00:   INDUCTION LOG MEDIUM
 SPR .MV     07 010 01 00:   SPONTANEOUS POTENTIAL
 GRD .GAPI   45 310 01 00:   GAMMA RAY FROM DENSITY LOG
 CALD.IN     45 280 60 00:   CALIPER
 RHOB.G/C3   45 350 01 00:   BULK DENSITY
 DPHI.DEC    45 890 10 00:   DENSITY POROSITY SANDSTONE
 CORR.G/C3   45 356 01 00:   DENSITY CORRECTION
~PARAMETER INFORMATION
#MNEM.UNIT          VALUE    DESCRIPTION
#----------   ------------   ------------------------------
 PD  .                 GL:   PERMANENT DATUM
 EPD .F              5253:   ELEVATION PERMANENT DATUM
 LMF .                 GL:   LOG MEASURED FROM
 DMF .                 GL:   DRILLING MEASURED FROM
 EGL .F              5253:   GROUND LEVEL
 DATE.             3-2-77:   RUN DATE
 RUN .                  1:   RUN NUMBER
 DD  .F               750:   DEPTH DRILLER
 DL  .F               747:   DEPTH LOGGER
 BLI .F               745:   BOTTOM LOG INTERVAL
 TLI .F                44:   TOP LOG INTERVAL
 CS  .IN            8.625:   CASING SIZE
 CBD .F                40:   CASING BOTTOM DRILLER
 CBL .F                44:   CASING BOTTOM LOGGER
 BS  .IN            7.875:   BIT SIZE
 BSD .F               750:   BIT SIZE AT DEPTH
 DFT .           CHEM-GEL:   DRILLING FLUID TYPE
 MSS .          FLOW LINE:   MUD SAMPLE SOURCE
 RMS .OHMM           .425:   RESISTIVITY MUD SAMPLE
 MST .F                56:   MUD SAMPLE TEMPERATURE
 RMF .OHMM           .436:   RESISTIVITY MUD FILTRATE SAMPLE
 MFST.F                56:   MUD FILTRATE SAMPLE TEMPERATURE
 RMC .OHMM           .712:   RESISTIVITY MUD CAKE
 MCST.F                56:   MUD CAKE SAMPLE TEMPERATURE
 MFSS.           MEASURED:   MUD FILTRATE SAMPLE SOURCE
 MCSS.           MEASURED:   MUD CAKE SAMPLE SOURCE
 RMB .OHMM            .35:   RESISTIVITY MUD AT BHT
 BHT .F                68:   BOTTOM HOLE TEMPERATURE
 TCS .HRS               2:   TIME CURCULATED STOPPED
 MRT .F                68:   MAXIMUM RECORDED TEMPERATURE
 LUN .               8611:   LOGGING UNIT NUMBER
 LUL .           GILLETTE:   LOGGING UNIT LOCATION
 ENGI.          D. LAWSON:   RECORDING ENGINEER
 WITN.           S. BURKE:   WITNESSED BY
 CLNT.            A2DTECH:   CLIENT CODE
 ORIG.        2" 5" PRINT:   ORIGIN OF DATA
 UWI .       490251030000:   UNIQUE WELL ID
 DICO. A2D Technologies, Inc.:   DIGITIZING COMPANY
~OTHER INFORMATION
~A   DEPT     SGRD        ILD        ILM        SPR         GRD      CALD         RHOB       DPHI      CORR  
# ...
  239.0000    11.6689     6.7807     7.4575   -28.3489   118.0857     8.2409     2.4767     0.1028     0.0523
  239.5000    11.7326     6.8396     7.4298   -28.3601   119.3723     8.2137     2.4821     0.1000     0.0530
  240.0000    11.8858     6.6836     7.4023   -28.3713   121.0928     8.2334     2.4892     0.0973     0.0538
  240.5000    11.7747     6.5678     7.3748   -28.3825   124.4852     8.2514     2.4962     0.0896     0.0545
  241.0000    11.6266     6.4540     7.3475   -28.3937   127.0029     8.2742     2.5075     0.0844     0.0553
  241.5000    11.3916     6.3429     7.3203   -28.4048   129.1669     8.4070     2.5212     0.0749     0.0561
  242.0000    11.0934     6.2947     7.2931   -28.4160   130.1194     8.5415     2.5356     0.0647     0.0568
  242.5000    10.8030     6.4797     7.2661   -28.4272   128.0467     8.5869     2.5303     0.0679     0.0576
  243.0000    10.5179     6.6181     7.2282   -28.4384   125.9819     8.5833     2.5209     0.0732     0.0566
  243.5000    10.3531     6.7593     7.3858   -28.4496   124.2625     8.5793     2.5166     0.0780     0.0545
  244.0000    10.4736     6.9036     7.6601   -28.4607   121.4932     8.5750     2.5137     0.0804     0.0523
  244.5000    10.5633     7.0507     7.9446   -28.4719   120.6938     8.5709     2.5108     0.0813     0.0501
  245.0000    10.6529     7.2282     8.2401   -28.4831   120.9028     8.5667     2.5079     0.0822     0.0479
  245.5000    10.7406     7.2225     8.5469   -28.4943   121.0026     8.5626     2.5085     0.0826     0.0503
  246.0000    10.7122     7.2155     8.8514   -28.5055   119.0078     8.5585     2.5158     0.0787     0.0534
  246.5000    10.6846     7.2085     8.8625   -28.5166   117.4420     8.5543     2.5232     0.0747     0.0566
  247.0000    10.6571     7.2015     8.8754   -28.5278   116.9444     8.5503     2.5306     0.0706     0.0597
  247.5000    10.6422     7.1946     8.8883   -28.5390   116.9285     8.5440     2.5323     0.0680     0.0578
  248.0000    10.7271     7.1876     8.9011   -28.5502   117.2747     8.5362     2.5376     0.0649     0.0565
  248.5000    10.7859     7.1807     8.9137   -28.5614   118.9680     8.5282     2.5436     0.0607     0.0608
  249.0000    10.8400     7.1740     8.9253   -28.5725   119.9913     8.5203     2.5401     0.0634     0.0625
  249.5000    10.7394     7.1668     9.0397   -28.5837   119.2002     8.5132     2.5349     0.0663     0.0573
  250.0000    10.6474     7.1619     9.2609   -28.5949   115.3160     8.4662     2.5296     0.0692     0.0521
  250.5000    10.5561     7.3402     9.4874   -28.6061   110.2473     8.4382     2.5245     0.0722     0.0518
  251.0000    10.4657     7.4805     9.7196   -28.6173   106.9013     8.4203     2.5231     0.0738     0.0519
  251.5000    10.3521     7.6238    10.0700   -28.6285   105.8687     8.4022     2.5200     0.0723     0.0519
  252.0000    12.0973     7.7703     9.8752   -28.6396   110.3062     8.3644     2.5106     0.0773     0.0519
  252.5000    13.9005     7.9256     9.5208   -28.6508   116.7904     8.2630     2.4953     0.0941     0.0479
  253.0000    10.8400     7.9004     9.0998   -28.6620   121.9426     8.2533     2.4825     0.0978     0.0434
  253.5000    10.7406     7.8529     9.1692   -28.6732   121.3533     8.2586     2.4769     0.1020     0.0389
  254.0000    11.1339     7.8874     9.2610   -28.6844   120.3102     8.2639     2.4837     0.1010     0.0345
  254.5000    11.5658     7.9492     9.3547   -28.6955   119.2721     8.2676     2.5022     0.0886     0.0351
  255.0000    11.4921     8.0112     8.9337   -28.7067   118.2339     8.3122     2.5231     0.0768     0.0422
  255.5000    11.3687     8.0735     8.5290   -28.7179   118.5004     8.3616     2.5352     0.0655     0.0494
  256.0000    11.2492     8.1364     8.2249   -28.7291   120.5316     8.4097     2.5210     0.0711     0.0524
  256.5000    11.1309     8.1997     8.6323   -28.7403   120.5180     8.4344     2.5072     0.0821     0.0536
  257.0000    11.0437     8.2233     8.9830   -28.7514   120.0193     8.4580     2.5026     0.0886     0.0547
  257.5000    11.6551     8.2230     9.3492   -28.7626   120.9063     8.4821     2.5049     0.0872     0.0559
  258.0000    12.1770     8.2230     9.7062   -28.7738   121.1164     8.5056     2.5096     0.0834     0.0571
  258.5000    12.6711     8.2229     9.7591   -28.7850   120.8862     8.5321     2.5144     0.0781     0.0582
  259.0000    12.4371     8.2226     9.8096   -28.7962   122.2526     8.5318     2.5191     0.0752     0.0594
  259.5000    12.2395     8.2241     9.8604   -28.8074   126.6831     8.5331     2.5238     0.0728     0.0611
  260.0000    12.0512     8.2196     9.9115   -28.8185   132.1116     8.5348     2.5306     0.0688     0.0634
  260.5000    11.7769     8.3876     9.9629   -28.8297   134.8049     8.5364     2.5376     0.0635     0.0657
  261.0000    11.9029     8.5168    10.0145   -28.8409   132.7489     8.5380     2.5349     0.0662     0.0629
  261.5000    12.2188     8.6479    10.0700   -28.8521   129.5684     8.5396     2.5226     0.0737     0.0597
  262.0000    12.0637     8.7811    10.1652   -28.8633   127.5407     8.5412     2.5209     0.0755     0.0565
  262.5000    11.8858     8.9164    10.2685   -28.8744   127.6737     8.5428     2.5235     0.0743     0.0570
  263.0000    12.5940     9.0537    10.3729   -28.8856   126.3693     8.5444     2.5263     0.0732     0.0584
  263.5000    13.3977     9.1931    10.4783   -28.8968   125.3503     8.5460     2.5224     0.0739     0.0599
  264.0000    13.2609     9.3347    10.7412   -28.9080   126.0419     8.5476     2.5162     0.0773     0.0614
  264.5000    13.0326     9.4784    11.2817   -28.9192   126.4158     8.5492     2.5099     0.0816     0.0629
  265.0000    13.4348     9.6244    11.8491   -28.9303   124.5825     8.5500     2.5035     0.0858     0.0633
  265.5000    14.4221     9.7726    12.5597   -28.9416   121.7038     8.5500     2.4972     0.0893     0.0614
  266.0000    14.1502     9.9231    12.4987   -28.9523   118.3896     8.5500     2.4908     0.0926     0.0595
  266.5000    13.9005    10.0759    12.4239   -28.9526   119.1009     8.5500     2.4861     0.0958     0.0576
  267.0000    14.4221    10.1632    12.3487   -28.9526   119.6483     8.5500     2.4818     0.0977     0.0560
  267.5000    14.2183     9.9700    12.2740   -28.9526   118.8614     8.5499     2.4776     0.0984     0.0584
  268.0000    13.9799     9.8167    12.2188   -28.9526   118.1210     8.5499     2.4794     0.0991     0.0608
  268.5000    13.8753     9.6656    13.0498   -28.9526   119.0859     8.5352     2.4776     0.1007     0.0632
  269.0000    13.8374     9.5286    13.3069   -28.9526   120.6315     8.5047     2.4741     0.1033     0.0622
  269.5000    13.7991     9.6239    13.3568   -28.9526   121.1873     8.4741     2.4736     0.1039     0.0597
  270.0000    13.7478     9.7147    13.3963   -28.9526   122.5733     8.4342     2.4765     0.1028     0.0572
  270.5000    13.6587     9.8052    13.1411   -28.9526   124.1685     8.3929     2.4781     0.1018     0.0547
  271.0000    13.5716     9.8862    12.9093   -28.9526   124.7433     8.3428     2.4774     0.1025     0.0523
  271.5000    13.4847     9.8228    12.6828   -28.9526   124.5638     8.2819     2.4765     0.1032     0.0498
  272.0000    13.3982     9.7665    12.4475   -28.9526   124.2072     8.2209     2.4787     0.1018     0.0474
  272.5000    13.2749     9.7105    11.7307   -28.9526   123.0878     8.1591     2.4905     0.0935     0.0459
  273.0000    13.2929     9.6549    11.0131   -28.9526   123.2629     8.1738     2.5022     0.0851     0.0478
  273.5000    13.3255     9.5995    10.0728   -28.9526   123.4682     8.2345     2.5138     0.0798     0.0507
  274.0000    13.3581     9.5445    10.2336   -28.9526   123.2604     8.3431     2.5152     0.0796     0.0536
  274.5000    13.3977     9.4898    10.5409   -28.9526   121.3567     8.4515     2.5059     0.0837     0.0561
  275.0000    13.0927     9.4354    10.8522   -28.9526   120.2564     8.4598     2.4969     0.0902     0.0519
