~VERSION INFORMATION
 VERS.                2.0:   CWLS LOG ASCII STANDARD - VERSION 2.0
 WRAP.                 NO:   ONE LINE PER DEPTH STEP
~WELL INFORMATION
#MNEM.UNIT      DATA TYPE    INFORMATION
#----------   ------------   ------------------------------
 STRT.F          420.0000:   START DEPTH
 STOP.F         1937.0000:   STOP DEPTH
 STEP.F            0.5000:   STEP LENGTH
 NULL.          -999.2500:   NO VALUE
 COMP. LAWRENCE/ALLISON INC:   COMPANY
 WELL.      85 "X" #85-29:   WELL
 FLD .             TEAPOT:   FIELD
 LOC .      S29 T39N R78W:   LOCATION
 CNTY.            NATRONA:   COUNTY
 STAT.            WYOMING:   STATE
 CTRY. UNITED STATES OF AMERICA:   COUNTRY
 SRVC.            Unknown:   SERVICE COMPANY
 DATE.        28-SEP-1987:   LOGDATE
 API .       490251119100:   API NUMBER
~CURVE INFORMATION
#MNEM.UNIT       API CODE    CURVE DESCRIPTION
#----------   ------------   ------------------------------
 DEPT.F                  :   
 ROP .FT/HR  91 810 01 00:   RAT OF DRILLING PENETRATION
 TGAS.TC/CC  91 830 01 00:   TOTAL GAS UNIT
~PARAMETER INFORMATION
#MNEM.UNIT          VALUE    DESCRIPTION
#----------   ------------   ------------------------------
 DATE.        28-SEP-1987:   RUN DATE
 BLI .F              1937:   BOTTOM LOG INTERVAL
 TLI .F               420:   TOP LOG INTERVAL
 LUN .              T-146:   LOGGING UNIT NUMBER
 CLNT.            A2DTECH:   CLIENT CODE
 ORIG.           5" PRINT:   ORIGIN OF DATA
 UWI .       490251119100:   UNIQUE WELL ID
 DICO. A2D Technologies, Inc.:   DIGITIZING COMPANY
~OTHER INFORMATION
~A   DEPT        ROP       TGAS 
# ...
  906.0000     0.3732     1.5761
  906.5000     0.4019     1.6114
  907.0000     0.4023     1.6466
  907.5000     0.4026     1.6818
  908.0000     0.4030     1.7170
  908.5000     0.4046     1.7522
  909.0000     0.4132     1.7875
  909.5000     0.4137     1.8227
  910.0000     0.4235     1.8579
  910.5000     0.4234     1.8931
  911.0000     0.4233     1.9284
  911.5000     0.4232     1.9558
  912.0000     0.4230     1.9548
  912.5000     0.4229     1.9470
  913.0000     0.4228     1.9393
  913.5000     0.4227     1.9316
  914.0000     0.4226     1.9238
  914.5000     0.4224     1.9161
  915.0000     0.4223     1.9084
  915.5000     0.4222     1.9007
  916.0000     0.4221     1.8929
  916.5000     0.4220     1.8852
  917.0000     0.4218     1.8775
  917.5000     0.4217     1.8698
  918.0000     0.4216     1.8620
  918.5000     0.4215     1.8543
  919.0000     0.4214     1.8466
  919.5000     0.4212     1.8389
  920.0000     0.4211     1.8311
  920.5000     0.4210     1.8234
  921.0000     0.4209     1.8157
  921.5000     0.4208     1.8079
  922.0000     0.4206     1.8002
  922.5000     0.4205     1.7925
  923.0000     0.4204     1.7848
  923.5000     0.4203     1.7770
  924.0000     0.4201     1.7693
  924.5000     0.4200     1.7616
  925.0000     0.4199     1.7539
  925.5000     0.4198     1.7461
  926.0000     0.4197     1.7468
  926.5000     0.4195     1.7658
  927.0000     0.4194     1.7848
  927.5000     0.4193     1.8038
  928.0000     0.4192     1.8228
  928.5000     0.4191     1.8418
  929.0000     0.4189     1.8608
  929.5000     0.4188     1.8797
  930.0000     0.4187     1.8987
  930.5000     0.4186     1.9177
  931.0000     0.4184     1.9367
  931.5000     0.4183     1.9557
  932.0000     0.4182     1.9747
  932.5000     0.4181     1.9937
  933.0000     0.4179     2.0127
  933.5000     0.4178     2.0316
  934.0000     0.4177     2.0506
  934.5000     0.4176     2.0696
  935.0000     0.4174     2.0886
  935.5000     0.4173     2.1076
  936.0000     0.4172     2.1266
  936.5000     0.4171     2.1456
  937.0000     0.4169     2.1646
  937.5000     0.4168     2.1835
  938.0000     0.4167     2.2025
  938.5000     0.4166     2.2215
  939.0000     0.4265     2.2405
  939.5000     0.4269     2.2595
  940.0000     0.4272     2.2785
  940.5000     0.3519     2.2975
  941.0000     0.3524     2.3165
  941.5000     0.3433     2.3273
  942.0000     0.3437     2.3354
  942.5000     0.3346     2.3435
  943.0000     0.3350     2.3515
  943.5000     0.3259     2.3596
  944.0000     0.3168     2.3677
  944.5000     0.3267     2.3758
  945.0000     0.3271     2.3839
  945.5000     0.3280     2.3920
  946.0000     0.3295     2.4001
  946.5000     0.3309     2.4082
  947.0000     0.3323     2.4162
  947.5000     0.3338     2.4243
  948.0000     0.3352     2.4324
  948.5000     0.3367     2.4405
  949.0000     0.3381     2.4486
  949.5000     0.3396     2.4567
  950.0000     0.3410     2.4648
  950.5000     0.3425     2.4729
  951.0000     0.3439     2.4809
  951.5000     0.3454     2.4890
  952.0000     0.3468     2.4971
  952.5000     0.3483     2.5052
  953.0000     0.3497     2.5133
  953.5000     0.3512     2.5214
  954.0000     0.3526     2.5295
  954.5000     0.3541     2.5376
  955.0000     0.3555     2.5456
  955.5000     0.3569     2.5537
  956.0000     0.3584     2.5618
  956.5000     0.3598     2.5699
  957.0000     0.3613     2.5780
  957.5000     0.3627     2.5861
  958.0000     0.3642     2.5942
  958.5000     0.3656     2.6030
  959.0000     0.3647     2.5865
  959.5000     0.3740     2.5684
  960.0000     0.3743     2.5502
  960.5000     0.3368     2.5321
  961.0000     0.3086     2.5139
  961.5000     0.3090     2.4958
  962.0000     0.2998     2.4776
  962.5000     0.3001     2.4595
  963.0000     0.3004     2.4413
  963.5000     0.2912     2.4232
  964.0000     0.2820     2.4050
  964.5000     0.2728     2.3883
  965.0000     0.2732     2.3924
  965.5000     0.2735     2.3962
  966.0000     0.2829     2.4000
  966.5000     0.2829     2.4038
  967.0000     0.2828     2.4076
  967.5000     0.2828     2.4114
  968.0000     0.2827     2.4152
  968.5000     0.2826     2.4190
  969.0000     0.2826     2.4228
  969.5000     0.2825     2.4266
  970.0000     0.2825     2.4304
  970.5000     0.2824     2.4342
  971.0000     0.2824     2.4380
  971.5000     0.2823     2.4418
  972.0000     0.2822     2.4456
  972.5000     0.2822     2.4494
  973.0000     0.2821     2.4532
  973.5000     0.2821     2.4570
  974.0000     0.2820     2.4608
  974.5000     0.2820     2.4646
  975.0000     0.2819     2.4684
  975.5000     0.2818     2.4722
  976.0000     0.2818     2.4759
  976.5000     0.2817     2.4797
  977.0000     0.2817     2.4835
  977.5000     0.2816     2.4873
  978.0000     0.2816     2.4911
  978.5000     0.2815     2.4949
  979.0000     0.2815     2.4987
  979.5000     0.2814     2.5025
  980.0000     0.2628     2.5063
  980.5000     0.2725     2.5101
  981.0000     0.2939     2.5140
  981.5000     0.3582     2.5264
  982.0000     0.3774     2.5390
  982.5000     0.3871     2.5515
  983.0000     0.3968     2.5641
  983.5000     0.3971     2.5767
  984.0000     0.3974     2.5892
  984.5000     0.3881     2.6018
  985.0000     0.3885     2.6144
  985.5000     0.3793     2.6269
  986.0000     0.3796     2.6395
  986.5000     0.3800     2.6521
  987.0000     0.3807     2.6646
  987.5000     0.3813     2.6772
  988.0000     0.3820     2.6898
  988.5000     0.3827     2.7024
  989.0000     0.3833     2.7149
  989.5000     0.3840     2.7275
  990.0000     0.3846     2.7401
  990.5000     0.3853     2.7526
  991.0000     0.3860     2.7652
  991.5000     0.3866     2.7778
  992.0000     0.3873     2.7903
  992.5000     0.3879     2.8029
  993.0000     0.3886     2.8155
  993.5000     0.3893     2.8280
  994.0000     0.3899     2.8406
  994.5000     0.3906     2.8532
  995.0000     0.3913     2.8657
  995.5000     0.3919     2.8783
  996.0000     0.3926     2.8909
  996.5000     0.3932     2.9034
  997.0000     0.3939     2.9160
  997.5000     0.3946     2.9286
  998.0000     0.3952     2.9411
  998.5000     0.3959     2.9537
  999.0000     0.3964     2.9663
  999.5000     0.3873     2.9788
 1000.0000     0.3875     2.9914
 1000.5000     0.3500     3.0040
 1001.0000     0.2936     3.0165
 1001.5000     0.2750     3.0291
 1002.0000     0.2658     3.0417
 1002.5000     0.2661     3.0542
 1003.0000     0.2664     3.0474
 1003.5000     0.2667     3.0318
 1004.0000     0.2670     3.0161
 1004.5000     0.2674     3.0005
 1005.0000     0.2679     2.9849
 1005.5000     0.2684     2.9693
 1006.0000     0.2690     2.9537
 1006.5000     0.2695     2.9380
 1007.0000     0.2700     2.9224
 1007.5000     0.2705     2.9068
 1008.0000     0.2710     2.8912
 1008.5000     0.2716     2.8756
 1009.0000     0.2721     2.8600
 1009.5000     0.2726     2.8443
 1010.0000     0.2731     2.8287
 1010.5000     0.2736     2.8131
 1011.0000     0.2742     2.7975
 1011.5000     0.2747     2.7819
 1012.0000     0.2752     2.7663
 1012.5000     0.2757     2.7691
 1013.0000     0.2762     2.7844
 1013.5000     0.2768     2.7997
 1014.0000     0.2773     2.8151
 1014.5000     0.2778     2.8304
 1015.0000     0.2783     2.8457
 1015.5000     0.2788     2.8610
 1016.0000     0.2794     2.8763
 1016.5000     0.2799     2.8916
 1017.0000     0.2804     2.9069
 1017.5000     0.2809     2.9222
 1018.0000     0.2814     2.9375
 1018.5000     0.2820     2.9529
 1019.0000     0.2825     2.9682
 1019.5000     0.2830     2.9835
 1020.0000     0.2835     2.9988
 1020.5000     0.2840     3.0141
 1021.0000     0.2846     3.0294
 1021.5000     0.2851     3.0447
 1022.0000     0.2856     3.0600
 1022.5000     0.2861     3.0753
 1023.0000     0.2866     3.0907
 1023.5000     0.2872     3.1060
 1024.0000     0.2877     3.1213
 1024.5000     0.2882     3.1366
 1025.0000     0.2885     3.1519
 1025.5000     0.2887     3.1672
 1026.0000     0.2890     3.1825
 1026.5000     0.2893     3.1954
 1027.0000     0.2895     3.1218
