~VERSION INFORMATION
 VERS.                2.0:   CWLS LOG ASCII STANDARD - VERSION 2.0
 WRAP.                 NO:   ONE LINE PER DEPTH STEP
~WELL INFORMATION
#MNEM.UNIT      DATA TYPE    INFORMATION
#----------   ------------   ------------------------------
 STRT.F           60.0000:   START DEPTH
 STOP.F          945.0000:   STOP DEPTH
 STEP.F            0.5000:   STEP LENGTH
 NULL.          -999.2500:   NO VALUE
 COMP.          U.S. NAVY:   COMPANY
 WELL. RES 3 TEAPOT DOM #48S-35:   WELL
 FLD .           TEAPOT E:   FIELD
 LOC .      S35 T39N R78W:   LOCATION
 CNTY.            NATRONA:   COUNTY
 STAT.            WYOMING:   STATE
 CTRY. UNITED STATES OF AMERICA:   COUNTRY
 SRVC.       Schlumberger:   SERVICE COMPANY
 DATE.        15-JUL-1964:   LOGDATE
 API .       490250649200:   API NUMBER
~CURVE INFORMATION
#MNEM.UNIT       API CODE    CURVE DESCRIPTION
#----------   ------------   ------------------------------
 DEPT.F                  :   
 SPR .MV     05 010 01 00:   SPONTANEOUS POTENTIAL FROM RES.
 ILD .OHMM   05 120 46 00:   INDUCTION LOG DEEP
 ASN .OHMM   05 041 18 00:   AMPLIFIED SHORT NORMAL 18"
 CILD.MMHO   05 110 46 00:   CONDUCTIVITY INDUCTION LOG DEEP
 CALS.IN     60 280 50 00:   CALIPER FROM SONIC LOG
 DT  .US/F   60 520 00 00:   INTERVAL TRANSIT TIME
 GR  .GAPI   30 310 01 00:   GAMMA RAY
~PARAMETER INFORMATION
#MNEM.UNIT          VALUE    DESCRIPTION
#----------   ------------   ------------------------------
 PD  .                 GL:   PERMANENT DATUM
 EPD .F              5123:   ELEVATION PERMANENT DATUM
 LMF .                 KB:   LOG MEASURED FROM
 DAPD.F                 5:   FEET ABOVE PERMANENT DATUM
 DMF .                 KB:   DRILLING MEASURED FROM
 EKB .F              5128:   KELLING BUSHING
 EGL .F              5123:   GROUND LEVEL
 DATE.        15-JUL-1964:   RUN DATE
 RUN .                  1:   RUN NUMBER
 DD  .F               945:   DEPTH DRILLER
 DL  .F               946:   DEPTH LOGGER
 BLI .F               945:   BOTTOM LOG INTERVAL
 TLI .F                94:   TOP LOG INTERVAL
 CS  .IN            8.625:   CASING SIZE
 CBD .F                10:   CASING BOTTOM DRILLER
 BS  .IN             6.75:   BIT SIZE
 BSD .F               945:   BIT SIZE AT DEPTH
 DFT .                GEL:   DRILLING FLUID TYPE
 DFD .                9.5:   DRILLING FLUID DENSITY
 DFV .                 44:   DRILLING FLUID VISCOSITY
 DFPH.                8.0:   DRILLING FLUID PH
 DFL .               10.5:   DRILLING FLUID LOSS
 MSS .           FLOWLINE:   MUD SAMPLE SOURCE
 RMS .OHMM           3.37:   RESISTIVITY MUD SAMPLE
 MST .F                74:   MUD SAMPLE TEMPERATURE
 RMF .OHMM           2.97:   RESISTIVITY MUD FILTRATE SAMPLE
 MFST.F                78:   MUD FILTRATE SAMPLE TEMPERATURE
 MFSS.                 FP:   MUD FILTRATE SAMPLE SOURCE
 TCS .HRS             1.5:   TIME CURCULATED STOPPED
 MRT .F       T. L. T. M.:   MAXIMUM RECORDED TEMPERATURE
 LUN .               3527:   LOGGING UNIT NUMBER
 LUL .               CSPR:   LOGGING UNIT LOCATION
 ENGI.            WINKLER:   RECORDING ENGINEER
 WITN.          JORGENSEN:   WITNESSED BY
 CLNT.            A2DTECH:   CLIENT CODE
 ORIG.           2" PRINT:   ORIGIN OF DATA
 UWI .       490250649200:   UNIQUE WELL ID
 DICO. A2D Technologies, Inc.:   DIGITIZING COMPANY
~OTHER INFORMATION
~A   DEPT      SPR        ILD        ASN       CILD         CALS       DT         GR   
# ...
  469.5000   -49.1169     5.9912     7.3881   165.4738     6.7070   106.9412    91.1357
  470.0000   -49.1153     6.0451     7.4805   164.1018     6.7065   107.1665    95.0381
  470.5000   -49.1140     6.2073     7.6850   162.2285     6.7061   107.4671    96.2337
  471.0000   -49.1124     6.3634     7.8266   160.1404     6.7056   107.5419    90.4360
  471.5000   -49.1107     6.5738     7.8958   156.5374     6.7051   107.5410    85.9924
  472.0000   -49.1094     6.6496     7.9111   154.1177     6.7047   107.3896    87.4888
  472.5000   -48.9581     6.7356     7.8921   151.1815     6.6891   107.0874    88.2324
  473.0000   -48.9562     6.9520     7.8667   147.4646     6.6887   106.7852    83.5634
  473.5000   -48.9550     6.9837     7.8476   145.4600     6.6881   106.5583    82.3530
  474.0000   -48.9535     7.1077     8.0086   142.9259     6.6877   106.2561    82.1952
  474.5000   -48.9520     7.2550     8.3030   140.4927     6.6570   105.9540    82.3382
  475.0000   -48.9506     7.2556     8.3934   138.3862     6.5961   105.8779    82.3308
  475.5000   -48.9489     7.2564     8.4409   138.3781     6.4595   106.1045    81.2708
  476.0000   -48.9475     7.3323     8.4691   137.6169     6.3985   106.3286    77.5040
  476.5000   -48.9460     7.3331     8.4973   137.6094     6.6023   104.5191    78.0981
  477.0000   -48.9444     7.2587     8.5480   138.3551     6.6699   103.4634    79.7449
  477.5000   -48.9430     7.2594     8.6352   138.3484     6.6694   102.8598    81.2689
  478.0000   -48.9415     7.1849     8.6655   140.0001     6.6690   102.2562    82.5619
  478.5000   -48.9398     7.1106     8.6658   143.6112     6.6534   101.7105    83.8549
  479.0000   -48.9386     7.0361     8.6219   146.2692     6.6530   101.1996    85.1478
  479.5000   -48.9371     6.9546     8.5008   149.6681     6.6525   100.7467    86.4408
  480.0000   -48.9355     6.8122     8.3363   152.6395     6.6520   100.5199    87.7338
  480.5000   -48.9340     6.7376     8.1686   153.3875     6.6516   100.4325    89.0268
  481.0000   -48.9325     6.6632     7.9600   152.6242     6.6512   100.5963    89.9850
  481.5000   -48.9311     6.6639     7.8868   152.1707     6.6507   101.1204    87.3452
  482.0000   -48.9295     6.5893     7.8949   151.8552     6.6502   101.6472    86.5859
  482.5000   -48.9279     6.6654     8.0188   151.8471     6.6497   102.0986    86.1274
  483.0000   -48.9265     6.6662     8.1280   151.8401     6.6342   102.8515    77.3982
  483.5000   -49.0751     6.6829     8.1432   151.8326     6.6337   103.6044    73.0299
  484.0000   -49.0733     6.7429     8.1609   151.8241     6.6333   104.3120    74.2255
  484.5000   -49.0720     6.8559     8.2190   151.8175     6.6329   105.4113    76.0227
  485.0000   -49.0704     6.8948     8.2548   152.5645     6.6323   106.2395    77.5190
  485.5000   -49.2186     6.8956     8.2796   153.3094     6.6319   106.3897    78.7147
  486.0000   -49.2174     6.8341     8.1616   153.5797     6.6466   105.4845    79.0080
  486.5000   -49.2159     6.6634     7.8747   154.8102     6.6462   104.1160    78.5495
  487.0000   -49.2144     6.3716     7.8901   156.0408     6.6457   103.0715    76.7367
  487.5000   -49.2129     6.3722     7.9529   156.2985     6.6452   102.4679    77.4812
  488.0000   -49.2113     6.3729     8.0176   156.2893     6.6447   101.8643    78.6017
  488.5000   -49.2099     6.3737     8.0562   156.2821     6.6443   101.5621    79.5708
  489.0000   -49.2084     6.3935     8.0565   156.2745     6.6439   102.4657    79.8641
  489.5000   -49.2068     6.4504     8.0520   156.2663     6.6434   103.0791    79.5560
  490.0000   -49.0555     6.5313     7.9820   155.5053     6.6430   103.1425    78.4960
  490.5000   -49.0540     6.6153     7.8655   153.8825     6.6425   102.9909    77.8871
  491.0000   -49.0523     6.6783     7.8174   153.2267     6.6420   102.9902    78.3308
  491.5000   -48.9010     6.7882     7.8628   152.1455     6.6416   103.2909    80.1280
  492.0000   -48.8995     6.8300     8.0036   150.1458     6.6412   103.8980    78.3161
  492.5000   -48.7479     6.7558     8.1952   148.6789     6.6407   104.4950    78.0079
  493.0000   -48.6941     6.7564     8.3435   147.6546     6.6478   104.9464    78.9028
  493.5000   -48.4453     6.7571     8.4241   147.1568     6.6549   105.1719    80.5496
  494.0000   -48.4438     6.6827     8.4348   147.1493     6.6544   104.2667    82.7970
  494.5000   -48.2924     6.6614     8.3935   149.0650     6.6540   103.1356    83.1655
  495.0000   -48.1409     6.3835     8.2362   153.1670     6.6536   102.0044    81.4278
  495.5000   -47.9720     6.1045     7.9102   157.8607     6.6531   101.5515    79.7663
  496.0000   -47.8381     5.8426     7.7135   160.9954     6.6526   101.4001    80.9619
  496.5000   -47.9864     5.7842     7.5357   163.7021     6.6522   102.0022    83.8117
  497.0000   -48.1350     5.7479     7.3406   165.5682     6.6669   102.6797    85.4585
  497.5000   -48.2835     5.7105     7.2440   168.3069     6.6664   103.3006    86.6541
  498.0000   -48.2816     5.7114     7.2360   171.2206     6.6508   104.5620    87.2482
  498.5000   -48.2803     5.6499     7.2514   173.0304     6.6504   105.4656    80.0228
  499.0000   -48.2789     5.5624     7.3516   174.2235     6.6499   106.3692    78.8124
  499.5000   -48.2771     5.5633     7.6033   174.9684     6.6495   106.9713    77.1508
  500.0000   -48.2763     5.6223     7.8605   175.0553     6.6037   107.1372    80.1510
  500.5000   -48.2769     5.6229     7.8832   175.5059     6.4675   106.8515    83.1516
  501.0000   -48.2776     5.6237     7.8657   175.9566     6.5431   102.6785    82.0932
  501.5000   -48.2782     5.6245     7.6834   176.4677     6.5885    99.2888    83.1400
  502.0000   -48.2790     5.6587     7.1634   175.3384     6.6036    97.5570    83.8861
  502.5000   -48.2096     5.7865     6.9912   173.2765     6.6036    97.9353    82.4510
  503.0000   -48.0825     5.9266     6.9838   170.3625     6.6036    98.9917    82.5197
  503.5000   -47.8313     6.0421     7.0292   167.5191     6.5885   100.1349    83.4162
  504.0000   -47.6002     6.1699     7.2400   163.0907     6.5885   102.3861    84.4630
  504.5000   -47.1971     6.3036     7.6067   159.7120     6.5885   107.5119    84.1565
  505.0000   -47.0840     6.4255     7.8258   153.6335     6.5885   108.9448    81.2935
  505.5000   -47.0847     6.5300     7.8862   150.7652     6.6036   108.1177    78.8817
  506.0000   -47.1334     6.5307     7.8865   149.8182     6.6036   106.6873    77.5218
  506.5000   -47.5380     6.5316     7.9027   149.8011     6.6036   105.4077    74.3574
  507.0000   -47.6868     6.5323     7.9472   150.5454     6.6036   106.0950    77.2088
  507.5000   -47.8374     6.4580     7.9910   150.5303     6.6036   105.1095    78.7067
  508.0000   -47.8380     6.4589     8.0250   151.2718     6.6036   104.5835    78.0994
  508.5000   -47.9888     6.4234     8.0532   152.4659     6.6188   104.2835    77.1914
  509.0000   -48.0615     6.3720     8.0685   154.4976     6.6188   104.2092    76.5081
  509.5000   -48.1402     6.2362     8.0537   158.0454     6.6339   104.2111    77.2543
  510.0000   -48.1410     6.2369     8.0090   163.3307     6.6339   104.3632    78.3755
  510.5000   -47.9918     6.1626     7.9170   166.9570     6.6414   104.5268    77.4675
  511.0000   -47.8425     6.1634     7.7752   169.3646     6.6490   104.7433    82.8752
  511.5000   -47.8434     6.1154     7.5727   169.3468     6.6490   104.9708    86.6289
  512.0000   -47.7481     6.0899     7.4697   169.3333     6.6490   105.1230    87.5253
  512.5000   -47.6948     6.0907     7.4550   169.1603     6.6490   105.4259    87.0684
  513.0000   -47.6956     6.1665     7.4703   167.0295     6.6490   105.6534    91.4220
  513.5000   -47.6965     6.1995     7.4706   164.1098     6.6490   105.9638    91.8688
  514.0000   -47.6972     6.3369     7.4559   161.2226     6.6641   106.4102    83.7399
  514.5000   -47.6979     6.4686     7.4561   157.8707     6.6641   106.6378    80.7265
