~VERSION INFORMATION
 VERS.                2.0:   CWLS LOG ASCII STANDARD - VERSION 2.0
 WRAP.                 NO:   ONE LINE PER DEPTH STEP
~WELL INFORMATION
#MNEM.UNIT      DATA TYPE    INFORMATION
#----------   ------------   ------------------------------
 STRT.F          131.0000:   START DEPTH
 STOP.F         1085.0000:   STOP DEPTH
 STEP.F            0.5000:   STEP LENGTH
 NULL.          -999.2500:   NO VALUE
 COMP. U S NAVY-INTEX OIL:   COMPANY
 WELL.     UPR #3 #66-S-2:   WELL
 FLD .             TEAPOT:   FIELD
 LOC .       S2 T38N R78W:   LOCATION
 CNTY.            NATRONA:   COUNTY
 STAT.            WYOMING:   STATE
 CTRY. UNITED STATES OF AMERICA:   COUNTRY
 SRVC.       Schlumberger:   SERVICE COMPANY
 DATE.        18-JUL-1964:   LOGDATE
 API .       490250641300:   API NUMBER
~CURVE INFORMATION
#MNEM.UNIT       API CODE    CURVE DESCRIPTION
#----------   ------------   ------------------------------
 DEPT.F                  :   
 ASN .OHMM   05 041 16 00:   AMPLIFIED SHORT NORMAL 16"
 CILD.MMHO   05 110 46 00:   CONDUCTIVITY INDUCTION LOG DEEP
 ILD .OHMM   05 120 46 00:   INDUCTION LOG DEEP
 SPR .MV     05 010 01 00:   SPONTANEOUS POTENTIAL FROM RES.
 GR  .GAPI   30 310 01 00:   GAMMA RAY
 CALS.IN     60 280 50 00:   CALIPER FROM SONIC LOG
 DT  .US/F   60 520 33 00:   INTERVAL TRANSIT TIME
~PARAMETER INFORMATION
#MNEM.UNIT          VALUE    DESCRIPTION
#----------   ------------   ------------------------------
 PD  .                 GL:   PERMANENT DATUM
 EPD .F              5204:   ELEVATION PERMANENT DATUM
 LMF .                 KB:   LOG MEASURED FROM
 DAPD.F                 5:   FEET ABOVE PERMANENT DATUM
 DMF .                 KB:   DRILLING MEASURED FROM
 EKB .F              5209:   KELLING BUSHING
 EGL .F              5204:   GROUND LEVEL
 DATE.          7-18-1964:   RUN DATE
 RUN .                  1:   RUN NUMBER
 DD  .F              1085:   DEPTH DRILLER
 DL  .F              1086:   DEPTH LOGGER
 BLI .F              1085:   BOTTOM LOG INTERVAL
 TLI .F               131:   TOP LOG INTERVAL
 CS  .IN            8.625:   CASING SIZE
 CBD .F                10:   CASING BOTTOM DRILLER
 BS  .IN             6.75:   BIT SIZE
 BSD .F              5204:   BIT SIZE AT DEPTH
 DFT .                GEL:   DRILLING FLUID TYPE
 DFD .                9.5:   DRILLING FLUID DENSITY
 DFV .                 47:   DRILLING FLUID VISCOSITY
 DFL .                 10:   DRILLING FLUID LOSS
 MSS .           FLOWLINE:   MUD SAMPLE SOURCE
 RMS .OHMM           2.58:   RESISTIVITY MUD SAMPLE
 MST .F                93:   MUD SAMPLE TEMPERATURE
 RMF .OHMM           2.27:   RESISTIVITY MUD FILTRATE SAMPLE
 MFST.F                93:   MUD FILTRATE SAMPLE TEMPERATURE
 MFSS.                 FP:   MUD FILTRATE SAMPLE SOURCE
 TCS .HRS             1.5:   TIME CURCULATED STOPPED
 LUN .               3527:   LOGGING UNIT NUMBER
 LUL .              CSPR.:   LOGGING UNIT LOCATION
 ENGI.            WINKLER:   RECORDING ENGINEER
 WITN.          JORGENSEN:   WITNESSED BY
 CLNT.            A2DTECH:   CLIENT CODE
 ORIG.    1" , 2.5" PRINT:   ORIGIN OF DATA
 UWI .       490250641300:   UNIQUE WELL ID
 DICO. A2D Technologies, Inc.:   DIGITIZING COMPANY
~OTHER INFORMATION
~A   DEPT      ASN       CILD        ILD        SPR         GR       CALS         DT   
# ...
  904.5000     5.6967   208.7537     5.3841   -26.4747    85.8690     6.8195   110.9024
  905.0000     6.2671   205.4478     5.6846   -26.7709    87.9992     6.9727   109.1408
  905.5000     6.4754   194.0580     5.9851   -26.7168    80.1353     6.6091   105.6721
  906.0000     6.7134   179.2734     6.4425   -26.4702    79.0867     6.5189   104.0093
  906.5000     6.8327   165.4408     6.7351   -26.4687    79.5532     6.4899   103.7009
  907.0000     6.8926   159.3881     6.7123   -26.4673    80.7772     6.5367   103.3925
  907.5000     6.9228   162.3466     6.4087   -26.4658    78.3649     6.4412   103.3851
  908.0000     6.9234   171.2801     6.1052   -26.4643    77.7678     6.3115   103.2272
  908.5000     6.8870   177.7087     5.6528   -26.4625    78.2373     6.2668   102.7683
  909.0000     6.7869   195.1157     5.2004   -26.4611    79.0068     6.5570   102.0084
  909.5000     6.6115   210.0194     4.7480   -26.4597    77.2006     6.5430   101.5514
  910.0000     6.3106   214.4754     4.5238   -25.8630    74.4852     6.2859   105.9063
  910.5000     5.8374   215.9478     4.5274   -24.9687    73.7396     6.0588   107.2533
  911.0000     5.6511   215.9248     4.5303   -24.0684    74.3576     6.3795   108.6003
  911.5000     5.5924   215.9030     4.9796   -23.4777    75.1273     6.6542   110.4740
  912.0000     5.6523   215.7412     5.4289   -23.8254    75.1394     6.8530   108.9596
  912.5000     5.8903   212.1265     6.0270   -24.1443    75.3029     6.7782   108.3207
  913.0000     6.4250   201.7468     6.3275   -24.6639    79.8629     6.7186   105.8581
  913.5000     6.7816   179.2363     6.7769   -25.2577    80.6294     6.6742    99.9835
  914.0000     7.0884   159.4127     7.0794   -25.6965    74.8868     6.6450    99.2988
  914.5000     7.4582   153.2015     7.5054   -26.0154    74.4412     6.6462    98.9904
  915.0000     7.7508   148.4827     7.8052   -26.1458    74.7562     6.6474    98.9078
  915.5000     7.9278   144.0779     8.1050   -26.1441    72.8014     6.6334    98.9004
  916.0000     8.0218   141.0712     8.2579   -25.8451    75.3891     6.6194    98.8177
  916.5000     8.1454   141.0496     8.4070   -25.2484    77.3708     6.6209    98.2836
  917.0000     8.2544   141.0280     8.4092   -25.2470    76.0191     6.6221    97.5989
  917.5000     8.3630   141.0064     8.4115   -25.2455    73.1522     6.6078    96.8391
  918.0000     8.4488   137.9997     8.4137   -25.2440    70.5884     6.6093    96.4554
  918.5000     8.4493   134.9230     8.3594   -24.9449    69.8428     6.6105    96.5251
  919.0000     8.4796   131.9851     8.2019   -25.0169    65.6123     6.6117    96.4406
  919.5000     8.5098   131.9627     8.1228   -26.0273    63.5009     6.6129    95.9817
  920.0000     8.5104   131.9403     7.9762   -27.2619    63.8383     6.5685    95.3723
  920.5000     8.5110   132.4255     7.8296   -28.0570    64.4364     6.4937    94.9887
  921.0000     8.5092   134.0049     7.5345   -28.5089    65.2244     6.4037    95.3644
  921.5000     8.4483   135.5845     7.5367   -28.2096    69.0083     6.2985    96.1179
  922.0000     8.3806   137.8209     7.5388   -28.2081    69.6263     6.2541    96.7329
  922.5000     8.2671   137.7945     7.5410   -27.9091    70.2443     6.3161    97.4402
  923.0000     8.2171   134.7879     7.8527   -27.6100    72.0744     6.3629    97.7356
  923.5000     8.2178   131.7812     8.3063   -27.6086    73.1440     6.3793    97.5759
  924.0000     8.2944   127.2820     8.7379   -27.6111    71.4893     6.3957    97.1170
  924.5000     8.5752   125.7679     8.2552   -28.2010    74.0800     6.3986    96.4324
  925.0000     8.8725   128.7314     7.7505   -28.4971    76.6647     6.4438    95.6725
  925.5000     9.0511   138.9785     7.1357   -28.4231    68.8008     6.4756    95.0631
  926.0000     8.8440   167.9719     6.5208   -28.0060    64.5703     6.4768    94.5290
  926.5000     8.4885   191.5000     5.9060   -27.0660    63.6727     6.4780    94.2959
  927.0000     8.1923   204.5821     5.1805   -26.1260    65.3518     6.4792    95.4171
  927.5000     6.7202   213.2962     4.7362   -25.3497    70.3637     6.4956   101.6550
  928.0000     5.9086   217.3134     4.4407   -24.9164    67.4850     6.5120   106.0117
  928.5000     6.1466   217.3608     4.2939   -24.6173    65.9677     6.5132   105.7786
  929.0000     6.0431   213.6224     4.2842   -24.9135    65.2263     6.4992   105.1692
  929.5000     5.8910   209.1232     4.5960   -25.2097    64.3539     6.5156   104.5576
  930.0000     6.1068   194.1762     5.3720   -25.2083    64.0598     6.5168   103.2735
  930.5000     8.8599   162.8113     6.6183   -25.2068    63.9202     6.5180    98.6592
  931.0000     9.5541   135.9241     7.8229   -25.2054    63.7807     6.5040    93.6479
  931.5000     9.8298   119.4846     8.6020   -25.2039    63.6411     6.5052    93.2416
  932.0000    10.0084   110.4281     9.3274   -25.2024    63.8075     6.5064    93.5352
  932.5000     9.6825   106.0085     9.8822   -25.2009    63.8195     6.5228    94.2802
  933.0000     9.8315   109.2289    10.2664   -25.3165    63.3769     6.5088    94.7995
  933.5000     9.9804   112.3011    10.2686   -25.7932    56.5706     6.5100    94.4159
  934.0000    10.1294   115.3733    10.1220   -26.0893    48.0977     6.5112    94.4084
  934.5000    10.1300   116.3699     9.9754   -26.3854    43.8672     6.4975    94.7020
  935.0000    10.0613   116.3433     9.9779   -26.3837    37.6671     6.4680    95.1460
  935.5000     9.9828   114.8284     9.9800   -26.0847    32.5275     6.4084    95.7406
  936.0000     9.8350   111.8167     9.9822   -25.4880    28.7516     6.3187    96.4104
  936.5000     9.6873   107.3175    10.2820   -25.1889    21.1032     6.2892    96.3277
  937.0000     9.8363   102.8183    10.5957   -25.4871    16.4544     6.3667    95.6431
  937.5000    10.5787    98.3191    11.2289   -26.1037    15.2778     6.3679    94.5822
  938.0000    11.9146    92.3274    12.0327   -27.0655    14.7114     6.2931    93.3709
  938.5000    13.2505    83.3505    13.0627   -28.3000    14.5688     5.9597    92.4605
  939.0000    14.3212    74.2137    13.6820   -29.9256    14.5838     6.1891    94.6185
  939.5000    15.3851    66.3213    14.3013   -32.7217    14.7472     6.2663    96.7347
  940.0000    16.4570    58.5077    15.3770   -36.7063    15.8198     6.3131    93.7156
  940.5000    17.4210    51.1019    18.1872   -40.2197    18.7105     6.3751    90.3222
  941.0000    18.4522    47.4179    19.6774   -40.0563    22.8134     6.4523    92.4216
  941.5000    19.5003    45.9030    20.1260   -38.2691    25.0980     6.5148    95.0477
  942.0000    21.1121    46.6170    19.8305   -38.8629    26.6251     6.5155    95.9433
  942.5000    22.6271    48.1966    18.7910   -43.6234    28.6068     6.4840    98.0427
  943.0000    20.3776    51.8021    17.7515   -44.8124    29.8308     6.4270   101.0450
  943.5000    19.3395    56.2581    16.6912   -45.1086    29.8596     6.3978   103.9722
  944.0000    18.7466    60.7141    15.9345   -43.7027    27.7335     6.3686   105.6220
  944.5000    18.4504    65.1701    15.4973   -38.9668    20.7737     6.3698   102.8287
  945.0000    18.5994    66.6411    15.1910   -37.2272    20.1718     6.4926    99.0590
  945.5000    18.4506    68.1120    15.0335   -36.3795    19.8525     6.7369    96.7943
  946.0000    17.9834    68.2089    14.7882   -36.0575    15.2727     6.8746    96.5611
  946.5000    17.2204    69.5614    14.7909   -35.5978    16.4326     6.5722    96.5537
  947.0000    16.7877    69.5373    14.7932   -34.8184    17.6566     6.4670    96.6215
  947.5000    16.9110    68.0224    14.7958   -34.6798    17.8171     6.4074    97.2160
  948.0000    17.6752    68.0000    14.9467   -35.2736    16.9229     6.3779    96.8834
  948.5000    18.2247    66.4851    15.0977   -36.7603    16.4803     6.3794    95.5593
  949.0000    18.4558    64.9701    15.3975   -39.7350    17.0983     6.3806    93.7307
  949.5000    18.4565    61.9583    15.8461   -41.2217    21.9587     6.3666    93.4223
