~VERSION INFORMATION
 VERS.                2.0:   CWLS LOG ASCII STANDARD - VERSION 2.0
 WRAP.                 NO:   ONE LINE PER DEPTH STEP
~WELL INFORMATION
#MNEM.UNIT      DATA TYPE    INFORMATION
#----------   ------------   ------------------------------
 STRT.F           22.5000:   START DEPTH
 STOP.F          644.0000:   STOP DEPTH
 STEP.F            0.5000:   STEP LENGTH
 NULL.          -999.2500:   NO VALUE
 COMP.    FELIX & SCISION:   COMPANY
 WELL.     NPR #3 #14-S-2:   WELL
 FLD .             TEAPOT:   FIELD
 LOC .       S2 T38N R78W:   LOCATION
 CNTY.            NATRONA:   COUNTY
 STAT.            WYOMING:   STATE
 CTRY. UNITED STATES OF AMERICA:   COUNTRY
 SRVC.           BIRDWELL:   SERVICE COMPANY
 DATE.        18-JAN-1978:   LOGDATE
 API .       490251055600:   API NUMBER
~CURVE INFORMATION
#MNEM.UNIT       API CODE    CURVE DESCRIPTION
#----------   ------------   ------------------------------
 DEPT.F                  :   
 CALD.IN     45 280 60 00:   CALIPER FROM DENSITY LOG
 CORR.G/C3   45 356 01 00:   DENSITY CORRECTION
 DPHI.DEC    45 890 12 00:   DENSITY POROSITY SANDSTONE
 GRD .GAPI   45 310 01 00:   GAMMA RAY FROM DENSITY LOG
 RHOB.G/C3   45 350 01 00:   BULK DENSITY
 ILD .OHMM   05 120 46 00:   INDUCTION LOG DEEP
 SPR .MV     05 010 01 00:   SPONTANEOUS POTENTIAL FROM RES.
 SN  .OHMM   05 040 16 00:   SHORT NORMAL 16"
~PARAMETER INFORMATION
#MNEM.UNIT          VALUE    DESCRIPTION
#----------   ------------   ------------------------------
 PD  .                 GL:   PERMANENT DATUM
 EPD .F              5121:   ELEVATION PERMANENT DATUM
 LMF .                 KB:   LOG MEASURED FROM
 DAPD.F                 4:   FEET ABOVE PERMANENT DATUM
 DMF .                 KB:   DRILLING MEASURED FROM
 EKB .F              5126:   KELLING BUSHING
 EGL .F              5121:   GROUND LEVEL
 DATE.          1-18-1978:   RUN DATE
 RUN .                  1:   RUN NUMBER
 DD  .F               645:   DEPTH DRILLER
 DL  .F               648:   DEPTH LOGGER
 BLI .F               642:   BOTTOM LOG INTERVAL
 TLI .F                39:   TOP LOG INTERVAL
 CS  .IN            8.625:   CASING SIZE
 CBD .F                39:   CASING BOTTOM DRILLER
 BS  .IN            7.875:   BIT SIZE
 BSD .F               645:   BIT SIZE AT DEPTH
 DFT .                KCL:   DRILLING FLUID TYPE
 DFD .                8.8:   DRILLING FLUID DENSITY
 DFV .                 34:   DRILLING FLUID VISCOSITY
 DFPH.                9.5:   DRILLING FLUID PH
 DFL .                6.4:   DRILLING FLUID LOSS
 MSS .                PIT:   MUD SAMPLE SOURCE
 RMS .OHMM            .38:   RESISTIVITY MUD SAMPLE
 MST .F                43:   MUD SAMPLE TEMPERATURE
 RMF .OHMM            .26:   RESISTIVITY MUD FILTRATE SAMPLE
 MFST.F                70:   MUD FILTRATE SAMPLE TEMPERATURE
 RMC .OHMM            .42:   RESISTIVITY MUD CAKE
 MCST.F                70:   MUD CAKE SAMPLE TEMPERATURE
 MFSS.           MEASURED:   MUD FILTRATE SAMPLE SOURCE
 MCSS.           MEASURED:   MUD CAKE SAMPLE SOURCE
 RMB .OHMM            .24:   RESISTIVITY MUD AT BHT
 BHT .F                69:   BOTTOM HOLE TEMPERATURE
 TCS .HRS               2:   TIME CURCULATED STOPPED
 MRT .F                69:   MAXIMUM RECORDED TEMPERATURE
 LUN .               2958:   LOGGING UNIT NUMBER
 LUL .             CASPER:   LOGGING UNIT LOCATION
 ENGI.           REYNOLDS:   RECORDING ENGINEER
 WITN.         HARRINGTON:   WITNESSED BY
 CLNT.            A2DTECH:   CLIENT CODE
 ORIG.      2" , 5" PRINT:   ORIGIN OF DATA
 UWI .       490251055600:   UNIQUE WELL ID
 DICO. A2D Technologies, Inc.:   DIGITIZING COMPANY
~OTHER INFORMATION
~A   DEPT     CALD       CORR       DPHI         GRD      RHOB        ILD        SPR         SN   
# ...
  589.5000     7.7734     0.0724     0.1188    79.8041     2.4695    11.2990   -21.4360    11.1946
  590.0000     7.7739     0.0740     0.1218    79.2127     2.4650    11.3821   -21.4286    11.2760
  590.5000     7.7593     0.0771     0.1230    79.5129     2.4733    11.5464   -21.4211    11.3581
  591.0000     7.7599     0.0779     0.1170    81.4474     2.4809    11.7135   -21.5628    11.4407
  591.5000     7.7752     0.0779     0.1127    82.1933     2.4862    11.8821   -21.5536    11.4446
  592.0000     7.7757     0.0772     0.1115    81.1562     2.4877    11.8879   -21.5462    11.4486
  592.5000     7.7910     0.0758     0.1112    77.8902     2.4878    11.8937   -21.3901    11.4618
  593.0000     7.7764     0.0773     0.1124    78.4875     2.4848    11.8994   -21.2339    11.5358
  593.5000     7.7770     0.0781     0.1148    82.6509     2.4811    11.9052   -20.9289    11.5398
  594.0000     7.7774     0.0789     0.1175    84.4369     2.4743    11.9121   -20.4752    11.4642
  594.5000     7.7779     0.0797     0.1187    84.8906     2.4706    11.7539   -20.3190    11.3892
  595.0000     7.7932     0.0790     0.1159    82.2140     2.4789    11.6770   -20.3116    11.3941
  595.5000     7.7936     0.0776     0.1135    76.9865     2.4827    11.5233   -20.3043    11.2416
  596.0000     7.7941     0.0769     0.1126    76.7218     2.4828    11.4479   -20.2969    11.2455
  596.5000     7.7945     0.0762     0.1126    78.6572     2.4821    11.3743   -20.2896    11.2493
  597.0000     7.8098     0.0770     0.1122    78.8087     2.4836    11.3812   -20.2822    11.1748
  597.5000     7.8103     0.0785     0.1120    77.1772     2.4851    11.3866   -20.2749    11.1017
  598.0000     7.8107     0.0756     0.1125    77.4773     2.4874    11.3921   -20.7139    11.1065
  598.5000     7.8112     0.0734     0.1149    75.9944     2.4777    11.3176   -21.3021    11.0338
  599.0000     7.8116     0.0727     0.1215    74.3628     2.4687    11.2449   -21.7409    11.0376
  599.5000     7.8269     0.0727     0.1230    73.7707     2.4672    11.1726   -22.1800    10.9645
  600.0000     7.8274     0.0735     0.1236    76.3004     2.4665    11.1008   -22.4702    10.8178
  600.5000     7.7834     0.0781     0.1212    80.0181     2.4704    10.8056   -22.3155    10.7487
  601.0000     7.7692     0.0767     0.1170    82.8442     2.4764    10.6619   -22.6073    10.5346
  601.5000     7.7701     0.0744     0.1166    82.4014     2.4756    10.3786   -22.6012    10.3939
  602.0000     7.7709     0.0715     0.1175    79.8783     2.4726    10.1013   -22.8917    10.1869
  602.5000     7.7716     0.0700     0.1184    79.5840     2.4727     9.9685   -23.0346    10.0519
  603.0000     7.7724     0.0693     0.1175    80.4786     2.4765     9.8374   -23.1775     9.9188
  603.5000     7.7731     0.0679     0.1166    82.4131     2.4788     9.7756   -23.1717     9.8541
  604.0000     7.7738     0.0664     0.1166    82.8619     2.4781     9.7097   -23.1658     9.7248
  604.5000     7.7746     0.0665     0.1168    83.3106     2.4774     9.5864   -23.4575     9.5960
  605.0000     7.7753     0.0658     0.1171    83.7593     2.4767     9.4497   -23.6019     9.4037
  605.5000     7.7760     0.0658     0.1180    84.9808     2.4752     9.2729   -23.5946     9.2154
  606.0000     7.7768     0.0681     0.1171    87.3313     2.4745     9.2132   -23.4399     9.1563
  606.5000     7.7775     0.0720     0.1153    85.9224     2.4768     9.0921   -23.4340     9.0977
  607.0000     7.7932     0.0720     0.1131    81.8498     2.4844     9.0349   -23.4281     8.9772
  607.5000     7.7939     0.0713     0.1125    78.5488     2.4874     8.9781   -23.4223     8.9116
  608.0000     7.7946     0.0714     0.1143    79.0229     2.4799     8.8600   -23.4164     8.8513
  608.5000     7.7954     0.0707     0.1164    80.2145     2.4784     8.8043   -23.4105     8.7451
  609.0000     7.7961     0.0700     0.1185    83.9322     2.4770     8.7489   -23.4046     8.6293
  609.5000     7.7969     0.0693     0.1194    86.7583     2.4748     8.6352   -23.3987     8.6345
  610.0000     7.7978     0.0678     0.1206    84.0867     2.4718     8.6405   -23.3929     8.6386
  610.5000     7.7985     0.0671     0.1211    82.9002     2.4703     8.7046   -23.3869     8.5822
  611.0000     7.7992     0.0649     0.1217    84.0926     2.4696     8.6499   -23.3959     8.5272
  611.5000     7.8000     0.0642     0.1220    85.1356     2.4689     8.5965   -23.5240     8.5323
  612.0000     7.8007     0.0627     0.1223    85.4358     2.4682     8.5425   -23.6670     8.4767
  612.5000     7.8015     0.0620     0.1229    86.1816     2.4667     8.4303   -24.1060     8.4223
  613.0000     7.8022     0.0644     0.1235    88.2648     2.4652     8.3196   -24.8442     8.3108
  613.5000     7.8029     0.0667     0.1237    94.5085     2.4638     8.2102   -25.4336     8.2007
  614.0000     7.8037     0.0675     0.1234    91.9854     2.4646     8.1022   -25.5765     8.0929
  614.5000     7.8044     0.0705     0.1252    90.2053     2.4584     8.0450   -25.5706     7.9859
  615.0000     7.8052     0.0744     0.1276    89.9111     2.4571     7.9454   -25.7150     7.8801
  615.5000     7.8059     0.0744     0.1231    89.6169     2.4681     7.8422   -25.7077     7.7758
  616.0000     7.8066     0.0722     0.1203    88.4311     2.4731     7.7916   -25.7018     7.6728
  616.5000     7.8074     0.0715     0.1206    86.0566     2.4745     7.7426   -25.6959     7.6766
  617.0000     7.8081     0.0716     0.1206    86.8025     2.4746     7.6939   -25.6900     7.6273
  617.5000     7.8089     0.0709     0.1206    89.3315     2.4746     7.6455   -25.6842     7.5794
  618.0000     7.7945     0.0709     0.1206    90.6717     2.4731     7.5462   -25.6783     7.4275
  618.5000     7.7955     0.0694     0.1205    91.8634     2.4717     7.4976   -25.6724     7.2779
  619.0000     7.7962     0.0695     0.1208    91.7177     2.4702     7.3990   -25.8155     7.1329
  619.5000     7.7820     0.0688     0.1214    90.6806     2.4695     7.2024   -25.9583     6.9900
  620.0000     7.7828     0.0681     0.1229    90.2377     2.4635     7.0099   -25.9524     6.8029
  620.5000     7.7835     0.0659     0.1265    91.1422     2.4508     6.7755   -25.9464     6.5299
  621.0000     7.7692     0.0644     0.1331    91.8782     2.4433     6.6403   -25.9405     6.2679
  621.5000     7.7850     0.0675     0.1349    91.1233     2.4448     6.5528   -26.2324     5.9751
  622.0000     7.7857     0.0661     0.1346    90.2495     2.4494     6.5570   -26.3753     5.6177
  622.5000     7.7865     0.0631     0.1306    90.7480     2.4509     6.5611   -26.3679     5.5046
  623.0000     7.7872     0.0631     0.1300    92.7822     2.4532     6.7495   -26.3621     5.5460
  623.5000     7.7880     0.0655     0.1234    95.9055     2.4781     6.9925   -26.3562     5.7435
  624.0000     7.7887     0.0655     0.1122    96.2046     2.4834     7.2492   -26.3503     6.2426
  624.5000     7.7894     0.0625     0.1116    92.6422     2.4849     7.5606   -26.1956     6.8321
  625.0000     7.7753     0.0618     0.1119    89.9705     2.4834     7.9531   -26.1897     7.3747
  625.5000     7.7760     0.0642     0.1125    90.1221     2.4925     8.5099   -26.1839     8.1301
  626.0000     7.7768     0.0627     0.1091    91.0165     2.4956     8.9381   -26.1780     8.4228
  626.5000     7.7775     0.0605     0.1079    90.8709     2.4926     9.1313   -25.8745     8.5969
  627.0000     7.7634     0.0676     0.1079    90.2795     2.4911     9.2005   -25.5710     8.7215
  627.5000     7.7641     0.0713     0.1052    87.9050     2.5002     9.2701   -25.5651     8.7861
  628.0000     7.7649     0.0721     0.1006    81.9644     2.5017     9.2758   -25.5592     8.7288
  628.5000     7.7507     0.0744     0.0994    80.9272     2.5010     9.2815   -25.7024     8.7945
  629.0000     7.7516     0.0728     0.0994    82.1189     2.5033     9.2872   -25.8452     8.7987
  629.5000     7.7373     0.0721     0.1006    83.9049     2.5010     9.2274   -25.8392     8.8029
