~VERSION INFORMATION
 VERS.                2.0:   CWLS LOG ASCII STANDARD - VERSION 2.0
 WRAP.                 NO:   ONE LINE PER DEPTH STEP
~WELL INFORMATION
#MNEM.UNIT      DATA TYPE    INFORMATION
#----------   ------------   ------------------------------
 STRT.F           28.5000:   START DEPTH
 STOP.F          781.0000:   STOP DEPTH
 STEP.F            0.5000:   STEP LENGTH
 NULL.          -999.2500:   NO VALUE
 COMP. FENIX & SCISSON INC:   COMPANY
 WELL. NPR 3 23 SX 14 #23-14:   WELL
 FLD .        TEAPOT DOME:   FIELD
 LOC .      S14 T38N R78W:   LOCATION
 CNTY.            NATRONA:   COUNTY
 STAT.            WYOMING:   STATE
 CTRY. UNITED STATES OF AMERICA:   COUNTRY
 SRVC.            Unknown:   SERVICE COMPANY
 DATE.        13-MAY-1978:   LOGDATE
 API .       490251063400:   API NUMBER
~CURVE INFORMATION
#MNEM.UNIT       API CODE    CURVE DESCRIPTION
#----------   ------------   ------------------------------
 DEPT.F                  :   
 RHOB.G/C3   45 350 01 00:   BULK DENSITY
 DPHI.DEC    45 890 12 00:   DENSITY POROSITY SANDSTONE
 GRD .GAPI   45 310 01 00:   GAMMA RAY FROM DENSITY LOG
 CALD.IN     45 280 60 00:   CALIPER FROM DENSITY LOG
 CORR.G/C3   45 356 01 00:   DENSITY CORRECTION
 SN  .OHMM   05 040 16 00:   SHORT NORMAL 16"
 SPR .MV     05 010 01 00:   SPONTANEOUS POTENTIAL FROM RES.
 ILD .OHMM   05 120 46 00:   INDUCTION LOG DEEP
~PARAMETER INFORMATION
#MNEM.UNIT          VALUE    DESCRIPTION
#----------   ------------   ------------------------------
 PD  .                 GL:   PERMANENT DATUM
 EPD .F              5202:   ELEVATION PERMANENT DATUM
 LMF .                 KB:   LOG MEASURED FROM
 DMF .                 KB:   DRILLING MEASURED FROM
 EKB .F              5206:   KELLING BUSHING
 EGL .F              5202:   GROUND LEVEL
 DATE.          5-13-1978:   RUN DATE
 RUN .                  1:   RUN NUMBER
 DD  .F               785:   DEPTH DRILLER
 DL  .F               776:   DEPTH LOGGER
 BLI .F               770:   BOTTOM LOG INTERVAL
 TLI .F                50:   TOP LOG INTERVAL
 CS  .IN            8.625:   CASING SIZE
 CBD .F                40:   CASING BOTTOM DRILLER
 CBL .F                40:   CASING BOTTOM LOGGER
 BS  .IN            7.875:   BIT SIZE
 BSD .F               785:   BIT SIZE AT DEPTH
 DFT .                KCL:   DRILLING FLUID TYPE
 DFD .                8.6:   DRILLING FLUID DENSITY
 DFV .                 30:   DRILLING FLUID VISCOSITY
 DFPH.                 10:   DRILLING FLUID PH
 DFL .                 14:   DRILLING FLUID LOSS
 MSS .           FLOWLINE:   MUD SAMPLE SOURCE
 RMS .OHMM             .4:   RESISTIVITY MUD SAMPLE
 MST .F                69:   MUD SAMPLE TEMPERATURE
 RMF .OHMM            .36:   RESISTIVITY MUD FILTRATE SAMPLE
 MFST.F                72:   MUD FILTRATE SAMPLE TEMPERATURE
 RMC .OHMM            .56:   RESISTIVITY MUD CAKE
 MCST.F                73:   MUD CAKE SAMPLE TEMPERATURE
 MFSS.               MEAS:   MUD FILTRATE SAMPLE SOURCE
 RMB .OHMM            .35:   RESISTIVITY MUD AT BHT
 BHT .F                79:   BOTTOM HOLE TEMPERATURE
 TCS .HRS               2:   TIME CURCULATED STOPPED
 MRT .F                79:   MAXIMUM RECORDED TEMPERATURE
 LUN .               3006:   LOGGING UNIT NUMBER
 LUL .              CASP.:   LOGGING UNIT LOCATION
 ENGI.             MILLER:   RECORDING ENGINEER
 WITN.           MCGINLEY:   WITNESSED BY
 CLNT.            A2DTECH:   CLIENT CODE
 ORIG.           5" PRINT:   ORIGIN OF DATA
 UWI .       490251063400:   UNIQUE WELL ID
 DICO. A2D Technologies, Inc.:   DIGITIZING COMPANY
~OTHER INFORMATION
~A   DEPT     RHOB       DPHI         GRD      CALD       CORR         SN        SPR        ILD   
# ...
  190.5000     2.4484     0.1166    77.1403     7.7069     0.0370     7.4540   -64.8189     6.1578
  191.0000     2.4523     0.1158    78.1603     7.7357     0.0365     7.5128   -64.7148     6.1488
  191.5000     2.4568     0.1142    79.2000     7.7644     0.0361     7.5711   -64.6113     6.1398
  192.0000     2.4607     0.1130    79.8013     7.7948     0.0369     7.5077   -64.5082     6.1308
  192.5000     2.4644     0.1119    80.1060     7.7916     0.0381     7.4441   -64.4051     6.1219
  193.0000     2.4682     0.1113    80.0997     7.7579     0.0393     7.3811   -64.3020     6.1129
  193.5000     2.4715     0.1128    80.1013     7.7235     0.0395     7.3185   -64.1989     6.1040
  194.0000     2.4681     0.1144    80.1012     7.7145     0.0379     7.2979   -64.0958     6.0951
  194.5000     2.4647     0.1160    80.0922     7.7214     0.0363     7.2978   -63.9926     6.0862
  195.0000     2.4613     0.1175    79.6071     7.7285     0.0347     7.3377   -63.8893     6.0773
  195.5000     2.4580     0.1186    78.4960     7.7357     0.0332     7.4646   -63.7875     6.0731
  196.0000     2.4546     0.1200    77.1766     7.7428     0.0316     7.5937   -63.7229     6.1696
  196.5000     2.4512     0.1215    74.5101     7.7500     0.0300     7.7250   -63.7439     6.2741
  197.0000     2.4478     0.1254    71.8163     7.7574     0.0284     7.8586   -63.7631     6.3803
  197.5000     2.4445     0.1279    70.2115     7.7644     0.0291     7.9945   -63.7827     6.4883
  198.0000     2.4444     0.1210    72.9273     7.7532     0.0308     8.0744   -63.8022     6.5981
  198.5000     2.4493     0.1161    76.5456     7.6568     0.0326     8.0297   -63.8217     6.7098
  199.0000     2.4589     0.1111    77.0444     7.5613     0.0344     7.9985   -63.8412     6.8234
  199.5000     2.4686     0.1088    75.5079     7.5167     0.0361     7.9673   -63.8607     6.9068
  200.0000     2.4725     0.1074    73.8869     7.4960     0.0365     7.9363   -63.8799     6.9068
  200.5000     2.4725     0.1069    73.5022     7.4756     0.0369     7.9054   -63.8993     6.8169
  201.0000     2.4724     0.1074    73.4981     7.4545     0.0373     7.8746   -63.9418     6.7572
  201.5000     2.4725     0.1082    73.5017     7.4498     0.0377     7.8439   -64.1266     6.6982
  202.0000     2.4681     0.1110    73.2905     7.4508     0.0380     7.8134   -64.3120     6.6396
  202.5000     2.4607     0.1137    71.9532     7.4905     0.0368     7.7830   -64.4975     6.5815
  203.0000     2.4532     0.1170    70.8703     7.5326     0.0355     7.7526   -64.6857     6.5239
  203.5000     2.4500     0.1222    70.9150     7.5749     0.0342     7.7224   -64.6385     6.4669
  204.0000     2.4530     0.1205    72.0317     7.5950     0.0346     7.7111   -64.5503     6.4103
  204.5000     2.4558     0.1189    74.6648     7.6032     0.0352     7.7118   -64.4613     6.3586
  205.0000     2.4583     0.1174    77.3126     7.6112     0.0358     7.8271   -64.3729     6.3586
  205.5000     2.4568     0.1182    78.0911     7.6192     0.0369     7.9599   -64.2846     6.4938
  206.0000     2.4549     0.1169    77.8807     7.6272     0.0399     8.0949   -64.1962     6.6002
  206.5000     2.4664     0.1068    75.8483     7.6354     0.0428     8.2323   -64.1078     6.7084
  207.0000     2.4807     0.0968    72.3660     7.6434     0.0458     8.3719   -64.0189     6.8184
  207.5000     2.4920     0.0922    70.0188     7.6449     0.0473     8.5139   -63.9271     6.9301
  208.0000     2.4930     0.0984    69.9058     7.6103     0.0420     8.6583   -64.0246     7.0437
  208.5000     2.4845     0.1037    69.7482     7.5764     0.0368     8.7704   -64.1547     7.1592
  209.0000     2.4765     0.1086    69.8340     7.5584     0.0361     8.7704   -64.2855     7.2765
  209.5000     2.4735     0.1094    70.9362     7.6062     0.0361     8.7704   -64.4158     7.3957
  210.0000     2.4708     0.1102    72.1844     7.6481     0.0361     8.7704   -64.5461     7.5022
  210.5000     2.4684     0.1110    73.1197     7.6692     0.0361     8.7704   -64.6768     7.3902
  211.0000     2.4671     0.1117    73.1017     7.6580     0.0361     8.7704   -64.8068     7.2679
  211.5000     2.4656     0.1124    73.1020     7.6320     0.0362     8.7704   -64.9033     7.1477
  212.0000     2.4642     0.1130    72.9469     7.5372     0.0367     8.5577   -64.8450     7.0295
  212.5000     2.4628     0.1135    72.5760     7.3663     0.0373     8.3417   -64.7897     6.9132
  213.0000     2.4619     0.1138    71.8301     7.2977     0.0379     8.1312   -64.7347     6.7989
  213.5000     2.4645     0.1123    72.0848     7.2543     0.0403     7.9260   -64.6798     6.6864
  214.0000     2.4671     0.1104    74.4068     7.2112     0.0454     7.8435   -64.6249     6.5758
  214.5000     2.4691     0.1086    76.7337     7.1731     0.0504     7.8260   -64.5697     6.4671
  215.0000     2.4673     0.1099    77.0912     7.2281     0.0571     7.8086   -64.5162     6.3601
  215.5000     2.4655     0.1110    78.0125     7.3297     0.0639     7.7830   -64.4643     6.2549
  216.0000     2.4665     0.1118    79.3807     7.4511     0.0711     7.8128   -64.4003     6.1857
  216.5000     2.4677     0.1112    80.7551     7.5751     0.0786     7.8693   -64.3418     6.3285
  217.0000     2.4704     0.1097    80.2325     7.6018     0.0859     7.9262   -63.9558     6.4837
  217.5000     2.4759     0.1043    78.3061     7.5910     0.0848     7.9836   -63.4020     6.6428
  218.0000     2.4814     0.0990    75.5934     7.5795     0.0833     8.0414   -62.8423     6.8058
  218.5000     2.4854     0.1018    72.8952     7.5703     0.0819     8.0995   -62.2590     6.9727
  219.0000     2.4801     0.1070    70.5233     7.5747     0.0804     8.1581   -62.1946     7.0998
  219.5000     2.4782     0.0942    71.1428     7.5788     0.0788     8.2171   -62.2808     7.0910
  220.0000     2.4881     0.0962    74.6115     7.5829     0.0709     8.2766   -62.8108     7.0827
  220.5000     2.4810     0.1030    76.7203     7.5869     0.0561     8.3365   -63.6528     7.0744
  221.0000     2.4757     0.1057    77.5671     7.5891     0.0423     8.3968   -64.3301     7.0661
  221.5000     2.4768     0.1014    78.4302     7.5842     0.0401     8.4576   -64.3159     7.0578
  222.0000     2.4809     0.1016    79.0504     7.5795     0.0400     8.5324   -64.3144     7.0495
  222.5000     2.4835     0.1017    79.5936     7.5747     0.0401     8.5077   -64.3141     7.0413
  223.0000     2.4835     0.1017    78.8386     7.5706     0.0401     8.4664   -64.3141     7.0352
  223.5000     2.4835     0.1015    77.6359     7.6013     0.0401     8.4252   -64.3141     7.0526
  224.0000     2.4835     0.1021    77.2194     7.6354     0.0401     8.3842   -64.3141     7.0699
  224.5000     2.4817     0.1051    77.8149     7.6694     0.0401     8.3435   -64.3141     7.0873
  225.0000     2.4791     0.1041    78.7152     7.7033     0.0401     8.3030   -64.3141     7.0995
  225.5000     2.4794     0.1034    79.6101     7.7373     0.0401     8.2627   -64.3141     7.0375
  226.0000     2.4788     0.1034    80.0920     7.7713     0.0401     8.2226   -64.3141     6.9899
  226.5000     2.4746     0.1068    78.9414     7.8051     0.0401     8.1826   -64.3141     6.9425
  227.0000     2.4695     0.1113    77.8419     7.8306     0.0401     8.1429   -64.3141     6.8954
  227.5000     2.4679     0.1120    77.5043     7.8301     0.0401     8.1033   -64.3141     6.8487
  228.0000     2.4704     0.1110    77.2803     7.8301     0.0401     8.0640   -64.3141     6.8022
  228.5000     2.4688     0.1113    77.1108     7.8262     0.0403     8.0248   -64.3141     6.7561
  229.0000     2.4666     0.1101    78.6052     7.7957     0.0407     7.9858   -64.3141     6.7103
  229.5000     2.4694     0.1074    80.2509     7.7680     0.0411     7.9467   -64.3139     6.6648
  230.0000     2.4697     0.1119    81.8349     7.7601     0.0415     7.9275   -64.3132     6.6197
  230.5000     2.4684     0.1147    81.1745     7.7517     0.0418     7.9678   -64.3188     6.5748
