~VERSION INFORMATION
 VERS.                2.0:   CWLS LOG ASCII STANDARD - VERSION 2.0
 WRAP.                 NO:   ONE LINE PER DEPTH STEP
~WELL INFORMATION
#MNEM.UNIT      DATA TYPE    INFORMATION
#----------   ------------   ------------------------------
 STRT.F           26.0000:   START DEPTH
 STOP.F          655.0000:   STOP DEPTH
 STEP.F            0.5000:   STEP LENGTH
 NULL.          -999.2500:   NO VALUE
 COMP. FENIX & SCISSON, INCORPORATED:   COMPANY
 WELL. RES 3 TEAPOT DOM #22S-11:   WELL
 FLD .             TEAPOT:   FIELD
 LOC .      S11 T38N R78W:   LOCATION
 CNTY.            NATRONA:   COUNTY
 STAT.            WYOMING:   STATE
 CTRY. UNITED STATES OF AMERICA:   COUNTRY
 SRVC.            Unknown:   SERVICE COMPANY
 DATE.        03-FEB-1978:   LOGDATE
 API .       490251057200:   API NUMBER
~CURVE INFORMATION
#MNEM.UNIT       API CODE    CURVE DESCRIPTION
#----------   ------------   ------------------------------
 DEPT.F                  :   
 ILD .OHMM   05 120 46 00:   INDUCTION LOG DEEP
 SN  .OHMM   05 040 16 00:   SHORT NORMAL 16"
 SPR .MV     05 010 01 00:   SPONTANEOUS POTENTIAL.
 CALD.IN     45 280 60 00:   CALIPER FROM DENSITY LOG
 CORR.G/C3   45 356 01 00:   DENSITY CORRECTION
 DPHI.DEC    45 890 12 00:   DENSITY POROSITY SANDSTONE
 GRD .GAPI   45 310 01 00:   GAMMA RAY FROM DENSITY LOG
 RHOB.G/C3   45 350 01 00:   BULK DENSITY
~PARAMETER INFORMATION
#MNEM.UNIT          VALUE    DESCRIPTION
#----------   ------------   ------------------------------
 PD  .                 GL:   PERMANENT DATUM
 EPD .F              5168:   ELEVATION PERMANENT DATUM
 LMF .                 KB:   LOG MEASURED FROM
 DMF .                 KB:   DRILLING MEASURED FROM
 EKB .F              5171:   KELLING BUSHING
 EGL .F              5168:   GROUND LEVEL
 DATE.        03-FEB-1978:   RUN DATE
 RUN .                  1:   RUN NUMBER
 DD  .F               650:   DEPTH DRILLER
 DL  .F               655:   DEPTH LOGGER
 BLI .F               655:   BOTTOM LOG INTERVAL
 TLI .F                40:   TOP LOG INTERVAL
 CS  .IN            8.625:   CASING SIZE
 CBD .F                39:   CASING BOTTOM DRILLER
 CBL .F                40:   CASING BOTTOM LOGGER
 BS  .IN            7.875:   BIT SIZE
 BSD .F               650:   BIT SIZE AT DEPTH
 DFT .                KCL:   DRILLING FLUID TYPE
 DFD .                8.6:   DRILLING FLUID DENSITY
 DFV .                 31:   DRILLING FLUID VISCOSITY
 DFPH.                9.5:   DRILLING FLUID PH
 DFL .               12.8:   DRILLING FLUID LOSS
 MSS .           FLOWLINE:   MUD SAMPLE SOURCE
 RMS .OHMM           0.38:   RESISTIVITY MUD SAMPLE
 MST .F                62:   MUD SAMPLE TEMPERATURE
 RMF .OHMM            4.4:   RESISTIVITY MUD FILTRATE SAMPLE
 MFST.F                62:   MUD FILTRATE SAMPLE TEMPERATURE
 RMC .OHMM            0.8:   RESISTIVITY MUD CAKE
 MCST.F                62:   MUD CAKE SAMPLE TEMPERATURE
 MFSS.               MEAS:   MUD FILTRATE SAMPLE SOURCE
 RMB .OHMM           0.35:   RESISTIVITY MUD AT BHT
 BHT .F                68:   BOTTOM HOLE TEMPERATURE
 TCS .HRS               1:   TIME CURCULATED STOPPED
 MRT .F                68:   MAXIMUM RECORDED TEMPERATURE
 LUN .               2958:   LOGGING UNIT NUMBER
 LUL .             CASPER:   LOGGING UNIT LOCATION
 ENGI.           REYNOLDS:   RECORDING ENGINEER
 WITN.         HARRINGTON:   WITNESSED BY
 CLNT.            A2DTECH:   CLIENT CODE
 ORIG.           5" PRINT:   ORIGIN OF DATA
 UWI .       490251057200:   UNIQUE WELL ID
 DICO. A2D Technologies, Inc.:   DIGITIZING COMPANY
~OTHER INFORMATION
~A   DEPT      ILD         SN        SPR       CALD       CORR       DPHI         GRD      RHOB   
# ...
  593.0000    12.1209    10.2246   -60.2463     7.9216     0.0343     0.1206    88.1658     2.4582
  593.5000    12.0318    10.2204   -60.2566     7.9204     0.0282     0.1194    88.1603     2.4567
  594.0000    12.0265    10.2163   -60.4188     7.9192     0.0251     0.1197    88.0053     2.4503
  594.5000    12.0213    10.2834   -60.4315     7.9180     0.0355     0.1381    86.7961     2.4311
  595.0000    11.8502    10.3508   -60.5935     7.9167     0.0414     0.1366    85.8882     2.4213
  595.5000    11.7558    10.3464   -60.6038     7.9154     0.0442     0.1272    85.8838     2.4325
  596.0000    11.5142    10.3414   -60.7648     7.9144     0.0456     0.1225    85.7288     2.4460
  596.5000    11.4295    10.3372   -60.7761     7.9132     0.0440     0.1204    85.1220     2.4504
  597.0000    11.3455    10.3330   -60.7860     7.9271     0.0439     0.1186    84.2130     2.4534
  597.5000    11.3405    10.2574   -60.7967     7.9410     0.0408     0.1171    82.2508     2.4579
  598.0000    11.3356    10.1824   -60.8073     7.9398     0.0377     0.1162    79.9874     2.4639
  598.5000    11.3306    10.1783   -60.8179     7.9386     0.0331     0.1162    84.9529     2.4697
  599.0000    11.4046    10.1363   -60.8285     7.9372     0.0286     0.1162    86.3039     2.4667
  599.5000    11.3195    10.1690   -60.8403     7.9360     0.0255     0.1180    86.9021     2.4614
  600.0000    11.1520    10.1653   -60.8162     7.9331     0.0254     0.1213    88.7048     2.4636
  600.5000    11.0560    10.0909   -60.6183     7.9202     0.0253     0.1243    92.0137     2.4604
  601.0000    10.9180    10.0868   -60.5675     7.9073     0.0237     0.1246    89.8998     2.4440
  601.5000    10.7623    10.0827   -60.5782     7.8945     0.0237     0.1234    84.3232     2.4349
  602.0000    10.6827    10.0785   -60.8275     7.8841     0.0251     0.1231    83.8681     2.4416
  602.5000    10.6039    10.0743   -60.9231     7.8676     0.0265     0.1244    90.1879     2.4471
  603.0000    10.5987    10.0567   -61.0668     7.8660     0.0264     0.1272    91.0882     2.4520
  603.5000    10.5936     9.9958   -61.2289     7.8647     0.0278     0.1299    91.2334     2.4549
  604.0000    10.5884     9.9918   -61.2382     7.8635     0.0278     0.1323    92.5844     2.4427
  604.5000    10.5825     9.9880   -61.2489     7.8669     0.0277     0.1332    92.2778     2.4346
  605.0000    10.5775     9.9838   -61.4116     7.8759     0.0291     0.1326    90.9180     2.4315
  605.5000    10.5725     9.9797   -61.5736     7.8897     0.0305     0.1306    88.5040     2.4299
  606.0000    10.5676     9.9755   -61.7360     7.8963     0.0320     0.1273    86.8430     2.4306
  606.5000    10.5626     9.9706   -61.9003     7.9173     0.0348     0.1243    86.2362     2.4336
  607.0000    10.4845     9.9665   -62.0624     7.9157     0.0348     0.1207    86.6836     2.4388
  607.5000    10.4794     9.9631   -62.2244     7.9297     0.0347     0.1174    86.6642     2.4447
  608.0000    10.4743     9.9585   -62.2348     7.9283     0.0346     0.1151    83.2100     2.4524
  608.5000    10.4692     9.9545   -62.0907     7.9269     0.0345     0.1126    86.5188     2.4626
  609.0000    10.4641     9.8816   -62.1032     7.9255     0.0345     0.1106    88.1711     2.4670
  609.5000    10.3866     9.8093   -61.9621     7.9242     0.0314     0.1127    89.2209     2.4610
  610.0000    10.3816     9.7360   -61.9727     7.9226     0.0284     0.1181    91.4756     2.4654
  610.5000    10.3045     9.6653   -62.1351     7.9364     0.0268     0.1236    94.9351     2.4564
  611.0000    10.2284     9.5663   -62.2992     7.9351     0.0282     0.1287    94.6265     2.4360
  611.5000    10.0824     9.4590   -62.3095     7.9338     0.0296     0.1278    91.9136     2.4292
  612.0000     9.9375     9.3892   -62.4716     7.9325     0.0311     0.1254    88.5956     2.4299
  612.5000     9.8641     9.3854   -62.7854     7.9463     0.0339     0.1230    87.9888     2.4366
  613.0000     9.6561     9.2523   -63.0992     7.9449     0.0354     0.1204    87.6833     2.4463
  613.5000     9.5184     9.1846   -63.2612     7.9282     0.0353     0.1183    88.8837     2.4560
  614.0000     9.3177     9.1174   -63.5751     7.9269     0.0367     0.1201    89.1816     2.4589
  614.5000     9.2489     9.0147   -63.7598     7.9256     0.0366     0.1225    89.1762     2.4476
  615.0000     9.1170     8.8522   -64.0535     7.9242     0.0351     0.1223    89.3373     2.4431
  615.5000     9.0495     8.6136   -64.2155     7.9384     0.0320     0.1184    91.2748     2.4662
  616.0000     9.0451     8.4622   -64.3776     7.9519     0.0290     0.1172    92.1751     2.4745
  616.5000     9.0400     8.2556   -64.5397     7.9505     0.0274     0.1184    89.6094     2.4676
  617.0000     8.9732     7.9157   -64.5500     7.9492     0.0273     0.1190    87.2490     2.4661
  617.5000     7.9148     7.5897   -64.7120     7.9478     0.0272     0.1200    87.9440     2.4690
  618.0000     7.1780     7.2772   -64.8741     7.9614     0.0257     0.1263    96.3734     2.4735
  618.5000     6.6009     6.9241   -64.8847     7.9601     0.0256     0.1263    97.8920     2.4569
  619.0000     5.8223     6.4167   -64.5938     7.9588     0.0270     0.1287    98.7743     2.4462
  619.5000     5.1342     5.8202   -64.5761     7.9575     0.0284     0.1380   103.4375     2.4350
  620.0000     4.9580     5.4277   -64.3109     7.9561     0.0300     0.1474   110.2103     2.4214
  620.5000     5.1302     5.0970   -64.0178     7.9545     0.0358     0.1516   113.6697     2.4116
  621.0000     5.3460     5.0597   -63.7220     7.9532     0.0357     0.1477   111.4063     2.3988
  621.5000     5.6488     5.3094   -63.1279     7.9520     0.0266     0.1318   105.9803     2.4025
  622.0000     6.3098     5.8084   -62.6830     7.9658     0.0161     0.1231    93.0142     2.4287
  622.5000     7.1467     6.5064   -62.2381     7.9644     0.0340     0.1160    91.9655     2.4654
  623.0000     7.9830     7.7672   -61.9449     7.9628     0.0414     0.1108    94.5203     2.4736
  623.5000     8.8555     8.2645   -61.6517     7.9615     0.0457     0.1097    96.3232     2.4735
  624.0000     9.1007     8.5529   -61.5103     7.9602     0.0457     0.1067    94.8128     2.4997
  624.5000     9.0324     8.7293   -61.3689     7.9625     0.0441     0.1043    92.0976     2.5072
  625.0000     9.0281     8.8478   -61.2274     7.9728     0.0410     0.1023    91.3402     2.5026
  625.5000     9.1501     8.9058   -61.0880     7.9865     0.0380     0.1014    90.8840     2.5003
  626.0000     9.2095     8.9022   -61.0989     7.9852     0.0349     0.1026    92.2127     2.5070
  626.5000     9.2704     9.0230   -61.1093     7.9838     0.0319     0.1048    97.8019     2.5038
  627.0000     9.3945     9.0913   -61.1199     7.9825     0.0258     0.1077    98.7022     2.4761
  627.5000     9.4556     9.3331   -61.1324     7.9809     0.0198     0.1108    95.6847     2.4701
  628.0000     9.6184     9.5256   -61.1427     7.9646     0.0137     0.1117    94.7767     2.4730
  628.5000     9.7523     9.6549   -61.1530     7.9569     0.0152     0.1099    94.3206     2.4752
  629.0000     9.9114     9.7192   -61.1633     7.9467     0.0210     0.1075    94.0150     2.4646
  629.5000     9.9770     9.7829   -61.1736     7.9454     0.0271     0.1069    97.4934     2.4556
  630.0000    10.1823     9.8371   -61.1836     7.9438     0.0328     0.1076    98.6738     2.4788
  630.5000  -999.2500  -999.2500  -999.2500     7.9427     0.0313     0.1091    99.1224     2.5039
  631.0000  -999.2500  -999.2500  -999.2500     7.9413     0.0222     0.1112    99.2686     2.4951
  631.5000  -999.2500  -999.2500  -999.2500     7.9398     0.0222     0.1130    97.3053     2.4748
  632.0000  -999.2500  -999.2500  -999.2500     7.9385     0.0251     0.1137    87.2106     2.4643
  632.5000  -999.2500  -999.2500  -999.2500     7.9372     0.0265     0.1131    85.0978     2.4845
  633.0000  -999.2500  -999.2500  -999.2500     7.9359     0.0264     0.1125    89.0334     2.4822
