~VERSION INFORMATION
 VERS.                2.0:   CWLS LOG ASCII STANDARD - VERSION 2.0
 WRAP.                 NO:   ONE LINE PER DEPTH STEP
~WELL INFORMATION
#MNEM.UNIT      DATA TYPE    INFORMATION
#----------   ------------   ------------------------------
 STRT.F           12.0000:   START DEPTH
 STOP.F          660.0000:   STOP DEPTH
 STEP.F            0.5000:   STEP LENGTH
 NULL.          -999.2500:   NO VALUE
 COMP. LAWRENCE/ALLISON INC:   COMPANY
 WELL.    24-11 SX #11-11:   WELL
 FLD .             TEAPOT:   FIELD
 LOC .      S11 T38N R78W:   LOCATION
 CNTY.            NATRONA:   COUNTY
 STAT.            WYOMING:   STATE
 CTRY. UNITED STATES OF AMERICA:   COUNTRY
 SRVC.           Gearhart:   SERVICE COMPANY
 DATE.        21-JUN-1986:   LOGDATE
 API .       490251109900:   API NUMBER
~CURVE INFORMATION
#MNEM.UNIT       API CODE    CURVE DESCRIPTION
#----------   ------------   ------------------------------
 DEPT.F                  :   
 GRR .GAPI   07 310 01 00:   GAMMA RAY FROM RES. LOG.
 ILM .OHMM   07 120 44 00:   INDUCTION LOG MEDIUM
 ILD .OHMM   07 120 46 00:   INDUCTION LOG DEEP
~PARAMETER INFORMATION
#MNEM.UNIT          VALUE    DESCRIPTION
#----------   ------------   ------------------------------
 PD  .                 GL:   PERMANENT DATUM
 EPD .F              5157:   ELEVATION PERMANENT DATUM
 LMF .                 KB:   LOG MEASURED FROM
 DAPD.F                 5:   FEET ABOVE PERMANENT DATUM
 DMF .                 KB:   DRILLING MEASURED FROM
 EKB .F              5162:   KELLING BUSHING
 EGL .F              5157:   GROUND LEVEL
 DATE.            6-21-86:   RUN DATE
 RUN .                  1:   RUN NUMBER
 DD  .F               665:   DEPTH DRILLER
 DL  .F               667:   DEPTH LOGGER
 BLI .F               658:   BOTTOM LOG INTERVAL
 CS  .IN            8.625:   CASING SIZE
 CBD .F                47:   CASING BOTTOM DRILLER
 CBL .F                48:   CASING BOTTOM LOGGER
 BS  .IN            7.875:   BIT SIZE
 BSD .F               665:   BIT SIZE AT DEPTH
 DFT .                AIR:   DRILLING FLUID TYPE
 TCS .HRS            1130:   TIME CURCULATED STOPPED
 TLAB.HRS            1315:   TIME LOGGER AT BOTTOM
 MRT .F                67:   MAXIMUM RECORDED TEMPERATURE
 LUN .               7609:   LOGGING UNIT NUMBER
 LUL .           GILLETTE:   LOGGING UNIT LOCATION
 ENGI.            WANGLER:   RECORDING ENGINEER
 WITN.           JENNINGS:   WITNESSED BY
 CLNT.            A2DTECH:   CLIENT CODE
 ORIG.       2", 5" PRINT:   ORIGIN OF DATA
 UWI .       490251109900:   UNIQUE WELL ID
 DICO. A2D Technologies, Inc.:   DIGITIZING COMPANY
~OTHER INFORMATION
~A   DEPT       GRR       ILM        ILD   
# ...
  194.0000   109.7991     9.0539     8.8632
  194.5000   110.2215     9.0539     8.8570
  195.0000   112.3497     9.0539     8.8507
  195.5000   114.4253     9.0539     8.8445
  196.0000   113.6786     9.0539     8.8383
  196.5000   112.5229     9.0539     8.8320
  197.0000   111.3836     9.0539     8.8258
  197.5000   109.3676     9.0539     8.8196
  198.0000   107.0209     9.0537     8.8137
  198.5000   105.0186     9.0547     8.8069
  199.0000   108.2602     9.0580     8.7667
  199.5000   113.5474     8.8702     8.6400
  200.0000   120.4733     8.7039     8.5153
  200.5000   119.9047     8.5584     8.4685
  201.0000   115.5904     8.5465     8.4542
  201.5000   111.1384     8.5335     8.4399
  202.0000   111.3346     8.5205     8.4256
  202.5000   116.2360     8.5075     8.4114
  203.0000   121.0101     8.4945     8.3971
  203.5000   120.9720     8.4815     8.3829
  204.0000   120.6965     8.4685     8.3688
  204.5000   120.4402     8.4556     8.3546
  205.0000   120.1876     8.4427     8.3405
  205.5000   119.9867     8.4298     8.3264
  206.0000   120.6241     8.4170     8.3124
  206.5000   122.6767     8.4041     8.2983
  207.0000   124.8759     8.3913     8.2843
  207.5000   127.1770     8.3785     8.2701
  208.0000   127.6627     8.3657     8.2563
  208.5000   125.0676     8.3528     8.2433
  209.0000   122.2249     8.3400     8.0146
  209.5000   120.3322     8.3203     8.0660
  210.0000   121.2208     8.4062     8.1413
  210.5000   122.6920     8.5774     8.2458
  211.0000   124.2310     8.7533     8.3517
  211.5000   123.5387     8.8265     8.4588
  212.0000   118.9686     8.8596     8.5674
  212.5000   114.9338     8.8927     8.6675
  213.0000   114.5225     8.9261     8.7500
  213.5000   116.3976     8.9595     8.8333
  214.0000   117.7318     8.9931     8.9173
  214.5000   117.0043     9.0267     8.9693
  215.0000   115.1500     9.0539     8.8780
  215.5000   113.3041     9.0218     8.8019
  216.0000   111.4080     8.9951     8.7264
  216.5000   110.3358     8.9693     8.6518
  217.0000   111.0369     8.8815     8.5812
  217.5000   114.4010     8.7769     8.5125
  218.0000   117.8691     8.6736     8.4441
  218.5000   119.0817     8.5715     8.3763
  219.0000   116.8399     8.4706     8.3090
  219.5000   114.6816     8.3709     8.2423
  220.0000   115.0150     8.2724     8.1761
  220.5000   118.5684     8.1664     8.1105
  221.0000   121.2615     8.1078     8.0454
  221.5000   123.1170     8.0441     7.9881
  222.0000   121.5713     7.9808     7.9376
  222.5000   119.7029     7.9181     7.8596
  223.0000   117.8487     7.8558     7.7991
  223.5000   116.2136     7.7922     7.9582
  224.0000   115.9783     7.8722     8.1248
  224.5000   117.0959     7.9555     8.2949
  225.0000   119.1542     8.0397     8.4445
  225.5000   120.3095     8.1248     8.5596
  226.0000   117.7186     8.2107     8.6762
  226.5000   112.6841     8.2433     8.7944
  227.0000   108.6927     8.6553     8.9142
  227.5000   110.2514     8.8799     9.0357
  228.0000   112.7285     9.0732     9.1412
  228.5000   113.3448     9.2354     9.2449
  229.0000   113.6901     9.3824     9.3497
  229.5000   114.0244     9.5317     9.4886
  230.0000   113.8968     9.6834     9.3824
  230.5000   112.5811     9.8375     9.2312
  231.0000   107.8835     9.9441     9.0826
  231.5000   102.9911     9.9003     8.9362
  232.0000   102.1663     9.8613     8.7922
  232.5000   106.9058     9.7499     8.6508
  233.0000   111.2512     9.6151     8.5113
  233.5000   113.7826     9.4820     8.4785
  234.0000   116.2674     9.4000     8.4785
  234.5000   119.9834     9.8257     8.4786
  235.0000   121.8631    10.7064     8.4785
  235.5000   119.5706    11.6662     8.4789
  236.0000   117.3316    12.6904     8.4773
  236.5000   116.2236    12.9376     8.5795
  237.0000   115.0545    12.8103     8.6515
  237.5000   113.8931    12.0344     8.7241
  238.0000   114.1776    10.9063     8.7973
  238.5000   116.4160     9.8893     8.8712
  239.0000   118.6016     9.2774     8.9456
  239.5000   118.8362     9.2253     9.0829
  240.0000   115.9049     9.4855     9.2518
  240.5000   113.0211     9.6648     9.4238
  241.0000   110.8150     9.8475     9.5780
  241.5000   109.5124    10.0336     9.7524
  242.0000   108.5378    10.2232     9.9454
  242.5000   108.5628    10.4166    10.1423
  243.0000   108.4637    10.6134    10.3430
  243.5000   100.7700    10.8200    10.5477
  244.0000    94.6598    10.9385    10.7568
  244.5000    90.3317    11.0940    10.9712
  245.0000    93.2176    11.2515    11.1898
  245.5000    96.6557    11.4115    11.4129
  246.0000    98.5072    11.5736    11.6403
  246.5000    99.8759    11.7381    11.8126
  247.0000   100.5528    11.9048    11.9063
  247.5000   101.2392    12.0742    12.0006
  248.0000   101.8959    12.2462    12.0957
  248.5000   103.6125    12.3401    12.1916
  249.0000   105.4408    12.3371    12.2231
  249.5000   105.4466    12.4545    12.1180
  250.0000   103.3648    12.2377    12.0364
  250.5000    98.9313    12.0940    11.9553
  251.0000    95.8506    11.9519    11.8840
  251.5000    96.9710    11.7715    11.7880
  252.0000    99.0497    11.7730    11.6840
  252.5000   100.7570    11.7730    11.5531
  253.0000    99.7428    11.7730    11.5588
  253.5000    97.9382    11.7729    11.5722
  254.0000    96.9698    11.7723    11.5855
  254.5000    96.6140    11.8036    11.5989
  255.0000    96.2713    11.8435    11.6123
  255.5000    95.9274    11.8840    11.6257
  256.0000    95.5602    11.8522    11.6390
  256.5000    96.3345    11.8119    11.6525
  257.0000    97.3346    11.7730    11.6642
  257.5000    99.2278    11.9727    11.5521
  258.0000   101.2791    12.2229    11.4434
  258.5000   103.3084    12.4783    11.3357
  259.0000   103.4866    12.5737    11.2290
  259.5000   101.1639    12.5702    11.1288
  260.0000    98.8704    12.5765    11.0475
  260.5000    96.5684    11.9482    10.9529
  261.0000    94.2756    11.5360    10.7389
  261.5000    93.0472    11.1388    10.4715
  262.0000    94.4061    10.7556    10.2108
  262.5000    96.2854    10.4216    10.1028
  263.0000    98.1961    10.3445    10.0433
  263.5000   100.1144    10.2749     9.9841
  264.0000   102.0220    10.2058     9.9253
  264.5000   103.3779    10.1371     9.8668
  265.0000   100.7156    10.0688     9.8087
  265.5000    98.0466    10.0011     9.7509
  266.0000    98.6877     9.9338     9.6934
  266.5000   100.7601     9.8669     9.6364
  267.0000   101.9456     9.7567     9.5796
  267.5000   100.0505     9.6344     9.5231
  268.0000    98.3497     9.4886     9.4677
  268.5000   100.1925     9.5166     9.3123
  269.0000   102.5886     9.5520     9.3463
  269.5000   104.8016     9.5878     9.4035
  270.0000   105.2965     9.6237     9.4611
  270.5000   104.2889     9.6597     9.5189
  271.0000   102.0073     9.6958     9.5772
  271.5000    99.5120     9.7321     9.6358
  272.0000    97.1413     9.7593     9.6676
  272.5000    96.0487     9.6226     9.4516
  273.0000    95.6318     9.4919     9.3110
  273.5000    98.2095     9.3457     9.0811
  274.0000   101.3837     9.1424     8.8679
  274.5000   104.5527     8.9451     8.6621
  275.0000   106.9082     8.7520     8.4802
  275.5000   106.6871     8.5631     8.3290
  276.0000   105.8958     8.3783     8.1787
  276.5000   103.8160     8.1975     8.0311
  277.0000   101.3770     7.9398     7.8880
  277.5000   101.9675     7.9512     7.7167
  278.0000   103.2531     7.9725     7.7716
  278.5000   105.9880     7.9938     7.8275
  279.0000   108.8023     8.0152     7.8838
  279.5000   109.7200     8.0367     7.9405
  280.0000   108.6645     8.0583     7.9975
  280.5000   107.1866     8.0798     8.0550
  281.0000   107.4556     8.1015     8.1370
  281.5000   108.9728     8.1232     8.2570
  282.0000   111.0290     8.1450     8.3791
  282.5000   113.1333     8.1664     8.5030
  283.0000   112.8349     8.2650     8.6286
  283.5000   109.9322     8.3633     8.7562
  284.0000   105.7767     8.4614     8.8329
  284.5000   100.3972     8.5584     8.8990
