~VERSION INFORMATION
 VERS.                2.0:   CWLS LOG ASCII STANDARD - VERSION 2.0
 WRAP.                 NO:   ONE LINE PER DEPTH STEP
~WELL INFORMATION
#MNEM.UNIT      DATA TYPE    INFORMATION
#----------   ------------   ------------------------------
 STRT.F            2.0000:   START DEPTH
 STOP.F          508.0000:   STOP DEPTH
 STEP.F            0.1000:   STEP LENGTH
 NULL.          -999.2500:   NO VALUE
 COMP. LAWRENCE/ALLISON INC:   COMPANY
 WELL.      48-41 SX #3-3:   WELL
 FLD .             TEAPOT:   FIELD
 LOC .       S3 T38N R78W:   LOCATION
 CNTY.            NATRONA:   COUNTY
 STAT.            WYOMING:   STATE
 CTRY. UNITED STATES OF AMERICA:   COUNTRY
 SRVC.           Gearhart:   SERVICE COMPANY
 DATE.        09-JUL-1988:   LOGDATE
 API .       490251123300:   API NUMBER
~CURVE INFORMATION
#MNEM.UNIT       API CODE    CURVE DESCRIPTION
#----------   ------------   ------------------------------
 DEPT.F                  :   
 GRR .GAPI   07 310 01 00:   GAMMA RAY
 RILD.OHMM   07 120 46 00:   INDUCTION LOG DEEP RESISTIVITY
 RILM.OHMM   07 120 44 00:   INDUCTION LOG MEDIUM RESISTIVITY
~PARAMETER INFORMATION
#MNEM.UNIT          VALUE    DESCRIPTION
#----------   ------------   ------------------------------
 PD  .                 GL:   PERMANENT DATUM
 EPD .F              5200:   ELEVATION PERMANENT DATUM
 LMF .                 KB:   LOG MEASURED FROM
 DAPD.F                 5:   FEET ABOVE PERMANENT DATUM
 DMF .                 KB:   DRILLING MEASURED FROM
 EKB .F              5205:   KELLING BUSHING
 EDF .F              5204:   DRILLING FLOOR
 EGL .F              5200:   GROUND LEVEL
 DATE.        09-JUL-1988:   RUN DATE
 RUN .                  1:   RUN NUMBER
 DD  .F               510:   DEPTH DRILLER
 DL  .F               516:   DEPTH LOGGER
 BLI .F               508:   BOTTOM LOG INTERVAL
 TLI .F               1.5:   TOP LOG INTERVAL
 CS  .IN            9.625:   CASING SIZE
 CBD .F                40:   CASING BOTTOM DRILLER
 CBL .F                45:   CASING BOTTOM LOGGER
 BS  .IN             8.75:   BIT SIZE
 BSD .F               510:   BIT SIZE AT DEPTH
 DFT .                AIR:   DRILLING FLUID TYPE
 TCS .HRS            1800:   TIME CURCULATED STOPPED
 TLAB.HRS            1843:   TIME LOGGER AT BOTTOM
 MRT .F                70:   MAXIMUM RECORDED TEMPERATURE
 LUN .               7597:   LOGGING UNIT NUMBER
 LUL .           GILLETTE:   LOGGING UNIT LOCATION
 ENGI.         WEATHERMON:   RECORDING ENGINEER
 WITN.              FIVAS:   WITNESSED BY
 CLNT.            A2DTECH:   CLIENT CODE
 ORIG.           5" PRINT:   ORIGIN OF DATA
 UWI .       490251123300:   UNIQUE WELL ID
 DICO. A2D Technologies, Inc.:   DIGITIZING COMPANY
~OTHER INFORMATION
~A    DEPT      GRR      RILD       RILM   
# ...
  366.0000    98.5700    13.6442    13.1031
  366.1000    98.1507    13.6445    13.0216
  366.2000    97.8677    13.7182    13.0211
  366.3000    97.3310    13.7397    13.0206
  366.4000    97.0981    13.7822    13.0200
  366.5000    97.0317    13.8623    12.9946
  366.6000    96.8990    13.9320    12.9291
  366.7000    96.6486    13.9323    12.9285
  366.8000    96.4318    14.0079    12.9280
  366.9000    96.4333    14.0295    12.8728
  367.0000    96.1991    14.0733    12.8377
  367.1000    96.1339    14.1829    12.8372
  367.2000    96.0001    14.3364    12.8366
  367.3000    95.8347    14.4247    12.8361
  367.4000    95.8708    14.5034    12.8356
  367.5000    96.1388    14.7136    12.7805
  367.6000    96.6130    14.8773    12.7460
  367.7000    97.1174    14.9934    12.7454
  367.8000    97.4854    15.1678    12.7449
  367.9000    97.7382    15.3543    12.7444
  368.0000    98.0272    15.5231    12.7438
  368.1000    98.5593    15.7039    12.7433
  368.2000    98.7982    15.8868    12.7428
  368.3000    99.0510    16.1042    12.7935
  368.4000    99.3039    16.3857    12.9304
  368.5000    99.5566    16.6872    13.0086
  368.6000    99.8094    16.9647    13.2241
  368.7000   100.0749    17.1123    13.3964
  368.8000   100.3148    17.2669    13.5950
  368.9000   100.5676    17.5037    13.8604
  369.0000   100.8204    17.8097    14.1832
  369.1000   100.9846    18.1359    14.5293
  369.2000   101.0243    18.4389    14.7711
  369.3000   101.2887    18.7620    15.0950
  369.4000   101.2899    19.0905    15.3972
  369.5000   101.2911    19.3841    15.6655
  369.6000   101.2923    19.6273    15.9676
  369.7000   101.2037    19.9853    16.4540
  369.8000   100.8739    20.2082    16.7293
  369.9000   100.0893    20.6253    17.2489
  370.0000    99.6079    21.1083    17.7978
  370.1000    98.9147    21.5107    18.3184
  370.2000    98.3023    21.7609    18.8351
  370.3000    97.6182    22.0234    19.2902
  370.4000    96.6130    22.3949    19.7244
  370.5000    95.5717    22.6864    20.0956
  370.6000    93.8752    23.0262    20.5135
  370.7000    92.1153    23.4291    20.9466
  370.8000    90.2130    23.8621    21.3115
  370.9000    88.3860    24.4381    21.6948
  371.0000    86.8774    24.7135    22.0612
  371.1000    85.3225    25.0014    22.5469
  371.2000    84.3484    25.2924    22.9964
  371.3000    83.3433    25.5868    23.3972
  371.4000    82.1945    25.8587    23.8047
  371.5000    81.1249    26.0130    24.2308
  371.6000    80.3714    26.3076    24.6421
  371.7000    79.5982    26.6141    24.9598
  371.8000    78.6193    26.9240    25.3335
  371.9000    77.8091    27.2374    25.7751
  372.0000    77.0555    27.5542    26.2239
  372.1000    76.2073    27.8821    26.6910
  372.2000    75.2030    28.0404    27.3008
  372.3000    74.1756    28.2034    27.6867
  372.4000    73.6846    28.3674    28.1019
  372.5000    73.9667    28.5954    28.6555
  372.6000    74.4710    28.8975    29.2918
  372.7000    75.0713    29.0683    29.8110
  372.8000    75.7815    29.2343    29.9795
  372.9000    76.2944    29.5379    30.4268
  373.0000    76.7902    29.7806    30.7481
  373.1000    77.2946    29.9536    30.9249
  373.2000    77.7990    30.1276    31.1027
  373.3000    78.3034    30.3050    31.2839
  373.4000    78.7608    30.4788    31.4615
  373.5000    79.0166    30.6560    31.4987
  373.6000    78.7692    30.7292    31.6048
  373.7000    78.5188    30.8688    31.7150
  373.8000    78.2685    31.1933    31.7486
  373.9000    78.0181    31.3762    31.9327
  374.0000    77.7677    31.3766    32.1148
  374.1000    77.5155    31.5212    32.1519
  374.2000    77.2669    31.5956    32.2611
  374.3000    77.0165    31.7410    32.3727
  374.4000    76.7661    32.0375    32.3713
  374.5000    76.5157    32.0380    32.3700
  374.6000    76.2654    32.2235    32.3687
  374.7000    76.0145    32.4108    32.3673
  374.8000    75.7646    32.4865    32.4782
  374.9000    75.5143    32.5621    32.5895
  375.0000    75.2638    32.7512    32.5881
  375.1000    75.0135    32.9413    32.5868
  375.2000    74.7633    32.9418    32.5852
  375.3000    74.5129    32.9422    32.5841
  375.4000    74.2132    32.9427    32.5828
  375.5000    74.0122    32.9431    32.5814
  375.6000    73.7618    32.9436    32.5800
  375.7000    73.6133    32.9440    32.5777
  375.8000    73.5626    32.9445    32.3523
  375.9000    73.3122    32.6397    32.3512
  376.0000    73.0138    32.4919    32.3498
  376.1000    72.8115    32.4924    32.2724
  376.2000    72.5611    32.4928    32.0851
  376.3000    72.6202    32.4933    31.8991
  376.4000    73.1246    32.4937    31.6792
  376.5000    73.6289    32.4942    31.6781
  376.6000    74.2277    32.4946    31.6768
  376.7000    74.6377    32.4950    31.6754
  376.8000    74.9876    32.4955    31.6351
  376.9000    75.3449    32.4959    31.4543
  377.0000    75.7949    32.4964    31.4527
  377.1000    76.0520    32.4969    31.4517
  377.2000    76.6482    32.4567    31.4504
  377.3000    76.8550    32.2733    31.4490
  377.4000    77.1078    32.2738    31.4477
  377.5000    77.1493    32.2742    31.4428
  377.6000    76.8989    32.1594    31.2279
  377.7000    76.6430    32.0522    31.2268
  377.8000    76.0521    32.0526    31.2255
  377.9000    75.8462    32.0489    31.2242
  378.0000    75.4391    31.8322    31.1827
  378.1000    74.9371    31.8326    31.0062
  378.2000    74.4917    31.8331    31.0047
  378.3000    74.2348    31.8335    31.0036
  378.4000    73.6461    31.8339    31.0023
  378.5000    73.6471    31.8395    31.0010
  378.6000    73.4903    32.0563    30.9997
  378.7000    73.4557    32.0566    30.9985
  378.8000    73.7085    32.1742    30.9969
  378.9000    73.9613    32.2805    30.9959
  379.0000    74.2566    32.2809    30.9946
  379.1000    74.2576    32.2875    31.0710
  379.2000    74.2588    32.5064    31.2074
  379.3000    74.2600    32.5067    31.2061
  379.4000    74.2021    32.5072    31.2046
  379.5000    73.9607    32.4261    31.2035
  379.6000    73.9622    32.2836    31.2022
  379.7000    73.7526    32.2771    31.1224
  379.8000    73.6627    32.0616    30.9843
  379.9000    73.6639    31.9071    30.9760
  380.0000    73.6048    31.7236    30.7677
  380.1000    73.3647    31.5412    30.7666
  380.2000    73.3661    31.3599    30.2302
  380.3000    73.3671    31.1796    30.0549
  380.4000    73.3684    30.9722    29.9223
  380.5000    73.3695    30.8222    29.9135
  380.6000    73.4324    30.7591    29.7132
  380.7000    73.6737    30.6806    29.5676
  380.8000    73.6750    30.5475    29.5058
  380.9000    73.8891    30.5396    29.3533
  381.0000    74.3049    30.3374    29.0560
  381.1000    75.0352    30.3378    28.8874
  381.2000    76.0427    30.1121    28.6948
  381.3000    77.0242    29.8435    28.5534
  381.4000    77.6038    29.7148    28.3878
  381.5000    78.2472    29.7063    28.2232
  381.6000    78.8391    29.5105    28.1003
  381.7000    79.3435    29.3658    28.0904
  381.8000    79.8479    29.1970    27.9039
  381.9000    80.3522    29.0291    27.7657
  382.0000    80.9293    28.8622    27.6047
  382.1000    81.1457    28.7055    27.5169
  382.2000    81.2332    28.7060    27.4750
  382.3000    80.6584    28.5645    27.3246
  382.4000    79.4668    28.4003    27.3234
  382.5000    78.4765    28.2370    27.1873
  382.6000    77.6183    28.1169    27.1327
  382.7000    76.9694    28.1072    27.0596
  382.8000    76.2158    27.9235    26.9026
  382.9000    75.5788    27.9239    26.7561
  383.0000    75.0768    27.8176    26.7549
  383.1000    74.5912    27.6576    26.7540
  383.2000    74.3073    27.5406    26.6504
  383.3000    74.3083    27.5305    26.5671
  383.4000    74.6452    27.3512    26.5252
  383.5000    75.3851    27.3516    26.3815
  383.6000    76.3926    27.2467    26.3803
  383.7000    77.3825    27.0900    26.3794
  383.8000    78.2361    26.9343    26.2766
  383.9000    78.8939    26.7902    26.1242
  384.0000    79.4809    26.7907    26.0133
  384.1000    79.8665    26.7910    26.0013
