~VERSION INFORMATION
 VERS.                2.0:   CWLS LOG ASCII STANDARD - VERSION 2.0
 WRAP.                 NO:   ONE LINE PER DEPTH STEP
~WELL INFORMATION
#MNEM.UNIT      DATA TYPE    INFORMATION
#----------   ------------   ------------------------------
 STRT.F           80.5000:   START DEPTH
 STOP.F          768.0000:   STOP DEPTH
 STEP.F            0.5000:   STEP LENGTH
 NULL.          -999.2500:   NO VALUE
 COMP. U S NAVY/INTEX OIL CO:   COMPANY
 WELL. N.P.R. #3 #84-S-34:   WELL
 FLD .             TEAPOT:   FIELD
 LOC .      S34 T39N R78W:   LOCATION
 CNTY.            NATRONA:   COUNTY
 STAT.            WYOMING:   STATE
 CTRY. UNITED STATES OF AMERICA:   COUNTRY
 SRVC. Schlumberger Well Surveying Corp:   SERVICE COMPANY
 DATE.        17-FEB-1961:   LOGDATE
 API .       490250654000:   API NUMBER
~CURVE INFORMATION
#MNEM.UNIT       API CODE    CURVE DESCRIPTION
#----------   ------------   ------------------------------
 DEPT.F                  :   
 SPR .MV     05 010 01 00:   SPONTANEOUS POTENTIAL
 ASN .OHMM   05 041 16 00:   AMPLIFIED SHORT NORMAL 16"
 ILD .OHMM   05 120 46 00:   INDUCTION LOG DEEP
 CILD.MMHO   05 110 46 00:   CONDUCTIVITY INDUCTION LOG DEEP
 GR  .GAPI   30 310 01 00:   GAMMA RAY
~PARAMETER INFORMATION
#MNEM.UNIT          VALUE    DESCRIPTION
#----------   ------------   ------------------------------
 PD  .                 GL:   PERMANENT DATUM
 EPD .F              5083:   ELEVATION PERMANENT DATUM
 LMF .                 KB:   LOG MEASURED FROM
 DAPD.F                 4:   FEET ABOVE PERMANENT DATUM
 DMF .                 KB:   DRILLING MEASURED FROM
 EKB .F              5087:   KELLING BUSHING
 EGL .F              5083:   GROUND LEVEL
 DATE.            2-17-61:   RUN DATE
 RUN .                  1:   RUN NUMBER
 DD  .F               770:   DEPTH DRILLER
 DL  .F               769:   DEPTH LOGGER
 BLI .F               768:   BOTTOM LOG INTERVAL
 TLI .F                80:   TOP LOG INTERVAL
 CBD .F                12:   CASING BOTTOM DRILLER
 BS  .IN            7.875:   BIT SIZE
 BSD .F               770:   BIT SIZE AT DEPTH
 DFT .       GEL/OIL EMUL:   DRILLING FLUID TYPE
 DFD .                9.5:   DRILLING FLUID DENSITY
 DFV .                 50:   DRILLING FLUID VISCOSITY
 DFPH.                  8:   DRILLING FLUID PH
 DFL .                1.8:   DRILLING FLUID LOSS
 MSS .           FLOWLINE:   MUD SAMPLE SOURCE
 RMS .OHMM             .9:   RESISTIVITY MUD SAMPLE
 MST .F                69:   MUD SAMPLE TEMPERATURE
 RMF .OHMM            .54:   RESISTIVITY MUD FILTRATE SAMPLE
 MFST.F                69:   MUD FILTRATE SAMPLE TEMPERATURE
 RMC .OHMM           1.64:   RESISTIVITY MUD CAKE
 MCST.F                69:   MUD CAKE SAMPLE TEMPERATURE
 MFSS.                  M:   MUD FILTRATE SAMPLE SOURCE
 MCSS.                  M:   MUD CAKE SAMPLE SOURCE
 RMB .OHMM             .8:   RESISTIVITY MUD AT BHT
 BHT .F                78:   BOTTOM HOLE TEMPERATURE
 TCS .HRS               1:   TIME CURCULATED STOPPED
 MRT .F                78:   MAXIMUM RECORDED TEMPERATURE
 LUN .               2523:   LOGGING UNIT NUMBER
 LUL .               CSPR:   LOGGING UNIT LOCATION
 ENGI.             KNOBEL:   RECORDING ENGINEER
 WITN.          JORGENSEN:   WITNESSED BY
 CLNT.            A2DTECH:   CLIENT CODE
 ORIG.       2", 5" PRINT:   ORIGIN OF DATA
 UWI .       490250654000:   UNIQUE WELL ID
 DICO. A2D Technologies, Inc.:   DIGITIZING COMPANY
~OTHER INFORMATION
~A   DEPT      SPR        ASN        ILD       CILD         GR   
# ...
  568.5000   -20.0331     8.3366     6.2910   164.1014    66.1275
  569.0000   -19.9709     8.7075     6.5924   155.4075    68.4406
  569.5000   -19.9096     8.8802     6.8919   148.8244    64.4181
  570.0000   -19.8472     9.0019     7.1891   143.6782    62.3436
  570.5000   -19.7695     9.1187     7.2772   143.6782    68.0667
  571.0000   -20.3032     9.0939     7.0670   143.6782    68.9943
  571.5000   -20.9856     9.0695     6.8631   146.9374    64.8100
  572.0000   -20.2570     8.9158     6.6633   150.8300    66.8455
  572.5000   -20.8406     8.7476     6.4641   154.7226    69.0696
  573.0000   -21.4106     8.5777     6.2656   158.6152    72.7420
  573.5000   -20.8283     8.4079     6.0670   163.6668    67.8684
  574.0000   -20.1073     8.2462     5.8685   171.7922    69.0882
  574.5000   -20.5028     8.0994     5.6699   179.9176    63.8623
  575.0000   -20.8816     7.9534     5.4713   188.0424    62.1655
  575.5000   -20.6204     7.7279     5.2727   196.1729    66.3637
  576.0000   -19.9932     7.4687     5.0738   204.3072    73.7633
  576.5000   -19.9317     7.2092     4.8748   212.4453    71.8338
  577.0000   -19.8900     6.9507     4.6788   217.6756    68.6504
  577.5000   -19.8461     6.6910     4.5878   217.0904    65.4116
  578.0000   -19.8040     6.6305     4.7471   214.8024    62.1803
  578.5000   -19.8206     6.7432     4.8980   211.0849    58.9589
  579.0000   -20.0595     7.1062     5.0536   207.3707    57.2037
  579.5000   -20.2935     7.4921     5.2121   202.3306    62.5193
  580.0000   -20.5380     7.8771     5.4716   190.8661    58.9784
  580.5000   -20.5313     8.2606     5.8017   179.4046    64.2970
  581.0000   -20.4234     8.5276     6.1337   167.9415    68.2196
  581.5000   -20.3113     8.6017     6.4671   160.5810    62.5151
  582.0000   -20.2018     8.6801     6.6129   154.2612    58.3839
  582.5000   -20.2860     8.7579     6.7153   152.8148    56.8929
  583.0000   -20.3976     8.8536     6.8170   152.4856    62.5915
  583.5000   -20.5086     8.9589     6.9186   152.1565    65.6313
  584.0000   -20.5636     9.0640     7.0205   150.4542    62.1696
  584.5000   -20.1831     9.1689     7.1270   147.9759    59.2431
  585.0000   -19.7635     9.2584     7.1358   145.4976    59.4609
  585.5000   -20.6456     9.3288     7.1048   144.7231    63.1912
  586.0000   -20.9160     9.3991     7.0724   145.6298    64.7277
  586.5000   -20.0003     9.4403     7.0399   146.4792    60.1264
  587.0000   -20.1942     9.4507     7.0077   147.3287    57.6933
  587.5000   -20.3782     9.3866     6.9755   148.1781    74.1678
  588.0000   -19.6319     9.2429     6.9432   149.0275    83.2787
  588.5000   -20.3199     9.1817     6.9110   149.9478    80.8764
  589.0000   -20.4899     9.1433     6.8786   152.0934    77.8578
  589.5000   -20.2906     9.0741     6.8452   154.1275    74.8833
  590.0000   -20.0969     8.9996     6.8155   153.5136    72.4530
  590.5000   -19.8964     8.9964     6.7839   152.8553    70.0714
  591.0000   -19.8357     8.9971     6.7525   152.1970    67.6831
  591.5000   -22.5928     8.9957     6.6198   154.6686    65.2533
  592.0000   -21.3967     8.9325     6.4108   159.3708    63.0632
  592.5000   -19.8582     8.7907     6.2011   164.0730    67.6177
  593.0000   -20.7033     8.6315     5.9888   168.7752    76.5278
  593.5000   -21.4303     8.3584     5.8902   173.4774    82.9030
  594.0000   -21.4169     7.8975     5.8514   178.1609    78.9017
  594.5000   -21.2908     7.6110     5.8137   179.3025    74.8074
  595.0000   -20.1860     7.5896     5.7759   180.4527    70.7041
  595.5000   -19.1135     7.5671     5.7389   181.5978    66.5861
  596.0000   -20.1396     7.6143     5.7087   182.7386    62.8504
  596.5000   -21.1584     7.7540     5.4818   185.4154    70.8064
  597.0000   -21.1572     7.8919     5.2299   190.0235    74.3116
  597.5000   -20.7312     7.9897     4.9753   201.3419    71.6654
  598.0000   -20.9641     7.8545     4.7223   213.8151    67.5822
  598.5000   -20.3850     7.3530     4.4698   226.2883    64.4090
  599.0000   -20.2881     6.8632     4.3375   237.7220    70.5427
  599.5000   -20.6942     6.3754     4.3366   238.7670    66.4584
  600.0000   -21.8926     6.0123     4.3345   234.7693    68.6413
  600.5000   -21.0483     5.9925     4.3437   231.4525    65.7731
  601.0000   -20.0137     6.0839     4.5238   229.9022    61.7652
  601.5000   -20.8005     6.2319     4.6999   228.4858    67.8708
  602.0000   -20.3224     6.7686     4.9901   220.8568    69.7551
  602.5000   -20.2631     7.4490     5.3361   205.2769    64.7006
  603.0000   -20.3652     7.9985     5.6828   189.6970    62.3366
  603.5000   -20.4728     8.1390     6.0303   174.1170    59.7779
  604.0000   -20.5801     8.2911     6.3728   161.7346    66.9936
  604.5000   -20.6868     8.4433     6.5885   158.7670    65.3179
  605.0000   -20.7933     8.5219     6.3349   158.8558    65.1907
  605.5000   -20.9004     8.5641     6.0931   161.3082    63.5349
  606.0000   -21.0101     8.6053     5.8524   169.5910    67.6599
  606.5000   -20.9500     8.5674     5.6113   177.9331    70.5264
  607.0000   -20.8610     8.2451     5.3684   186.2609    67.3575
  607.5000   -20.7710     7.6362     5.2550   194.0834    64.8148
  608.0000   -20.6775     7.0371     5.2168   200.1045    63.1888
  608.5000   -20.4836     6.4855     5.1773   197.2077    70.5978
  609.0000   -19.8627     6.6735     5.2281   194.6062    68.9172
  609.5000   -19.4404     7.2127     5.2962   193.1899    76.6530
  610.0000   -20.0710     7.7443     5.3573   191.6848    72.0484
  610.5000   -20.7100     8.2515     5.6899   184.7802    68.1045
  611.0000   -20.0857     8.5730     6.0824   174.6521    70.1933
  611.5000   -19.1865     8.9121     6.4776   164.4969    67.6838
  612.0000   -19.6332     9.1147     6.8730   154.3868    70.9244
  612.5000   -20.1599     9.3299     7.2757   145.4453    66.7751
  613.0000   -20.6924     9.5413     7.3849   143.3069    63.5010
  613.5000   -20.8854     9.5843     7.4132   141.1685    63.6694
  614.0000   -20.9797     9.6205     7.4385   139.0301    60.7784
  614.5000   -20.9329     9.5948     7.4641   138.4535    57.9196
  615.0000   -20.6041     9.5942     7.4901   138.4535    56.9151
  615.5000   -20.2885     9.6940     7.5160   138.3046    61.2422
  616.0000   -19.9723     9.8207     7.5420   137.0063    59.5362
  616.5000   -19.6394     9.9530     7.5693   135.7079    67.2847
  617.0000   -19.8375     9.9816     7.5553   135.9248    65.9028
  617.5000   -20.2208    10.0024     7.5265   136.7903    63.0050
  618.0000   -20.6093     9.9662     7.4966   137.6559    68.3220
  618.5000   -20.6884     9.7762     7.4770   138.4535    63.9232
  619.0000   -20.4291     9.8819     7.6171   135.7748    63.8200
  619.5000   -20.1727     9.8825     7.7558   133.2911    60.7669
  620.0000   -19.9800     9.8679     7.8936   130.8073    59.1083
  620.5000   -20.0109    10.2822     8.0188   128.3236    63.0151
  621.0000   -20.0365    10.5445     7.9914   126.9593    59.7809
  621.5000   -20.0617    10.6364     7.4996   129.6813    67.1969
  622.0000   -20.0872    10.6325     7.0195   140.4389    57.1479
  622.5000   -20.1125    10.2601     6.5399   152.7388    54.6679
  623.0000   -20.1377     9.9988     6.0580   165.0388    59.8539
  623.5000   -20.1623     9.2037     5.6005   177.1160    58.4842
  624.0000   -20.1920     8.5135     5.5875   184.4305    57.5183
  624.5000   -20.3385     7.8651     5.6149   182.6258    64.2212
  625.0000   -20.4864     7.6194     5.7463   180.4001    62.7851
  625.5000   -20.5917     7.7181     5.8752   178.1743    65.3963
  626.0000   -20.4828     8.1761     6.0069   175.9487    60.9069
  626.5000   -20.3783    10.4312     6.2766   168.1844    64.2364
  627.0000   -20.2746    11.4144     7.2004   153.0320    59.6860
  627.5000   -20.1705    11.9237     8.1221   136.9053    54.2753
  628.0000   -20.0664    12.3827     9.0439   120.7787    59.0464
  628.5000   -19.9622    12.5031     9.9857   103.9707    57.6976
  629.0000   -19.8584    12.5266    10.0955   100.4180    61.2356
