~VERSION INFORMATION
 VERS.                2.0:   CWLS LOG ASCII STANDARD - VERSION 2.0
 WRAP.                 NO:   ONE LINE PER DEPTH STEP
~WELL INFORMATION
#MNEM.UNIT      DATA TYPE    INFORMATION
#----------   ------------   ------------------------------
 STRT.F           20.0000:   START DEPTH
 STOP.F          672.0000:   STOP DEPTH
 STEP.F            0.5000:   STEP LENGTH
 NULL.          -999.2500:   NO VALUE
 COMP.              FENIX:   COMPANY
 WELL.    NPR ##3 23-S-11:   WELL
 FLD .        TEAPOT DOME:   FIELD
 LOC .      S11 T38N R78W:   LOCATION
 CNTY.            NATRONA:   COUNTY
 STAT.            WYOMING:   STATE
 CTRY. UNITED STATES OF AMERICA:   COUNTRY
 SRVC.           BIRDWELL:   SERVICE COMPANY
 DATE.        05-FEB-1978:   LOGDATE
 API .       490251057300:   API NUMBER
~CURVE INFORMATION
#MNEM.UNIT       API CODE    CURVE DESCRIPTION
#----------   ------------   ------------------------------
 DEPT.F                  :   
 ILD .OHMM   05 120 46 00:   INDUCTION LOG DEEP
 SN  .OHMM   05 040 16 00:   SHORT NORMAL 16"
 SPR .MV     05 010 01 00:   SPONTANEOUS POTENTIAL FROM RES.
 CALD.IN     45 280 60 00:   CALIPER FROM DENSITY LOG
 CORR.G/C3   45 356 01 00:   DENSITY CORRECTION
 DPHI.DEC    45 890 10 00:   DENSITY POROSITY LIMESTONE
 GRD .GAPI   45 310 01 00:   GAMMA RAY FROM DENSITY LOG
 RHOB.G/C3   45 350 01 00:   BULK DENSITY
~PARAMETER INFORMATION
#MNEM.UNIT          VALUE    DESCRIPTION
#----------   ------------   ------------------------------
 PD  .                 GL:   PERMANENT DATUM
 EPD .F              5175:   ELEVATION PERMANENT DATUM
 LMF .                 KB:   LOG MEASURED FROM
 DMF .                 KB:   DRILLING MEASURED FROM
 EKB .F              5178:   KELLING BUSHING
 EGL .F              5175:   GROUND LEVEL
 DATE.        05-FEB-1978:   RUN DATE
 RUN .                  1:   RUN NUMBER
 DD  .F               670:   DEPTH DRILLER
 DL  .F               675:   DEPTH LOGGER
 BLI .F               670:   BOTTOM LOG INTERVAL
 TLI .F                40:   TOP LOG INTERVAL
 CS  .IN            8.625:   CASING SIZE
 CBD .F                39:   CASING BOTTOM DRILLER
 CBL .F                40:   CASING BOTTOM LOGGER
 BS  .IN            7.875:   BIT SIZE
 BSD .F               670:   BIT SIZE AT DEPTH
 DFT .                KCL:   DRILLING FLUID TYPE
 DFD .                8.4:   DRILLING FLUID DENSITY
 DFV .                 32:   DRILLING FLUID VISCOSITY
 DFPH.                  8:   DRILLING FLUID PH
 DFL .                8.8:   DRILLING FLUID LOSS
 MSS .           FLOWLINE:   MUD SAMPLE SOURCE
 RMS .OHMM           0.58:   RESISTIVITY MUD SAMPLE
 MST .F                62:   MUD SAMPLE TEMPERATURE
 RMF .OHMM           0.58:   RESISTIVITY MUD FILTRATE SAMPLE
 MFST.F                62:   MUD FILTRATE SAMPLE TEMPERATURE
 RMC .OHMM            0.9:   RESISTIVITY MUD CAKE
 MCST.F                66:   MUD CAKE SAMPLE TEMPERATURE
 MFSS.               MEAS:   MUD FILTRATE SAMPLE SOURCE
 RMB .OHMM           0.55:   RESISTIVITY MUD AT BHT
 BHT .F                72:   BOTTOM HOLE TEMPERATURE
 TCS .HRS               1:   TIME CURCULATED STOPPED
 MRT .F                72:   MAXIMUM RECORDED TEMPERATURE
 LUN .               2958:   LOGGING UNIT NUMBER
 LUL .               CASP:   LOGGING UNIT LOCATION
 ENGI.            POINTER:   RECORDING ENGINEER
 WITN.         HARRINGTON:   WITNESSED BY
 CLNT.            A2DTECH:   CLIENT CODE
 ORIG.           5" PRINT:   ORIGIN OF DATA
 UWI .       490251057300:   UNIQUE WELL ID
 DICO. A2D Technologies, Inc.:   DIGITIZING COMPANY
~OTHER INFORMATION
~A   DEPT      ILD         SN        SPR       CALD       CORR       DPHI         GRD      RHOB   
# ...
  101.0000     6.7687     7.0986   -52.7605     7.9060     0.0146     0.1461    84.3373     2.4005
  101.5000     6.5851     6.6946   -53.3777     7.9208     0.0146     0.1398    83.8810     2.4050
  102.0000     6.5364     6.5086   -53.6900     7.8903     0.0161     0.1389    76.8010     2.4133
  102.5000     6.5337     6.4163   -54.1547     7.8901     0.0176     0.1389    76.0465     2.4215
  103.0000     6.5772     6.3688   -54.7718     7.8897     0.0206     0.1395    75.8946     2.4223
  103.5000     6.6204     6.4552   -55.2365     7.8894     0.0349     0.1428    77.8506     2.4170
  104.0000     6.7095     6.4982   -55.7012     7.8891     0.0506     0.1329    80.1083     2.4261
  104.5000     6.7067     6.4949   -56.1829     7.8888     0.0431     0.1308    81.0105     2.4336
  105.0000     6.5200     6.4923   -56.4782     7.8885     0.0161     0.1299    80.4063     2.4336
  105.5000     6.3832     6.4448   -56.3332     7.8882     0.0071     0.1506    80.8568     2.4261
  106.0000     6.3806     6.3976   -56.1881     7.8880     0.0086     0.1588    82.0602     2.3923
  106.5000     6.3781     6.4439   -56.1974     7.8876     0.0109     0.1530    82.2094     2.3945
  107.0000     6.4646     6.5264   -56.2048     7.8873     0.0116     0.1485    82.2076     2.4021
  107.5000     6.5523     6.6156   -56.3646     7.8870     0.0116     0.1452    81.9051     2.4096
  108.0000     6.6928     6.7047   -56.5244     7.8716     0.0124     0.1422    81.7349     2.4156
  108.5000     6.7780     6.7020   -56.5320     7.8714     0.0124     0.1401    80.9983     2.4186
  109.0000     6.7746     6.6994   -56.5861     7.8711     0.0124     0.1407    79.3403     2.4171
  109.5000     6.7251     6.6966   -56.7009     7.8859     0.0131     0.1404    76.8931     2.4156
  110.0000     6.5840     6.6470   -56.8953     7.9006     0.0146     0.1389    75.5721     2.4186
  110.5000     6.4907     6.6447   -57.2172     7.9154     0.0169     0.1353    74.9683     2.4247
  111.0000     6.3545     6.5501   -57.3328     7.9000     0.0200     0.1332    74.6657     2.4281
  111.5000     6.3074     6.5021   -57.3402     7.8997     0.0236     0.1347    76.4712     2.4307
  112.0000     6.1750     6.4997   -57.3476     7.8843     0.0251     0.1332    77.5240     2.4307
  112.5000     6.1726     6.5177   -57.3552     7.8840     0.0220     0.1335    77.9744     2.4284
  113.0000     6.2137     6.5878   -57.3628     7.8988     0.0161     0.1353    78.1236     2.4254
  113.5000     6.3418     6.7203   -57.3717     7.9136     0.0161     0.1416    77.8207     2.4172
  114.0000     6.5169     6.9067   -57.2256     7.9433     0.0222     0.1353    77.2169     2.4157
  114.5000     6.7601     7.0858   -57.2332     7.9430     0.0326     0.1260    76.6127     2.4262
  115.0000     7.2751     7.3971   -57.1380     7.9428     0.0409     0.1161    75.8583     2.4435
  115.5000     7.6871     7.6552   -57.0960     7.9274     0.0484     0.1074    72.8448     2.4645
  116.0000     7.7914     7.7055   -57.1038     7.9271     0.0536     0.0908    65.3130     2.4954
  116.5000     7.7344     7.5928   -56.9588     7.9268     0.0528     0.0872    65.0107     2.5089
  117.0000     7.4678     7.3845   -56.8137     7.9265     0.0416     0.0848    70.4307     2.5142
  117.5000     7.1094     7.1794   -56.8216     7.9262     0.0199     0.1080    77.0555     2.4676
  118.0000     6.8653     6.9800   -56.8303     7.9259     0.0139     0.1341    77.9577     2.4285
  118.5000     6.7680     6.8334   -56.8377     7.9256     0.0116     0.1402    77.9563     2.4209
  119.0000     6.8604     6.8307   -56.7922     7.9253     0.0101     0.1413    77.6533     2.4188
  119.5000     7.0172     6.8755   -56.5476     7.9250     0.0079     0.1389    77.5017     2.4173
  120.0000     7.1161     6.9720   -56.2501     7.9247     0.0124     0.1356    76.7469     2.4180
  120.5000     7.2163     7.1621   -56.2576     7.9243     0.0146     0.1365    75.9744     2.4241
  121.0000     7.2660     7.2088   -56.2668     7.9241     0.0139     0.1311    75.8402     2.4293
  121.5000     7.3377     7.2686   -56.2729     7.9238     0.0124     0.1275    76.7424     2.4338
  122.0000     7.3858     7.3345   -56.2815     7.9234     0.0101     0.1275    78.2711     2.4368
  122.5000     7.3314     7.3513   -56.2889     7.9232     0.0079     0.1293    79.1489     2.4376
  123.0000     7.2775     7.3483   -56.6012     7.9380     0.0056     0.1311    79.2984     2.4339
  123.5000     7.2243     7.3091   -56.7610     7.9376     0.0041     0.1366    78.9894     2.4292
  124.0000     7.0238     7.1855   -56.9209     7.9373     0.0019     0.1380    77.7889     2.4249
  124.5000     6.8282     7.0393   -57.0808     7.9370     0.0011     0.1377    76.8839     2.4234
  125.0000     6.6849     6.8914   -57.3298     7.9367    -0.0004     0.1371    76.4307     2.4234
  125.5000     6.6361     6.7937   -57.4009     7.9364     0.0011     0.1377    75.2242     2.4226
  126.0000     6.4968     6.7910   -57.4085     7.9361     0.0041     0.1374    75.0722     2.4226
  126.5000     6.4493     6.9311   -57.4170     7.9358     0.0101     0.1359    75.3720     2.4241
  127.0000     6.6281     7.1306   -57.2713     7.9506     0.0176     0.1308    75.6718     2.4309
  127.5000     6.8639     7.4343   -57.0967     7.9503     0.0199     0.1206    70.7002     2.4505
  128.0000     7.1968     7.6815   -56.9817     7.9500     0.0206     0.1098    66.7831     2.4760
  128.5000     7.8183     7.7866   -56.7830     7.9497     0.0169     0.1003    64.0705     2.4890
  129.0000     7.6013     7.5696   -56.6042     7.9343     0.0146     0.0854    63.4671     2.5038
  129.5000     7.3904     7.3084   -56.3943     7.9340     0.0252     0.0716    72.8027     2.5166
  130.0000     7.1853     6.9625   -56.4024     7.9337     0.0206     0.0815    74.0061     2.5301
  130.5000     6.8887     6.7154   -56.4109     7.9334     0.0154     0.0986    74.7574     2.4963
  131.0000     6.6515     6.5772   -56.4177     7.9331     0.0161     0.1092    75.0575     2.4655
  131.5000     6.6489     6.5746   -56.4253     7.9328     0.0146     0.1236    76.2603     2.4490
  132.0000     6.6466     6.6336   -56.4331     7.9325     0.0101     0.1245    77.9155     2.4415
  132.5000     6.6435     6.7077   -56.4405     7.9322     0.0109     0.1395    78.5165     2.4325
  133.0000     6.6878     6.7188   -56.4482     7.9319     0.0176     0.1365    77.8765     2.4220
  133.5000     6.6844     6.7492   -56.4558     7.9165     0.0251     0.1321    76.7061     2.4253
  134.0000     6.7468     6.7705   -56.4634     7.9163     0.0349     0.1278    77.6084     2.4348
  134.5000     6.8188     6.7902   -56.4719     7.9310     0.0416     0.1260    78.2094     2.4408
  135.0000     6.9113     6.8818   -56.4800     7.9307     0.0386     0.1245    77.6052     2.4461
  135.5000     7.0050     6.9276   -56.4863     7.9304     0.0109     0.1230    76.3990     2.4476
  136.0000     7.1177     7.0698   -56.4939     7.9301     0.0049     0.1257    75.7891     2.4438
  136.5000     7.2968     7.1658   -56.5015     7.9298     0.0049     0.1317    75.7938     2.4356
  137.0000     7.3446     7.2630   -56.5091     7.9295     0.0049     0.1332    76.0936     2.4326
  137.5000     7.3927     7.2601   -56.3639     7.9292     0.0056     0.1302    76.3931     2.4326
  138.0000     7.4413     7.2031   -56.3731     7.9138     0.0056     0.1287    77.8974     2.4348
  138.5000     7.3861     7.1041   -56.3805     7.9135     0.0071     0.1260    79.1008     2.4356
  139.0000     7.3321     7.0521   -56.3872     7.9133     0.0116     0.1245    79.5512     2.4365
  139.5000     7.2090     6.9040   -56.2416     7.8978     0.0169     0.1248    79.3988     2.4371
  140.0000     7.1258     6.8535   -56.0978     7.8674     0.0191     0.1254    78.7950     2.4379
  140.5000     6.9239     6.7563   -55.9912     7.8672     0.0221     0.1260    77.8900     2.4379
  141.0000     6.7351     6.6942   -55.9517     7.8819     0.0259     0.1263    78.0392     2.4379
