~VERSION INFORMATION
 VERS.                2.0:   CWLS LOG ASCII STANDARD - VERSION 2.0
 WRAP.                 NO:   ONE LINE PER DEPTH STEP
~WELL INFORMATION
#MNEM.UNIT      DATA TYPE    INFORMATION
#----------   ------------   ------------------------------
 STRT.F           22.0000:   START DEPTH
 STOP.F          564.0000:   STOP DEPTH
 STEP.F            0.5000:   STEP LENGTH
 NULL.          -999.2500:   NO VALUE
 COMP.    FENIX & SCISSON:   COMPANY
 WELL. NPR # #3 12 - SX 11:   WELL
 FLD .             TEAPOT:   FIELD
 LOC .      S11 T38N R78W:   LOCATION
 CNTY.            NATRONA:   COUNTY
 STAT.            WYOMING:   STATE
 CTRY. UNITED STATES OF AMERICA:   COUNTRY
 SRVC.           BIRDWELL:   SERVICE COMPANY
 DATE.        29-NOV-1978:   LOGDATE
 API .       490251075500:   API NUMBER
~CURVE INFORMATION
#MNEM.UNIT       API CODE    CURVE DESCRIPTION
#----------   ------------   ------------------------------
 DEPT.F                  :   
 ILD .OHMM   05 120 46 00:   INDUCTION LOG DEEP
 SN  .OHMM   05 040 00 00:   SHORT NORMAL
 SPR .MV     05 010 01 00:   SPONTANEOUS POTENTIAL FROM RES.
 CALD.IN     45 280 60 00:   CALIPER FROM DENSITY LOG
 CORR.G/C3   45 356 01 00:   DENSITY CORRECTION
 DPHI.DEC    45 890 12 00:   DENSITY POROSITY SANDSTONE
 GRD .GAPI   45 310 01 00:   GAMMA RAY FROM DENSITY LOG
 RHOB.G/C3   45 350 01 00:   BULK DENSITY
~PARAMETER INFORMATION
#MNEM.UNIT          VALUE    DESCRIPTION
#----------   ------------   ------------------------------
 PD  .                 GL:   PERMANENT DATUM
 EPD .F              5143:   ELEVATION PERMANENT DATUM
 LMF .                 KB:   LOG MEASURED FROM
 DAPD.F                 4:   FEET ABOVE PERMANENT DATUM
 DMF .                 KB:   DRILLING MEASURED FROM
 EKB .F              5147:   KELLING BUSHING
 EGL .F              5143:   GROUND LEVEL
 DATE.        29-NOV-1978:   RUN DATE
 RUN .                  1:   RUN NUMBER
 DD  .F               562:   DEPTH DRILLER
 DL  .F               564:   DEPTH LOGGER
 BLI .F               564:   BOTTOM LOG INTERVAL
 TLI .F                30:   TOP LOG INTERVAL
 CS  .IN            8.625:   CASING SIZE
 CBL .F                48:   CASING BOTTOM LOGGER
 BS  .IN            7.875:   BIT SIZE
 BSD .F               562:   BIT SIZE AT DEPTH
 DFT .                KCL:   DRILLING FLUID TYPE
 DFD .                8.7:   DRILLING FLUID DENSITY
 DFV .                 36:   DRILLING FLUID VISCOSITY
 DFPH.               10.9:   DRILLING FLUID PH
 DFL .                 12:   DRILLING FLUID LOSS
 MSS .           FLOWLINE:   MUD SAMPLE SOURCE
 RMS .OHMM           0.34:   RESISTIVITY MUD SAMPLE
 MST .F                56:   MUD SAMPLE TEMPERATURE
 RMF .OHMM           0.32:   RESISTIVITY MUD FILTRATE SAMPLE
 MFST.F                59:   MUD FILTRATE SAMPLE TEMPERATURE
 RMC .OHMM            0.4:   RESISTIVITY MUD CAKE
 MCST.F                59:   MUD CAKE SAMPLE TEMPERATURE
 MFSS.               MEAS:   MUD FILTRATE SAMPLE SOURCE
 MCSS.               MEAS:   MUD CAKE SAMPLE SOURCE
 RMB .OHMM           0.33:   RESISTIVITY MUD AT BHT
 BHT .F                59:   BOTTOM HOLE TEMPERATURE
 TCS .HRS               1:   TIME CURCULATED STOPPED
 MRT .F                59:   MAXIMUM RECORDED TEMPERATURE
 LUN .               2958:   LOGGING UNIT NUMBER
 LUL .               CASP:   LOGGING UNIT LOCATION
 ENGI.             MILLER:   RECORDING ENGINEER
 WITN.           DINSMORE:   WITNESSED BY
 CLNT.            A2DTECH:   CLIENT CODE
 ORIG.           5" PRINT:   ORIGIN OF DATA
 UWI .       490251075500:   UNIQUE WELL ID
 DICO. A2D Technologies, Inc.:   DIGITIZING COMPANY
~OTHER INFORMATION
~A   DEPT      ILD         SN        SPR       CALD       CORR       DPHI         GRD      RHOB   
# ...
  508.0000     9.8978     9.7332   -63.2265     8.0108     0.0005     0.1521    93.3050     2.4343
  508.5000     9.7615     9.6665   -63.5208     8.0099    -0.0010     0.1529    94.3632     2.4343
  509.0000     9.6174     9.5342   -64.1167     7.9788     0.0005     0.1517    95.4202     2.4343
  509.5000     9.3639     9.4221   -64.5618     7.9665     0.0006     0.1484    95.5739     2.4449
  510.0000     9.1079     9.2105   -65.1578     7.9820     0.0006     0.1437    93.0231     2.4517
  510.5000     8.6766     8.9591   -65.7537     7.9823     0.0006     0.1442    94.8320     2.4478
  511.0000     7.8200     8.7146   -66.5004     7.9826    -0.0009     0.1466    99.1973     2.4412
  511.5000     6.9029     8.4742   -67.0964     7.9979    -0.0025     0.1580   100.5551     2.4315
  512.0000     6.0512     8.1718   -67.6923     8.0133    -0.0038     0.1652   103.2663     2.4082
  512.5000     5.7647     7.4830   -67.9866     8.0286     0.0053     0.1790   110.0377     2.3895
  513.0000     5.8451     6.4245   -68.1300     8.0440     0.0188     0.1844   114.8541     2.3827
  513.5000     5.9267     5.9945   -68.2735     8.0744     0.0519     0.1793   123.0523     2.3940
  514.0000     6.0529     5.9949   -68.2642     8.1048     0.0549     0.1576   127.0434     2.4271
  514.5000     6.1783     6.0790   -68.2568     8.0901     0.0219     0.1315   111.1091     2.4616
  515.0000     6.3962     6.1643   -68.0986     8.0753     0.0099     0.1245   103.1436     2.4782
  515.5000     6.8552     6.6075   -67.9404     8.0605     0.0069     0.1218    94.8774     2.4849
  516.0000     7.6062     7.9137   -68.0857     8.0458     0.0070     0.1227    90.3705     2.4857
  516.5000     8.3811     8.6103   -68.2291     8.0160     0.0070     0.1242    91.2772     2.4827
  517.0000     8.9826     9.0297   -68.2199     8.0163     0.0070     0.1260    91.2816     2.4790
  517.5000     9.1713     9.2844   -68.2125     8.0015     0.0056     0.1269    90.6846     2.4753
  518.0000     9.2993     9.4147   -68.2051     7.9867     0.0056     0.1278    90.2368     2.4730
  518.5000     9.4291     9.5468   -68.0468     7.9871     0.0041     0.1284    90.8438     2.4723
  519.0000     9.5611     9.6139   -67.8884     8.0175     0.0041     0.1284    92.5023     2.4716
  519.5000     9.7615     9.7489   -67.8809     8.0479     0.0012     0.1278    94.3113     2.4716
  520.0000    10.0359     9.8857   -67.8721     8.0482     0.0012     0.1271    97.0927     2.4724
  520.5000    10.3180    10.1645   -68.0174     8.0485     0.0012     0.1277   100.6792     2.4724
  521.0000    10.6818    10.4516   -68.1608     8.0463     0.0013     0.1284   100.0400     2.4732
  521.5000    10.9062    10.7624   -68.1516     8.0340     0.0013     0.1286    98.2399     2.4724
  522.0000    11.2128    11.2034   -68.1442     8.0193    -0.0002     0.1283    94.4849     2.4717
  522.5000    11.5280    11.4397   -68.1368     8.0196     0.0014     0.1274    95.2412     2.4717
  523.0000    11.6889    11.6003   -68.1297     8.0199     0.0044     0.1265    97.9524     2.4725
  523.5000    11.8520    11.6818   -68.1220     8.0202     0.0044     0.1247    99.7613     2.4725
  524.0000    11.9344    11.7639   -68.1146     8.0205     0.0044     0.1225   100.6669     2.4741
  524.5000    11.8520    11.8000   -68.1071     8.0057     0.0045     0.1195    99.7702     2.4793
  525.0000    11.9344    11.8474   -68.0995     7.9910     0.0045     0.1192    97.6694     2.4891
  525.5000    11.9399    11.8482   -68.0906     7.9913     0.0045     0.1210    96.3204     2.4869
  526.0000    12.0174    11.8490   -68.0832     7.9916     0.0046     0.1225    97.0767     2.4802
  526.5000    12.0174    11.9323   -68.2285     7.9919     0.0046     0.1234    97.6827     2.4772
  527.0000    12.0174    11.9332   -68.0685     7.9934     0.0046     0.1240    97.0016     2.4772
  527.5000    12.0174    11.9340   -68.0611     8.0076     0.0047     0.1246    94.3843     2.4772
  528.0000    12.0174    11.9349   -68.0537     8.0229     0.0047     0.1246    92.5842     2.4772
  528.5000    12.1010    11.9357   -68.0463     8.0232     0.0062     0.1251    90.6327     2.4765
  529.0000    12.1010    12.0195   -68.0389     8.0235     0.0063     0.1257    93.1946     2.4765
  529.5000    12.1010    12.0204   -68.0315     8.0238     0.0063     0.1260    96.2065     2.4758
  530.0000    12.1010    12.1891   -68.0241     8.0241     0.0063     0.1257    95.6095     2.4743
  530.5000    12.1010    12.1899   -68.1676     8.0244     0.0078     0.1257    94.1101     2.4743
  531.0000    12.1851    12.1907   -68.1599     8.0310     0.0064     0.1251    92.9116     2.4759
  531.5000    12.1010    12.1916   -68.6034     8.0401     0.0139     0.1230    92.0137     2.4796
  532.0000    12.1010    12.1926   -69.1994     8.0404     0.0199     0.1202    92.6197     2.4842
  532.5000    12.0752    12.1934   -69.4955     8.0557     0.0262     0.1175    95.7820     2.4864
  533.0000    12.0174    12.1942   -69.9387     8.0560     0.0320     0.1163    94.7157     2.4888
  533.5000    12.0174    12.1106   -70.0822     8.0564     0.0275     0.1214    93.1522     2.4926
  534.0000    12.0174    12.0277   -70.0748     8.0567     0.0171     0.1274    90.0821     2.4820
  534.5000    12.0174    11.8630   -70.3709     8.0570     0.0051     0.1310    88.7320     2.4700
  535.0000    12.0174    11.8118   -70.9650     8.0573     0.0021     0.1322    89.9406     2.4670
  535.5000    12.0174    11.7012   -71.4101     8.0576     0.0021     0.1316    91.5991     2.4693
  536.0000    11.8520    11.5407   -71.8552     8.0277     0.0022     0.1298    91.7528     2.4701
  536.5000    11.7701    11.4618   -72.4511     8.0280     0.0022     0.1286    91.7583     2.4701
  537.0000    11.6889    11.3833   -72.9210     8.0133     0.0022     0.1270    93.5673     2.4709
  537.5000    11.5280    11.2273   -73.4903     8.0286     0.0023     0.1246    96.2785     2.4739
  538.0000    11.4483    11.2282   -73.9354     8.0289     0.0023     0.1218   101.3957     2.4822
  538.5000    11.3693    11.0741   -74.0807     8.0292     0.0023     0.1201   101.8512     2.4845
  539.0000    11.2128    10.9983   -74.3731     8.0295     0.0023     0.1219   101.7053     2.4830
  539.5000    11.0584    10.7727   -74.6674     8.0299     0.0029     0.1225   101.7098     2.4830
  540.0000    10.9012    10.6990   -74.8127     8.0302     0.0058     0.1231   101.7343     2.4823
  540.5000    10.7439    10.6258   -75.1070     8.0304     0.0069     0.1224   102.0204     2.4831
  541.0000    10.4620    10.4801   -75.3997     8.0307     0.0085     0.1194   103.5286     2.4838
  541.5000    10.3180    10.3366   -75.8445     8.0311     0.0115     0.1161   100.0744     2.4891
  542.0000    10.1760    10.3373   -76.4404     8.0314     0.0145     0.1116    98.1239     2.4959
  542.5000    10.1057    10.1954   -76.8979     8.0316     0.0176     0.1092    96.9253     2.5034
  543.0000     9.9666    10.1258   -77.3555     8.0319     0.0176     0.1113    95.7268     2.5027
  543.5000     9.8978    10.0564   -78.0755     8.0322     0.0178     0.1144    97.0846     2.4975
  544.0000     9.8294     9.9185   -78.4213     8.0325     0.0207     0.1161    98.8935     2.4930
  544.5000     9.7615     9.8508   -78.8168     8.0328     0.0237     0.1157   101.1536     2.4930
  545.0000     9.6941     9.7834   -79.2600     8.0331     0.0252     0.1139   103.5640     2.4954
  545.5000     9.6941     9.7840   -79.7051     8.0334     0.0298     0.1124   103.2677     2.4991
  546.0000     9.6272     9.7730   -80.1502     8.0388     0.0313     0.1115   104.5072     2.5006
  546.5000     9.6272     9.7177   -80.7480     8.0642     0.0283     0.1157   106.2841     2.4976
  547.0000     9.4946     9.6512   -81.6437     8.0645     0.0238     0.1208   104.3347     2.4886
  547.5000     9.4291     9.7192   -82.2397     8.0648     0.0224     0.1241   104.1877     2.4789
  548.0000     9.3639     9.7875   -82.8356     8.0500     0.0224     0.1253   104.1932     2.4781
