~VERSION INFORMATION
 VERS.                2.0:   CWLS LOG ASCII STANDARD - VERSION 2.0
 WRAP.                 NO:   ONE LINE PER DEPTH STEP
~WELL INFORMATION
#MNEM.UNIT      DATA TYPE    INFORMATION
#----------   ------------   ------------------------------
 STRT.F          566.5000:   START DEPTH
 STOP.F         2065.5000:   STOP DEPTH
 STEP.F            0.5000:   STEP LENGTH
 NULL.          -999.2500:   NO VALUE
 COMP. LAWRENCE/ALLISON INC:   COMPANY
 WELL.      NPR 3 #25-X-3:   WELL
 FLD .             TEAPOT:   FIELD
 LOC .       S3 T38N R78W:   LOCATION
 CNTY.            NATRONA:   COUNTY
 STAT.            WYOMING:   STATE
 CTRY. UNITED STATES OF AMERICA:   COUNTRY
 SRVC.            Unknown:   SERVICE COMPANY
 DATE.        26-SEP-1987:   LOGDATE
 API .       490251119000:   API NUMBER
~CURVE INFORMATION
#MNEM.UNIT       API CODE    CURVE DESCRIPTION
#----------   ------------   ------------------------------
 DEPT.F                  :   
 ROP .MIN/FT 91 810 01 00:   RATE OF DRILLING PENETRATION
 TGAS.UNITS  91 830 01 00:   TOTAL GAS FROM HOTWIRE
~PARAMETER INFORMATION
#MNEM.UNIT          VALUE    DESCRIPTION
#----------   ------------   ------------------------------
 DATE.        26-SEP-1987:   RUN DATE
 RUN .                  1:   RUN NUMBER
 DD  .F              2066:   DEPTH DRILLER
 TLI .F               566:   TOP LOG INTERVAL
 WITN. R. HUSK/R. PETERSON:   WITNESSED BY
 CLNT.            A2DTECH:   CLIENT CODE
 ORIG.           5" PRINT:   ORIGIN OF DATA
 UWI .       490251119000:   UNIQUE WELL ID
 DICO. A2D Technologies, Inc.:   DIGITIZING COMPANY
~OTHER INFORMATION
~A   DEPT        ROP       TGAS 
# ...
 1660.0000     0.6804   213.9734
 1660.5000     0.6803   213.9462
 1661.0000     0.6801   213.9190
 1661.5000     0.6799   213.8918
 1662.0000     0.6797   213.8647
 1662.5000     0.6795   213.8375
 1663.0000     0.6793   213.8103
 1663.5000     0.6791   213.7832
 1664.0000     0.6789   213.7396
 1664.5000     0.6787   213.6917
 1665.0000     0.6785   213.6438
 1665.5000     0.6784   213.5959
 1666.0000     0.6782   213.5480
 1666.5000     0.6780   213.5002
 1667.0000     0.6778   213.4523
 1667.5000     0.6776   213.4044
 1668.0000     0.6774   213.3565
 1668.5000     0.6772   213.3087
 1669.0000     0.6770   213.2608
 1669.5000     0.6768   213.2129
 1670.0000     0.6767   213.1650
 1670.5000     0.6765   213.1171
 1671.0000     0.6763   213.0693
 1671.5000     0.6761   213.0214
 1672.0000     0.6759   212.9735
 1672.5000     0.6757   212.9256
 1673.0000     0.6755   212.8777
 1673.5000     0.6753   212.8299
 1674.0000     0.6751   212.7820
 1674.5000     0.6749   212.7341
 1675.0000     0.6748   212.6862
 1675.5000     0.6746   212.6383
 1676.0000     0.6744   212.5905
 1676.5000     0.6742   212.5426
 1677.0000     0.6740   212.4947
 1677.5000     0.6634   212.4468
 1678.0000     0.6635   212.3989
 1678.5000     0.6531   212.3511
 1679.0000     0.6533   212.3032
 1679.5000     0.6429   212.2597
 1680.0000     0.6221   238.7376
 1680.5000     0.6118   267.1589
 1681.0000     0.5910   273.4082
 1681.5000     0.5703   246.9888
 1682.0000     0.5704   220.5693
 1682.5000     0.5600   200.2129
 1683.0000     0.5392   199.8250
 1683.5000     0.5289   199.4371
 1684.0000     0.5290   199.0492
 1684.5000     0.5187   198.6613
 1685.0000     0.4979   198.2733
 1685.5000     0.4980   197.8854
 1686.0000     0.4981   197.4975
 1686.5000     0.4878   197.1096
 1687.0000     0.4879   196.7217
 1687.5000     0.4880   196.3338
 1688.0000     0.4881   195.9459
 1688.5000     0.4882   195.5580
 1689.0000     0.4883   195.1700
 1689.5000     0.4887   194.7821
 1690.0000     0.4893   194.3942
 1690.5000     0.4900   194.0063
 1691.0000     0.4906   193.6184
 1691.5000     0.4912   193.2305
 1692.0000     0.4918   192.8426
 1692.5000     0.4925   192.4547
 1693.0000     0.4931   192.0667
 1693.5000     0.4937   191.6788
 1694.0000     0.4944   191.2909
 1694.5000     0.4950   190.9030
 1695.0000     0.4956   190.5151
 1695.5000     0.4963   190.1272
 1696.0000     0.4969   189.7392
 1696.5000     0.4975   189.3513
 1697.0000     0.4981   188.9634
 1697.5000     0.4988   188.5755
 1698.0000     0.4994   188.1876
 1698.5000     0.5000   187.7997
 1699.0000     0.5007   187.4118
 1699.5000     0.5013   187.0238
 1700.0000     0.5019   186.6359
 1700.5000     0.5025   244.7470
 1701.0000     0.5032   244.8250
 1701.5000     0.5038   244.9030
 1702.0000     0.5044   244.9809
 1702.5000     0.5051   245.0589
 1703.0000     0.5057   245.1369
 1703.5000     0.5063   245.2149
 1704.0000     0.5070   245.2928
 1704.5000     0.5076   245.3708
 1705.0000     0.5082   245.4488
 1705.5000     0.5088   245.5268
 1706.0000     0.5095   245.6048
 1706.5000     0.5101   245.6827
 1707.0000     0.5107   245.7607
 1707.5000     0.5114   245.8387
 1708.0000     0.5120   245.9167
 1708.5000     0.5126   245.9946
 1709.0000     0.5132   246.0726
 1709.5000     0.5139   246.1506
 1710.0000     0.5145   246.2286
 1710.5000     0.5151   246.3065
 1711.0000     0.5158   246.3845
 1711.5000     0.5164   246.4625
 1712.0000     0.5170   246.5405
 1712.5000     0.5177   246.6184
 1713.0000     0.5183   246.6964
 1713.5000     0.5189   246.7744
 1714.0000     0.5195   246.8524
 1714.5000     0.5202   246.9303
 1715.0000     0.5208   247.0083
 1715.5000     0.5214   247.0863
 1716.0000     0.5221   247.1643
 1716.5000     0.5227   247.2422
 1717.0000     0.5233   247.3202
 1717.5000     0.5239   247.3982
 1718.0000     0.5246   247.4762
 1718.5000     0.5252   247.5542
 1719.0000     0.5258   247.6321
 1719.5000     0.5265   247.7101
 1720.0000     0.5271   247.7881
 1720.5000     0.5277   247.8661
 1721.0000     0.5284   247.9440
 1721.5000     0.5290   248.0220
 1722.0000     0.5296   248.1000
 1722.5000     0.5302   248.1780
 1723.0000     0.5309   248.2559
 1723.5000     0.5315   248.3339
 1724.0000     0.5321   248.4119
 1724.5000     0.5328   248.4899
 1725.0000     0.5334   248.5678
 1725.5000     0.5340   248.6458
 1726.0000     0.5346   248.7238
 1726.5000     0.5353   248.8018
 1727.0000     0.5359   248.8797
 1727.5000     0.5365   248.9577
 1728.0000     0.5372   249.0357
 1728.5000     0.5378   249.1137
 1729.0000     0.5385   249.1917
 1729.5000     0.5431   249.2696
 1730.0000     0.5477   249.3476
 1730.5000     0.5522   249.4256
 1731.0000     0.5568   249.5035
 1731.5000     0.5614   249.5815
 1732.0000     0.5660   249.6595
 1732.5000     0.5706   249.7375
 1733.0000     0.5751   249.8154
 1733.5000     0.5797   249.8934
 1734.0000     0.5843   249.9714
 1734.5000     0.5861   250.0494
 1735.0000     0.5970   250.1273
 1735.5000     0.5872   250.2053
 1736.0000     0.5773   250.2833
 1736.5000     0.5571   250.3613
 1737.0000     0.5473   250.4393
 1737.5000     0.5481   250.5172
 1738.0000     0.5277   250.5952
 1738.5000     0.5179   250.6732
 1739.0000     0.5181   250.7512
 1739.5000     0.5181   250.8291
 1740.0000     0.5181   250.9071
 1740.5000     0.5180   250.9851
 1741.0000     0.5180   251.0631
 1741.5000     0.5179   251.1410
 1742.0000     0.5179   251.2190
 1742.5000     0.5179   251.2970
 1743.0000     0.5178   251.3750
 1743.5000     0.5178   251.4529
 1744.0000     0.5177   251.5309
 1744.5000     0.5177   251.6089
 1745.0000     0.5177   251.6869
 1745.5000     0.5176   251.7648
 1746.0000     0.5176   251.8428
 1746.5000     0.5175   251.9208
 1747.0000     0.5175   251.9988
 1747.5000     0.5174   252.0768
 1748.0000     0.5174   252.1547
 1748.5000     0.5174   252.2327
 1749.0000     0.5173   252.3107
 1749.5000     0.5173   252.3887
 1750.0000     0.5172   252.4666
 1750.5000     0.5172   252.5446
 1751.0000     0.5172   252.6226
 1751.5000     0.5171   252.7006
 1752.0000     0.5171   252.7785
 1752.5000     0.5170   252.8565
 1753.0000     0.5170   252.9345
 1753.5000     0.5170   253.0125
 1754.0000     0.5169   253.0904
 1754.5000     0.5169   253.1684
 1755.0000     0.5168   253.2464
 1755.5000     0.5168   253.3244
 1756.0000     0.5168   253.4023
 1756.5000     0.5167   253.4803
 1757.0000     0.5167   253.5583
 1757.5000     0.5166   253.6363
 1758.0000     0.5166   253.7142
 1758.5000     0.5166   253.7922
 1759.0000     0.5165   253.8702
 1759.5000     0.5165   253.9482
 1760.0000     0.5164   254.0262
 1760.5000     0.5164   254.1041
 1761.0000     0.5164   254.1821
 1761.5000     0.5163   254.2601
 1762.0000     0.5163   254.3381
 1762.5000     0.5162   254.4160
 1763.0000     0.5162   254.4940
 1763.5000     0.5162   254.5720
 1764.0000     0.5161   254.6499
 1764.5000     0.5161   254.7279
 1765.0000     0.5160   254.8059
 1765.5000     0.5160   254.8839
 1766.0000     0.5159   254.9619
 1766.5000     0.5159   255.0398
 1767.0000     0.5159   255.1178
 1767.5000     0.5158   255.1958
 1768.0000     0.5158   255.2738
 1768.5000     0.5157   255.3517
 1769.0000     0.5157   255.4297
 1769.5000     0.5157   255.5077
 1770.0000     0.5156   255.5857
 1770.5000     0.5156   255.6636
 1771.0000     0.5155   255.7416
 1771.5000     0.5155   255.8196
 1772.0000     0.5155   255.8976
 1772.5000     0.5154   255.9755
 1773.0000     0.5154   256.0535
 1773.5000     0.5153   256.1315
 1774.0000     0.5153   256.2095
 1774.5000     0.5153   256.2874
 1775.0000     0.5152   256.3654
 1775.5000     0.5152   256.4434
 1776.0000     0.5151   256.5214
 1776.5000     0.5151   256.5994
 1777.0000     0.5151   256.6773
 1777.5000     0.5150   256.7553
 1778.0000     0.5150   256.8333
 1778.5000     0.5149   256.9113
 1779.0000     0.5149   256.9892
 1779.5000     0.5149   257.0672
 1780.0000     0.5148   257.1452
 1780.5000     0.5148   257.2231
 1781.0000     0.5147   257.3011
