~VERSION INFORMATION
 VERS.                2.0:   CWLS LOG ASCII STANDARD - VERSION 2.0
 WRAP.                 NO:   ONE LINE PER DEPTH STEP
~WELL INFORMATION
#MNEM.UNIT      DATA TYPE    INFORMATION
#----------   ------------   ------------------------------
 STRT.F          588.0000:   START DEPTH
 STOP.F         1583.5000:   STOP DEPTH
 STEP.F            0.5000:   STEP LENGTH
 NULL.          -999.2500:   NO VALUE
 COMP.   FENIX & SCISSONS:   COMPANY
 WELL.   NPR 3 #23STX1-11:   WELL
 FLD .             TEAPOT:   FIELD
 LOC .      S11 T38N R78W:   LOCATION
 CNTY.            NATRONA:   COUNTY
 STAT.            WYOMING:   STATE
 CTRY. UNITED STATES OF AMERICA:   COUNTRY
 SRVC.            Unknown:   SERVICE COMPANY
 DATE.        15-JUN-1979:   LOGDATE
 API .       490251078300:   API NUMBER
~CURVE INFORMATION
#MNEM.UNIT       API CODE    CURVE DESCRIPTION
#----------   ------------   ------------------------------
 DEPT.F                  :   
 RHOB.G/C3   45 350 01 00:   BULK DENSITY
 DPHI.DEC    45 890 10 00:   DENSITY POROSITY LIMESTONE
 CORR.G/C3   45 356 01 00:   DENSITY CORRECTION
 GRD .GAPI   45 310 01 00:   GAMMA RAY FROM DENSITY LOG
 CALD.IN     45 280 60 00:   CALIPER FROM DENSITY LOG
~PARAMETER INFORMATION
#MNEM.UNIT          VALUE    DESCRIPTION
#----------   ------------   ------------------------------
 PD  .                 GL:   PERMANENT DATUM
 EPD .F              5168:   ELEVATION PERMANENT DATUM
 LMF .                 KB:   LOG MEASURED FROM
 DAPD.F                10:   FEET ABOVE PERMANENT DATUM
 DMF .                 KB:   DRILLING MEASURED FROM
 EKB .F              5178:   KELLING BUSHING
 EGL .F              5168:   GROUND LEVEL
 DATE.            6-15-79:   RUN DATE
 RUN .                  1:   RUN NUMBER
 DD  .F              1580:   DEPTH DRILLER
 DL  .F              1580:   DEPTH LOGGER
 BLI .F              1578:   BOTTOM LOG INTERVAL
 TLI .F               680:   TOP LOG INTERVAL
 CS  .IN            9.625:   CASING SIZE
 CBD .F               660:   CASING BOTTOM DRILLER
 CBL .F               670:   CASING BOTTOM LOGGER
 BS  .IN             8.75:   BIT SIZE
 BSD .F              1580:   BIT SIZE AT DEPTH
 DFT .                OIL:   DRILLING FLUID TYPE
 TCS .HRS               4:   TIME CURCULATED STOPPED
 MRT .F                80:   MAXIMUM RECORDED TEMPERATURE
 LUN .               3029:   LOGGING UNIT NUMBER
 LUL .             CASPER:   LOGGING UNIT LOCATION
 ENGI.            MULLINS:   RECORDING ENGINEER
 CLNT.            A2DTECH:   CLIENT CODE
 ORIG.     1", 2.5" PRINT:   ORIGIN OF DATA
 UWI .       490251078300:   UNIQUE WELL ID
 DICO. A2D Technologies, Inc.:   DIGITIZING COMPANY
~OTHER INFORMATION
~A   DEPT     RHOB       DPHI       CORR         GRD      CALD   
# ...
 1442.0000     2.5333     0.0137    -0.0035    88.7871     9.2002
 1442.5000     2.5410     0.0109     0.0037    89.2578     9.2019
 1443.0000     2.5450     0.0093     0.0019    89.4879     9.2036
 1443.5000     2.5413     0.0107     0.0002    89.2041     9.2053
 1444.0000     2.5382     0.0122    -0.0018    91.0784     9.2070
 1444.5000     2.5351     0.0136    -0.0037    94.2488     9.2087
 1445.0000     2.5319     0.0150    -0.0058    96.0608     9.2104
 1445.5000     2.5288     0.0165    -0.0082    96.1532     9.2121
 1446.0000     2.5255     0.0178    -0.0106    94.5545     9.2138
 1446.5000     2.5255     0.0152    -0.0108    95.8650     9.2155
 1447.0000     2.5347     0.0127    -0.0056   100.0910     9.2172
 1447.5000     2.5387     0.0101    -0.0005   102.9945     9.2189
 1448.0000     2.5404     0.0089     0.0039   101.5263     9.2206
 1448.5000     2.5427     0.0075     0.0040    98.6026     9.2223
 1449.0000     2.5456     0.0062     0.0040    96.3421     9.2240
 1449.5000     2.5486     0.0049     0.0044    94.6542     9.2257
 1450.0000     2.5527     0.0044     0.0012    94.1932     9.2274
 1450.5000     2.5470     0.0078    -0.0041    94.0034     9.2291
 1451.0000     2.5281     0.0169    -0.0092    92.6135     9.2309
 1451.5000     2.5173     0.0203    -0.0154    91.7480     9.2318
 1452.0000     2.5289     0.0167    -0.0076    95.2717     9.2317
 1452.5000     2.5344     0.0132     0.0006    99.2996     9.2317
 1453.0000     2.5359     0.0128    -0.0015    98.8281     9.2317
 1453.5000     2.5372     0.0137    -0.0029    98.1966     9.2317
 1454.0000     2.5345     0.0146    -0.0038    96.7683     9.2317
 1454.5000     2.5321     0.0154    -0.0040    94.9207     9.2317
 1455.0000     2.5364     0.0121    -0.0001    93.2130     9.2317
 1455.5000     2.5427     0.0080     0.0051    91.2889     9.2317
 1456.0000     2.5497     0.0059     0.0105    90.3591     9.2317
 1456.5000     2.5496     0.0065     0.0112    91.1579     9.2317
 1457.0000     2.5442     0.0071     0.0094    94.8722     9.2317
 1457.5000     2.5489     0.0036     0.0082    98.6455     9.2317
 1458.0000     2.5605    -0.0023     0.0175    98.0177     9.2317
 1458.5000     2.5648    -0.0003     0.0150    96.3825     9.2317
 1459.0000     2.5449     0.0091     0.0077    94.5602     9.2317
 1459.5000     2.5266     0.0194     0.0004    94.6430     9.2317
 1460.0000     2.5361     0.0124     0.0028    94.2430     9.2317
 1460.5000     2.5444     0.0071     0.0041    92.4560     9.2317
 1461.0000     2.5485     0.0046     0.0040    92.8085     9.2317
 1461.5000     2.5500     0.0032     0.0049    91.9427     9.2317
 1462.0000     2.5518     0.0032     0.0070    90.3162     9.2317
 1462.5000     2.5588    -0.0003     0.0098    88.4637     9.2317
 1463.0000     2.5674    -0.0081     0.0132    87.7294     9.2317
 1463.5000     2.5703    -0.0080     0.0159    88.5437     9.2317
 1464.0000     2.5737    -0.0081     0.0122    92.8236     9.2317
 1464.5000     2.5787    -0.0105     0.0090    95.2000     9.2317
 1465.0000     2.5702    -0.0057     0.0065    96.1352     9.2317
 1465.5000     2.5575     0.0014     0.0041    97.1878     9.2317
 1466.0000     2.5447     0.0085    -0.0001    96.3227     9.2317
 1466.5000     2.5315     0.0157    -0.0055    97.2937     9.2317
 1467.0000     2.5231     0.0202    -0.0104    98.3228     9.2317
 1467.5000     2.5197     0.0219    -0.0159    97.7533     9.2317
 1468.0000     2.5212     0.0193    -0.0162    97.0878     9.2317
 1468.5000     2.5261     0.0164    -0.0148    96.3046     9.2317
 1469.0000     2.5335     0.0135    -0.0088    95.7596     9.2317
 1469.5000     2.5406     0.0105    -0.0024    93.4731     9.2317
 1470.0000     2.5449     0.0081     0.0002    89.7929     9.2317
 1470.5000     2.5436     0.0098     0.0001    88.6407     9.2317
 1471.0000     2.5382     0.0121    -0.0016    95.0714     9.2317
 1471.5000     2.5334     0.0144    -0.0045    96.6425     9.2317
 1472.0000     2.5287     0.0167    -0.0074    94.3483     9.2317
 1472.5000     2.5240     0.0183    -0.0104    91.7052     9.2317
 1473.0000     2.5212     0.0194    -0.0122    92.3475     9.2317
 1473.5000     2.5282     0.0169    -0.0080    94.6481     9.2317
 1474.0000     2.5354     0.0121    -0.0037    93.8238     9.2317
 1474.5000     2.5410     0.0081    -0.0001    91.7709     9.2317
 1475.0000     2.5384     0.0124    -0.0001    92.6284     9.2305
 1475.5000     2.5358     0.0135     0.0000    93.9292     9.2293
 1476.0000     2.5349     0.0125     0.0000    93.9599     9.2281
 1476.5000     2.5408     0.0083    -0.0001    94.3760     9.2268
 1477.0000     2.5509     0.0024     0.0015    93.3248     9.2256
 1477.5000     2.5600    -0.0041     0.0052    91.5425     9.2244
 1478.0000     2.5694    -0.0059     0.0081    90.6680     9.2232
 1478.5000     2.5720    -0.0080     0.0097    90.0235     9.2219
 1479.0000     2.5715    -0.0071     0.0115    92.0565     9.2207
 1479.5000     2.5634    -0.0037     0.0097    95.5308     9.2195
 1480.0000     2.5558    -0.0003     0.0041    97.3892     9.2183
 1480.5000     2.5482     0.0016     0.0041    96.4219     9.2170
 1481.0000     2.5549     0.0016     0.0040    95.3608     9.2158
 1481.5000     2.5559     0.0016     0.0040    93.7233     9.2146
 1482.0000     2.5517     0.0067     0.0042    93.7024     9.2134
 1482.5000     2.5379     0.0120     0.0021    94.5448     9.2121
 1483.0000     2.5348     0.0095    -0.0022    98.3923     9.2109
 1483.5000     2.5461     0.0047    -0.0039   101.1404     9.2097
 1484.0000     2.5568     0.0017     0.0003   101.0634     9.2085
 1484.5000     2.5573     0.0022     0.0038   100.4900     9.2072
 1485.0000     2.5527     0.0030     0.0075    99.9934     9.2060
 1485.5000     2.5533     0.0032     0.0111    99.4572     9.2048
 1486.0000     2.5570    -0.0008     0.0153    98.8410     9.2036
 1486.5000     2.5543     0.0009     0.0127    95.7780     9.2023
 1487.0000     2.5470     0.0045     0.0060    94.2041     9.2011
 1487.5000     2.5491     0.0057     0.0032    95.6167     9.1999
 1488.0000     2.5480     0.0057     0.0023    95.5607     9.1987
 1488.5000     2.5394     0.0099     0.0013    96.4607     9.1974
 1489.0000     2.5312     0.0146     0.0003    98.0658     9.1962
 1489.5000     2.5338     0.0128     0.0053    98.2734     9.1950
 1490.0000     2.5396     0.0089     0.0080    97.2863     9.1938
 1490.5000     2.5454     0.0077     0.0042    96.4298     9.1926
 1491.0000     2.5445     0.0078     0.0012    95.6684     9.1913
 1491.5000     2.5428     0.0087    -0.0021    96.1711     9.1910
 1492.0000     2.5410     0.0097    -0.0052    96.9721     9.1910
 1492.5000     2.5396     0.0095    -0.0080    96.9885     9.1911
 1493.0000     2.5394     0.0092    -0.0081    97.9860     9.1910
 1493.5000     2.5396     0.0090    -0.0082   100.4503     9.1910
 1494.0000     2.5398     0.0074    -0.0081    99.8415     9.1911
 1494.5000     2.5477     0.0053    -0.0081    97.4946     9.1911
 1495.0000     2.5495     0.0032    -0.0070    96.8267     9.1911
 1495.5000     2.5513     0.0012    -0.0055    98.5856     9.1911
 1496.0000     2.5594    -0.0009    -0.0040    99.5131     9.1911
 1496.5000     2.5584    -0.0011    -0.0025   100.3800     9.1911
 1497.0000     2.5505     0.0043    -0.0010   100.8070     9.1911
 1497.5000     2.5408     0.0081     0.0000   101.2637     9.1911
 1498.0000     2.5424     0.0062    -0.0009   100.7426     9.1911
 1498.5000     2.5553    -0.0008    -0.0019    99.3552     9.1911
 1499.0000     2.5581    -0.0008    -0.0029    98.0618     9.1911
 1499.5000     2.5533     0.0017    -0.0038    96.6766     9.1911
 1500.0000     2.5493     0.0057    -0.0049    95.5647     9.1911
 1500.5000     2.5454     0.0068    -0.0058    94.0211     9.1911
 1501.0000     2.5412     0.0088    -0.0068    93.8482     9.1911
 1501.5000     2.5371     0.0107    -0.0080    93.7131     9.1911
 1502.0000     2.5401     0.0073    -0.0060    95.2058     9.1911
 1502.5000     2.5573    -0.0008    -0.0023    96.3517     9.1911
