~VERSION INFORMATION
 VERS.                2.0:   CWLS LOG ASCII STANDARD - VERSION 2.0
 WRAP.                 NO:   ONE LINE PER DEPTH STEP
~WELL INFORMATION
#MNEM.UNIT      DATA TYPE    INFORMATION
#----------   ------------   ------------------------------
 STRT.F           75.0000:   START DEPTH
 STOP.F          859.0000:   STOP DEPTH
 STEP.F            0.5000:   STEP LENGTH
 NULL.          -999.2500:   NO VALUE
 COMP. U S NAVY/INTEX OIL CO:   COMPANY
 WELL.     NPR ##3 14S-35:   WELL
 FLD .             TEAPOT:   FIELD
 LOC .      S35 T39N R78W:   LOCATION
 CNTY.            NATRONA:   COUNTY
 STAT.            WYOMING:   STATE
 CTRY. UNITED STATES OF AMERICA:   COUNTRY
 SRVC. Schlumberger Well Surveying Corp:   SERVICE COMPANY
 DATE.        27-FEB-1961:   LOGDATE
 API .       490251023000:   API NUMBER
~CURVE INFORMATION
#MNEM.UNIT       API CODE    CURVE DESCRIPTION
#----------   ------------   ------------------------------
 DEPT.F                  :   
 GRN .CPS    35 310 30 00:   GAMMA RAY
 SPR .MV     05 010 01 00:   SPONTANEOUS POTENTIAL FROM RES.
 ILD .OHMM   05 120 46 00:   INDUCTION LOG DEEP
 ASN .OHMM   05 041 16 00:   AMPLIFIED SHORT NORMAL 16"
 CILD.MMHO   05 110 46 00:   CONDUCTIVITY INDUCTION LOG DEEP
~PARAMETER INFORMATION
#MNEM.UNIT          VALUE    DESCRIPTION
#----------   ------------   ------------------------------
 PD  .                 GL:   PERMANENT DATUM
 EPD .F              5110:   ELEVATION PERMANENT DATUM
 LMF .                 KB:   LOG MEASURED FROM
 DAPD.F                 4:   FEET ABOVE PERMANENT DATUM
 DMF .                 KB:   DRILLING MEASURED FROM
 EKB .F              5114:   KELLING BUSHING
 EGL .F              5110:   GROUND LEVEL
 DATE.            2-27-61:   RUN DATE
 RUN .                  1:   RUN NUMBER
 DD  .F               862:   DEPTH DRILLER
 DL  .F               860:   DEPTH LOGGER
 BLI .F               859:   BOTTOM LOG INTERVAL
 TLI .F                84:   TOP LOG INTERVAL
 CBD .F                12:   CASING BOTTOM DRILLER
 BS  .IN            7.875:   BIT SIZE
 BSD .F               862:   BIT SIZE AT DEPTH
 DFT .       GEL-OIL EMUL:   DRILLING FLUID TYPE
 DFD .                9.4:   DRILLING FLUID DENSITY
 DFV .                 33:   DRILLING FLUID VISCOSITY
 DFPH.                  8:   DRILLING FLUID PH
 DFL .               19.4:   DRILLING FLUID LOSS
 MSS .          FLOW LINE:   MUD SAMPLE SOURCE
 RMS .OHMM            .76:   RESISTIVITY MUD SAMPLE
 MST .F                73:   MUD SAMPLE TEMPERATURE
 RMF .OHMM            .52:   RESISTIVITY MUD FILTRATE SAMPLE
 MFST.F                73:   MUD FILTRATE SAMPLE TEMPERATURE
 RMC .OHMM            1.7:   RESISTIVITY MUD CAKE
 MCST.F                73:   MUD CAKE SAMPLE TEMPERATURE
 MFSS.                  M:   MUD FILTRATE SAMPLE SOURCE
 MCSS.                  M:   MUD CAKE SAMPLE SOURCE
 RMB .OHMM            .73:   RESISTIVITY MUD AT BHT
 BHT .F                77:   BOTTOM HOLE TEMPERATURE
 TCS .HRS               1:   TIME CURCULATED STOPPED
 MRT .F                77:   MAXIMUM RECORDED TEMPERATURE
 LUN .               2523:   LOGGING UNIT NUMBER
 LUL .               CSPR:   LOGGING UNIT LOCATION
 ENGI.             KNOBEL:   RECORDING ENGINEER
 WITN.          JORGENSEN:   WITNESSED BY
 CLNT.            A2DTECH:   CLIENT CODE
 ORIG.       2", 5" PRINT:   ORIGIN OF DATA
 UWI .       490251023000:   UNIQUE WELL ID
 DICO. A2D Technologies, Inc.:   DIGITIZING COMPANY
~OTHER INFORMATION
~A   DEPT      GRN        SPR        ILD        ASN       CILD   
# ...
  319.0000  -999.2500   -32.3226     4.6732     5.9637   208.2616
  319.5000  -999.2500   -32.2198     4.8822     6.1044   202.3766
  320.0000  -999.2500   -32.1047     5.0813     6.2250   196.4916
  320.5000  -999.2500   -31.9954     5.2895     6.4336   190.6207
  321.0000  -999.2500   -31.8847     5.5150     6.7084   184.8402
  321.5000  -999.2500   -31.7715     5.7193     6.9516   179.0971
  322.0000  -999.2500   -31.6652     5.9324     7.2079   173.3550
  322.5000  -999.2500   -31.5448     6.1411     7.4578   167.6174
  323.0000  -999.2500   -31.5170     6.3528     7.7074   161.9056
  323.5000  -999.2500   -31.5760     6.4573     7.9568   156.8838
  324.0000  -999.2500   -31.6197     6.4660     8.0651   152.8056
  324.5000  -999.2500   -31.6710     6.4599     8.1683   152.8056
  325.0000  -999.2500   -31.7182     6.4143     8.2731   152.8056
  325.5000  -999.2500   -31.7677     6.3672     8.2836   153.6515
  326.0000  -999.2500   -31.8162     6.3201     8.2304   154.4072
  326.5000  -999.2500   -31.8652     6.2730     8.1853   155.1629
  327.0000  -999.2500   -31.9137     6.2264     8.1407   155.9186
  327.5000  -999.2500   -31.9628     6.1787     8.0915   156.6743
  328.0000  -999.2500   -32.0102     6.1335     8.0624   157.4301
  328.5000  -999.2500   -32.0628     6.0834     8.0523   158.1858
  329.0000  -999.2500   -32.0848     6.0588     8.0322   158.9415
  329.5000  -999.2500   -31.9493     6.0656     8.0252   159.6972
  330.0000  -999.2500   -31.8174     6.1005     8.0251   160.4529
  330.5000  -999.2500   -31.6830     6.1397     8.0265   161.2226
  331.0000  -999.2500   -31.5509     6.1767     8.0409   161.8427
  331.5000  -999.2500   -31.4172     6.2154     8.0548   161.8487
  332.0000  -999.2500   -31.2841     6.2592     8.0786   159.4070
  332.5000  -999.2500   -31.1521     6.3635     8.1337   156.1699
  333.0000  -999.2500   -31.0147     6.4975     8.2282   152.9350
  333.5000  -999.2500   -30.9166     6.6259     8.4381   149.6943
  334.0000  -999.2500   -31.0256     6.7811     8.6826   146.4492
  334.5000  -999.2500   -31.1428     7.1730     8.9256   141.8104
  335.0000  -999.2500   -31.2606     7.5748     9.1454   135.8945
  335.5000  -999.2500   -31.3776     7.9528     9.2743   129.9786
  336.0000  -999.2500   -31.4937     8.3138     9.3880   124.0627
  336.5000  -999.2500   -31.6135     8.6648     9.5076   118.1468
  337.0000  -999.2500   -31.7253     8.8562     9.6165   111.7234
  337.5000  -999.2500   -31.8531     8.8802     9.7492   111.7234
  338.0000  -999.2500   -31.8780     8.8655     9.8154   111.7234
  338.5000  -999.2500   -31.8062     8.8964     9.8097   111.5619
  339.0000  -999.2500   -31.7515     8.6775     9.6193   111.3793
  339.5000  -999.2500   -31.6883     8.0746     9.2760   116.0616
  340.0000  -999.2500   -31.6297     7.4273     8.9369   123.8872
  340.5000  -999.2500   -31.5687     6.8479     8.6016   131.5031
  341.0000  -999.2500   -31.5091     5.9785     8.1913   151.4345
  341.5000  -999.2500   -31.4485     4.8389     7.7306   189.6984
  342.0000  -999.2500   -31.3888     3.8342     6.9504   236.0688
  342.5000  -999.2500   -31.3275     2.6563     6.0396   323.7409
  343.0000  -999.2500   -31.2701     2.3647     4.9997   362.7756
  343.5000  -999.2500   -31.2040     2.2169     4.5704   411.5092
  344.0000  -999.2500   -31.1577     2.0229     4.0185   466.2890
  344.5000  -999.2500   -31.0531     1.8617     3.7647   500.8247
  345.0000  -999.2500   -30.8855     1.8324     3.5080   500.3262
  345.5000  -999.2500   -30.9541     1.9416     3.5033   486.4499
  346.0000  -999.2500   -31.0091     2.2174     3.5194   464.6159
  346.5000  -999.2500   -31.0800     2.6733     3.9025   405.1044
  347.0000  -999.2500   -31.1412     3.6050     4.5434   325.7502
  347.5000  -999.2500   -31.2078     4.7319     5.4446   291.4152
  348.0000  -999.2500   -31.2718     6.1967     6.7391   226.9476
  348.5000  -999.2500   -31.3370     7.3784     8.0337   153.4084
  349.0000  -999.2500   -31.4021     8.8168     9.3714   132.3645
  349.5000  -999.2500   -31.4662    10.1877    10.3970   107.7192
  350.0000  -999.2500   -31.5322    11.5197    10.9218    82.6653
  350.5000  -999.2500   -31.5944    11.6916    11.1749    82.9800
  351.0000  -999.2500   -31.6657    11.6406    11.1682    85.4990
  351.5000  -999.2500   -31.7019    10.9011    10.9446    87.6753
  352.0000  -999.2500   -31.6587     9.7724    10.6741    94.6894
  352.5000  -999.2500   -31.6148     8.7315    10.3649   102.9559
  353.0000  -999.2500   -31.5682     7.7016     9.9060   120.7555
  353.5000  -999.2500   -31.5233     6.5541     9.3797   142.1673
  354.0000  -999.2500   -31.4775     5.8343     8.7144   162.8257
  354.5000  -999.2500   -31.4321     5.7501     8.0524   167.0078
  355.0000  -999.2500   -31.3865     5.5443     7.3878   171.8437
  355.5000  -999.2500   -31.3411     5.5813     7.0357   172.8457
  356.0000  -999.2500   -31.2957     5.7156     7.2189   172.1309
  356.5000  -999.2500   -31.2503     5.9507     8.0044   169.9875
  357.0000  -999.2500   -31.2049     6.0233     9.1052   162.8257
  357.5000  -999.2500   -31.1596     7.0255     9.9542   147.0316
  358.0000  -999.2500   -31.1142     8.8107    10.1875   133.3868
  358.5000  -999.2500   -31.0689     9.0596    10.4006   119.7420
  359.0000  -999.2500   -31.0234     9.3233    10.5812   107.8757
  359.5000  -999.2500   -30.9785     9.5862    10.7692   101.9996
  360.0000  -999.2500   -30.9312     9.8622    10.9590   100.1628
  360.5000  -999.2500   -30.8697    10.1302    11.1453    98.3260
  361.0000  -999.2500   -30.7781    10.4002    11.3341    96.4892
  361.5000  -999.2500   -30.6819    10.6685    11.5204    94.6524
  362.0000  -999.2500   -30.5866    10.8073    11.7076    92.8156
  362.5000  -999.2500   -30.4906    10.8772    11.8183    90.9788
  363.0000  -999.2500   -30.3953    10.8644    11.8820    89.1420
  363.5000  -999.2500   -30.2987    10.7981    11.9487    88.6774
  364.0000  -999.2500   -30.2043    10.7404    12.0133    89.1182
  364.5000  -999.2500   -30.1066    10.6722    12.0791    90.5177
  365.0000  -999.2500   -30.0130    10.7205    12.1444    91.9172
  365.5000  -999.2500   -29.9140    10.8589    12.2089    92.6854
  366.0000  -999.2500   -30.0068    10.9883    12.2818    92.6854
  366.5000  -999.2500   -30.1536    11.1227    12.4340    90.9740
  367.0000  -999.2500   -30.2914    11.2551    12.5920    89.2946
  367.5000  -999.2500   -30.4332    11.3877    12.7506    87.6152
  368.0000  -999.2500   -30.5728    11.5218    12.9064    85.9359
  368.5000  -999.2500   -30.7143    11.6524    13.0676    84.5626
  369.0000  -999.2500   -30.8533    11.7921    13.2187    84.1283
  369.5000  -999.2500   -30.9959    11.9064    13.3922    83.6909
  370.0000  -999.2500   -31.1338    11.9788    13.4863    83.2560
  370.5000  -999.2500   -31.2821    11.9726    13.4737    82.8223
  371.0000  -999.2500   -31.2347    11.9756    13.4795    82.3886
  371.5000  -999.2500   -31.1399    11.9729    13.4756    81.9552
  372.0000  -999.2500   -31.0531    11.9746    13.4780    81.5222
  372.5000  -999.2500   -30.9638    11.9719    13.4737    81.0888
  373.0000  -999.2500   -30.8747    11.9753    13.4920    80.6562
  373.5000  -999.2500   -30.7867    11.9666    13.6327    80.2194
  374.0000  -999.2500   -30.6965    12.0257    13.7639    79.7851
  374.5000  -999.2500   -30.6095    12.2129    13.8976    79.3508
  375.0000  -999.2500   -30.5105    12.4066    14.0292    78.9165
  375.5000  -999.2500   -30.4970    12.5882    14.1615    78.3186
  376.0000  -999.2500   -30.5024    12.7991    14.2941    77.4790
  376.5000  -999.2500   -30.5575    12.9322    14.4262    76.6533
  377.0000  -999.2500   -30.6298    13.2442    14.5562    74.0922
  377.5000  -999.2500   -30.6991    13.8359    14.6933    71.5732
  378.0000  -999.2500   -30.7701    14.3794    15.0520    68.4369
  378.5000  -999.2500   -30.8393    14.9292    15.3071    64.9382
  379.0000  -999.2500   -30.9114    15.5256    16.0086    61.4395
  379.5000  -999.2500   -30.9779    16.0822    16.5880    57.9409
