~VERSION INFORMATION
 VERS.                2.0:   CWLS LOG ASCII STANDARD - VERSION 2.0
 WRAP.                 NO:   ONE LINE PER DEPTH STEP
~WELL INFORMATION
#MNEM.UNIT      DATA TYPE    INFORMATION
#----------   ------------   ------------------------------
 STRT.F           16.0000:   START DEPTH
 STOP.F         1334.0000:   STOP DEPTH
 STEP.F            0.5000:   STEP LENGTH
 NULL.          -999.2500:   NO VALUE
 COMP. U S NAVY/INTEX OIL CO:   COMPANY
 WELL.  S-11 NPR 3 #87-11:   WELL
 FLD .             TEAPOT:   FIELD
 LOC .      S11 T38N R78W:   LOCATION
 CNTY.            NATRONA:   COUNTY
 STAT.            WYOMING:   STATE
 CTRY. UNITED STATES OF AMERICA:   COUNTRY
 SRVC.       Schlumberger:   SERVICE COMPANY
 DATE.        17-JUN-1966:   LOGDATE
 API .       490250958900:   API NUMBER
~CURVE INFORMATION
#MNEM.UNIT       API CODE    CURVE DESCRIPTION
#----------   ------------   ------------------------------
 DEPT.F                  :   
 GRD .GAPI   45 310 01 00:   GAMMA RAY FROM DENSITY LOG
 CALD.IN     45 280 60 00:   CALIPER
 RHOB.G/C3   45 350 01 00:   BULK DENSITY
 DPOR.DEC    45 890 12 00:   DENSITY POROSITY SANDSTONE
 DRHO.G/C3   45 356 01 00:   DENSITY CORRECTION
 ASN .OHMM   05 041 16 00:   AMPLIFIED SHORT NORMAL 16"
 ILD .OHMM   05 120 46 00:   INDUCTION LOG DEEP
 CILD.MMHO   05 110 46 00:   CONDUCTIVITY INDUCTION LOG DEEP
 SPR .MV     05 010 01 00:   SPONTANEOUS POTENTIAL FROM RES.
~PARAMETER INFORMATION
#MNEM.UNIT          VALUE    DESCRIPTION
#----------   ------------   ------------------------------
 PD  .                 GL:   PERMANENT DATUM
 EPD .F              5284:   ELEVATION PERMANENT DATUM
 LMF .                 KB:   LOG MEASURED FROM
 DAPD.F                 5:   FEET ABOVE PERMANENT DATUM
 DMF .                 KB:   DRILLING MEASURED FROM
 EKB .F              5289:   KELLING BUSHING
 EGL .F              5284:   GROUND LEVEL
 DATE.          8-17-1966:   RUN DATE
 RUN .                  1:   RUN NUMBER
 DD  .F              1335:   DEPTH DRILLER
 DL  .F              1335:   DEPTH LOGGER
 BLI .F              1334:   BOTTOM LOG INTERVAL
 TLI .F                50:   TOP LOG INTERVAL
 CS  .IN            8.625:   CASING SIZE
 CBD .F                10:   CASING BOTTOM DRILLER
 BS  .IN            7.875:   BIT SIZE
 BSD .F              1335:   BIT SIZE AT DEPTH
 DFT .           GEL-CHEM:   DRILLING FLUID TYPE
 DFD .                9.3:   DRILLING FLUID DENSITY
 DFV .                 50:   DRILLING FLUID VISCOSITY
 MSS .          FLOW LINE:   MUD SAMPLE SOURCE
 RMS .OHMM           1.38:   RESISTIVITY MUD SAMPLE
 MST .F                80:   MUD SAMPLE TEMPERATURE
 RMF .OHMM           1.09:   RESISTIVITY MUD FILTRATE SAMPLE
 MFST.F                77:   MUD FILTRATE SAMPLE TEMPERATURE
 MFSS.                  M:   MUD FILTRATE SAMPLE SOURCE
 RMB .OHMM           1.70:   RESISTIVITY MUD AT BHT
 BHT .F               108:   BOTTOM HOLE TEMPERATURE
 TCS .HRS               1:   TIME CURCULATED STOPPED
 MRT .F               108:   MAXIMUM RECORDED TEMPERATURE
 LUN .               4507:   LOGGING UNIT NUMBER
 LUL .               CSPR:   LOGGING UNIT LOCATION
 ENGI.            MANGOLD:   RECORDING ENGINEER
 WITN.                MAY:   WITNESSED BY
 CLNT.            A2DTECH:   CLIENT CODE
 ORIG.       2", 5" PRINT:   ORIGIN OF DATA
 UWI .       490250958900:   UNIQUE WELL ID
 DICO. A2D Technologies, Inc.:   DIGITIZING COMPANY
~OTHER INFORMATION
~A   DEPT       GRD      CALD       RHOB       DPOR       DRHO        ASN        ILD       CILD        SPR   
# ...
  344.5000    95.9759     7.9394     2.4676     0.1156     0.0964     6.0619     5.4203   187.5694   -52.4278
  345.0000    94.9259     8.0082     2.4575     0.1215     0.0815     6.0391     5.5031   185.2657   -52.3288
  345.5000    95.9181     8.1454     2.4467     0.1257     0.0629     6.1437     5.5859   182.9636   -52.2295
  346.0000    97.4436     8.2849     2.4467     0.1294     0.0444     6.2501     5.6687   180.6622   -52.1303
  346.5000    97.0645     8.3431     2.4643     0.1196     0.0257     6.3581     5.7517   178.3612   -52.0311
  347.0000    95.8779     8.3421     2.4769     0.1141     0.0094     6.4820     5.8346   176.0603   -51.9319
  347.5000    95.2816     8.3400     2.4897     0.1098     0.0268     6.6064     5.9025   173.7563   -51.8327
  348.0000    96.0073     8.3378     2.5013     0.1056     0.0481     6.7306     5.8485   171.4537   -51.7335
  348.5000    96.7050     8.3358     2.5015     0.1059     0.0577     6.8485     5.7928   169.8867   -51.6342
  349.0000    97.4136     8.3337     2.4886     0.1081     0.0467     6.8655     5.7375   169.6517   -51.5348
  349.5000    97.1537     8.3316     2.4794     0.1115     0.0381     6.8274     5.6823   170.8030   -51.4360
  350.0000    95.9982     8.3295     2.4697     0.1162     0.0295     6.7775     5.6270   171.9522   -51.4054
  350.5000    94.8275     8.3274     2.4602     0.1189     0.0209     6.7276     5.5710   173.1031   -51.4850
  351.0000    93.6724     8.3253     2.4613     0.1171     0.0208     6.6787     5.5149   174.2473   -51.5592
  351.5000    94.0180     8.3232     2.4580     0.1212     0.0288     6.6514     5.5910   175.2731   -51.7445
  352.0000    98.2862     8.3211     2.4496     0.1271     0.0295     6.6818     5.6803   174.0294   -51.9723
  352.5000   101.4269     8.3190     2.4433     0.1205     0.0240     6.7113     5.7695   172.6569   -52.2012
  353.0000   101.4590     8.3169     2.4619     0.1110     0.0186     6.7409     5.8584   171.2845   -52.4295
  353.5000   101.5406     8.3148     2.4803     0.1015     0.0270     6.7096     5.9461   169.9120   -52.6582
  354.0000   101.6325     8.3127     2.4987     0.0928     0.0439     6.6977     6.0091   168.5395   -52.7006
  354.5000   101.1548     8.3106     2.5177     0.0821     0.0608     6.7600     6.0078   167.3287   -52.5566
  355.0000   100.4590     8.3085     2.4999     0.0946     0.0751     6.8929     6.0081   167.4777   -52.4132
  355.5000    99.7372     8.3064     2.4781     0.1052     0.0661     7.0281     6.0095   168.7215   -52.2692
  356.0000   100.2778     8.3051     2.4562     0.1118     0.0501     7.1694     5.9337   170.7090   -52.1255
  356.5000   101.3002     8.3044     2.4373     0.1187     0.0340     7.1274     5.8317   175.0208   -51.9818
  357.0000   102.3246     8.3038     2.4536     0.1121     0.0178     7.0042     5.7291   179.3327   -51.8381
  357.5000   102.3851     8.3032     2.4702     0.1046     0.0167     6.8262     5.6266   183.6445   -51.6944
  358.0000   100.7616     8.3025     2.4866     0.0971     0.0246     6.6488     5.5241   187.9563   -51.5506
  358.5000    99.1886     8.3019     2.5029     0.0895     0.0319     6.4668     5.4208   192.2909   -51.4069
  359.0000    99.0185     8.3013     2.5125     0.0810     0.0248     6.3519     5.3165   195.1635   -51.2631
  359.5000   102.4946     8.3006     2.5002     0.0910     0.0146     6.2600     5.3146   195.3455   -51.1193
  360.0000   104.6435     8.3000     2.4892     0.0996    -0.0024     6.2371     5.4859   189.5984   -50.9812
  360.5000   101.9670     8.2993     2.4960     0.0952     0.0580     6.2099     5.6809   183.8430   -50.8902
  361.0000    98.6810     8.2987     2.5064     0.0916     0.0540     6.3016     5.8885   178.0880   -50.8017
  361.5000    97.6976     8.2981     2.5168     0.0832     0.0530     6.5740     6.0961   172.3390   -50.8491
  362.0000    97.2492     8.2974     2.5274     0.0748     0.0504     7.0795     6.3034   166.5899   -50.9132
  362.5000    92.8347     8.2968     2.5311     0.0767     0.0375     7.7412     6.5107   160.8391   -50.9773
  363.0000    94.6487     8.2962     2.5182     0.0831     0.0246     7.9786     6.7184   155.0842   -51.0412
  363.5000    97.5464     8.2955     2.5034     0.0896     0.0119     7.9029     6.9255   149.3570   -51.1051
  364.0000   100.1442     8.2949     2.4976     0.0944     0.0043     8.1377     7.1159   144.2262   -51.1690
  364.5000   100.2584     8.2943     2.5037     0.0898     0.0197     8.2269     7.1872   144.3952   -51.2328
  365.0000   100.3354     8.2936     2.5092     0.0872     0.0347     8.0026     7.1065   146.8611   -51.2967
  365.5000   100.3990     8.2930     2.4961     0.0959     0.0502     7.8163     6.9847   149.3568   -51.3606
  366.0000   101.7272     8.2924     2.4573     0.1112     0.0508     7.6874     6.8619   151.8471   -51.4245
  366.5000   103.5419     8.2917     2.4340     0.1262     0.0381     7.6510     6.7393   154.3347   -51.4883
  367.0000   105.3513     8.2911     2.4316     0.1311     0.0291     7.6140     6.6168   156.8222   -51.5523
  367.5000   106.5067     8.2905     2.4394     0.1329     0.0202     7.4830     6.4944   159.3098   -51.5595
  368.0000   105.8385     8.2898     2.4594     0.1222     0.0148     7.2858     6.3719   161.7974   -51.5099
  368.5000   104.4542     8.2892     2.4791     0.1088     0.0204     7.1305     6.2495   164.3495   -51.4605
  369.0000   103.8381     8.2885     2.4989     0.0952     0.0258     7.0555     6.1270   166.9341   -51.4109
  369.5000   102.3689     8.2879     2.5150     0.0821     0.0311     6.9789     6.0045   169.5874   -51.3614
  370.0000   100.3953     8.2873     2.5016     0.0886     0.0361     6.9044     5.8821   172.2408   -51.3119
  370.5000   100.5769     8.2866     2.5042     0.0877     0.0640     6.8880     5.7594   174.8958   -51.2624
  371.0000   101.5889     8.2860     2.4963     0.0929     0.0573     6.8078     5.6354   177.5564   -51.2129
  371.5000   102.6268     8.2853     2.4705     0.1000     0.0474     6.7281     5.5619   180.2345   -51.1744
  372.0000   103.6251     8.2841     2.4500     0.1138     0.0373     6.6484     5.4997   181.3337   -51.1469
  372.5000   102.1302     8.2829     2.4551     0.1197     0.0272     6.5687     5.4366   182.0358   -51.1194
  373.0000   100.3203     8.2817     2.4501     0.1187     0.0175     6.4890     5.4619   181.0407   -51.0919
  373.5000   101.7703     8.2804     2.4555     0.1204     0.0233     6.4164     5.5439   179.7567   -51.0643
  374.0000   101.3214     8.2792     2.4670     0.1095     0.0318     6.3942     5.6302   177.2691   -51.0367
  374.5000    98.1480     8.2780     2.4744     0.1041     0.0258     6.4514     5.7321   174.7815   -51.0096
  375.0000   101.4027     8.2768     2.4793     0.1044     0.0418     6.5769     5.8337   172.2939   -51.0064
  375.5000   102.9172     8.2756     2.4848     0.1042     0.0528     6.7172     5.9352   169.7324   -51.0658
  376.0000   100.5058     8.2744     2.5058     0.0999     0.0373     6.8573     6.0367   166.8587   -51.1240
  376.5000    99.0510     8.2731     2.5264     0.0954     0.0315     6.9601     6.1383   163.9888   -51.1823
  377.0000   106.4889     8.2719     2.5398     0.0929     0.0368     7.0049     6.2398   161.1183   -51.2406
  377.5000   110.2891     8.2707     2.5015     0.1068     0.0420     7.0672     6.3414   158.2480   -51.2988
  378.0000   107.9538     8.2695     2.4660     0.1169     0.0471     7.2061     6.4430   155.4121   -51.3571
  378.5000   108.3115     8.2683     2.4484     0.1271     0.0347     7.3435     6.5443   154.4967   -51.3383
  379.0000   106.8209     8.2671     2.4391     0.1299     0.0253     7.4760     6.6043   153.5921   -51.2424
  379.5000   103.3977     8.2661     2.4550     0.1206     0.0223     7.5335     6.5746   155.0506   -51.1467
  380.0000    99.9515     8.2514     2.4766     0.1028     0.0196     7.5892     6.4206   157.0407   -51.0507
  380.5000    97.3645     8.2316     2.5017     0.0916     0.0331     7.5659     6.2695   159.0308   -50.9548
