~VERSION INFORMATION
 VERS.                2.0:   CWLS LOG ASCII STANDARD - VERSION 2.0
 WRAP.                 NO:   ONE LINE PER DEPTH STEP
~WELL INFORMATION
#MNEM.UNIT      DATA TYPE    INFORMATION
#----------   ------------   ------------------------------
 STRT.F           57.5000:   START DEPTH
 STOP.F         4049.0000:   STOP DEPTH
 STEP.F            0.5000:   STEP LENGTH
 NULL.          -999.2500:   NO VALUE
 COMP. LAWRENCE/ALLISON INC:   COMPANY
 WELL.     NPR #3` #13-11:   WELL
 FLD .             NPR #3:   FIELD
 LOC .      S11 T38N R78W:   LOCATION
 CNTY.            NATRONA:   COUNTY
 STAT.            WYOMING:   STATE
 CTRY. UNITED STATES OF AMERICA:   COUNTRY
 SRVC.      Dresser Atlas:   SERVICE COMPANY
 DATE.        13-MAR-1986:   LOGDATE
 API .       490251106500:   API NUMBER
~CURVE INFORMATION
#MNEM.UNIT       API CODE    CURVE DESCRIPTION
#----------   ------------   ------------------------------
 DEPT.F                  :   
 CALR.IN     07 280 01 00:   CALIPER FROM RESISTIVITY
 GRR .GAPI   07 310 01 00:   GAMMA RAY FROM RESISTIVITY
 RILD.OHMM   07 120 46 00:   RESISTIVITY INDUCTION LOG DEEP
 RILM.OHMM   07 120 44 00:   RESISTIVITY INDUCTION LOG MEDIUM
 RFOC.OHMM   07 220 04 00:   RESISTIVITY FOCUSED LOG
 SPR .MV     07 010 01 00:   SPONTANEOUS POTENTIAL FROM RES.
 PORD.DEC    45 890 12 00:   POROSITY DENSITY SANDSTONE
 CNC .DEC    42 890 03 00:   COMPENSATED NEUTRON POROSITY SANDSTONE
 CORR.G/C3   45 356 01 00:   DENSITY CORRECTION
 DEN .G/C3   45 350 01 00:   COMPENSATED BULK DENSTIY
 DT  .US/F   60 520 00 00:   INTERVAL TRANSIT TIME
~PARAMETER INFORMATION
#MNEM.UNIT          VALUE    DESCRIPTION
#----------   ------------   ------------------------------
 PD  .                 GL:   PERMANENT DATUM
 EPD .F              5176:   ELEVATION PERMANENT DATUM
 LMF .                 KB:   LOG MEASURED FROM
 DAPD.F              11.8:   FEET ABOVE PERMANENT DATUM
 DMF .                 KB:   DRILLING MEASURED FROM
 EKB .F            5187.8:   KELLING BUSHING
 EGL .F              5176:   GROUND LEVEL
 DATE.        13-MAR-1986:   RUN DATE
 RUN .                  1:   RUN NUMBER
 DD  .F              4051:   DEPTH DRILLER
 DL  .F              4051:   DEPTH LOGGER
 BLI .F              4049:   BOTTOM LOG INTERVAL
 TLI .F               564:   TOP LOG INTERVAL
 CS  .IN            8.625:   CASING SIZE
 CBD .F               564:   CASING BOTTOM DRILLER
 CBL .F               564:   CASING BOTTOM LOGGER
 BS  .IN            7.875:   BIT SIZE
 BSD .F              4051:   BIT SIZE AT DEPTH
 DFT .          POLY- KCL:   DRILLING FLUID TYPE
 DFD .                8.9:   DRILLING FLUID DENSITY
 DFV .                 36:   DRILLING FLUID VISCOSITY
 DFPH.                8.5:   DRILLING FLUID PH
 DFL .               13.5:   DRILLING FLUID LOSS
 MSS .           FLOWLINE:   MUD SAMPLE SOURCE
 RMS .OHMM           .275:   RESISTIVITY MUD SAMPLE
 MST .F                55:   MUD SAMPLE TEMPERATURE
 RMF .OHMM           .206:   RESISTIVITY MUD FILTRATE SAMPLE
 MFST.F                55:   MUD FILTRATE SAMPLE TEMPERATURE
 RMC .OHMM           .344:   RESISTIVITY MUD CAKE
 MCST.F                55:   MUD CAKE SAMPLE TEMPERATURE
 MFSS.               CALC:   MUD FILTRATE SAMPLE SOURCE
 MCSS.               CALC:   MUD CAKE SAMPLE SOURCE
 RMB .OHMM           .092:   RESISTIVITY MUD AT BHT
 BHT .F               164:   BOTTOM HOLE TEMPERATURE
 TCS .HRS            0400:   TIME CURCULATED STOPPED
 MRT .F               164:   MAXIMUM RECORDED TEMPERATURE
 LUN .               6274:   LOGGING UNIT NUMBER
 LUL .           GILLETTE:   LOGGING UNIT LOCATION
 ENGI.             MILLER:   RECORDING ENGINEER
 WITN.             STRONG:   WITNESSED BY
 CLNT.            A2DTECH:   CLIENT CODE
 ORIG.         2.5" PRINT:   ORIGIN OF DATA
 UWI .       490251106500:   UNIQUE WELL ID
 DICO. A2D Technologies, Inc.:   DIGITIZING COMPANY
~OTHER INFORMATION
~A   DEPT     CALR         GRR      RILD       RILM       RFOC        SPR       PORD        CNC       CORR        DEN         DT   
# ...
 3778.5000     8.0345   116.2140     2.3268     2.4983     3.2499   -23.0473     0.0849     0.3100     0.0037     2.5213    92.9152
 3779.0000     8.0199   113.1403     2.2314     2.4295     3.8921   -23.3527     0.0881     0.3143     0.0066     2.5167    92.6163
 3779.5000     8.0191   113.7477     2.1698     2.3299     3.7335   -23.4030     0.0896     0.3198     0.0205     2.5106    92.4679
 3780.0000     8.0183   118.0360     2.1099     2.2595     3.4833   -23.2317     0.0898     0.3252     0.0505     2.5030    93.9762
 3780.5000     8.0176   118.6442     2.1094     2.2033     3.3413   -23.2378     0.0889     0.3228     0.0312     2.5045    95.2823
 3781.0000     8.0168   118.6372     2.1090     2.1783     3.1610   -23.2439     0.0775     0.3192     0.0087     2.5105    96.7894
 3781.5000     8.0161   118.6310     2.1085     2.2086     3.0745   -23.2500     0.0454     0.3174     0.0049     2.5225    98.2964
 3782.0000     8.0153   121.0788     2.1081     2.2139     2.9492   -23.2561    -0.0129     0.3161     0.0376     2.5588    99.4069
 3782.5000     8.0145   121.4615     2.1077     2.2704     3.0322   -23.2622    -0.0186     0.3186     0.0724     2.6660    98.9574
 3783.0000     8.0138   115.5450     2.0781     2.2701     3.2953   -23.1798     0.0087     0.3246     0.0963     2.6707    97.1524
 3783.5000     8.0130   107.5634     2.0491     2.2697     3.6313   -22.9687     0.0562     0.3356     0.1223     2.6040    92.6366
 3784.0000     8.0122   102.0357     2.0204     2.3013     4.0016   -22.8983     0.0964     0.3376     0.1313     2.5193    89.4762
 3784.5000     7.9809   101.4161     1.9921     2.2643     3.8921   -22.3005     0.0978     0.3325     0.0429     2.4856    89.9303
 3785.0000     7.9801   106.3179     1.9642     2.1974     3.2953   -22.0071     0.0892     0.3235     0.0254     2.5026    91.5892
 3785.5000     7.9940   113.6737     1.9367     2.0823     2.7900   -21.6535     0.0984     0.3132     0.0460     2.4950    95.0553
 3786.0000     8.0092   120.4160     1.8832     2.0211     2.7371   -20.8653     0.1310     0.3041     0.0554     2.4557   100.0274
 3786.5000     7.9941   111.8209     1.8312     1.9729     2.9086   -20.5666     0.1369     0.3004     0.0361     2.4210   100.3309
 3787.0000     7.9465   109.8604     1.8056     2.0039     2.9492   -20.5293     0.1383     0.3004     0.0182     2.4300    99.4296
 3787.5000     7.9151   108.7423     1.8052     2.0565     2.9492   -20.5793     0.1176     0.3035     0.0128     2.4466    99.7330
 3788.0000     7.9144   112.3355     1.8301     2.0922     2.9086   -20.9552     0.0974     0.3144     0.0120     2.4828   101.3919
 3788.5000     7.9273   120.5093     1.8553     2.1773     2.9086   -22.1427     0.0821     0.3193     0.0008     2.5015   101.5448
 3789.0000     7.9570   128.1474     1.8809     2.3016     2.9086   -23.0366     0.0579     0.3108    -0.0340     2.5371   101.3964
 3789.5000     8.0038   127.6832     1.9068     2.3994     2.9492   -23.3635     0.0407     0.2994    -0.0630     2.5813    99.5914
 3790.0000     8.0163   118.3251     1.9875     2.4737     3.0745   -23.9835     0.0400     0.2781    -0.0335     2.5804    97.3347
 3790.5000     8.0329   110.4876     2.0716     2.6146     3.2052   -24.5887     0.0638     0.2696    -0.0149     2.5370    95.2285
 3791.0000     8.0321   106.5271     2.2202     2.7634     3.4353   -25.5000     0.0864     0.2672    -0.0150     2.5000    92.9717
 3791.5000     8.0313   105.9346     2.3466     3.0034     3.6313   -26.1159     0.0836     0.2672    -0.0024     2.5084    90.7150
 3792.0000     8.0306   107.7624     2.6957     3.2679     3.8385   -27.0367     0.0802     0.2720     0.0246     2.5142    89.3618
 3792.5000     8.0298   108.0675     3.0541     3.5973     4.2890   -27.3477     0.0818     0.2696     0.0305     2.5142    87.8580
 3793.0000     8.0291   108.6748     3.4601     3.8516     5.2083   -27.9636     0.0837     0.2672     0.0369     2.5126    86.3543
 3793.5000     8.0283   108.9531     3.5569     3.9521     5.6603   -28.2747     0.0826     0.2696     0.0420     2.5133    84.5493
 3794.0000     8.0583   110.1674     3.6059     3.8366     5.4296   -28.2808     0.0819     0.2896     0.0415     2.5133    84.2500
 3794.5000     8.0573   111.1104     3.5554     3.6285     4.8593   -28.2870     0.0842     0.2902     0.0354     2.5089    85.0056
 3795.0000     8.0566   111.9837     3.4572     3.4366     4.6612   -28.2931     0.0866     0.2818     0.0227     2.5034    86.2127
 3795.5000     8.0558   115.2045     3.2697     3.3886     4.4712   -28.2993     0.0885     0.2775     0.0021     2.5047    87.4198
 3796.0000     8.0858   119.7210     3.0496     3.3862     4.2299   -28.3055     0.0891     0.2751     0.0055     2.5094    88.6269
 3796.5000     8.1156   125.5726     2.8051     3.2929     3.8921   -28.3116     0.0837     0.2872     0.0142     2.5108    90.2858
 3797.0000     8.1147   125.3207     2.6530     3.2022     3.7335   -28.6226     0.0837     0.3218     0.0141     2.5102    92.0952
 3797.5000     8.0833   123.1087     2.4744     3.0263     3.8921   -28.9337     0.0839     0.3248     0.0140     2.5060    93.6035
 3798.0000     8.0826   121.4969     2.3729     2.7066     4.1142   -28.9398     0.0876     0.3309     0.0109     2.4937    93.6547
 3798.5000     8.1125   121.7138     2.3074     2.5258     4.1325   -28.9460     0.0975     0.3260     0.0108     2.4809    93.3068
 3799.0000     8.1116   122.9285     2.2128     2.4230     3.8921   -28.9521     0.1047     0.3176     0.0169     2.4703    93.4597
 3799.5000     8.1416   125.1774     2.2123     2.4567     3.6821   -28.6534     0.1087     0.3051     0.0288     2.4683    95.4198
 3800.0000     8.1408   128.2219     2.2119     2.4908     3.2498   -28.7468     0.1047     0.2891     0.0378     2.4789    97.2950
 3800.5000     8.1457   128.0154     2.2739     2.4650     2.7511   -28.9726     0.0782     0.2739     0.0316     2.5131    99.6421
 3801.0000     8.1499   125.1728     2.3704     2.5943     2.7377   -28.8822     0.0390     0.2594    -0.0198     2.5539   101.0005
 3801.5000     8.1541   118.9027     2.5055     2.8954     2.8672   -28.6845     0.0232     0.2410    -0.0501     2.6028   100.8529
 3802.0000     8.1583   107.7649     2.7229     3.4376     3.4333   -28.5977     0.0184     0.2359    -0.0442     2.6147    98.8981
 3802.5000     8.1624    98.2052     3.0851     3.8854     5.4257   -28.3979     0.0456     0.2345     0.0011     2.5725    93.7807
 3803.0000     8.1675    98.2964     3.5939     4.4398     7.5678   -28.1022     0.0734     0.2354     0.0221     2.5398    86.4042
 3803.5000     8.1589    98.8985     4.2453     4.7911     7.9054   -28.4177     0.0872     0.2405     0.0162     2.5160    77.9734
 3804.0000     8.1358    99.5014     4.8100     5.2433     7.1574   -28.4268     0.0884     0.2506     0.0084     2.5007    77.2611
 3804.5000     8.1277   100.8755     5.3005     5.4319     7.0578   -28.4360     0.0878     0.2574     0.0010     2.4976    78.7325
 3805.0000     8.1040   103.6190     5.2998     5.2983     6.9023   -28.1389     0.0914     0.2624    -0.0021     2.4955    79.5231
 3805.5000     8.1034   108.5005     5.0126     4.8887     6.7131   -28.1494     0.0987     0.2694    -0.0052     2.4904    80.2446
 3806.0000     8.1028   112.4828     4.5475     4.4262     6.2493   -27.7641     0.1041     0.2820    -0.0083     2.4797    81.1512
 3806.5000     8.1021   114.0314     4.0686     4.0438     5.6615   -27.2517     0.1095     0.2949    -0.0083     2.4621    82.2084
 3807.0000     8.1015   114.6387     3.6401     3.7424     4.9680   -27.2622     0.1138     0.3048    -0.0077     2.4581    83.6830
 3807.5000     8.1316   114.7596     3.2568     3.3808     4.4134   -27.1851     0.1162     0.3097    -0.0024     2.4571    86.8325
 3808.0000     8.1309   116.2216     3.0378     3.3228     4.0114   -26.9743     0.1174     0.3145     0.0049     2.4583    90.0520
 3808.5000     8.1303   119.7627     2.9134     3.2371     3.8003   -26.5955     0.0968     0.3188     0.0096     2.4678    93.5878
