~VERSION INFORMATION
 VERS.                2.0:   CWLS LOG ASCII STANDARD - VERSION 2.0
 WRAP.                 NO:   ONE LINE PER DEPTH STEP
~WELL INFORMATION
#MNEM.UNIT      DATA TYPE    INFORMATION
#----------   ------------   ------------------------------
 STRT.F           46.0000:   START DEPTH
 STOP.F          490.0000:   STOP DEPTH
 STEP.F            0.5000:   STEP LENGTH
 NULL.          -999.2500:   NO VALUE
 COMP.    FENIX & SCISSON:   COMPANY
 WELL.        NPR #55-S-3:   WELL
 FLD .              NPR 3:   FIELD
 LOC .       S3 T38N R78W:   LOCATION
 CNTY.            NATRONA:   COUNTY
 STAT.            WYOMING:   STATE
 CTRY. UNITED STATES OF AMERICA:   COUNTRY
 SRVC.      Dresser Atlas:   SERVICE COMPANY
 DATE.        12-MAR-1977:   LOGDATE
 API .       490251028700:   API NUMBER
~CURVE INFORMATION
#MNEM.UNIT       API CODE    CURVE DESCRIPTION
#----------   ------------   ------------------------------
 DEPT.F                  :   
 SPR .MV     07 010 01 00:   SPONTANEOUS POTENTIAL
 ILM .OHMM   07 120 44 00:   INDUCTION LOG MEDIUM
 ILD .OHMM   07 120 46 00:   INDUCTION LOG DEEP
 SFL .OHMM   07 220 01 00:   SHALLOW FOCUSED LOG RESISTIVITY
 CALD.IN     45 280 60 00:   CALIPER FROM DENSITY LOG
 GRD .GAPI   45 310 01 00:   GAMMA RAY FROM DENSITY LOG
 CORR.G/C3   45 356 01 00:   DENSITY CORRECTION
 DPHI.DEC    45 890 12 00:   DENSITY POROSITY SANDSTONE
 RHOB.G/C3   45 350 01 00:   BULK DENSITY
~PARAMETER INFORMATION
#MNEM.UNIT          VALUE    DESCRIPTION
#----------   ------------   ------------------------------
 PD  .                 GL:   PERMANENT DATUM
 EPD .F              5169:   ELEVATION PERMANENT DATUM
 LMF .                 GL:   LOG MEASURED FROM
 DMF .                 GL:   DRILLING MEASURED FROM
 EGL .F              5169:   GROUND LEVEL
 DATE.        12-MAR-1977:   RUN DATE
 RUN .                  1:   RUN NUMBER
 DD  .F               498:   DEPTH DRILLER
 DL  .F               492:   DEPTH LOGGER
 BLI .F               490:   BOTTOM LOG INTERVAL
 TLI .F               046:   TOP LOG INTERVAL
 CS  .IN            8.625:   CASING SIZE
 CBD .F                40:   CASING BOTTOM DRILLER
 CBL .F               046:   CASING BOTTOM LOGGER
 BS  .IN            7.875:   BIT SIZE
 BSD .F               498:   BIT SIZE AT DEPTH
 DFT .           CHEM GEL:   DRILLING FLUID TYPE
 DFD .                8.7:   DRILLING FLUID DENSITY
 DFV .                 35:   DRILLING FLUID VISCOSITY
 DFPH.                8.0:   DRILLING FLUID PH
 DFL .                7.2:   DRILLING FLUID LOSS
 MSS .           FLOWLINE:   MUD SAMPLE SOURCE
 RMS .OHMM            .35:   RESISTIVITY MUD SAMPLE
 MST .F                60:   MUD SAMPLE TEMPERATURE
 RMF .OHMM             .3:   RESISTIVITY MUD FILTRATE SAMPLE
 MFST.F                60:   MUD FILTRATE SAMPLE TEMPERATURE
 RMC .OHMM            .73:   RESISTIVITY MUD CAKE
 MCST.F                60:   MUD CAKE SAMPLE TEMPERATURE
 MFSS.               MEAS:   MUD FILTRATE SAMPLE SOURCE
 MCSS.               MEAS:   MUD CAKE SAMPLE SOURCE
 RMB .OHMM            .33:   RESISTIVITY MUD AT BHT
 BHT .F                63:   BOTTOM HOLE TEMPERATURE
 TCS .HRS            1400:   TIME CURCULATED STOPPED
 MRT .F                63:   MAXIMUM RECORDED TEMPERATURE
 LUN .               6134:   LOGGING UNIT NUMBER
 LUL .              GLTTE:   LOGGING UNIT LOCATION
 ENGI.              NOYER:   RECORDING ENGINEER
 WITN.         STUEBINGER:   WITNESSED BY
 CLNT.            A2DTECH:   CLIENT CODE
 ORIG.           5" PRINT:   ORIGIN OF DATA
 UWI .       490251028700:   UNIQUE WELL ID
 DICO. A2D Technologies, Inc.:   DIGITIZING COMPANY
~OTHER INFORMATION
~A   DEPT      SPR        ILM        ILD        SFL       CALD        GRD       CORR         DPHI       RHOB 
# ...
  447.5000   -54.3340    10.4175     9.7436    12.3773     8.0915    98.2246     0.0154     0.0651     2.5446
  448.0000   -54.1853    10.5610     9.8792    12.2066     8.0929   101.2169     0.0186     0.0684     2.5408
  448.5000   -54.0374    10.6328     9.9478    12.7224     8.0830    98.9286     0.0153     0.0765     2.5287
  449.0000   -54.0389    10.8537    10.0891    13.0823     8.0844    97.1470     0.0066     0.0880     2.5197
  449.5000   -53.7413    10.9276    10.2977    13.3511     8.0855    96.2608     0.0014     0.0937     2.5030
  450.0000   -53.7424    11.1549    10.4581    13.2529     8.0866    97.6135     0.0106     0.0955     2.5272
  450.5000   -53.7405    11.1530    10.6702    13.1861     8.0878   101.3542     0.0167     0.0915     2.5061
  451.0000   -53.7385    11.1511    10.8853    13.3501     8.0889   104.0478     0.0092     0.0949     2.4990
  451.5000   -53.5869    11.1490    10.8922    13.4512     8.0898    99.4327     0.0048     0.0954     2.4963
  452.0000   -53.4354    11.1472    10.9629    13.7243     8.0909    94.5167     0.0200     0.0836     2.5091
  452.5000   -53.4336    11.1453    11.0399    14.0117     8.0920    93.0312     0.0292     0.0670     2.5395
  453.0000   -53.4318    11.1430    11.0408    13.6298     8.0931    95.3893     0.0338     0.0642     2.5441
  453.5000   -52.9809    11.1411    11.0417    13.2582     8.0943    99.7592     0.0354     0.0697     2.5358
  454.0000   -52.8293    11.1393    11.0427    12.9862     8.0358    92.9101     0.0355     0.0636     2.5434
  454.5000   -52.5278    11.2151    11.0436    13.5359     7.9922    93.7470     0.0340     0.0709     2.5314
  455.0000   -52.5260    11.2905    11.0445    14.0117     7.9635    96.9588     0.0296     0.0769     2.5216
  455.5000   -52.5241    11.3669    11.0457    14.2067     7.9497    95.1251     0.0248     0.0811     2.5186
  456.0000   -52.6720    11.4438    11.0466    14.3052     7.9357    92.4900     0.0206     0.0889     2.5005
  456.5000   -52.9697    11.3627    11.0475    14.2067     7.9371    93.2654     0.0208     0.0913     2.5013
  457.0000   -53.8722    11.2048    10.9721    14.0117     7.9382    96.9963     0.0238     0.0875     2.5134
  457.5000   -54.6127    11.0492    10.8976    13.7243     7.9394    94.9161     0.0284     0.0772     2.5270
  458.0000   -54.6105    10.9713    10.8985    13.0763     7.9554    93.4330     0.0285     0.0720     2.5362
  458.5000   -54.6087    10.8940    10.7497    12.8968     7.9413    92.0991     0.0286     0.0804     2.5192
  459.0000   -54.4572    10.8921    10.6766    13.3501     7.9428    94.3473     0.0302     0.0826     2.5151
  459.5000   -54.3057    10.8903    10.6039    13.6298     7.9439    96.5955     0.0348     0.0734     2.5295
  460.0000   -54.3039    10.8881    10.6050    13.9152     7.9450    99.4407     0.0333     0.0701     2.5431
  460.5000   -54.1523    10.8862    10.5326    13.9152     7.9462   100.4310     0.0243     0.0813     2.5068
  461.0000   -54.1501    10.8095    10.5337    13.7243     7.9473   101.6983     0.0229     0.0876     2.5039
  461.5000   -54.1483    10.8077    10.4620    13.4427     7.9484    98.5733     0.0230     0.0851     2.5100
  462.0000   -54.1465    10.8059    10.4628    13.6298     7.9495    95.4484     0.0230     0.0788     2.5244
  462.5000   -54.1447    10.6558    10.4637    13.5359     7.9504    96.0548     0.0210     0.0806     2.5093
  463.0000   -53.9932    10.5077    10.3925    13.3501     7.9516    98.3030     0.0171     0.0855     2.4995
  463.5000   -53.9914    10.3614    10.2508    13.1669     7.9527    98.9094     0.0173     0.0929     2.4957
  464.0000   -53.9895    10.2175    10.0412    12.9862     7.9538   101.4561     0.0233     0.0908     2.5245
  464.5000   -53.9873    10.1455     9.7681    12.7198     7.9549   100.2691     0.0295     0.0760     2.5374
  465.0000   -53.9855    10.0740     9.5024    12.3731     7.9560   103.7137     0.0356     0.0705     2.5428
  465.5000   -53.9837    10.0029     9.2440    12.1192     7.9721   101.4842     0.0342     0.0645     2.5490
  466.0000   -54.1320     9.7961     9.0507    12.3731     7.9733   105.5235     0.0312     0.0624     2.5526
  466.5000   -54.2795     9.5838     8.8698    12.7198     7.9743   103.8911     0.0298     0.0632     2.5429
  467.0000   -54.5771     9.3947     8.6287    12.5453     7.9755   101.8109     0.0268     0.0705     2.5270
  467.5000   -54.5752     9.2643     8.5698    12.2033     7.9766   104.5069     0.0254     0.0801     2.5187
  468.0000   -54.7227     9.1356     8.5114    12.0358     7.9777   102.5760     0.0285     0.0828     2.5150
  468.5000   -54.8711     9.0712     8.3953    12.0358     7.9789   105.7197     0.0346     0.0707     2.5377
  469.0000   -55.3179     9.0072     8.3961    11.9488     7.9651   107.6694     0.0302     0.0772     2.5173
  469.5000   -55.7657     8.9437     8.3390    11.5470     7.9662   107.0794     0.0239     0.0783     2.5287
  470.0000   -56.0628     8.9422     8.3494    11.2323     7.9674   107.9843     0.0182     0.0743     2.5189
  470.5000   -56.0610     8.7570     8.3984    11.2323     7.9685   104.5632     0.0244     0.0813     2.5220
  471.0000   -55.9094     8.7555     8.3991    11.2323     7.9696   102.6299     0.0320     0.0704     2.5349
  471.5000   -55.9072     8.7540     8.3998    11.3172     7.9707   102.9378     0.0381     0.0643     2.5493
  472.0000   -55.9054     8.7526     8.4005    11.5470     7.9719    99.5167     0.0321     0.0616     2.5584
  472.5000   -55.9036     8.7511     8.4012    11.9529     7.9879    99.8246     0.0261     0.0691     2.5312
  473.0000   -55.9018     8.8103     8.4019    12.1192     8.0039   102.5608     0.0247     0.0812     2.5154
  473.5000   -55.9000     8.6876     8.2799    11.8706     8.0197   103.4231     0.0263     0.0787     2.5192
  474.0000   -55.7485     8.5080     8.1741    11.7077     8.0209   102.5370     0.0309     0.0751     2.5253
  474.5000   -55.5751     8.1611     7.9519    11.5470     8.0220   103.6399     0.0325     0.0706     2.5344
  475.0000   -55.2953     8.1035     7.7893    11.3036     8.0237   105.7151     0.0296     0.0687     2.5367
  475.5000   -55.2935     8.0464     7.6830    11.0018     8.0391   107.2183     0.0311     0.0728     2.5277
  476.0000   -55.2917     8.0451     7.5779    10.8508     8.0403   107.0324     0.0373     0.0738     2.5315
  476.5000   -55.2899     8.0402     7.4746    10.9261     8.0414   105.1188     0.0406     0.0663     2.5413
  477.0000   -55.7372     7.9867     7.3726    10.9261     8.0425   103.9366     0.0403     0.0626     2.5520
  477.5000   -55.7354     7.8758     7.2721    10.9261     8.0436   103.4981     0.0375     0.0620     2.5414
  478.0000   -56.0829     7.7129     7.1727    10.8508     8.0448   106.4927     0.0361     0.0674     2.5452
  478.5000   -56.9294     7.6058     7.1238    10.8508     8.0459   108.7409     0.0316     0.0656     2.5415
  479.0000   -56.9272     7.5001     7.2238    10.8508     8.0470   109.2152     0.0256     0.0698     2.5369
  479.5000   -56.6259     7.4473     7.2244    10.7019     8.0482   109.0578     0.0287     0.0674     2.5411
  480.0000   -56.9235     7.3947     7.3256    10.6282     8.0493   109.5153     0.0379     0.0616     2.5598
  480.5000   -57.2211     7.2917     7.3771    10.4824     8.0504   110.8680     0.0395     0.0574     2.5477
  481.0000   -57.9740     7.1410     6.9808    10.4102     8.0516   112.2207     0.0396     0.0585     2.5258
  481.5000   -58.2654     7.0906     6.2936    10.4102     8.0527   112.5262     0.0396     0.0690     2.5228
  482.0000   -58.2632     7.0894     5.9143    10.0429     8.0538   109.1051     0.0427     0.0767     2.5236
  482.5000   -59.0099     7.0882     5.8739     9.1295     8.0550   107.0249     0.0443     0.0815     2.5176
  483.0000   -59.7570     7.0871     5.8746     6.8299     8.0561   106.1365     0.0505     0.0845     2.5116
  483.5000   -58.2578     7.1350     5.8346     6.7362     8.0572   107.7900     0.0525     0.0830     2.5184
