~VERSION INFORMATION
 VERS.                2.0:   CWLS LOG ASCII STANDARD - VERSION 2.0
 WRAP.                 NO:   ONE LINE PER DEPTH STEP
~WELL INFORMATION
#MNEM.UNIT      DATA TYPE    INFORMATION
#----------   ------------   ------------------------------
 STRT.F           21.0000:   START DEPTH
 STOP.F          495.0000:   STOP DEPTH
 STEP.F            0.5000:   STEP LENGTH
 NULL.          -999.2500:   NO VALUE
 COMP. FENIX & SCISSON U.S. NAVY:   COMPANY
 WELL.        NPR #42-S-3:   WELL
 FLD .             TEAPOT:   FIELD
 LOC .       S3 T38N R78W:   LOCATION
 CNTY.            NATRONA:   COUNTY
 STAT.            WYOMING:   STATE
 CTRY. UNITED STATES OF AMERICA:   COUNTRY
 SRVC.              Welex:   SERVICE COMPANY
 DATE.        05-MAY-1977:   LOGDATE
 API .       490251034800:   API NUMBER
~CURVE INFORMATION
#MNEM.UNIT       API CODE    CURVE DESCRIPTION
#----------   ------------   ------------------------------
 DEPT.F                  :   
 SPR .MV     07 010 01 00:   SPONTANEOUS POTENTIAL
 SGRD.OHMM   07 221 05 00:   SHALLOW SHORT GUARD RESISTIVITY
 ILD .OHMM   07 120 46 00:   INDUCTION LOG DEEP
 ILM .OHMM   07 120 44 00:   INDUCTION LOG MEDIUM
 GRD .GAPI   45 310 01 00:   GAMMA RAY FROM DENSITY LOG
 CALD.IN     45 280 60 00:   CALIPER FROM DENSITY LOG
 CORR.G/C3   45 356 01 00:   DENSITY CORRECTION
 RHOB.G/C3   45 350 01 00:   BULK DENSITY
 DPHI.DEC    45 890 12 00:   DENSITY POROSITY SANDSTONE
~PARAMETER INFORMATION
#MNEM.UNIT          VALUE    DESCRIPTION
#----------   ------------   ------------------------------
 PD  .                 GL:   PERMANENT DATUM
 EPD .F              5120:   ELEVATION PERMANENT DATUM
 LMF .                 GL:   LOG MEASURED FROM
 DMF .                 GL:   DRILLING MEASURED FROM
 EGL .F              5120:   GROUND LEVEL
 DATE.        05-MAY-1977:   RUN DATE
 RUN .                  1:   RUN NUMBER
 DD  .F               490:   DEPTH DRILLER
 DL  .F               495:   DEPTH LOGGER
 BLI .F               493:   BOTTOM LOG INTERVAL
 TLI .F                20:   TOP LOG INTERVAL
 CS  .IN            8.625:   CASING SIZE
 CBD .F                25:   CASING BOTTOM DRILLER
 CBL .F                25:   CASING BOTTOM LOGGER
 BS  .IN            7.875:   BIT SIZE
 BSD .F               490:   BIT SIZE AT DEPTH
 DFT .            KCL MUD:   DRILLING FLUID TYPE
 DFD .                8.8:   DRILLING FLUID DENSITY
 DFV .                 34:   DRILLING FLUID VISCOSITY
 DFPH.                8.0:   DRILLING FLUID PH
 DFL .                8.4:   DRILLING FLUID LOSS
 MSS .           FLOWLINE:   MUD SAMPLE SOURCE
 RMS .OHMM           0.26:   RESISTIVITY MUD SAMPLE
 MST .F                60:   MUD SAMPLE TEMPERATURE
 RMF .OHMM           0.14:   RESISTIVITY MUD FILTRATE SAMPLE
 MFST.F                60:   MUD FILTRATE SAMPLE TEMPERATURE
 RMC .OHMM           0.41:   RESISTIVITY MUD CAKE
 MCST.F                60:   MUD CAKE SAMPLE TEMPERATURE
 MFSS.           FANN KIT:   MUD FILTRATE SAMPLE SOURCE
 MCSS.            FANNKIT:   MUD CAKE SAMPLE SOURCE
 RMB .OHMM           0.21:   RESISTIVITY MUD AT BHT
 BHT .F                71:   BOTTOM HOLE TEMPERATURE
 TCS .HRS            0130:   TIME CURCULATED STOPPED
 MRT .F                71:   MAXIMUM RECORDED TEMPERATURE
 LUN .               8611:   LOGGING UNIT NUMBER
 LUL .             CASPER:   LOGGING UNIT LOCATION
 ENGI.            C. DOAK:   RECORDING ENGINEER
 WITN.            R. LYON:   WITNESSED BY
 CLNT.            A2DTECH:   CLIENT CODE
 ORIG.           5" PRINT:   ORIGIN OF DATA
 UWI .       490251034800:   UNIQUE WELL ID
 DICO. A2D Technologies, Inc.:   DIGITIZING COMPANY
~OTHER INFORMATION
~A   DEPT      SPR       SGRD        ILD        ILM         GRD        CALD       CORR       RHOB       DPHI 
# ...
  240.0000   -53.2740    10.2894     6.9848     8.7210   140.1053     7.8024     0.0057     2.4810     0.1171
  240.5000   -53.1324    10.6481     7.1296     8.7189   138.7501     7.8021     0.0065     2.4810     0.1135
  241.0000   -52.9907    10.9442     7.2353     8.8993   136.7937     7.8018     0.0072     2.4863     0.1122
  241.5000   -52.8490    11.0940     7.3775     8.9591   135.2885     7.8015     0.0072     2.4855     0.1116
  242.0000   -52.8579    11.0150     7.4278     9.1441   134.2344     7.8012     0.0072     2.4893     0.1092
  242.5000   -52.8651    11.0128     7.5817     9.2060   133.6314     7.8158     0.0088     2.4990     0.1062
  243.0000   -52.7232    11.0868     7.6332     9.3960   133.0284     7.8155     0.0103     2.5050     0.1029
  243.5000   -52.7305    11.0841     7.7381     9.4615   132.8769     7.8152     0.0103     2.5050     0.1014
  244.0000   -52.4400    11.1591     7.7368     9.6549   133.7773     7.8149     0.0103     2.5103     0.1014
  244.5000   -52.2983    11.1563     7.7358     9.7198   135.1292     7.8146     0.0103     2.5056     0.1018
  245.0000   -52.3073    11.1541     7.7348     9.7851   136.0300     7.8143     0.0096     2.4990     0.1047
  245.5000   -52.3144    11.2291     7.6279     9.8508   136.1792     7.8140     0.0088     2.4951     0.1100
  246.0000   -52.3215    11.2263     7.5224     9.8484   135.8766     7.8137     0.0089     2.4894     0.1124
  246.5000   -52.1798    11.1469     7.3675     9.7722   135.2737     7.8134     0.0089     2.4872     0.1121
  247.0000   -52.1888    10.9166     7.3663     9.6425   134.5203     7.8131     0.0081     2.4902     0.1103
  247.5000   -52.1959    10.6910     7.3653     9.3783   134.0627     7.8279     0.0082     2.4939     0.1082
  248.0000   -52.2030    10.5425     7.3643     9.0588   133.2721     7.8275     0.0074     2.4857     0.1111
  248.5000   -52.2102    10.5404     7.3633     8.8716   131.7629     7.8272     0.0074     2.4812     0.1138
  249.0000   -52.3661    10.6107     7.3624     8.8089   129.8523     7.8269     0.0075     2.4805     0.1162
  249.5000   -52.5223    10.6820     7.3614     8.8681   129.2497     7.8117     0.0075     2.4843     0.1168
  250.0000   -52.5549    10.8287     7.3050     8.8590   131.9376     7.8114     0.0067     2.4780     0.1201
  250.5000   -52.8775    10.2519     7.2447     8.7677   135.3354     7.8117     0.0015     2.4722     0.1238
  251.0000   -53.2002    10.2416     7.0052     8.6211   137.3782     7.8120     0.0008     2.4664     0.1257
  251.5000   -53.5938    10.3097     6.7642     8.3849   134.8262     7.8123     0.0016     2.4664     0.1233
  252.0000   -53.8988    10.3068     6.5767     8.0436   135.5824     7.8126     0.0031     2.4642     0.1227
  252.5000   -54.0564    10.2327     6.3505     7.7161   138.2935     7.8129     0.0054     2.4537     0.1302
  253.0000   -54.2125    10.0205     6.1321     7.3006   139.8016     7.8132     0.0069     2.4433     0.1383
  253.5000   -54.3685     9.8128     5.9211     7.0518   143.3170     7.8284     0.0076     2.4350     0.1425
  254.0000   -54.3757     6.3980     5.7569     6.9061   147.1798     7.8288     0.0077     2.4328     0.1419
  254.5000   -54.2323     4.7886     5.7532     6.9047   145.9812     7.8291     0.0069     2.4384     0.1389
  255.0000   -54.2414     6.9461     5.7106     7.1028   142.8276     7.8294     0.0055     2.4501     0.1341
  255.5000   -54.0997     8.8392     5.6683     7.3524   138.0199     7.8297     0.0062     2.4583     0.1305
  256.0000   -54.2659     9.5331     5.5877     7.2914   135.6172     7.8300     0.0071     2.4613     0.1284
  256.5000   -54.7113     9.6628     5.5464     6.9465   134.8707     7.8302     0.0078     2.4636     0.1260
  257.0000   -55.1650     9.7270     5.4675     6.6179   129.9133     7.8305     0.0093     2.4636     0.1257
  257.5000   -55.4698     9.9956     5.3898     6.2185   124.2038     7.8309     0.0108     2.4613     0.1281
  258.0000   -55.4770     9.8561     5.2759     5.8432   123.4552     7.8312     0.0108     2.4435     0.1376
  258.5000   -54.8890     6.8850     5.2369     5.6831   123.6110     7.8165     0.0101     2.4233     0.1514
  259.0000   -54.5986     5.6358     5.2341     5.6820   123.0139     7.8168     0.0079     2.4151     0.1568
  259.5000   -54.1592     5.2593     5.2313     5.9628   123.0182     7.8321     0.0049     2.4158     0.1547
  260.0000   -53.7202     7.1207     5.2654     6.4480   125.4286     7.8323     0.0057     2.4278     0.1412
  260.5000   -53.5787     8.9991     5.4090     6.9829   130.4258     7.8326     0.0087     2.4734     0.1175
  261.0000   -53.4371     9.5068     5.6349     7.1274   135.0624     7.8480     0.0117     2.5117     0.1065
  261.5000   -53.1485     9.5700     5.8808     7.1260   135.6672     7.8482     0.0125     2.5028     0.1017
  262.0000   -53.1557     9.6337     6.1553     7.1742   132.6651     7.8635     0.0110     2.4923     0.1034
  262.5000   -53.1630     9.6304     6.3241     7.2723   129.9627     7.8638     0.0103     2.4863     0.1061
  263.0000   -53.3190     9.6278     6.3653     7.3212   130.2678     7.8641     0.0111     2.4856     0.1057
  263.5000   -53.3262     9.6252     6.3610     7.3193   130.5729     7.8494     0.0133     2.4888     0.1040
  264.0000   -53.3335     9.6899     6.3140     7.3178   128.1723     7.8497     0.0141     2.4954     0.1016
  264.5000   -53.4896     9.8218     6.2242     7.2661   126.0714     7.8501     0.0156     2.4999     0.0992
  265.0000   -53.6458    10.5192     6.1314     7.0667   124.1208     7.8653     0.0164     2.5037     0.0977
  265.5000   -54.2498    11.9882     5.8831     6.5946   122.6214     7.8806     0.0172     2.5059     0.0977
  266.0000   -54.8523    12.4053     5.6417     6.2827   122.9265     7.9108     0.0179     2.4985     0.1013
  266.5000   -54.7107     8.3715     5.3731     5.9855   124.7354     7.9261     0.0150     2.4798     0.1136
  267.0000   -54.2697     5.3836     5.1526     5.8215   127.6869     7.9413     0.0103     2.4611     0.1312
  267.5000   -53.6835     4.2873     5.1145     5.7406   133.1662     7.9416     0.0053     2.4439     0.1489
  268.0000   -53.3931     9.1490     5.1827     5.7792   135.5766     7.9420     0.0016     2.4252     0.1519
  268.5000   -53.1027    10.2139     5.2902     5.9395   134.6787     7.9423     0.0008     2.4205     0.1498
  269.0000   -52.6488     6.8927     5.5079     6.2365   133.3297     7.9425     0.0009     2.4417     0.1382
  269.5000   -52.2261     8.1869     5.8171     6.6976   131.0784     7.9578     0.0024     2.4571     0.1279
  270.0000   -51.9339     9.4597     6.1014     7.4520   129.2782     7.9581     0.0054     2.4672     0.1255
  270.5000   -51.6435    10.0681     6.3120     7.9274   129.1322     7.9584     0.0062     2.4740     0.1186
  271.0000   -51.3531    10.5786     6.6206     8.2605   131.9947     7.9587     0.0084     2.4815     0.1123
  271.5000   -51.2116    11.0001     6.9922     8.4898   134.1044     7.9590     0.0085     2.4882     0.1075
  272.0000   -50.9212    11.0732     7.2343     8.7254   130.8004     7.9593     0.0092     2.4943     0.1039
  272.5000   -50.7812    11.1468     7.4394     8.8447   130.0518     7.9746     0.0100     2.4981     0.1039
  273.0000   -50.7887    11.1431     7.6356     8.9658   130.8091     7.9749     0.0100     2.4988     0.1039
  273.5000   -50.6470    11.1401     7.8439     9.0259   130.7910     7.9752     0.0093     2.4988     0.1036
  274.0000   -50.6561    11.1371     7.8950     9.1494   127.6610     7.9754     0.0086     2.4988     0.1027
  274.5000   -50.6633    11.2112     8.0003     9.2745   124.9586     7.9758     0.0063     2.5004     0.1003
  275.0000   -50.5199    11.2081     7.9950     9.4660   121.9554     7.9761     0.0071     2.5049     0.0973
  275.5000   -50.3783    11.2826     7.9907     9.5300   118.6515     7.9764     0.0079     2.5141     0.0952
  276.0000   -50.2368    11.2788     7.9863     9.7267   117.9029     7.9767     0.0087     2.5184     0.0952
