~VERSION INFORMATION
 VERS.                2.0:   CWLS LOG ASCII STANDARD - VERSION 2.0
 WRAP.                 NO:   ONE LINE PER DEPTH STEP
~WELL INFORMATION
#MNEM.UNIT      DATA TYPE    INFORMATION
#----------   ------------   ------------------------------
 STRT.F           26.0000:   START DEPTH
 STOP.F          520.0000:   STOP DEPTH
 STEP.F            0.5000:   STEP LENGTH
 NULL.          -999.2500:   NO VALUE
 COMP. LAWRENCE/ALLISON INC:   COMPANY
 WELL.   52-15 STX #52-10:   WELL
 FLD .             TEAPOT:   FIELD
 LOC .      S10 T38N R78W:   LOCATION
 CNTY.            NATRONA:   COUNTY
 STAT.            WYOMING:   STATE
 CTRY. UNITED STATES OF AMERICA:   COUNTRY
 SRVC.           Gearhart:   SERVICE COMPANY
 DATE.        23-JUL-1987:   LOGDATE
 API .       490251114600:   API NUMBER
~CURVE INFORMATION
#MNEM.UNIT       API CODE    CURVE DESCRIPTION
#----------   ------------   ------------------------------
 DEPT.F                  :   
 RLL .OHMM   07 220 00 00:   LATEROLOG RESISTIVITY
 RILD.OHMM   07 120 46 00:   INDUCTION LOG DEEP RESISTIVITY
 RILM.OHMM   07 120 44 00:   INDUCTION LOG MEDIUM RESISTIVITY
 GRR .GAPI   07 310 01 00:   GAMMA RAY FROM RES. LOG.
~PARAMETER INFORMATION
#MNEM.UNIT          VALUE    DESCRIPTION
#----------   ------------   ------------------------------
 PD  .                 GL:   PERMANENT DATUM
 EPD .F              5195:   ELEVATION PERMANENT DATUM
 LMF .                 KB:   LOG MEASURED FROM
 DAPD.F                 8:   FEET ABOVE PERMANENT DATUM
 DMF .                 KB:   DRILLING MEASURED FROM
 EKB .F              5203:   KELLING BUSHING
 EDF .F              5201:   DRILLING FLOOR
 EGL .F              5195:   GROUND LEVEL
 DATE.          7-23-1987:   RUN DATE
 RUN .                  1:   RUN NUMBER
 DD  .F               519:   DEPTH DRILLER
 DL  .F               520:   DEPTH LOGGER
 BLI .F               519:   BOTTOM LOG INTERVAL
 TLI .F                30:   TOP LOG INTERVAL
 CS  .IN            8.625:   CASING SIZE
 CBD .F                48:   CASING BOTTOM DRILLER
 CBL .F                48:   CASING BOTTOM LOGGER
 BS  .IN            7.875:   BIT SIZE
 BSD .F               519:   BIT SIZE AT DEPTH
 DFT .                MUD:   DRILLING FLUID TYPE
 DFD .                8.9:   DRILLING FLUID DENSITY
 DFV .                 40:   DRILLING FLUID VISCOSITY
 MSS .            MUD PIT:   MUD SAMPLE SOURCE
 RMS .OHMM            .37:   RESISTIVITY MUD SAMPLE
 MST .F                70:   MUD SAMPLE TEMPERATURE
 RMF .OHMM            .29:   RESISTIVITY MUD FILTRATE SAMPLE
 MFST.F                70:   MUD FILTRATE SAMPLE TEMPERATURE
 RMC .OHMM             .5:   RESISTIVITY MUD CAKE
 MCST.F                70:   MUD CAKE SAMPLE TEMPERATURE
 MFSS.              CHART:   MUD FILTRATE SAMPLE SOURCE
 MCSS.              CHART:   MUD CAKE SAMPLE SOURCE
 RMB .OHMM            .35:   RESISTIVITY MUD AT BHT
 BHT .F                80:   BOTTOM HOLE TEMPERATURE
 TCS .HRS            1100:   TIME CURCULATED STOPPED
 TLAB.HRS            1534:   TIME LOGGER AT BOTTOM
 MRT .F                80:   MAXIMUM RECORDED TEMPERATURE
 LUN .               7597:   LOGGING UNIT NUMBER
 LUL .           GILLETTE:   LOGGING UNIT LOCATION
 ENGI.         WEATHERMON:   RECORDING ENGINEER
 WITN.         MR. STRONG:   WITNESSED BY
 CLNT.            A2DTECH:   CLIENT CODE
 ORIG.       2", 5" PRINT:   ORIGIN OF DATA
 UWI .       490251114600:   UNIQUE WELL ID
 DICO. A2D Technologies, Inc.:   DIGITIZING COMPANY
~OTHER INFORMATION
~A   DEPT      RLL       RILD       RILM         GRR  
# ...
  464.0000     8.0288     7.8611     6.4878    97.8385
  464.5000     8.1894     7.9927     6.9830    96.4237
  465.0000     8.6948     8.1264     7.4503    95.4293
  465.5000     9.2955     8.4212     7.9011    95.8811
  466.0000     9.9377     8.8329     8.3093    96.2985
  466.5000    10.6243     9.2670     8.7406    96.8748
  467.0000    10.9018     9.7505     9.2228    97.7819
  467.5000    11.1318     9.8582     9.5378    98.8150
  468.0000    11.3666     9.9680     9.8831    99.3636
  468.5000    11.4868    10.0810    10.2432    99.8142
  469.0000    11.6055    10.1956    10.6017   100.1717
  469.5000    11.7226    10.3114    10.6519    99.5314
  470.0000    11.9167    10.4286    10.7004    97.6286
  470.5000    12.1202    10.6017    10.7492    95.8106
  471.0000    12.2960    10.5712    10.8000    95.7289
  471.5000    12.2258    10.5153    10.7610    96.6534
  472.0000    12.1353    10.4597    10.7205    97.7268
  472.5000    12.0449    10.4043    10.6802    97.5989
  473.0000    11.9556    10.3493    10.6400    97.4015
  473.5000    11.8666    10.3053    10.6000    97.8257
  474.0000    11.7784    10.2864    10.5601    97.9849
  474.5000    11.6310    10.2676    10.5206    96.8972
  475.0000    11.7253    10.2488    10.4949    96.5769
  475.5000    11.8261    10.2300    10.4799    96.0674
  476.0000    11.9579    10.2112    10.4648    95.1027
  476.5000    11.8391    10.1925    10.4497    94.1160
  477.0000    11.6578    10.1738    10.4345    94.5334
  477.5000    11.4811    10.1552    10.4194    95.7833
  478.0000    11.3071    10.1366    10.3955    97.0580
  478.5000    11.1358    10.1217    10.3296    98.3283
  479.0000    10.9302     9.8018    10.2640    99.2786
  479.5000    10.6556     9.4455    10.0653    98.2034
  480.0000    10.3878     8.9681     9.5108    97.1550
  480.5000    10.0722     8.4913     8.9869    96.1152
  481.0000     9.6237     7.7963     8.4632    95.3493
  481.5000     9.1952     7.1180     7.8250    95.7109
  482.0000     8.7857     6.2344     7.2350    96.9143
  482.5000     8.3363     5.4028     6.4319    98.1078
  483.0000     7.7399     4.6822     5.4357    99.0369
  483.5000     7.0091     4.0576     4.5938    99.7886
  484.0000     6.1880     3.5643     3.8823    99.8000
  484.5000     5.4631     3.4117     3.2895    98.6705
  485.0000     4.8231     3.2657     2.7896    96.0070
  485.5000     4.4015     3.2381     2.5685    93.6409
  486.0000     3.8973     3.2858     2.4751    93.3157
  486.5000     4.4373     3.3215     2.7504    92.1321
  487.0000     5.3856     3.5887     3.2195    90.8934
  487.5000     6.5366     4.0244     3.7686    90.5341
  488.0000     7.5767     4.7997     4.4113    92.1303
  488.5000     8.1173     5.7245     5.1059    93.1152
  489.0000     8.3320     6.2997     5.8591    93.7543
  489.5000     8.1790     6.7431     6.6172    93.7837
  490.0000     8.3901     7.0268     7.4395    96.4491
  490.5000     8.7106     7.3229     7.8559    99.2557
  491.0000     9.0566     7.6313     8.1330   102.0668
  491.5000     9.1761     7.9539     8.2178   102.4588
  492.0000     9.2260     8.1139     8.3035   101.2445
  492.5000     9.1776     8.1259     8.3901   100.0404
  493.0000     9.1409     8.1397     8.4878    98.8333
  493.5000     9.0566     8.1535     8.4799    97.6313
  494.0000     9.4228     8.1673     8.4709    96.5359
  494.5000     9.6760     8.1791     8.4619    97.5310
  495.0000     9.9359     8.1688     8.4529    99.3297
  495.5000    10.0340     8.1582     8.4440   101.1461
  496.0000     9.8700     8.1477     8.4350   101.5878
  496.5000     9.7603     8.1372     8.4261   101.8159
  497.0000     9.6635     8.1267     8.4174   103.5830
  497.5000     9.7309     8.1163     8.4095   104.8145
  498.0000     9.8242     8.1060     8.3654   102.6787
  498.5000     9.9359     8.0732     8.3192  -999.2500
  499.0000     9.7314     8.0347     8.2732  -999.2500
  499.5000     9.4864     7.9961     8.2276  -999.2500
  500.0000     9.2260     7.9550     8.1821  -999.2500
  500.5000     9.2260     7.9806     8.1370  -999.2500
  501.0000     9.2260     8.0096     8.1036  -999.2500
  501.5000     9.2697     8.0386     8.1919  -999.2500
  502.0000     9.5549     8.0677     8.2751  -999.2500
  502.5000     9.8488     8.0969     8.3590  -999.2500
  503.0000    10.0284     8.1261     8.4095  -999.2500
  503.5000     9.9669     8.1555     8.2259  -999.2500
  504.0000     9.7059     8.1790     8.0967  -999.2500
  504.5000     9.3533     8.1599     7.9697  -999.2500
  505.0000     9.1405     8.1440     7.8450  -999.2500
  505.5000     9.1597     8.1278     7.7221  -999.2500
  506.0000     9.1751     8.1137     7.6396  -999.2500
  506.5000     9.1896     8.0277     7.5916  -999.2500
  507.0000     9.2041     7.8568     7.5438  -999.2500
  507.5000     9.2187     7.6878     7.3915  -999.2500
  508.0000     9.2260     7.5236     7.1736  -999.2500
  508.5000     8.6490     7.4552     6.9621  -999.2500
  509.0000     8.1679  -999.2500     6.7568  -999.2500
  509.5000     7.8087  -999.2500     6.5576  -999.2500
  510.0000     7.8765  -999.2500     6.4878  -999.2500
  510.5000     7.9833  -999.2500     6.7560  -999.2500
  511.0000     8.0881  -999.2500     6.9463  -999.2500
  511.5000     8.3993  -999.2500     7.1435  -999.2500
  512.0000     8.7403  -999.2500  -999.2500  -999.2500
  512.5000     9.0979  -999.2500  -999.2500  -999.2500
  513.0000     9.4697  -999.2500  -999.2500  -999.2500
  513.5000     9.8567  -999.2500  -999.2500  -999.2500
  514.0000    10.1491  -999.2500  -999.2500  -999.2500
  514.5000    10.3650  -999.2500  -999.2500  -999.2500
  515.0000    10.5039  -999.2500  -999.2500  -999.2500
  515.5000    10.5039  -999.2500  -999.2500  -999.2500
  516.0000    10.4248  -999.2500  -999.2500  -999.2500
  516.5000    10.3374  -999.2500  -999.2500  -999.2500
  517.0000    10.2507  -999.2500  -999.2500  -999.2500
  517.5000    10.1648  -999.2500  -999.2500  -999.2500
  518.0000    10.1217  -999.2500  -999.2500  -999.2500
  518.5000    10.1217  -999.2500  -999.2500  -999.2500
  519.0000    10.4071  -999.2500  -999.2500  -999.2500
  519.5000    10.4071  -999.2500  -999.2500  -999.2500
  520.0000    10.4071  -999.2500  -999.2500  -999.2500
