~VERSION INFORMATION
 VERS.                2.0:   CWLS LOG ASCII STANDARD - VERSION 2.0
 WRAP.                 NO:   ONE LINE PER DEPTH STEP
~WELL INFORMATION
#MNEM.UNIT      DATA TYPE    INFORMATION
#----------   ------------   ------------------------------
 STRT.F            0.5000:   START DEPTH
 STOP.F         3087.0000:   STOP DEPTH
 STEP.F            0.5000:   STEP LENGTH
 NULL.          -999.2500:   NO VALUE
 COMP. DEPARTMENT OF ENERGY:   COMPANY
 WELL.    NPR-3 #201-A-29:   WELL
 FLD . TEAPOT NAVAL RESERVE:   FIELD
 LOC .      S29 T39N R78W:   LOCATION
 CNTY.            NATRONA:   COUNTY
 STAT.            WYOMING:   STATE
 CTRY. UNITED STATES OF AMERICA:   COUNTRY
 SRVC.      NL McCullough:   SERVICE COMPANY
 DATE.        24-JUN-1965:   LOGDATE
 API .       490251144400:   API NUMBER
~CURVE INFORMATION
#MNEM.UNIT       API CODE    CURVE DESCRIPTION
#----------   ------------   ------------------------------
 DEPT.F                  :   
 GRR .GAPI   30 310 01 00:   GAMMA RAY
 CALI.IN     30 280 01 00:   CALIPER
~PARAMETER INFORMATION
#MNEM.UNIT          VALUE    DESCRIPTION
#----------   ------------   ------------------------------
 PD  .                 GL:   PERMANENT DATUM
 LMF .                 GL:   LOG MEASURED FROM
 EDF .F              5012:   DRILLING FLOOR
 DATE.        24-JUN-1965:   RUN DATE
 RUN .                  1:   RUN NUMBER
 DD  .F              2782:   DEPTH DRILLER
 DL  .F              2772:   DEPTH LOGGER
 BLI .F              2770:   BOTTOM LOG INTERVAL
 TLI .F              2300:   TOP LOG INTERVAL
 CS  .IN            6.625:   CASING SIZE
 CBD .F              2756:   CASING BOTTOM DRILLER
 ENGI.         COWLTHORPE:   RECORDING ENGINEER
 WITN.             HUDSON:   WITNESSED BY
 CLNT.            A2DTECH:   CLIENT CODE
 ORIG.           5" PRINT:   ORIGIN OF DATA
 UWI .       490251144400:   UNIQUE WELL ID
 DICO. A2D Technologies, Inc.:   DIGITIZING COMPANY
~OTHER INFORMATION
~A    DEPT     GRR         CALI 
# ...
 1580.0000  -999.2500     6.6441
 1580.5000  -999.2500     6.6432
 1581.0000  -999.2500     6.6413
 1581.5000  -999.2500     6.6394
 1582.0000  -999.2500     6.6375
 1582.5000  -999.2500     6.6356
 1583.0000  -999.2500     6.6337
 1583.5000  -999.2500     6.6318
 1584.0000  -999.2500     6.6299
 1584.5000  -999.2500     6.6280
 1585.0000  -999.2500     6.6261
 1585.5000  -999.2500     6.6241
 1586.0000  -999.2500     6.6223
 1586.5000  -999.2500     6.6203
 1587.0000  -999.2500     6.6184
 1587.5000  -999.2500     6.6165
 1588.0000  -999.2500     6.6146
 1588.5000  -999.2500     6.6127
 1589.0000  -999.2500     6.6108
 1589.5000  -999.2500     6.6089
 1590.0000  -999.2500     6.6070
 1590.5000  -999.2500     6.6051
 1591.0000  -999.2500     6.6045
 1591.5000  -999.2500     6.6045
 1592.0000  -999.2500     6.6045
 1592.5000  -999.2500     6.6045
 1593.0000  -999.2500     6.6045
 1593.5000  -999.2500     6.6045
 1594.0000  -999.2500     6.6045
 1594.5000  -999.2500     6.6045
 1595.0000  -999.2500     6.6045
 1595.5000  -999.2500     6.6045
 1596.0000  -999.2500     6.6045
 1596.5000  -999.2500     6.6045
 1597.0000  -999.2500     6.6045
 1597.5000  -999.2500     6.6045
 1598.0000  -999.2500     6.6045
 1598.5000  -999.2500     6.6045
 1599.0000  -999.2500     6.6045
 1599.5000  -999.2500     6.6045
 1600.0000  -999.2500     6.6045
 1600.5000  -999.2500     6.6045
 1601.0000  -999.2500     6.6045
 1601.5000  -999.2500     6.6045
 1602.0000  -999.2500     6.6045
 1602.5000  -999.2500     6.6045
 1603.0000  -999.2500     6.6045
 1603.5000  -999.2500     6.6045
 1604.0000  -999.2500     6.6045
 1604.5000  -999.2500     6.6045
 1605.0000  -999.2500     6.6045
 1605.5000  -999.2500     6.6045
 1606.0000  -999.2500     6.6045
 1606.5000  -999.2500     6.6045
 1607.0000  -999.2500     6.6045
 1607.5000  -999.2500     6.6045
 1608.0000  -999.2500     6.6045
 1608.5000  -999.2500     6.6045
 1609.0000  -999.2500     6.6045
 1609.5000  -999.2500     6.6045
 1610.0000  -999.2500     6.6045
 1610.5000  -999.2500     6.6045
 1611.0000  -999.2500     6.6045
 1611.5000  -999.2500     6.6045
 1612.0000  -999.2500     6.6045
 1612.5000  -999.2500     6.6045
 1613.0000  -999.2500     6.6045
 1613.5000  -999.2500     6.6045
 1614.0000  -999.2500     6.6045
 1614.5000  -999.2500     6.6045
 1615.0000  -999.2500     6.6045
 1615.5000  -999.2500     6.6045
 1616.0000  -999.2500     6.6045
 1616.5000  -999.2500     6.6045
 1617.0000  -999.2500     6.6045
 1617.5000  -999.2500     6.6045
 1618.0000  -999.2500     6.6045
 1618.5000  -999.2500     6.6045
 1619.0000  -999.2500     6.6045
 1619.5000  -999.2500     6.6045
 1620.0000  -999.2500     6.6045
 1620.5000  -999.2500     6.6045
 1621.0000  -999.2500     6.6045
 1621.5000  -999.2500     6.6045
 1622.0000  -999.2500     6.6045
 1622.5000  -999.2500     6.6045
 1623.0000  -999.2500     6.6045
 1623.5000  -999.2500     6.6045
 1624.0000  -999.2500     6.6045
 1624.5000  -999.2500     6.6045
 1625.0000  -999.2500     6.6045
 1625.5000  -999.2500     6.6045
 1626.0000  -999.2500     6.6045
 1626.5000  -999.2500     6.6045
 1627.0000  -999.2500     6.6045
 1627.5000  -999.2500     6.6045
 1628.0000  -999.2500     6.6045
 1628.5000  -999.2500     6.6045
 1629.0000  -999.2500     6.6045
 1629.5000  -999.2500     6.6045
 1630.0000  -999.2500     6.6045
 1630.5000  -999.2500     6.6045
 1631.0000  -999.2500     6.6045
 1631.5000  -999.2500     6.6045
 1632.0000  -999.2500     6.6045
 1632.5000  -999.2500     6.6045
 1633.0000  -999.2500     6.6045
 1633.5000  -999.2500     6.6045
 1634.0000  -999.2500     6.6045
 1634.5000  -999.2500     6.6045
 1635.0000  -999.2500     6.6045
 1635.5000  -999.2500     6.6045
 1636.0000  -999.2500     6.6045
 1636.5000  -999.2500     6.6045
 1637.0000  -999.2500     6.6045
 1637.5000  -999.2500     6.6045
 1638.0000  -999.2500     6.6045
 1638.5000  -999.2500     6.6045
 1639.0000  -999.2500     6.6045
 1639.5000  -999.2500     6.6045
 1640.0000  -999.2500     6.6045
 1640.5000  -999.2500     6.6045
 1641.0000  -999.2500     6.6045
 1641.5000  -999.2500     6.6045
 1642.0000  -999.2500     6.6045
 1642.5000  -999.2500     6.6045
 1643.0000  -999.2500     6.6045
 1643.5000  -999.2500     6.6045
 1644.0000  -999.2500     6.6045
 1644.5000  -999.2500     6.6045
 1645.0000  -999.2500     6.6045
 1645.5000  -999.2500     6.6045
 1646.0000  -999.2500     6.6045
 1646.5000  -999.2500     6.6045
 1647.0000  -999.2500     6.6045
 1647.5000  -999.2500     6.6045
 1648.0000  -999.2500     6.6045
 1648.5000  -999.2500     6.6045
 1649.0000  -999.2500     6.6045
 1649.5000  -999.2500     6.6045
 1650.0000  -999.2500     6.6045
 1650.5000  -999.2500     6.6045
 1651.0000  -999.2500     6.6045
 1651.5000  -999.2500     6.6045
 1652.0000  -999.2500     6.6045
 1652.5000  -999.2500     6.6045
 1653.0000  -999.2500     6.6045
 1653.5000  -999.2500     6.6045
 1654.0000  -999.2500     6.6045
 1654.5000  -999.2500     6.6045
 1655.0000  -999.2500     6.6045
 1655.5000  -999.2500     6.6045
 1656.0000  -999.2500     6.6045
 1656.5000  -999.2500     6.6045
 1657.0000  -999.2500     6.6045
 1657.5000  -999.2500     6.6045
 1658.0000  -999.2500     6.6045
 1658.5000  -999.2500     6.6045
 1659.0000  -999.2500     6.6045
 1659.5000  -999.2500     6.6045
 1660.0000  -999.2500     6.6045
 1660.5000  -999.2500     6.6045
 1661.0000  -999.2500     6.6045
 1661.5000  -999.2500     6.6045
 1662.0000  -999.2500     6.6045
 1662.5000  -999.2500     6.6045
 1663.0000  -999.2500     6.6045
 1663.5000  -999.2500     6.6045
 1664.0000  -999.2500     6.6050
 1664.5000  -999.2500     6.6059
 1665.0000  -999.2500     6.6069
 1665.5000  -999.2500     6.6079
 1666.0000  -999.2500     6.6088
 1666.5000  -999.2500     6.6098
 1667.0000  -999.2500     6.6108
 1667.5000  -999.2500     6.6117
 1668.0000  -999.2500     6.6127
 1668.5000  -999.2500     6.6136
 1669.0000  -999.2500     6.6146
 1669.5000  -999.2500     6.6156
 1670.0000  -999.2500     6.6165
 1670.5000  -999.2500     6.6175
 1671.0000  -999.2500     6.6185
 1671.5000  -999.2500     6.6194
 1672.0000  -999.2500     6.6204
 1672.5000  -999.2500     6.6213
 1673.0000  -999.2500     6.6223
 1673.5000  -999.2500     6.6233
 1674.0000  -999.2500     6.6242
 1674.5000  -999.2500     6.6244
 1675.0000  -999.2500     6.6244
 1675.5000  -999.2500     6.6244
 1676.0000  -999.2500     6.6244
 1676.5000  -999.2500     6.6244
 1677.0000  -999.2500     6.6244
 1677.5000  -999.2500     6.6244
 1678.0000  -999.2500     6.6244
 1678.5000  -999.2500     6.6244
 1679.0000  -999.2500     6.6244
 1679.5000  -999.2500     6.6244
 1680.0000  -999.2500     6.6244
 1680.5000  -999.2500     6.6244
 1681.0000  -999.2500     6.6244
 1681.5000  -999.2500     6.6244
 1682.0000  -999.2500     6.6244
 1682.5000  -999.2500     6.6244
 1683.0000  -999.2500     6.6244
 1683.5000  -999.2500     6.6244
 1684.0000  -999.2500     6.6244
 1684.5000  -999.2500     6.6244
 1685.0000  -999.2500     6.6244
 1685.5000  -999.2500     6.6244
 1686.0000  -999.2500     6.6244
 1686.5000  -999.2500     6.6244
 1687.0000  -999.2500     6.6244
 1687.5000  -999.2500     6.6244
 1688.0000  -999.2500     6.6244
 1688.5000  -999.2500     6.6244
 1689.0000  -999.2500     6.6244
 1689.5000  -999.2500     6.6244
 1690.0000  -999.2500     6.6244
 1690.5000  -999.2500     6.6244
 1691.0000  -999.2500     6.6244
 1691.5000  -999.2500     6.6244
 1692.0000  -999.2500     6.6244
 1692.5000  -999.2500     6.6244
 1693.0000  -999.2500     6.6244
 1693.5000  -999.2500     6.6244
 1694.0000  -999.2500     6.6244
 1694.5000  -999.2500     6.6244
 1695.0000  -999.2500     6.6244
 1695.5000  -999.2500     6.6244
 1696.0000  -999.2500     6.6244
 1696.5000  -999.2500     6.6244
 1697.0000  -999.2500     6.6244
 1697.5000  -999.2500     6.6244
 1698.0000  -999.2500     6.6244
 1698.5000  -999.2500     6.6244
 1699.0000  -999.2500     6.6244
 1699.5000  -999.2500     6.6244
 1700.0000  -999.2500     6.6244
 1700.5000  -999.2500     6.6244
 1701.0000  -999.2500     6.6244
