~VERSION INFORMATION
 VERS.                2.0:   CWLS LOG ASCII STANDARD - VERSION 2.0
 WRAP.                 NO:   ONE LINE PER DEPTH STEP
~WELL INFORMATION
#MNEM.UNIT      DATA TYPE    INFORMATION
#----------   ------------   ------------------------------
 STRT.F           10.0000:   START DEPTH
 STOP.F         2599.5000:   STOP DEPTH
 STEP.F            0.5000:   STEP LENGTH
 NULL.          -999.2500:   NO VALUE
 COMP. FENIX & SCISSON INC:   COMPANY
 WELL.   34-SHX-33 #34-33:   WELL
 FLD .             TEAPOT:   FIELD
 LOC .      S33 T39N R78W:   LOCATION
 CNTY.            NATRONA:   COUNTY
 STAT.            WYOMING:   STATE
 CTRY. UNITED STATES OF AMERICA:   COUNTRY
 SRVC.           BIRDWELL:   SERVICE COMPANY
 DATE.        20-FEB-1978:   LOGDATE
 API .       490251058400:   API NUMBER
~CURVE INFORMATION
#MNEM.UNIT       API CODE    CURVE DESCRIPTION
#----------   ------------   ------------------------------
 DEPT.F                  :   
 GR  .GAPI   30 310 01 00:   GAMMA RAY
 CALI.IN     70 280 01 00:   CALIPER
~PARAMETER INFORMATION
#MNEM.UNIT          VALUE    DESCRIPTION
#----------   ------------   ------------------------------
 PD  .                 GL:   PERMANENT DATUM
 EPD .F              5174:   ELEVATION PERMANENT DATUM
 LMF .                 KB:   LOG MEASURED FROM
 DAPD.F                10:   FEET ABOVE PERMANENT DATUM
 DMF .                 KB:   DRILLING MEASURED FROM
 EKB .F              5184:   KELLING BUSHING
 EGL .F              5174:   GROUND LEVEL
 DATE.            2-20-78:   RUN DATE
 RUN .                  1:   RUN NUMBER
 DD  .F              2590:   DEPTH DRILLER
 DL  .F              2600:   DEPTH LOGGER
 BLI .F              2600:   BOTTOM LOG INTERVAL
 CS  .IN            8.625:   CASING SIZE
 CBD .F               737:   CASING BOTTOM DRILLER
 BS  .IN            8.625:   BIT SIZE
 BSD .F              2590:   BIT SIZE AT DEPTH
 TCS .HRS               2:   TIME CURCULATED STOPPED
 LUL .             CASPER:   LOGGING UNIT LOCATION
 ENGI.             MILLER:   RECORDING ENGINEER
 WITN.           MCGINLEY:   WITNESSED BY
 CLNT.            A2DTECH:   CLIENT CODE
 ORIG.           5" PRINT:   ORIGIN OF DATA
 UWI .       490251058400:   UNIQUE WELL ID
 DICO. A2D Technologies, Inc.:   DIGITIZING COMPANY
~OTHER INFORMATION
~A   DEPT        GR      CALI   
# ...
  860.5000   146.7199    10.8785
  861.0000   146.7322    10.8582
  861.5000   146.4200    10.8344
  862.0000   145.1341    10.7427
  862.5000   143.8858    10.6264
  863.0000   143.7524    10.5677
  863.5000   145.0713    10.5262
  864.0000   145.7137    10.4860
  864.5000   145.9984    10.4565
  865.0000   146.2913    10.4621
  865.5000   146.0637    10.4669
  866.0000   145.7125    10.4716
  866.5000   147.6427    10.4763
  867.0000   151.1696    10.4665
  867.5000   154.6763    10.4552
  868.0000   156.9259    10.4438
  868.5000   146.1011    10.4324
  869.0000   135.6974    10.4209
  869.5000   126.1873    10.4144
  870.0000   126.5355    10.4113
  870.5000   136.6928    10.4081
  871.0000   146.4806    10.4049
  871.5000   155.3194    10.4017
  872.0000   155.5653    10.3984
  872.5000   150.6775    10.3923
  873.0000   143.6676    10.3783
  873.5000   139.4499    10.3648
  874.0000   140.6850    10.3512
  874.5000   142.4830    10.3372
  875.0000   147.6364    10.3368
  875.5000   152.9222    10.3377
  876.0000   157.1202    10.3312
  876.5000   157.3450    10.1951
  877.0000   152.7970    10.0564
  877.5000   149.1345    10.0236
  878.0000   146.3789    10.1355
  878.5000   146.3443    10.1839
  879.0000   147.9689    10.2415
  879.5000   151.0394    10.3488
  880.0000   154.5719    10.4555
  880.5000   152.9230    10.5447
  881.0000   149.9643    10.6244
  881.5000   146.8472    10.6732
  882.0000   145.1415    10.7030
  882.5000   145.3604    10.7059
  883.0000   148.0345    10.6909
  883.5000   150.6435    10.6758
  884.0000   151.7899    10.6752
  884.5000   147.7624    10.6753
  885.0000   143.6938    10.6753
  885.5000   142.4233    10.6753
  886.0000   145.7525    10.6753
  886.5000   146.5668    10.6753
  887.0000   145.0619    10.6753
  887.5000   143.5515    10.6753
  888.0000   142.0233    10.6753
  888.5000   140.4390    10.6753
  889.0000   138.5820    10.6754
  889.5000   138.1532    10.6790
  890.0000   138.7703    10.6946
  890.5000   137.2178    10.7107
  891.0000   137.9750    10.7056
  891.5000   141.0696    10.6788
  892.0000   146.0559    10.6030
  892.5000   147.2904    10.5687
  893.0000   143.5271    10.5569
  893.5000   139.3504    10.5451
  894.0000   137.8040    10.5252
  894.5000   138.8086    10.4693
  895.0000   138.0265    10.4133
  895.5000   139.6670    10.3583
  896.0000   141.3289    10.3562
  896.5000   142.0329    10.3565
  897.0000   141.0164    10.3566
  897.5000   138.7063    10.3566
  898.0000   133.6083    10.3566
  898.5000   133.4508    10.3566
  899.0000   132.7195    10.3566
  899.5000   130.2106    10.3566
  900.0000   131.9796    10.3566
  900.5000   135.6433    10.3566
  901.0000   136.0088    10.3566
  901.5000   133.8289    10.3565
  902.0000   131.1765    10.3402
  902.5000   132.5845    10.3217
  903.0000   135.0262    10.3031
  903.5000   137.4839    10.2845
  904.0000   138.8002    10.2660
  904.5000   138.8038    10.2476
  905.0000   138.8357    10.2371
  905.5000   137.5697    10.2371
  906.0000   135.7059    10.2370
  906.5000   133.8341    10.2371
  907.0000   131.9290    10.2388
  907.5000   131.9367    10.1762
  908.0000   132.8998    10.1173
  908.5000   133.5640    10.1672
  909.0000   132.9451    10.2157
  909.5000   134.3957    10.2147
  910.0000   136.7910    10.2073
  910.5000   137.7980    10.2002
  911.0000   138.4991    10.2002
  911.5000   139.1749    10.2183
  912.0000   139.1185    10.2363
  912.5000   136.5775    10.2231
  913.0000   134.0575    10.1983
  913.5000   131.6113    10.2110
  914.0000   129.6450    10.2070
  914.5000   129.7719    10.1730
  915.0000   127.5000    10.1308
  915.5000   125.7412    10.1161
  916.0000   126.2938    10.1733
  916.5000   124.6924    10.2508
  917.0000   123.4006    10.3280
  917.5000   124.0525    10.3478
  918.0000   125.6380    10.3602
  918.5000   132.5492    10.3726
  919.0000   138.3733    10.3933
  919.5000   141.9668    10.4162
  920.0000   142.3890    10.4214
  920.5000   141.8526    10.4261
  921.0000   140.8580    10.4308
  921.5000   139.3059    10.4355
  922.0000   134.0366    10.4402
  922.5000   128.7146    10.4449
  923.0000   127.0434    10.4496
  923.5000   129.0739    10.4546
  924.0000   133.7257    10.4394
  924.5000   138.6000    10.4125
  925.0000   138.4726    10.3855
  925.5000   134.5009    10.3587
  926.0000   130.1362    10.3387
  926.5000   129.7011    10.3547
  927.0000   129.9119    10.3699
  927.5000   129.2428    10.3629
  928.0000   128.6033    10.3249
  928.5000   131.7003    10.3273
  929.0000   134.7446    10.3571
  929.5000   137.1022    10.3868
  930.0000   139.4429    10.4164
  930.5000   141.3792    10.4382
  931.0000   141.9255    10.4497
  931.5000   142.1626    10.4616
  932.0000   141.1442    10.4735
  932.5000   140.1495    10.4854
  933.0000   139.2087    10.4948
  933.5000   139.7596    10.4848
  934.0000   141.6733    10.4745
  934.5000   147.6762    10.4642
  935.0000   153.5471    10.4539
  935.5000   158.1855    10.4438
  936.0000   156.3389    10.4392
  936.5000   152.5221    10.4527
  937.0000   148.2463    10.4656
  937.5000   143.9175    10.4784
  938.0000   139.5879    10.4925
  938.5000   135.2353    10.4319
  939.0000   130.9774    10.3332
  939.5000   131.6043    10.2351
  940.0000   132.1896    10.1598
  940.5000   132.7884    10.1858
  941.0000   134.0372    10.2092
  941.5000   138.5614    10.2301
  942.0000   143.0165    10.3167
  942.5000   143.0910    10.4149
  943.0000   136.2755    10.4974
  943.5000   130.2898    10.5507
  944.0000   129.2687    10.5962
  944.5000   129.6966    10.5889
  945.0000   130.9421    10.5829
  945.5000   132.2558    10.5770
  946.0000   133.5731    10.5757
  946.5000   134.9285    10.5756
  947.0000   134.9775    10.5756
  947.5000   134.6326    10.5667
  948.0000   134.5565    10.5503
  948.5000   135.3380    10.5359
  949.0000   135.9128    10.5358
  949.5000   134.8469    10.5358
  950.0000   137.0586    10.5359
  950.5000   140.2943    10.5373
  951.0000   140.9563    10.5429
  951.5000   140.5437    10.5484
  952.0000   141.1762    10.5538
  952.5000   142.7638    10.5619
  953.0000   141.2762    10.5712
  953.5000   138.9446    10.5806
  954.0000   136.5804    10.5899
  954.5000   136.7169    10.5892
  955.0000   138.4469    10.5725
  955.5000   137.9923    10.5563
  956.0000   136.7932    10.5572
  956.5000   137.5349    10.5616
  957.0000   138.7862    10.5660
  957.5000   140.0959    10.5703
  958.0000   139.3859    10.5746
  958.5000   138.4017    10.5790
  959.0000   138.7070    10.5833
  959.5000   139.0278    10.5876
  960.0000   138.7496    10.5919
  960.5000   137.7638    10.5963
  961.0000   136.8124    10.6006
  961.5000   133.6177    10.6049
  962.0000   130.0939    10.6092
  962.5000   131.8635    10.6136
  963.0000   135.3356    10.6179
  963.5000   138.7016    10.6222
  964.0000   138.4552    10.6265
  964.5000   137.7876    10.6309
  965.0000   137.1246    10.6353
  965.5000   136.4782    10.6355
  966.0000   136.9913    10.6355
  966.5000   139.0126    10.6355
  967.0000   140.4829    10.6355
  967.5000   140.6729    10.6355
  968.0000   139.8788    10.6355
  968.5000   139.0456    10.6355
  969.0000   139.5435    10.6353
  969.5000   139.9969    10.6367
  970.0000   139.6108    10.5485
  970.5000   135.6616    10.4105
  971.0000   132.3839    10.3467
  971.5000   130.1635    10.3286
  972.0000   129.6995    10.3117
  972.5000   129.9871    10.3113
  973.0000   131.7831    10.4117
  973.5000   133.3773    10.4929
  974.0000   144.3747    10.6087
  974.5000   156.8029    10.7366
  975.0000   152.8693    10.8684
  975.5000   141.3445    10.8389
  976.0000   128.2790    10.7957
  976.5000   123.6818    10.7629
  977.0000   126.9759    10.8441
  977.5000   131.8698    10.9263
  978.0000   136.7820    10.9595
  978.5000   138.0308    10.9262
  979.0000   139.1011    10.8968
  979.5000   142.5609    10.9505
  980.0000   144.4685    10.9641
  980.5000   144.6972    10.9395
  981.0000   144.1811    10.9124
  981.5000   143.4512    10.9141
