~VERSION INFORMATION
 VERS.                2.0:   CWLS LOG ASCII STANDARD - VERSION 2.0
 WRAP.                 NO:   ONE LINE PER DEPTH STEP
~WELL INFORMATION
#MNEM.UNIT      DATA TYPE    INFORMATION
#----------   ------------   ------------------------------
 STRT.F            2.5000:   START DEPTH
 STOP.F         1003.0000:   STOP DEPTH
 STEP.F            0.5000:   STEP LENGTH
 NULL.          -999.2500:   NO VALUE
 COMP. U S NAVY-INTEX OIL:   COMPANY
 WELL.   NPR #3 #87-SX-27:   WELL
 FLD .             TEAPOT:   FIELD
 LOC .      S27 T39N R78W:   LOCATION
 CNTY.            NATRONA:   COUNTY
 STAT.            WYOMING:   STATE
 CTRY. UNITED STATES OF AMERICA:   COUNTRY
 SRVC. Schlumberger Well Surveying Corp:   SERVICE COMPANY
 DATE.        13-AUG-1961:   LOGDATE
 API .       490250659000:   API NUMBER
~CURVE INFORMATION
#MNEM.UNIT       API CODE    CURVE DESCRIPTION
#----------   ------------   ------------------------------
 DEPT.F                  :   
 ASN .OHMM   05 041 16 00:   AMPLIFIER SHORT NORMAL
 SPR .MV     05 010 01 00:   SPONTANEOUS POTENSIAL
 CILD.MMHO   05 110 46 00:   CONDUCTIVITY INDUCTION LOG DEEP
 ILD .OHMM   05 120 46 00:   INDUCTION LOG DEEP
 GRN .MG/TON 35 310 30 00:   GAMMA RAY
 NEUT.NAPI   35 330 01 00:   NEUTRON
~PARAMETER INFORMATION
#MNEM.UNIT          VALUE    DESCRIPTION
#----------   ------------   ------------------------------
 PD  .                 GL:   PERMANENT DATUM
 EPD .F              5082:   ELEVATION PERMANENT DATUM
 LMF .                 KB:   LOG MEASURED FROM
 DAPD.F                 5:   FEET ABOVE PERMANENT DATUM
 DMF .                 KB:   DRILLING MEASURED FROM
 EKB .F              5087:   KELLING BUSHING
 EGL .F              5082:   GROUND LEVEL
 DATE.        13-AUG-1961:   RUN DATE
 RUN .                  1:   RUN NUMBER
 DD  .F              1000:   DEPTH DRILLER
 DL  .F              1003:   DEPTH LOGGER
 BLI .F              1002:   BOTTOM LOG INTERVAL
 TLI .F                90:   TOP LOG INTERVAL
 BS  .IN             6.75:   BIT SIZE
 BSD .F              1000:   BIT SIZE AT DEPTH
 DFT . OIL EMUL (12% OIL):   DRILLING FLUID TYPE
 DFD .                9.3:   DRILLING FLUID DENSITY
 DFV .                 60:   DRILLING FLUID VISCOSITY
 DFL .                  4:   DRILLING FLUID LOSS
 MSS .           FLOWLINE:   MUD SAMPLE SOURCE
 RMS .OHMM           1.29:   RESISTIVITY MUD SAMPLE
 MST .F                80:   MUD SAMPLE TEMPERATURE
 TCS .HRS               1:   TIME CURCULATED STOPPED
 LUN .               2523:   LOGGING UNIT NUMBER
 LUL .               CSPR:   LOGGING UNIT LOCATION
 ENGI.              SCOTT:   RECORDING ENGINEER
 WITN.          JORGENSEN:   WITNESSED BY
 CLNT.            A2DTECH:   CLIENT CODE
 ORIG.       2", 5" PRINT:   ORIGIN OF DATA
 UWI .       490250659000:   UNIQUE WELL ID
 DICO. A2D Technologies, Inc.:   DIGITIZING COMPANY
~OTHER INFORMATION
~A    DEPT     ASN        SPR       CILD        ILD          GRN     NEUT   
# ...
  210.5000     9.1891   -14.0983   108.2655     8.5922     6.0537   266.7369
  211.0000     9.1250   -13.7182   106.7732     8.6679     5.8426   269.9518
  211.5000     9.0800   -13.4727   106.7793     8.6683     5.7519   278.1163
  212.0000     9.0691   -13.1951   106.7869     8.6255     5.6635   280.8328
  212.5000     9.0459   -13.1319   109.2029     8.5781     5.6087   278.8906
  213.0000     9.0390   -13.0365   112.0320     8.3683     5.5827   272.6988
  213.5000     9.0240   -12.8925   117.3204     8.0346     5.5878   269.9681
  214.0000     9.0090   -12.8919   121.8819     7.7495     5.6310   269.4608
  214.5000     8.9928   -12.8911   124.8423     7.5411     5.6620   268.0744
  215.0000     8.9640   -12.9755   126.3523     7.4661     5.7069   267.2947
  215.5000     8.9234   -13.0693   126.3589     7.3912     5.7738   265.6613
  216.0000     8.8739   -13.3393   127.8679     7.3916     5.8818   263.4501
  216.5000     8.8065   -13.5573   127.8767     7.4890     5.8945   261.3076
  217.0000     8.6894   -13.7883   126.3814     7.6935     5.7936   257.2233
  217.5000     8.5586   -13.9376   124.8875     7.8112     5.6913   250.4751
  218.0000     8.4898   -14.0871   122.4675     7.8594     5.6154   241.7672
  218.5000     8.4263   -14.0863   118.8952     7.9206     5.5932   222.3451
  219.0000     8.2432   -14.0856   118.9044     7.9209     5.7514   208.1117
  219.5000     8.0778   -14.0848   117.4099     7.8460     5.8036   206.3614
  220.0000     7.8809   -14.0840   118.9189     7.7711     5.5432   228.3487
  220.5000     7.8378   -14.0833   120.4288     7.6962     5.3788   236.6784
  221.0000     7.8178   -14.0636   121.9369     7.6210     5.3360   236.6556
  221.5000     7.7778   -13.9316   123.5648     7.5463     5.2952   236.6298
  222.0000     7.5215   -13.7227   124.9563     7.4508     5.2139   237.2478
  222.5000     7.3724   -13.4772   126.9957     7.2459     5.1850   241.5408
  223.0000     7.6727   -13.2317   129.4745     7.1300     5.2480   250.9841
  223.5000     7.8459   -12.9862   131.9282     6.9320     5.4563   251.4666
  224.0000     7.8030   -12.8768   134.3944     6.7199     5.7334   235.7594
  224.5000     7.3874   -12.7955   137.0049     6.6112     5.7802   216.3751
  225.0000     7.1184   -12.7252   140.1402     6.4885     5.7198   211.0421
  225.5000     6.9939   -12.7244   143.2945     6.3446     5.5394   209.1199
  226.0000     6.8919   -12.9379   146.0369     6.2430     5.4510   209.0987
  226.5000     6.8619   -13.1734   149.0466     6.1194     5.3729   208.9507
  227.0000     6.9219   -13.3227   150.5556     6.1667     5.3238   206.7729
  227.5000     6.9936   -13.4724   150.5643     6.2902     5.3802   209.6821
  228.0000     7.0741   -13.6216   148.5186     6.3464     5.4480   218.1780
  228.5000     7.2222   -13.6209   144.5658     6.4618     5.4512   218.3084
  229.0000     7.3122   -13.6201   142.1146     6.5853     5.4635   217.0419
  229.5000     7.3763   -13.6193   139.6634     6.6488     5.4855   215.7715
  230.0000     7.3909   -13.6186   137.0875     6.7244     5.3812   218.4311
  230.5000     6.9967   -13.6179   137.0946     6.8001     5.0397   228.5567
  231.0000     6.8468   -13.4668   137.1021     6.8005     4.9454   236.9581
  231.5000     7.0687   -13.4127   137.1104     6.8761     4.9939   239.9731
  232.0000     7.4184   -13.1652   138.6186     6.9518     5.1459   237.5819
  232.5000     7.5225   -13.0143   140.2840     6.9522     5.1969   227.7788
  233.0000     7.3655   -12.8634   143.1393     6.9342     5.1839   208.2991
  233.5000     7.2395   -12.8626   145.7858     6.8024     5.1231   201.0885
  234.0000     7.1171   -12.7858   150.7106     6.4608     5.0925   200.3801
  234.5000     7.0281   -12.8612   154.6534     6.1672     5.0676   198.4529
  235.0000     6.8981   -12.8603   159.0590     5.8246     5.0475   189.5332
  235.5000     6.7718   -13.0693   161.1940     5.5675     5.0323   177.5677
  236.0000     6.6527   -13.4635   165.9059     5.4448     5.0247   175.7773
  236.5000     6.4849   -13.6089   167.5213     5.3739     5.0322   175.2171
  237.0000     6.3720   -13.6081   167.2229     5.3986     5.1175   177.2525
  237.5000     6.4615   -13.6073   165.7908     5.4499     5.3492   182.6374
  238.0000     6.6216   -13.6066   162.5575     5.5256     5.3184   185.7757
  238.5000     6.7304   -13.6059   159.7384     5.6013     5.2631   184.6505
  239.0000     6.7897   -13.4549   157.0670     5.6017     5.2504   180.1374
  239.5000     6.8168   -13.0228   153.7025     5.7902     5.0839   176.5964
  240.0000     6.8248   -12.6927   150.2502     5.9890     4.9899   176.7287
  240.5000     6.8138   -12.5517   146.8418     6.2052     4.9637   182.0426
  241.0000     6.7718   -12.7503   143.2585     6.3416     5.0165   191.7098
  241.5000     6.7456   -13.0007   139.3931     6.5100     5.2036   200.7177
  242.0000     6.7116   -13.2382   138.7678     6.5829     5.5138   208.3693
  242.5000     6.6871   -13.4498   138.7769     6.6585     5.6789   214.8378
  243.0000     6.6817   -13.2987   138.7838     6.6589     5.7795   221.9282
  243.5000     6.6817   -12.8546   140.2928     6.6593     5.8000   228.0375
  244.0000     6.6967   -12.5305   140.3014     6.6596     5.8074   231.0633
  244.5000     6.7759   -12.3955   141.0106     6.6600     5.8235   227.9822
  245.0000     6.9219   -12.3949   141.8481     6.6604     5.8600   220.3766
  245.5000     6.9030   -12.3941   143.3273     6.6608     5.8908   219.2775
  246.0000     6.7992   -12.5816   143.3333     6.6612     5.9278   218.0566
  246.5000     6.7568   -13.0318   143.8184     6.6323     5.9624   217.2704
  247.0000     6.7675   -13.2927   144.6455     6.5113     5.9460   215.9816
  247.5000     6.8168   -13.5198   145.7802     6.4621     5.7843   212.6739
  248.0000     6.8637   -13.7418   146.3670     6.4147     5.6330   207.4589
  248.5000     6.7671   -13.8910   147.1309     6.3618     5.7454   205.4143
  249.0000     6.6366   -14.0405   149.3844     6.2445     5.8218   204.2538
  249.5000     6.5057   -14.0398   152.3959     6.1068     5.6916   202.7143
  250.0000     6.3013   -13.9389   158.7837     5.8359     5.2802   201.6793
  250.5000     6.2613   -13.8881   163.1644     5.5798     5.2411   202.6660
  251.0000     6.2397   -13.7372   170.4368     5.2939     5.1758   204.8374
  251.5000     6.2302   -13.5028   165.4630     5.0840     5.0796   206.4809
  252.0000     6.2462   -13.2573   156.9371     5.3474     5.0374   208.6696
  252.5000     6.2865   -12.8340   150.6256     5.7643     5.1786   210.9851
  253.0000     6.3514   -12.6161   147.5801     6.0856     5.2413   214.7012
  253.5000     6.4331   -12.2205   144.9480     6.2569     5.2708   218.6791
  254.0000     6.5836   -11.9308   143.4535     6.3660     5.2260   217.9655
  254.5000     6.8018   -11.9807   141.9588     6.4416     5.0822   208.5584
  255.0000     6.7615   -12.2297   140.4664     6.5173     5.0300   206.3354
  255.5000     6.6066   -12.4687   140.4730     6.5177     5.0919   233.5755
  256.0000     6.6817   -12.8289   140.4805     6.5181     5.1423   251.0010
  256.5000     6.8588   -12.9782   140.4893     6.5184     5.1773   248.0505
  257.0000     6.9069   -13.2007   142.5099     6.5189     5.2099   213.7348
  257.5000     6.8468   -13.4272   143.5061     6.5192     5.2476   201.5872
  258.0000     6.8318   -13.5765   143.5135     6.5196     5.2103   199.2145
  258.5000     6.8318   -13.6324   145.0214     6.5200     5.1796   211.4697
  259.0000     6.8168   -13.7252   140.5260     6.5203     5.1871   215.4248
  259.5000     6.7983   -13.8201   135.9410     6.5207     5.1945   217.6656
  260.0000     6.7718   -13.8740   131.5308     6.5211     5.2020   218.1780
  260.5000     6.7492   -13.8731   139.0474     6.5215     5.1567   218.1553
  261.0000     6.7076   -13.7933   141.8819     6.5219     5.0694   217.9731
  261.5000     6.6366   -13.7215   143.5661     6.5222     5.0058   217.3484
  262.0000     6.5883   -13.7206   143.5749     6.4473     5.0181   216.5889
