~VERSION INFORMATION
 VERS.                2.0:   CWLS LOG ASCII STANDARD - VERSION 2.0
 WRAP.                 NO:   ONE LINE PER DEPTH STEP
~WELL INFORMATION
#MNEM.UNIT      DATA TYPE    INFORMATION
#----------   ------------   ------------------------------
 STRT.F           34.0000:   START DEPTH
 STOP.F          514.0000:   STOP DEPTH
 STEP.F            0.5000:   STEP LENGTH
 NULL.          -999.2500:   NO VALUE
 COMP. FENIX & SCISSON INC:   COMPANY
 WELL. NPR 3 #41 SX 10-10:   WELL
 FLD .             TEAPOT:   FIELD
 LOC .      S10 T38N R78W:   LOCATION
 CNTY.            NATRONA:   COUNTY
 STAT.            WYOMING:   STATE
 CTRY. UNITED STATES OF AMERICA:   COUNTRY
 SRVC.           BIRDWELL:   SERVICE COMPANY
 DATE.        25-JUN-1978:   LOGDATE
 API .       490251065200:   API NUMBER
~CURVE INFORMATION
#MNEM.UNIT       API CODE    CURVE DESCRIPTION
#----------   ------------   ------------------------------
 DEPT.F                  :   
 SPR .MV     07 010 01 00:   SPONTANEOUS POTENTIAL
 ILD .OHMM   07 120 46 00:   INDUCTION LOG DEEP
 SN  .OHMM   07 040 16 00:   SHORT NORMAL 16"
 CALD.IN     45 280 60 00:   CALIPER FROM DENSITY LOG
 GRD .GAPI   45 310 01 00:   GAMMA RAY FROM DENSITY LOG
 CORR.G/C3   45 356 01 00:   DENSITY CORRECTION
 DPHI.DEC    45 890 12 00:   DENSITY POROSITY SANDSTONE
 DEN .G/C3   45 350 01 00:   COMPENSATED BULK DENSTIY
 GRN .GAPI   35 310 01 00:   GAMMA RAY
 NEUT.NAPI   35 330 01 00:   NEUTRON
~PARAMETER INFORMATION
#MNEM.UNIT          VALUE    DESCRIPTION
#----------   ------------   ------------------------------
 PD  .                 GL:   PERMANENT DATUM
 EPD .F              5235:   ELEVATION PERMANENT DATUM
 LMF .                 KB:   LOG MEASURED FROM
 DAPD.F                 4:   FEET ABOVE PERMANENT DATUM
 DMF .                 KB:   DRILLING MEASURED FROM
 EKB .F              5239:   KELLING BUSHING
 EGL .F              5235:   GROUND LEVEL
 DATE.        25-JUN-1978:   RUN DATE
 RUN .                  1:   RUN NUMBER
 DD  .F               510:   DEPTH DRILLER
 DL  .F               514:   DEPTH LOGGER
 BLI .F               514:   BOTTOM LOG INTERVAL
 TLI .F                30:   TOP LOG INTERVAL
 CS  .IN            8.625:   CASING SIZE
 CBD .F                40:   CASING BOTTOM DRILLER
 CBL .F                40:   CASING BOTTOM LOGGER
 BS  .IN            7.875:   BIT SIZE
 BSD .F               510:   BIT SIZE AT DEPTH
 DFT .                KCL:   DRILLING FLUID TYPE
 DFD .                8.6:   DRILLING FLUID DENSITY
 DFV .                 31:   DRILLING FLUID VISCOSITY
 DFPH.                9.5:   DRILLING FLUID PH
 DFL .                 17:   DRILLING FLUID LOSS
 MSS .           FLOWLINE:   MUD SAMPLE SOURCE
 RMS .OHMM             .5:   RESISTIVITY MUD SAMPLE
 MST .F                74:   MUD SAMPLE TEMPERATURE
 RMF .OHMM            .54:   RESISTIVITY MUD FILTRATE SAMPLE
 MFST.F                72:   MUD FILTRATE SAMPLE TEMPERATURE
 RMC .OHMM            1.0:   RESISTIVITY MUD CAKE
 MCST.F                66:   MUD CAKE SAMPLE TEMPERATURE
 MFSS.               MEAS:   MUD FILTRATE SAMPLE SOURCE
 MCSS.               MEAS:   MUD CAKE SAMPLE SOURCE
 BHT .F                74:   BOTTOM HOLE TEMPERATURE
 TCS .HRS            0100:   TIME CURCULATED STOPPED
 MRT .F                74:   MAXIMUM RECORDED TEMPERATURE
 LUN .               2958:   LOGGING UNIT NUMBER
 LUL .               CASP:   LOGGING UNIT LOCATION
 ENGI.           REYNOLDS:   RECORDING ENGINEER
 CLNT.            A2DTECH:   CLIENT CODE
 ORIG.           5" PRINT:   ORIGIN OF DATA
 UWI .       490251065200:   UNIQUE WELL ID
 DICO. A2D Technologies, Inc.:   DIGITIZING COMPANY
~OTHER INFORMATION
~A   DEPT      SPR        ILD         SN       CALD        GRD       CORR       DPHI        DEN        GRN       NEUT   
# ...
  436.0000   -56.4975    14.7678    14.6207     7.9281    79.9274     0.1547     0.1625     2.3626    35.7966   333.5135
  436.5000   -56.4902    14.7619    14.7164     8.3089    78.2701     0.0811     0.1127     2.4151    34.0610   333.5521
  437.0000   -56.4829    14.8599    14.8107     8.6522    77.9695     0.0765     0.1286     2.4790    33.6072   333.5811
  437.5000   -56.4756    14.8525    14.8009     8.6670    77.8205     0.0765     0.1560     2.4977    33.1534   333.6198
  438.0000   -56.4683    14.5335    14.3892     8.6362    77.3695     0.0929     0.1872     2.4346    32.9261   333.6487
  438.5000   -56.4611    14.0400    13.9801     8.6207    76.3630     0.1362     0.1992     2.3858    34.2825   332.3309
  439.0000   -56.4538    13.6513    13.5042     8.5598    73.7525     0.1661     0.1980     2.3775    35.9401   332.3673
  439.5000   -56.4466    13.1818    13.2197     8.6198    73.7544     0.1706     0.1869     2.3760    36.6929   331.0472
  440.0000   -56.4520    12.8168    13.1233     8.8036    73.1525     0.1525     0.1574     2.4007    33.3734   331.0863
  440.5000   -56.4556    12.7234    13.2974     9.0115    71.1929     0.1374     0.1324     2.4616    32.6934   329.7584
  441.0000   -56.4601    12.8066    13.3827     9.1320    71.6472     0.1418     0.1481     2.4721    33.0693   328.4460
  441.5000   -56.4647    12.8002    13.0906     9.1768    73.1569     0.1327     0.1388     2.4736    33.9730   325.7746
  442.0000   -56.4692    12.7951    12.7985     9.2217    73.7617     0.0846     0.1222     2.4337    34.7259   324.4545
  442.5000   -56.4737    12.7018    12.7073     9.2516    72.5490     0.0815     0.1535     2.5006    36.6856   321.7909
  443.0000   -56.4782    12.6967    12.6162     9.0698    71.9547     0.0971     0.1694     2.5081    34.0445   319.1194
  443.5000   -56.4831    12.6917    12.5250     8.9938    75.4256     0.1158     0.1763     2.4450    32.6105   315.1044
  444.0000   -56.4872    12.6831    12.4459     8.9933    79.4995     0.1352     0.1730     2.4194    32.0059   312.4325
  444.5000   -56.4917    12.5928    12.4393     9.0533    80.1043     0.1621     0.1327     2.4227    33.3621   303.0125
  445.0000   -56.4962    12.6765    12.3470     9.1132    80.5582     0.1531     0.1258     2.4419    33.6625   292.2330
  445.5000   -56.5008    12.6702    12.2551     9.1280    81.6155     0.0810     0.1231     2.4780    32.6053   284.1535
  446.0000   -56.5053    12.6651    12.1628     9.1577    82.5219     0.0644     0.1267     2.5275    32.2272   286.8953
  446.5000   -56.5098    12.5728    12.0725     9.1421    83.1267     0.0673     0.1708     2.4824    32.6784   293.6833
  447.0000   -56.5143    12.4811    11.9823     9.0456    81.0105     0.0688     0.1747     2.4246    34.9395   295.0737
  447.5000   -56.4303    12.3888    11.9760     8.9901    78.4012     0.0746     0.1778     2.4201    35.7678   295.1049
  448.0000   -56.2906    12.3839    11.9696     9.0048    77.7013     0.0911     0.1949     2.4065    34.4092   292.4335
  448.5000   -56.1508    12.3790    11.7988     9.0043    77.8539     0.1659     0.2153     2.3637    36.0673   281.6617
  449.0000   -56.0812    12.5465    11.5503     9.0341    78.0062     0.1823     0.2066     2.3509    34.6329   278.9825
  449.5000   -56.0866    12.6288    11.8813     9.0488    77.5552     0.1912     0.1954     2.3621    33.9346   283.0756
  450.0000   -56.0993    12.7112    12.1936     9.0483    77.4055     0.2256     0.1671     2.3832    37.4925   283.1146
  450.5000   -56.2176    12.7489    12.4419     9.0411    79.5173     0.2720     0.0322     2.3944    37.8679   280.4354
  451.0000   -56.3358    12.7870    12.5209     8.7764    81.6290     0.0395     0.0497     2.4237    36.5916   279.1153
  451.5000   -56.4541    12.6052    11.9970     8.3837    83.6245     0.0320     0.1051     2.6528    37.2377   281.8648
  452.0000   -56.5714    12.2541    11.4281     7.8701    84.4947     0.0334     0.1473     2.6536    37.7177   285.9501
  452.5000   -56.5804    11.9140    11.3442     7.6133    82.0815     0.0333     0.1422     2.4785    33.8889   291.3867
  453.0000   -56.5876    12.1582    12.0641     7.6133    81.6290     0.0362     0.1437     2.4695    33.9640   285.6982
  453.5000   -56.6511    12.4936    12.3971     7.6133    81.4781     0.0361     0.1419     2.4725    34.7147   273.8895
  454.0000   -56.7519    12.6618    12.4756     7.6133    80.7240     0.0373     0.1380     2.4777    37.1171   261.7586
  454.5000   -56.8526    12.5686    12.4663     7.6133    81.0256     0.0373     0.1440     2.4807    38.3183   253.4348
  455.0000   -56.9534    12.4759    12.3727     7.6133    81.6390     0.0372     0.1350     2.4814    37.8428   245.6127
  455.5000   -57.0542    12.2975    12.3635     7.6133    83.6442     0.0324     0.1299     2.4808    35.3153   259.1574
  456.0000   -57.1549    12.1228    12.2709     7.6133    89.9246     0.0237     0.1302     2.4990    34.7147   267.2973
  456.5000   -57.2557    12.0336    12.2635     7.6133    93.8462     0.0236     0.1419     2.5011    37.2673   268.6872
  457.0000   -57.3564    11.9450    12.1716     7.5982    94.4495     0.0236     0.1397     2.4899    38.4685   271.4211
  457.5000   -57.4073    11.9394    12.0804     7.5982    94.1478     0.0251     0.1374     2.4823    41.7718   272.8040
  458.0000   -57.4145    11.9334    12.0731     7.5831    91.4329     0.0295     0.1392     2.4808    42.4825   275.5455
  458.5000   -57.4217    11.8447    11.9826     7.5831    86.7572     0.0295     0.1422     2.4816    39.3518   272.8740
  459.0000   -57.2767    11.8391    11.8911     7.5831    80.7222     0.0295     0.1359     2.4793    36.5165   264.7503
  459.5000   -57.1354    11.8336    11.8839     7.5982    78.3107     0.0295     0.1374     2.4846    36.6667   255.3768
  460.0000   -56.9922    11.8281    11.7949     7.5982    78.9140     0.0324     0.1395     2.4837    37.8679   249.9948
  460.5000   -56.7004    11.8225    11.7878     7.6133    84.0422     0.0339     0.1416     2.4801    38.2432   256.7906
  461.0000   -56.5555    11.8170    12.1132     7.6284    87.6621     0.0324     0.1422     2.4793    36.5916   266.2891
  461.5000   -56.4123    11.7296    12.0206     7.6133    92.4887     0.0323     0.1419     2.4793    37.1922   277.1312
  462.0000   -56.4213    11.7232    12.0133     7.5982    94.6003     0.0338     0.1416     2.4793    39.5235   287.9732
  462.5000   -56.5789    11.7177    11.9230     7.5982    93.1800     0.0338     0.1449     2.4801    41.9470   313.6880
  463.0000   -56.8886    11.7123    11.9144     7.5831    88.1146     0.0338     0.1458     2.4793    41.0210   333.9895
  463.5000   -57.0462    11.6261    11.8251     7.5982    85.8522     0.0352     0.1407     2.4778    40.1952   342.3638
  464.0000   -57.3542    11.6207    11.7365     7.5982    86.1538     0.0352     0.1320     2.4756    39.2192   324.6003
  464.5000   -57.3614    11.5351    11.6485     7.6133    86.3047     0.0352     0.1326     2.4903    38.2432   319.2184
  465.0000   -57.2182    11.4500    11.5612     7.6133    86.4555     0.0366     0.1344     2.4944    37.5676   315.2034
  465.5000   -57.2256    11.4445    11.4746     7.6133    85.8522     0.0366     0.1356     2.4914    40.6456   309.8370
  466.0000   -57.2331    11.4382    11.3884     7.6133    84.0422     0.0351     0.1284     2.4929    40.3123   307.1655
  466.5000   -57.2406    11.4329    11.3016     7.6133    85.0980     0.0290     0.1209     2.5019    38.0931   304.4933
  467.0000   -57.2481    11.3487    11.2169     7.6133    89.6229     0.0182     0.1173     2.5064    38.9940   308.1081
  467.5000   -57.2556    11.1875    11.1329     7.6133    90.8296     0.0095     0.1257     2.5131    38.7688   309.4595
  468.0000   -57.2632    10.7225    11.0494     7.5982    90.0754     0.0094     0.1329     2.5132    38.3934   316.2162
  468.5000   -57.2707    10.5010    10.9666     7.5831    91.1312     0.0094     0.1398     2.5008    37.5676   329.7986
  469.0000   -57.2782    10.4237    10.8845     7.5680    92.1870     0.0079     0.1422     2.4869    36.9670   328.3784
