~VERSION INFORMATION
 VERS.                2.0:   CWLS LOG ASCII STANDARD - VERSION 2.0
 WRAP.                 NO:   ONE LINE PER DEPTH STEP
~WELL INFORMATION
#MNEM.UNIT      DATA TYPE    INFORMATION
#----------   ------------   ------------------------------
 STRT.F           98.5000:   START DEPTH
 STOP.F          716.5000:   STOP DEPTH
 STEP.F            0.5000:   STEP LENGTH
 NULL.          -999.2500:   NO VALUE
 COMP. U S NAVY-INTEX OIL:   COMPANY
 WELL. RES 3 TEAPOT DOM #32S-11:   WELL
 FLD .             TEAPOT:   FIELD
 LOC .      S11 T38N R78W:   LOCATION
 CNTY.            NATRONA:   COUNTY
 STAT.            WYOMING:   STATE
 CTRY. UNITED STATES OF AMERICA:   COUNTRY
 SRVC.       Schlumberger:   SERVICE COMPANY
 DATE.        13-JUL-1962:   LOGDATE
 API .       490250636500:   API NUMBER
~CURVE INFORMATION
#MNEM.UNIT       API CODE    CURVE DESCRIPTION
#----------   ------------   ------------------------------
 DEPT.F                  :   
 SPR .MV     05 010 01 00:   SPONTANEOUS POTENTIAL FROM RES.
 CILD.MMHO   05 110 46 00:   CONDUCTIVITY INDUCTION LOG DEEP
 ASN .OHMM   05 040 16 00:   AMPLIFIED SHORT NORMAL 16"
 ILD .OHMM   05 120 46 00:   INDUCTION LOG DEEP
 GR  .GAPI   30 310 01 00:   GAMMA RAY
~PARAMETER INFORMATION
#MNEM.UNIT          VALUE    DESCRIPTION
#----------   ------------   ------------------------------
 PD  .                 GL:   PERMANENT DATUM
 EPD .F              5161:   ELEVATION PERMANENT DATUM
 LMF .                 KB:   LOG MEASURED FROM
 DAPD.F                 5:   FEET ABOVE PERMANENT DATUM
 DMF .                 KB:   DRILLING MEASURED FROM
 EKB .F              5166:   KELLING BUSHING
 EGL .F              5161:   GROUND LEVEL
 DATE.            7-13-62:   RUN DATE
 RUN .                  1:   RUN NUMBER
 DD  .F               716:   DEPTH DRILLER
 DL  .F               717:   DEPTH LOGGER
 BLI .F               716:   BOTTOM LOG INTERVAL
 TLI .F               100:   TOP LOG INTERVAL
 CBD .F                10:   CASING BOTTOM DRILLER
 BS  .IN             6.75:   BIT SIZE
 BSD .F               716:   BIT SIZE AT DEPTH
 DFT .           OIL EMUL:   DRILLING FLUID TYPE
 DFD .               10.2:   DRILLING FLUID DENSITY
 DFV .                 43:   DRILLING FLUID VISCOSITY
 RMS .OHMM              5:   RESISTIVITY MUD SAMPLE
 MST .F                70:   MUD SAMPLE TEMPERATURE
 RMF .OHMM            5.5:   RESISTIVITY MUD FILTRATE SAMPLE
 MFST.F                70:   MUD FILTRATE SAMPLE TEMPERATURE
 RMC .OHMM              6:   RESISTIVITY MUD CAKE
 MCST.F                70:   MUD CAKE SAMPLE TEMPERATURE
 TCS .HRS              .5:   TIME CURCULATED STOPPED
 LUN .               2503:   LOGGING UNIT NUMBER
 LUL .               CSPR:   LOGGING UNIT LOCATION
 ENGI.           ELLERMAN:   RECORDING ENGINEER
 WITN.          JORGENSON:   WITNESSED BY
 CLNT.            A2DTECH:   CLIENT CODE
 ORIG.       2", 5" PRINT:   ORIGIN OF DATA
 UWI .       490250636500:   UNIQUE WELL ID
 DICO. A2D Technologies, Inc.:   DIGITIZING COMPANY
~OTHER INFORMATION
~A   DEPT      SPR       CILD        ASN        ILD         GR   
# ...
  342.5000   -52.2949   121.5291     8.7265     8.1348  -999.2500
  343.0000   -52.4844   120.0929     8.8211     8.2142  -999.2500
  343.5000   -52.5251   118.6567     8.9377     8.2939  -999.2500
  344.0000   -52.4979   117.2205     9.0544     8.3733  -999.2500
  344.5000   -51.8886   115.7843     9.1699     8.4580  -999.2500
  345.0000   -51.2735   114.3481     9.1963     8.4899  -999.2500
  345.5000   -50.6629   113.5522     9.2104     8.4523  -999.2500
  346.0000   -50.0560   113.9434     9.2236     8.4150  -999.2500
  346.5000   -49.6350   114.3490     9.1965     8.3777  -999.2500
  347.0000   -49.3322   114.7534     9.0574     8.3405  -999.2500
  347.5000   -49.0316   115.1559     8.9657     8.3009  -999.2500
  348.0000   -48.9360   116.0860     9.0189     8.1969  -999.2500
  348.5000   -49.0115   118.0625     8.9748     8.0839  -999.2500
  349.0000   -49.1021   120.0390     8.8500     7.9709  -999.2500
  349.5000   -49.4482   122.0155     8.7482     7.8580  -999.2500
  350.0000   -49.7985   123.9919     8.6764     7.7451  -999.2500
  350.5000   -50.1507   125.9684     8.6042     7.6321  -999.2500
  351.0000   -50.3011   127.9449     8.5023     7.5167  -999.2500
  351.5000   -50.1844   129.9214     8.3445     7.4775  -999.2500
  352.0000   -49.5397   131.8978     8.1946     7.4486  -999.2500
  352.5000   -48.9176   133.6038     8.1038     7.4198  -999.2500
  353.0000   -48.4812   135.1734     8.0168     7.3908  -999.2500
  353.5000   -48.4861   135.5847     7.9290     7.3617  -999.2500
  354.0000   -48.5000   135.5847     7.8936     7.3326  -999.2500
  354.5000   -48.8922   135.5847     7.9054     7.3042  -999.2500
  355.0000   -49.2945   134.8070     7.9682     7.3329  -999.2500
  355.5000   -49.6970   134.0596     8.0325     7.4176  -999.2500
  356.0000   -50.0868   132.9226     8.1466     7.5022  -999.2500
  356.5000   -50.0109   131.0391     8.2692     7.5869  -999.2500
  357.0000   -49.7737   129.1557     8.3086     7.6716  -999.2500
  357.5000   -49.5379   127.2722     8.3058     7.7564  -999.2500
  358.0000   -49.3070   125.3887     8.3589     7.8402  -999.2500
  358.5000   -49.5110   123.9226     8.4350     7.9073  -999.2500
  359.0000   -49.7470   122.8327     8.4689     7.9349  -999.2500
  359.5000   -49.9837   121.7427     8.5012     7.9633  -999.2500
  360.0000   -50.0781   120.6527     8.5326     7.9915  -999.2500
  360.5000   -49.6012   119.5628     8.5865     8.0197  -999.2500
  361.0000   -49.1359   120.0128     8.6427     8.0480  -999.2500
  361.5000   -48.7035   120.6342     8.6979     8.0762  -999.2500
  362.0000   -48.9173   121.2566     8.7001     8.0995  -999.2500
  362.5000   -49.4463   121.8776     8.6892     8.0973  -999.2500
  363.0000   -49.9672   122.4983     8.6378     8.0600  -999.2500
  363.5000   -50.4310   123.1190     8.5879     8.0214  -999.2500
  364.0000   -50.7829   123.7398     8.5380     7.9379  -999.2500
  364.5000   -50.8351   124.3605     8.4932     7.7931  -999.2500
  365.0000   -50.7277   124.9812     8.4728     7.7967  -999.2500
  365.5000   -50.6155   125.6047     8.4523     7.7966  -999.2500
  366.0000   -50.5089   126.2196     8.4422     7.7762  -999.2500
  366.5000   -50.5877   126.3441     8.4591     7.7062  -999.2500
  367.0000   -50.6856   126.0106     8.5086     7.6404  -999.2500
  367.5000   -51.0309   125.6836     8.5103     7.7011  -999.2500
  368.0000   -51.4790   124.8301     8.5009     7.7779  -999.2500
  368.5000   -51.9170   123.3353     8.5141     7.8732  -999.2500
  369.0000   -52.3612   121.8389     8.6511     7.9703  -999.2500
  369.5000   -52.6306   119.7247     8.7969     8.0673  -999.2500
  370.0000   -52.8074   117.3953     8.9457     8.1630  -999.2500
  370.5000   -52.9820   115.0694     9.1783     8.3327  -999.2500
  371.0000   -53.0812   112.7442     9.4125     8.5401  -999.2500
  371.5000   -52.7749   110.4189     9.6084     8.7492  -999.2500
  372.0000   -52.5593   108.0936     9.7741     8.9582  -999.2500
  372.5000   -52.3627   105.7684     9.9373     9.1671  -999.2500
  373.0000   -52.1650   102.4933    10.0648     9.3722  -999.2500
  373.5000   -51.8738    99.8436    10.1391     9.5898  -999.2500
  374.0000   -51.5530    97.6240    10.4461     9.8048  -999.2500
  374.5000   -51.3022    95.4044    10.3953    10.0200  -999.2500
  375.0000   -51.5009    93.1849    10.6575    10.2349  -999.2500
  375.5000   -51.7779    90.9653    10.7775    10.4499  -999.2500
  376.0000   -52.0628    88.7457    10.8976    10.6649  -999.2500
  376.5000   -52.2898    86.6940    11.1665    10.8799  -999.2500
  377.0000   -52.5741    85.0293    11.4698    11.0952  -999.2500
  377.5000   -52.7212    83.3646    11.6135    11.3113  -999.2500
  378.0000   -52.5474    81.7000    11.7620    11.5159  -999.2500
  378.5000   -52.3663    80.1411    11.8246    11.4818  -999.2500
  379.0000   -52.1193    81.2868    11.7279    11.4286  -999.2500
  379.5000   -52.2095    82.3639    11.6350    11.3444  -999.2500
  380.0000   -52.2824    83.4411    11.5419    11.2924  -999.2500
  380.5000   -52.3176    84.5182    11.4489    11.0886  -999.2500
  381.0000   -52.3190    85.5969    11.3559    10.8698  -999.2500
  381.5000   -52.3162    86.6640    11.2629    10.6526  -999.2500
  382.0000   -52.5204    87.9356    11.1699    10.4338  -999.2500
  382.5000   -52.8452    89.3558    11.0769    10.2178  -999.2500
  383.0000   -52.8959    90.5074    10.9771    10.1665  -999.2500
  383.5000   -52.8455    91.2340    10.8724    10.1229  -999.2500
  384.0000   -52.7926    91.9607    10.7675    10.0783  -999.2500
  384.5000   -52.7312    92.6873    10.6642    10.0335  -999.2500
  385.0000   -52.3696    93.4145    10.5628     9.9885  -999.2500
  385.5000   -51.6321    94.1417    10.4383     9.9439  -999.2500
  386.0000   -51.3434    94.8673    10.4410     9.9217  -999.2500
  386.5000   -51.4098    94.9754    10.3367     9.9894  -999.2500
  387.0000   -51.5057    94.3476    10.3598    10.0549  -999.2500
  387.5000   -51.2591    93.7198    10.4133    10.1200  -999.2500
  388.0000   -50.5118    93.0919    10.4675    10.1861  -999.2500
  388.5000   -49.9437    92.4641    10.5218    10.1756  -999.2500
  389.0000   -50.3502    92.6943    10.5774    10.1186  -999.2500
  389.5000   -50.7377    93.4077    10.6299    10.0606  -999.2500
  390.0000   -51.1250    94.1211    10.5526     9.9901  -999.2500
  390.5000   -51.3110    94.8346    10.4357     9.8487  -999.2500
  391.0000   -51.1424    95.9073    10.2170     9.7081  -999.2500
  391.5000   -50.9177    97.5171    10.1601     9.5918  -999.2500
  392.0000   -50.7159    99.1269    10.1819     9.4772  -999.2500
  392.5000   -50.4635   100.7367    10.0888     9.3626  -999.2500
  393.0000   -50.1829   102.3465    10.0284     9.2480  -999.2500
  393.5000   -49.9075   103.8138     9.9608     9.1334  -999.2500
  394.0000   -49.9636   105.0595     9.8890     9.0185  -999.2500
  394.5000   -50.0746   106.3052     9.7958     8.9037  -999.2500
  395.0000   -50.1847   107.5509     9.7163     8.7995  -999.2500
  395.5000   -50.3025   108.5674     9.6430     8.7856  -999.2500
  396.0000   -50.6307   109.1488     9.5691     8.7348  -999.2500
  396.5000   -50.9809   109.7309     9.5042     8.6844  -999.2500
  397.0000   -51.3349   110.3125     9.4596     8.6335  -999.2500
  397.5000   -51.7010   110.8909     9.4363     8.5834  -999.2500
  398.0000   -51.6712   111.3911     9.4131     8.5368  -999.2500
  398.5000   -51.0641   111.1646     9.3898     8.6190  -999.2500
  399.0000   -50.2546   110.8653     9.3659     8.6766  -999.2500
  399.5000   -49.4587   110.5661     9.3482     8.7380  -999.2500
  400.0000   -49.3912   110.2669     9.4240     8.8012  -999.2500
  400.5000   -49.8100   109.9677     9.5003     8.8638  -999.2500
  401.0000   -49.8991   109.6685     9.5666     8.9013  -999.2500
  401.5000   -49.9007   109.3728     9.3244     8.7938  -999.2500
  402.0000   -49.8970   108.6628     8.7710     8.6816  -999.2500
  402.5000   -50.0699   107.9651     8.6852     8.5989  -999.2500
  403.0000   -50.3347   107.4597     9.4212     8.6593  -999.2500
