~VERSION INFORMATION
 VERS.                2.0:   CWLS LOG ASCII STANDARD - VERSION 2.0
 WRAP.                 NO:   ONE LINE PER DEPTH STEP
~WELL INFORMATION
#MNEM.UNIT      DATA TYPE    INFORMATION
#----------   ------------   ------------------------------
 STRT.F          131.0000:   START DEPTH
 STOP.F         1085.0000:   STOP DEPTH
 STEP.F            0.5000:   STEP LENGTH
 NULL.          -999.2500:   NO VALUE
 COMP. U S NAVY-INTEX OIL:   COMPANY
 WELL.     UPR #3 #66-S-2:   WELL
 FLD .             TEAPOT:   FIELD
 LOC .       S2 T38N R78W:   LOCATION
 CNTY.            NATRONA:   COUNTY
 STAT.            WYOMING:   STATE
 CTRY. UNITED STATES OF AMERICA:   COUNTRY
 SRVC.       Schlumberger:   SERVICE COMPANY
 DATE.        18-JUL-1964:   LOGDATE
 API .       490250641300:   API NUMBER
~CURVE INFORMATION
#MNEM.UNIT       API CODE    CURVE DESCRIPTION
#----------   ------------   ------------------------------
 DEPT.F                  :   
 ASN .OHMM   05 041 16 00:   AMPLIFIED SHORT NORMAL 16"
 CILD.MMHO   05 110 46 00:   CONDUCTIVITY INDUCTION LOG DEEP
 ILD .OHMM   05 120 46 00:   INDUCTION LOG DEEP
 SPR .MV     05 010 01 00:   SPONTANEOUS POTENTIAL FROM RES.
 GR  .GAPI   30 310 01 00:   GAMMA RAY
 CALS.IN     60 280 50 00:   CALIPER FROM SONIC LOG
 DT  .US/F   60 520 33 00:   INTERVAL TRANSIT TIME
~PARAMETER INFORMATION
#MNEM.UNIT          VALUE    DESCRIPTION
#----------   ------------   ------------------------------
 PD  .                 GL:   PERMANENT DATUM
 EPD .F              5204:   ELEVATION PERMANENT DATUM
 LMF .                 KB:   LOG MEASURED FROM
 DAPD.F                 5:   FEET ABOVE PERMANENT DATUM
 DMF .                 KB:   DRILLING MEASURED FROM
 EKB .F              5209:   KELLING BUSHING
 EGL .F              5204:   GROUND LEVEL
 DATE.          7-18-1964:   RUN DATE
 RUN .                  1:   RUN NUMBER
 DD  .F              1085:   DEPTH DRILLER
 DL  .F              1086:   DEPTH LOGGER
 BLI .F              1085:   BOTTOM LOG INTERVAL
 TLI .F               131:   TOP LOG INTERVAL
 CS  .IN            8.625:   CASING SIZE
 CBD .F                10:   CASING BOTTOM DRILLER
 BS  .IN             6.75:   BIT SIZE
 BSD .F              5204:   BIT SIZE AT DEPTH
 DFT .                GEL:   DRILLING FLUID TYPE
 DFD .                9.5:   DRILLING FLUID DENSITY
 DFV .                 47:   DRILLING FLUID VISCOSITY
 DFL .                 10:   DRILLING FLUID LOSS
 MSS .           FLOWLINE:   MUD SAMPLE SOURCE
 RMS .OHMM           2.58:   RESISTIVITY MUD SAMPLE
 MST .F                93:   MUD SAMPLE TEMPERATURE
 RMF .OHMM           2.27:   RESISTIVITY MUD FILTRATE SAMPLE
 MFST.F                93:   MUD FILTRATE SAMPLE TEMPERATURE
 MFSS.                 FP:   MUD FILTRATE SAMPLE SOURCE
 TCS .HRS             1.5:   TIME CURCULATED STOPPED
 LUN .               3527:   LOGGING UNIT NUMBER
 LUL .              CSPR.:   LOGGING UNIT LOCATION
 ENGI.            WINKLER:   RECORDING ENGINEER
 WITN.          JORGENSEN:   WITNESSED BY
 CLNT.            A2DTECH:   CLIENT CODE
 ORIG.    1" , 2.5" PRINT:   ORIGIN OF DATA
 UWI .       490250641300:   UNIQUE WELL ID
 DICO. A2D Technologies, Inc.:   DIGITIZING COMPANY
~OTHER INFORMATION
~A   DEPT      ASN       CILD        ILD        SPR         GR       CALS         DT   
# ...
  495.0000     6.3338   169.5771     6.2202   -37.2172    76.0923     5.8029   108.3066
  495.5000     6.5836   165.9354     6.3720   -37.2157    73.5284     6.0064   106.5693
  496.0000     6.7918   162.9215     6.5238   -37.2143    67.6312     6.2308   105.4340
  496.5000     6.9109   161.4002     6.7428   -37.5456    68.7037     6.2474   105.1967
  497.0000     7.0003   156.8938     6.9851   -37.9236    69.8202     5.8547   103.7412
  497.5000     7.1788   149.4024     7.2773   -38.7798    66.0002     5.3703   103.1552
  498.0000     7.4174   141.8110     7.4290   -39.5895    64.4969     4.9923   102.5466
  498.5000     7.5413   137.2414     7.5807   -39.5878    63.2545     4.9785    91.1781
  499.0000     7.6304   135.8806     7.5836   -39.5863    62.5510     5.0113    76.1978
  499.5000     7.6850   135.8507     7.7352   -39.2869    62.2628     4.9981    66.7120
  500.0000     7.6063   135.8209     7.5893   -38.6902    59.2424     4.9544    82.9566
  500.5000     7.4956   135.7910     7.4433   -38.0936    58.6482     4.9245   103.5669
  501.0000     7.3457   135.7612     7.4231   -37.7945    58.5086     4.9127   103.1841
  501.5000     7.1610   136.5646     7.2656   -38.0908    60.1901     4.9303   102.5003
  502.0000     6.8861   140.1738     6.9593   -38.3869    62.9293     4.9778   104.9315
  502.5000     6.5601   147.6077     6.5042   -38.0878    64.1533     5.2381   111.8674
  503.0000     6.2342   175.9372     5.9792   -38.0456    69.0137     5.6048   108.3479
  503.5000     5.9379   202.7741     5.2148   -37.7232    70.6922     5.9106   103.0758
  504.0000     5.5822   235.5811     4.1910   -37.1905    72.9768     6.1557   104.2714
  504.5000     5.0311   271.5728     3.3010   -37.1890    72.8372     6.2944   106.0707
  505.0000     4.3566   316.4926     2.4110   -37.1875    71.6370     6.3420   107.8699
  505.5000     3.8182   373.5265     2.1163   -36.7312    66.4973     6.3439   110.7432
  506.0000     3.4336   425.9610     1.8214   -36.2914    63.4789     6.3154   116.2967
  506.5000     3.1808   438.8782     1.6729   -35.9923    56.7941     6.3329   122.8979
  507.0000     3.3269   439.8861     1.5296   -35.9909    51.5396     6.3348   127.4059
  507.5000     3.4963   423.8060     1.5588   -36.5847    53.2145     6.3519   135.2247
  508.0000     3.7461   396.0402     1.7222   -36.8809    55.1961     6.3843   136.0475
  508.5000     4.0432   362.1735     1.9844   -37.1771    54.4504     6.4014   130.6968
  509.0000     4.3998   342.7417     2.9762   -37.4961    53.0986     6.4349   124.9716
  509.5000     5.9729   327.7876     4.2163   -37.7695    53.4135     6.4661   116.6881
  510.0000     7.3680   230.7439     5.6052   -37.8373    52.2133     6.4684   105.2443
  510.5000     8.0271   174.9183     7.5035   -38.1567    53.5888     6.4704    98.3152
  511.0000     9.0044   135.3870     8.9944   -38.4762    54.5098     6.4723    98.4630
  511.5000     9.6205   112.5467    10.1878   -38.7956    54.3702     6.4742    98.6030
  512.0000     9.8774    93.5126    11.2323   -39.1151    52.1093     6.4762    96.8641
  512.5000     9.9815    84.2040    11.3901   -39.5461    51.6667     6.4933    96.6317
  513.0000    10.0115    85.7855    11.0838   -39.8420    47.2607     6.4952    96.7003
  513.5000     9.8937    90.2344    10.7775   -39.8406    46.8419     6.5123    96.6185
  514.0000     9.7707    94.6832    10.4425   -40.1369    50.3417     6.5447    96.5366
  514.5000     9.5976   100.6246    10.1245   -39.8378    48.2323     6.5467    96.9062
  515.0000     9.4496   105.0734     9.7098   -39.5387    47.6352     6.5333    98.1035
  515.5000     9.2720   111.0148     9.4035   -39.2113    48.7106     6.5661    99.4513
  516.0000     9.0647   114.1690     9.0972   -38.5913    48.2680     6.6137    99.6755
  516.5000     8.8278   118.6292     8.8786   -37.9712    47.3708     6.6916    98.2160
  517.0000     8.6454   121.6967     8.7321   -37.1518    47.5342     6.7543    97.3735
  517.5000     8.5319   124.7638     8.5863   -36.5551    48.6067     6.8170    96.6391
  518.0000     9.0811   125.7963     8.4405   -36.5536    49.8307     6.8493    96.4084
  518.5000     9.5433   125.7612     8.5924   -37.3155    50.1456     6.8209    96.7011
  519.0000     9.9018   123.4676     9.0417   -38.3361    50.0059     6.8075    96.5440
  519.5000    10.2548   116.7404     9.3505   -38.9299    50.6605     6.7776    96.5374
  520.0000    10.2552   109.2489     9.6826   -39.2260    51.2448     6.7511    97.6595
  520.5000    10.4040   103.2500    10.1238   -39.2246    50.4991     6.7531    98.7063
  521.0000    10.4084   100.2362    10.4360   -39.2232    50.9655     6.7854    99.0759
  521.5000    10.7016    97.2223    10.8971   -38.9241    51.1260     6.8633    98.9167
  522.0000    10.7298    95.7010    11.2093   -39.2540    47.6560     6.9108    98.6029
  522.5000    11.0388    94.1791    11.4435   -39.6305    45.3951     6.9280    98.2267
  523.0000    11.3479    92.6567    11.4470   -40.2708    45.8616     6.8539    98.2970
  523.5000    11.6569    90.8484    11.7475   -41.5064    46.9340     6.6127    97.9877
  524.0000    11.8908    88.8163    11.7503   -42.3175    47.5520     6.4778    97.6049
  524.5000    12.1881    86.0870    12.0508   -42.6369    50.1416     6.4646    97.6751
  525.0000    12.4852    83.5821    12.2025   -42.6092    53.7899     6.5501    98.1183
  525.5000    12.4857    82.8184    12.3542   -42.1858    55.6199     6.7273    98.6384
  526.0000    12.4861    82.0299    12.3681   -41.8867    57.1470     6.7900    99.0080
  526.5000    12.4865    81.9948    12.5089   -41.8853    57.7649     6.8066    99.0014
  527.0000    12.4869    80.4735    12.6607   -42.1815    57.1707     6.7330    99.2235
  527.5000    12.4874    80.4448    12.6637   -42.4777    57.4856     6.6438    99.8257
  528.0000    12.4878    80.4160    12.6667   -42.4762    54.6187     6.6148   100.1102
  528.5000    12.4883    80.3872    12.6696   -42.4747    48.4185     6.6476    99.4248
  529.0000    12.4887    80.3582    12.6726   -43.1309    47.5212     6.7104    98.6657
  529.5000    12.4892    80.3284    12.6761   -43.6624    47.5333     6.7427    98.1324
  530.0000    12.4896    80.2985    12.6790   -43.6607    47.8485     6.6798    97.1476
  530.5000    12.6384    80.2687    12.6819   -43.6592    48.3175     6.4887    96.4638
  531.0000    12.7873    80.2388    12.6847   -43.3601    51.0566     6.4445    96.6829
  531.5000    12.7877    80.2090    12.8364   -43.3583    52.1291     6.4621    97.5039
  532.0000    12.9365    80.1791    12.8413   -43.6545    52.8986     6.5097    97.7271
  532.5000    13.0853    80.1493    12.9911   -43.6531    52.6074     6.5420    97.1043
  533.0000    13.0858    78.6214    13.1681   -43.6517    51.8618     6.5439    96.9574
  533.5000    13.2385    78.5926    13.3316   -43.6502    49.9039     6.4850    98.0778
  534.0000    13.3992    77.0713    13.5952   -43.6488    49.1582     6.4870    98.6731
  534.5000    13.7083    77.0425    13.8073   -43.6473    48.4126     6.6105    97.9893
  535.0000    13.8689    74.0286    13.9707   -43.6905    47.8184     6.6429    97.2302
  535.5000    14.0810    73.9999    14.1342   -44.0099    46.7656     6.5388    97.3741
  536.0000    14.4020    72.3782    14.5005   -44.2383    45.7070     6.5251    98.7971
  536.5000    14.7229    70.7439    14.8010   -44.6488    45.5813     6.6947   100.2954
  537.0000    15.1666    67.9403    15.1015   -44.9683    44.9901     6.8182   100.6650
  537.5000    15.4637    67.4750    15.2532   -45.7465    44.6960     6.8049   100.6584
  538.0000    15.9093    64.8955    15.4048   -46.6128    46.9836     6.7005    99.8710
  538.5000    16.3548    62.7140    15.7148   -47.2066    47.4470     6.6715    98.0852
  539.0000    16.6519    61.0797    16.1711   -47.5028    46.8528     6.7043    96.5737
  539.5000    16.8007    57.3374    16.4834   -47.7991    49.1404     6.6455    95.4384
  540.0000    17.1078    54.3236    16.6468   -47.7976    54.4553     6.4184    94.5288
