~VERSION INFORMATION
 VERS.                2.0:   CWLS LOG ASCII STANDARD - VERSION 2.0
 WRAP.                 NO:   ONE LINE PER DEPTH STEP
~WELL INFORMATION
#MNEM.UNIT      DATA TYPE    INFORMATION
#----------   ------------   ------------------------------
 STRT.F           88.0000:   START DEPTH
 STOP.F          991.0000:   STOP DEPTH
 STEP.F            0.5000:   STEP LENGTH
 NULL.          -999.2500:   NO VALUE
 COMP. US NAVY /INTEX OIL CO.:   COMPANY
 WELL.    NPR #3 #S-11 63:   WELL
 FLD .             TEAPOT:   FIELD
 LOC .      S11 T38N R78W:   LOCATION
 CNTY.            NATRONA:   COUNTY
 STAT.            WYOMING:   STATE
 CTRY. UNITED STATES OF AMERICA:   COUNTRY
 SRVC.       Schlumberger:   SERVICE COMPANY
 DATE.        24-JUL-1964:   LOGDATE
 API .       490250636200:   API NUMBER
~CURVE INFORMATION
#MNEM.UNIT       API CODE    CURVE DESCRIPTION
#----------   ------------   ------------------------------
 DEPT.F                  :   
 SPR .MV     05 010 01 00:   SPONTANEOUS POTENTIAL FROM RES.
 ASN .OHMM   05 041 16 00:   AMPLIFIED SHORT NORMAL 16"
 ILD .OHMM   05 120 46 00:   INDUCTION LOG DEEP
 CILD.MMHO   05 110 46 00:   CONDUCTIVITY INDUCTION LOG DEEP
 CALS.IN     60 280 50 00:   CALIPER FROM SONIC LOG
 DT  .US/F   60 520 33 00:   INTERVAL TRANSIT TIME
 GR  .GAPI   30 310 01 00:   GAMMA RAY
~PARAMETER INFORMATION
#MNEM.UNIT          VALUE    DESCRIPTION
#----------   ------------   ------------------------------
 PD  .                 GL:   PERMANENT DATUM
 LMF .                 KB:   LOG MEASURED FROM
 DAPD.F                 5:   FEET ABOVE PERMANENT DATUM
 DMF .                 KB:   DRILLING MEASURED FROM
 EKB .F              5914:   KELLING BUSHING
 DATE.          7-24-1964:   RUN DATE
 RUN .                  1:   RUN NUMBER
 DD  .F               990:   DEPTH DRILLER
 DL  .F               992:   DEPTH LOGGER
 BLI .F               991:   BOTTOM LOG INTERVAL
 TLI .F               990:   TOP LOG INTERVAL
 CS  .IN            8.625:   CASING SIZE
 CBD .F                15:   CASING BOTTOM DRILLER
 BS  .IN             6.75:   BIT SIZE
 BSD .F               990:   BIT SIZE AT DEPTH
 DFT .            GEL OIL:   DRILLING FLUID TYPE
 DFD .                9.2:   DRILLING FLUID DENSITY
 DFV .                 47:   DRILLING FLUID VISCOSITY
 MSS .            MUD PIT:   MUD SAMPLE SOURCE
 RMS .OHMM           1.24:   RESISTIVITY MUD SAMPLE
 MST .F                75:   MUD SAMPLE TEMPERATURE
 RMF .OHMM           .801:   RESISTIVITY MUD FILTRATE SAMPLE
 MFST.F                80:   MUD FILTRATE SAMPLE TEMPERATURE
 MFSS.                 FP:   MUD FILTRATE SAMPLE SOURCE
 RMB .OHMM           1.09:   RESISTIVITY MUD AT BHT
 BHT .F                85:   BOTTOM HOLE TEMPERATURE
 TCS .HRS              .5:   TIME CURCULATED STOPPED
 MRT .F                85:   MAXIMUM RECORDED TEMPERATURE
 LUN .               2572:   LOGGING UNIT NUMBER
 LUL .                 MC:   LOGGING UNIT LOCATION
 ENGI.             BOWLER:   RECORDING ENGINEER
 WITN.          JORGENSEN:   WITNESSED BY
 CLNT.            A2DTECH:   CLIENT CODE
 ORIG.      2" & 5" PRINT:   ORIGIN OF DATA
 UWI .       490250636200:   UNIQUE WELL ID
 DICO. A2D Technologies, Inc.:   DIGITIZING COMPANY
~OTHER INFORMATION
~A   DEPT      SPR          ASN        ILD      CILD      CALS         DT         GR   
# ...
  270.0000   -43.1975     7.0106     5.8933   168.6543  -999.2500  -999.2500  -999.2500
  270.5000   -43.1947     6.9661     5.8955   167.1253  -999.2500  -999.2500  -999.2500
  271.0000   -43.1918     7.0417     5.8977   167.0888  -999.2500  -999.2500  -999.2500
  271.5000   -43.1890     7.1473     5.8998   165.5597  -999.2500  -999.2500  -999.2500
  272.0000   -43.1860     7.2978     5.9020   165.4430  -999.2500  -999.2500  -999.2500
  272.5000   -43.0372     7.2834     5.8292   165.4869  -999.2500  -999.2500  -999.2500
  273.0000   -42.8890     7.2090     5.8320   166.1967  -999.2500  -999.2500  -999.2500
  273.5000   -42.8862     7.0587     5.8341   168.3899  -999.2500  -999.2500  -999.2500
  274.0000   -42.7380     6.9233     5.8363   169.8551  -999.2500  -999.2500  -999.2500
  274.5000   -42.5898     6.8511     5.8385   170.5649  -999.2500  -999.2500  -999.2500
  275.0000   -42.5870     6.8215     5.8284   170.5193  -999.2500  -999.2500  -999.2500
  275.5000   -42.5841     6.8672     5.6941   169.7366  -999.2500  -999.2500  -999.2500
  276.0000   -42.4359     6.9427     5.6218   169.7001  -999.2500  -999.2500  -999.2500
  276.5000   -42.4331     6.8683     5.6246   168.9174  -999.2500  -999.2500  -999.2500
  277.0000   -42.4302     6.8690     5.6267   168.8806  -999.2500  -999.2500  -999.2500
  277.5000   -42.4273     6.9895     5.6289   169.5908  -999.2500  -999.2500  -999.2500
  278.0000   -42.4238     7.0651     5.4817   171.0377  -999.2500  -999.2500  -999.2500
  278.5000   -42.4210     6.9892     5.4100   173.9863  -999.2500  -999.2500  -999.2500
  279.0000   -42.4181     6.8504     5.3378   178.4275  -999.2500  -999.2500  -999.2500
  279.5000   -42.4153     6.6772     5.2656   183.6149  -999.2500  -999.2500  -999.2500
  280.0000   -42.4125     6.4529     5.1091   189.5486  -999.2500  -999.2500  -999.2500
  280.5000   -42.4096     6.2136     4.8985   195.4823  -999.2500  -999.2500  -999.2500
  281.0000   -42.4068     6.0792     4.7519   201.4160  -999.2500  -999.2500  -999.2500
  281.5000   -42.5493     5.9299     4.7540   205.8571  -999.2500  -999.2500  -999.2500
  282.0000   -42.5464     5.8255     4.7562   211.0445  -999.2500  -999.2500  -999.2500
  282.5000   -42.3982     5.7961     4.7584   211.0075  -999.2500  -999.2500  -999.2500
  283.0000   -42.3954     5.7817     4.7606   210.2238  -999.2500  -999.2500  -999.2500
  283.5000   -42.3924     5.7973     4.7628   207.9409  -999.2500  -999.2500  -999.2500
  284.0000   -42.2436     5.7999     4.7649   207.1582  -999.2500  -999.2500  -999.2500
  284.5000   -42.0954     5.8436     4.8415   205.6292  -999.2500  -999.2500  -999.2500
  285.0000   -41.9472     5.8892     4.8438   204.1002  -999.2500  -999.2500  -999.2500
  285.5000   -41.7991     5.9347     4.9952   201.8219  -999.2500  -999.2500  -999.2500
  286.0000   -41.6509     5.9953     5.0718   201.0422  -999.2500  -999.2500  -999.2500
  286.5000   -41.6480     6.0558     5.0740   199.5132  -999.2500  -999.2500  -999.2500
  287.0000   -41.7905     6.1164     5.0762   197.9842  -999.2500  -999.2500  -999.2500
  287.5000   -41.7877     6.1619     5.0784   196.4552  -999.2500  -999.2500  -999.2500
  288.0000   -41.7848     6.1625     5.0805   195.6716  -999.2500  -999.2500  -999.2500
  288.5000   -41.9273     6.1631     5.0827   194.1344  -999.2500  -999.2500  -999.2500
  289.0000   -41.9380     6.1187     5.0849   192.6054  -999.2500  -999.2500  -999.2500
  289.5000   -42.0670     6.0893     5.0871   191.8226  -999.2500  -999.2500  -999.2500
  290.0000   -41.9181     6.1050     5.0892   190.2937  -999.2500  -999.2500  -999.2500
  290.5000   -41.9152     6.1356     5.0915   189.5109  -999.2500  -999.2500  -999.2500
  291.0000   -41.9124     6.1962     5.1686   189.4744  -999.2500  -999.2500  -999.2500
  291.5000   -41.9095     6.2867     5.1707   188.6917  -999.2500  -999.2500  -999.2500
  292.0000   -41.9067     6.3623     5.2473   187.1627  -999.2500  -999.2500  -999.2500
  292.5000   -41.7585     6.4078     5.3239   185.6337  -999.2500  -999.2500  -999.2500
  293.0000   -41.7557     6.3934     5.4005   182.5918  -999.2500  -999.2500  -999.2500
  293.5000   -41.7528     6.3940     5.4027   179.4997  -999.2500  -999.2500  -999.2500
  294.0000   -41.6046     6.4116     5.4793   176.5600  -999.2500  -999.2500  -999.2500
  294.5000   -41.6018     6.4253     5.4814   173.5385  -999.2500  -999.2500  -999.2500
  295.0000   -41.5988     6.4259     5.5580   170.5169  -999.2500  -999.2500  -999.2500
  295.5000   -41.7414     6.4864     5.5603   167.4954  -999.2500  -999.2500  -999.2500
  296.0000   -41.7379     6.7269     5.5629   165.2201  -999.2500  -999.2500  -999.2500
  296.5000   -41.8811     7.0123     5.4902   163.6911  -999.2500  -999.2500  -999.2500
  297.0000   -42.0236     7.1329     5.3441   163.6547  -999.2500  -999.2500  -999.2500
  297.5000   -42.1661     7.0135     5.1230   165.1119  -999.2500  -999.2500  -999.2500
  298.0000   -42.0172     6.8342     4.9764   170.2981  -999.2500  -999.2500  -999.2500
  298.5000   -41.8690     6.6679     4.8292   181.6539  -999.2500  -999.2500  -999.2500
  299.0000   -41.7208     6.4076     4.5343   199.4580  -999.2500  -999.2500  -999.2500
  299.5000   -41.4273     5.9365     4.2389   220.9259  -999.2500  -999.2500  -999.2500
  300.0000   -41.2791     5.5066     4.0179   235.9623  -999.2500  -999.2500  -999.2500
  300.5000   -41.2718     4.9779     3.2018   245.4988  -999.2500  -999.2500  -999.2500
  301.0000   -41.2646     4.6185     3.1294   261.8950  -999.2500  -999.2500  -999.2500
  301.5000   -41.2560     4.4089     3.1317   274.5845  -999.2500  -999.2500  -999.2500
  302.0000   -41.2489     4.3193     3.2867   279.8607  -999.2500  -999.2500  -999.2500
  302.5000   -41.2418     4.4547     3.3594   280.4865  -999.2500  -999.2500  -999.2500
  303.0000   -41.2346     4.6500     3.5852   271.5040  -999.2500  -999.2500  -999.2500
  303.5000   -41.2275     4.9202     3.7362   261.7808  -999.2500  -999.2500  -999.2500
  304.0000   -41.2204     5.2354     4.0360   245.3411  -999.2500  -999.2500  -999.2500
  304.5000   -41.2133     5.5506     4.2614   228.1552  -999.2500  -999.2500  -999.2500
  305.0000   -41.2062     5.7909     4.5612   212.4618  -999.2500  -999.2500  -999.2500
  305.5000   -41.1991     6.0161     4.8610   200.4997  -999.2500  -999.2500  -999.2500
  306.0000   -41.1919     6.2564     5.0864   186.0502  -999.2500  -999.2500  -999.2500
  306.5000   -41.2093     6.4817     5.3118   167.6150  -999.2500  -999.2500  -999.2500
  307.0000   -41.3231     6.6053     5.5372   161.6230  -999.2500  -999.2500  -999.2500
  307.5000   -41.4614     6.7373     5.7627   157.8700  -999.2500  -999.2500  -999.2500
  308.0000   -41.5996     6.8426     6.0629   155.6094  -999.2500  -999.2500  -999.2500
  308.5000   -41.5907     6.9929     6.1395   152.6026  -999.2500  -999.2500  -999.2500
  309.0000   -41.5836     7.1132     6.3649   148.8495  -999.2500  -999.2500  -999.2500
  309.5000   -41.5765     7.2785     6.3671   143.6038  -999.2500  -999.2500  -999.2500
  310.0000   -41.5694     7.3838     6.4437   139.8507  -999.2500  -999.2500  -999.2500
  310.5000   -41.5623     7.4891     6.4458   139.9155  -999.2500  -999.2500  -999.2500
  311.0000   -41.5552     7.5195     6.4480   142.7869  -999.2500  -999.2500  -999.2500
  311.5000   -41.4026     7.5498     6.3757   147.2427  -999.2500  -999.2500  -999.2500
  312.0000   -41.3720     7.5030     6.1548   151.6986  -999.2500  -999.2500  -999.2500
  312.5000   -41.2414     7.3408     6.0763   155.4082  -999.2500  -999.2500  -999.2500
  313.0000   -41.0889     7.0742     5.8482   161.3566  -999.2500  -999.2500  -999.2500
  313.5000   -41.0818     6.8393     5.7154   167.3050  -999.2500  -999.2500  -999.2500
  314.0000   -40.9294     6.5473     5.4938   176.2384  -999.2500  -999.2500  -999.2500
  314.5000   -40.9223     6.3678     5.1984   184.5378  -999.2500  -999.2500  -999.2500
  315.0000   -40.7698     6.1582     4.9030   194.6012  -999.2500  -999.2500  -999.2500
