~VERSION INFORMATION
 VERS.                2.0:   CWLS LOG ASCII STANDARD - VERSION 2.0
 WRAP.                 NO:   ONE LINE PER DEPTH STEP
~WELL INFORMATION
#MNEM.UNIT      DATA TYPE    INFORMATION
#----------   ------------   ------------------------------
 STRT.F           36.5000:   START DEPTH
 STOP.F          476.0000:   STOP DEPTH
 STEP.F            0.5000:   STEP LENGTH
 NULL.          -999.2500:   NO VALUE
 COMP. LAWRENCE/ALLISON INC:   COMPANY
 WELL.    54-36 SXFO #3-3:   WELL
 FLD .            WILDCAT:   FIELD
 LOC .       S3 T38N R78W:   LOCATION
 CNTY.            NATRONA:   COUNTY
 STAT.            WYOMING:   STATE
 CTRY. UNITED STATES OF AMERICA:   COUNTRY
 SRVC.      Dresser Atlas:   SERVICE COMPANY
 DATE.        09-DEC-1983:   LOGDATE
 API .       490251095500:   API NUMBER
~CURVE INFORMATION
#MNEM.UNIT       API CODE    CURVE DESCRIPTION
#----------   ------------   ------------------------------
 DEPT.F                  :   
 GRD .GAPI   45 310 01 00:   GAMMA RAY FROM DENSITY LOG
 PORD.DEC    45 890 12 00:   POROSITY DENSITY SANDSTONE
 DEN .G/C3   45 350 01 00:   COMPENSATED BULK DENSTIY
 CORR.G/C3   45 356 01 00:   DENSITY CORRECTION
 CALD.IN     45 280 60 00:   CALIPER
 RFOC.OHMM   07 220 04 00:   RESISTIVITY FOCUSED LOG
 RILD.OHMM   07 120 46 00:   INDUCTION LOG DEEP RESISTIVITY
 RILM.OHMM   07 120 44 00:   INDUCTION LOG MEDIUM RESISTIVITY
~PARAMETER INFORMATION
#MNEM.UNIT          VALUE    DESCRIPTION
#----------   ------------   ------------------------------
 PD  .                 GL:   PERMANENT DATUM
 EPD .F              5166:   ELEVATION PERMANENT DATUM
 LMF .                 KB:   LOG MEASURED FROM
 DAPD.F                10:   FEET ABOVE PERMANENT DATUM
 DMF .                 KB:   DRILLING MEASURED FROM
 EKB .F              5176:   KELLING BUSHING
 EGL .F              5166:   GROUND LEVEL
 DATE.            12-9-83:   RUN DATE
 RUN .                  1:   RUN NUMBER
 DD  .F               478:   DEPTH DRILLER
 DL  .F               475:   DEPTH LOGGER
 BLI .F               473:   BOTTOM LOG INTERVAL
 TLI .F                44:   TOP LOG INTERVAL
 CBD .F                40:   CASING BOTTOM DRILLER
 CBL .F                44:   CASING BOTTOM LOGGER
 BS  .IN             8.75:   BIT SIZE
 BSD .F               478:   BIT SIZE AT DEPTH
 DFT .           AIR FOAM:   DRILLING FLUID TYPE
 MRT .F               100:   MAXIMUM RECORDED TEMPERATURE
 LUN .               6307:   LOGGING UNIT NUMBER
 LUL .               GLTE:   LOGGING UNIT LOCATION
 ENGI.            DEYOUNG:   RECORDING ENGINEER
 WITN.             GROOMS:   WITNESSED BY
 CLNT.            A2DTECH:   CLIENT CODE
 ORIG.       2", 5" PRINT:   ORIGIN OF DATA
 UWI .       490251095500:   UNIQUE WELL ID
 DICO. A2D Technologies, Inc.:   DIGITIZING COMPANY
~OTHER INFORMATION
~A   DEPT       GRD      PORD        DEN       CORR       CALD       RFOC       RILD       RILM   
# ...
  239.0000   121.3741     0.1487     2.4326     0.0329    10.3988  -999.2500     6.4486     6.8116
  239.5000   121.0572     0.1498     2.4302     0.0211    10.4012  -999.2500     6.2370     6.4853
  240.0000   120.8757     0.1488     2.4328     0.0052    10.4172  -999.2500     5.8868     6.1169
  240.5000   121.9051     0.1453     2.4393    -0.0102    10.4330  -999.2500     5.5562     5.7694
  241.0000   122.4989     0.1417     2.4459     0.0053    10.4488  -999.2500     5.2442     5.4416
  241.5000   120.9822     0.1385     2.4527     0.0239    10.4646  -999.2500     4.9495     5.1325
  242.0000   119.4656     0.1385     2.4493     0.0427    10.4804  -999.2500     4.6717     4.8409
  242.5000   117.9365     0.1438     2.4402     0.0473    10.4962  -999.2500     4.4093     4.5648
  243.0000   118.3198     0.1493     2.4311     0.0184    10.5120  -999.2500     4.2448     4.3988
  243.5000   120.2916     0.1548     2.4206     0.0089    10.5279  -999.2500     4.1602     4.3158
  244.0000   122.2734     0.1606     2.4098     0.0310    10.5441  -999.2500     4.2673     4.4911
  244.5000   122.6319     0.1787     2.3828     0.0676    10.5567  -999.2500     4.4317     4.7608
  245.0000   122.4844     0.1980     2.3443     0.1155    10.4925  -999.2500     4.6012     5.1732
  245.5000   121.0931     0.2169     2.3028     0.1638    10.4259  -999.2500     4.9080     5.6244
  246.0000   117.8648     0.2258     2.3282     0.1839    10.3604  -999.2500     5.2843     6.1206
  246.5000   119.1154     0.1978     2.3773     0.1142    10.3146  -999.2500     5.6895     6.3124
  247.0000   121.0646     0.1679     2.4245     0.0424    10.2938  -999.2500     6.1239     6.5576
  247.5000   122.9837     0.1397     2.4399     0.0514    10.2732  -999.2500     6.2905     6.8152
  248.0000   124.6910     0.1441     2.4467     0.0637    10.2727  -999.2500     6.4685     6.9852
  248.5000   124.2573     0.1490     2.4291     0.0650    10.3217  -999.2500     6.6561     7.0652
  249.0000   123.8964     0.1471     2.4359     0.0634    10.3687  -999.2500     6.8492     7.1462
  249.5000   125.0911     0.1456     2.4390     0.0531    10.4549  -999.2500     7.0312     7.2280
  250.0000   124.1572     0.1516     2.4282     0.0183    10.5480  -999.2500     7.0610     7.3108
  250.5000   122.5785     0.1576     2.4177    -0.0167    10.6412  -999.2500     7.0886     7.3946
  251.0000   122.6683     0.1637     2.4072    -0.0170    10.7342  -999.2500     7.1164     7.4793
  251.5000   124.9277     0.1654     2.4027    -0.0147    10.8273  -999.2500     7.1442     7.5689
  252.0000   126.4512     0.1587     2.4134    -0.0128    10.9204  -999.2500     7.1619     7.4575
  252.5000   121.3298     0.1515     2.4264    -0.0028    11.0134  -999.2500     7.1011     7.3412
  253.0000   116.8158     0.1477     2.4331     0.0113    11.0697  -999.2500     7.0568     7.2266
  253.5000   116.2779     0.1546     2.4254    -0.0030    11.0890  -999.2500     7.0191     7.1621
  254.0000   120.9857     0.1592     2.4163    -0.0198    11.1082  -999.2500     6.9901     7.1793
  254.5000   126.0627     0.1602     2.4221    -0.0273    11.1275  -999.2500     6.9612     7.1920
  255.0000   127.5858     0.1506     2.4311    -0.0194    11.1466  -999.2500     6.9325     7.2046
  255.5000   123.7503     0.1475     2.4364    -0.0117    11.1555  -999.2500     6.9039     7.2170
  256.0000   122.3413     0.1466     2.4369     0.0039    11.1336  -999.2500     6.8754     7.2300
  256.5000   126.4485     0.1410     2.4467     0.0377    11.1130  -999.2500     6.8396     7.2447
  257.0000   130.0672     0.1313     2.4649     0.0712    11.0923  -999.2500     6.8628     7.2592
  257.5000   127.2646     0.1217     2.4794     0.0769    11.0703  -999.2500     6.9058     7.2733
  258.0000   124.4340     0.1220     2.4739     0.0712    10.9964  -999.2500     6.9668     7.2891
  258.5000   121.5152     0.1306     2.4632     0.0597    10.8576  -999.2500     6.8894     7.2951
  259.0000   121.2015     0.1368     2.4525     0.0480    10.7240  -999.2500     6.5602     6.8057
  259.5000   122.3151     0.1430     2.4419     0.0404    10.6377  -999.2500     6.2036     6.4762
  260.0000   123.4237     0.1492     2.4327     0.0593    10.5488  -999.2500     5.8664     6.1625
  260.5000   123.9259     0.1582     2.4201     0.0908    10.4605  -999.2500     5.5475     5.8641
  261.0000   123.3151     0.1835     2.4072     0.1375    10.3733  -999.2500     5.2459     5.5801
  261.5000   122.7301     0.2123     2.3184     0.2182    10.2435  -999.2500     5.0470     5.2364
  262.0000   122.4506     0.2331     2.2905     0.2527    10.1182  -999.2500     5.0765     5.3074
  262.5000   123.9735     0.2145     2.3200     0.2074    10.0140  -999.2500     5.0992     5.4079
  263.0000   125.4628     0.2009     2.3403     0.0488    10.0083  -999.2500     5.1221     5.5339
  263.5000   126.8334     0.1894     2.3534     0.0254    10.0005  -999.2500     5.1408     5.4633
  264.0000   125.3777     0.1662     2.3913     0.0294     9.9925  -999.2500     5.0531     5.3731
  264.5000   122.7613     0.1431     2.4292     0.0381     9.9846  -999.2500     4.9801     5.2845
  265.0000   121.1801     0.1343     2.4551     0.0415     9.9766  -999.2500     4.9082     5.1973
  265.5000   124.8228     0.1284     2.4639     0.0439     9.9686  -999.2500     4.8373     5.1116
  266.0000   129.6066     0.1336     2.4566     0.0267     9.9606  -999.2500     4.7674     5.0272
  266.5000   133.1265     0.1561     2.4224    -0.0051     9.9608  -999.2500     4.7318     5.0007
  267.0000   129.9020     0.1785     2.3885    -0.0109     9.9668  -999.2500     4.8782     5.1107
  267.5000   126.7506     0.1860     2.3715    -0.0133     9.9728  -999.2500     4.9793     5.1857
  268.0000   125.3909     0.1798     2.3826    -0.0370     9.9789  -999.2500     5.1224     5.3205
  268.5000   124.0941     0.1677     2.3961    -0.0534     9.9850  -999.2500     5.3497     5.5761
  269.0000   123.4100     0.1557     2.4096    -0.0365     9.9910  -999.2500     5.5870     5.8439
  269.5000   120.8071     0.1480     2.4230    -0.0156     9.9971  -999.2500     5.8348     6.1248
  270.0000   118.0383     0.1431     2.4364     0.0045    10.0031  -999.2500     6.0937     6.4186
  270.5000   116.3468     0.1381     2.4498     0.0231    10.0091  -999.2500     6.3538     6.7769
  271.0000   117.2487     0.1332     2.4588     0.0412    10.0152  -999.2500     6.1895     6.6369
  271.5000   118.1117     0.1283     2.4671     0.0568    10.0212  -999.2500     6.0352     6.4742
  272.0000   118.1205     0.1257     2.4708     0.0514    10.0273  -999.2500     5.7639     6.3178
  272.5000   117.7872     0.1269     2.4666     0.0430    10.0333  -999.2500     5.3840     5.9598
  273.0000   118.3152     0.1272     2.4655     0.0377    10.0394  -999.2500     5.0291     5.4436
  273.5000   119.2132     0.1270     2.4685     0.0366    10.0454  -999.2500     4.6976     4.9702
  274.0000   119.5394     0.1272     2.4710     0.0355    10.0515  -999.2500     4.4364     4.6885
  274.5000   121.4328     0.1304     2.4550     0.0342    10.0575  -999.2500     4.4376     4.6455
  275.0000   123.5899     0.1462     2.4302     0.0454    10.0636  -999.2500     4.4724     4.7137
  275.5000   125.5046     0.1716     2.3937     0.0600    10.0696  -999.2500     4.4405     4.8361
  276.0000   125.2319     0.1968     2.3573     0.0746    10.0757  -999.2500     4.5965     4.9519
  276.5000   124.5542     0.2220     2.3210     0.0893    10.0781  -999.2500     4.6990     5.2205
  277.0000   123.3575     0.2489     2.2846     0.1042    10.0781  -999.2500     4.8829     5.5523
  277.5000   120.1132     0.2492     2.2601     0.1008    10.0782  -999.2500     5.3060     5.9075
  278.0000   118.0075     0.2218     2.2973     0.0931    10.0844  -999.2500     5.7658     6.2851
  278.5000   121.0393     0.1866     2.3743     0.0382    10.1060  -999.2500     6.2654     6.6868
  279.0000   122.9190     0.1513     2.4517    -0.0132    10.1274  -999.2500     6.8396     6.9725
