~VERSION INFORMATION
 VERS.                2.0:   CWLS LOG ASCII STANDARD - VERSION 2.0
 WRAP.                 NO:   ONE LINE PER DEPTH STEP
~WELL INFORMATION
#MNEM.UNIT      DATA TYPE    INFORMATION
#----------   ------------   ------------------------------
 STRT.F           20.0000:   START DEPTH
 STOP.F          488.0000:   STOP DEPTH
 STEP.F            0.5000:   STEP LENGTH
 NULL.          -999.2500:   NO VALUE
 COMP.    FENIX & SCISSON:   COMPANY
 WELL.  SX-3 NPR #3-3 #43:   WELL
 FLD .             TEAPOT:   FIELD
 LOC .       S3 T38N R78W:   LOCATION
 CNTY.            NATRONA:   COUNTY
 STAT.            WYOMING:   STATE
 CTRY. UNITED STATES OF AMERICA:   COUNTRY
 SRVC.           BIRDWELL:   SERVICE COMPANY
 DATE.        04-JAN-1978:   LOGDATE
 API .       490251044800:   API NUMBER
~CURVE INFORMATION
#MNEM.UNIT       API CODE    CURVE DESCRIPTION
#----------   ------------   ------------------------------
 DEPT.F                  :   
 ILD .OHMM   05 120 46 00:   INDUCTION LOG DEEP
 SN  .OHMM   05 040 16 00:   SHORT NORMAL 16"
 SPR .MV     05 010 01 00:   SPONTANEOUS POTENTIAL FROM RES.
 CALD.IN     45 280 60 00:   CALIPER FROM DENSITY LOG
 DPHI.DEC    45 890 12 00:   DENSITY POROSITY SANDSTONE
 DRHO.G/C3   45 356 01 00:   DENSITY CORRECTION
 GRD .GAPI   45 310 01 00:   GAMMA RAY FROM DENSITY LOG
 RHOB.G/C3   45 350 01 00:   BULK DENSITY
~PARAMETER INFORMATION
#MNEM.UNIT          VALUE    DESCRIPTION
#----------   ------------   ------------------------------
 PD  .                 GL:   PERMANENT DATUM
 LMF .                 KB:   LOG MEASURED FROM
 DAPD.F                 4:   FEET ABOVE PERMANENT DATUM
 DMF .                 KB:   DRILLING MEASURED FROM
 EKB .F              5163:   KELLING BUSHING
 EGL .F              5159:   GROUND LEVEL
 DATE.        04-JAN-1978:   RUN DATE
 RUN .                  1:   RUN NUMBER
 DD  .F               490:   DEPTH DRILLER
 DL  .F               490:   DEPTH LOGGER
 BLI .F               485:   BOTTOM LOG INTERVAL
 TLI .F                20:   TOP LOG INTERVAL
 CS  .IN            8.625:   CASING SIZE
 CBD .F                40:   CASING BOTTOM DRILLER
 CBL .F                44:   CASING BOTTOM LOGGER
 BS  .IN            7.875:   BIT SIZE
 BSD .F               490:   BIT SIZE AT DEPTH
 DFT .                KCL:   DRILLING FLUID TYPE
 DFD .                8.4:   DRILLING FLUID DENSITY
 DFV .                 32:   DRILLING FLUID VISCOSITY
 DFPH.                 11:   DRILLING FLUID PH
 DFL .                  8:   DRILLING FLUID LOSS
 MSS .                PIT:   MUD SAMPLE SOURCE
 RMS .OHMM           0.32:   RESISTIVITY MUD SAMPLE
 MST .F                62:   MUD SAMPLE TEMPERATURE
 RMF .OHMM           0.30:   RESISTIVITY MUD FILTRATE SAMPLE
 MFST.F                62:   MUD FILTRATE SAMPLE TEMPERATURE
 RMC .OHMM           0.35:   RESISTIVITY MUD CAKE
 MCST.F                62:   MUD CAKE SAMPLE TEMPERATURE
 MFSS.               MEAS:   MUD FILTRATE SAMPLE SOURCE
 MCSS.               MEAS:   MUD CAKE SAMPLE SOURCE
 RMB .OHMM           0.26:   RESISTIVITY MUD AT BHT
 BHT .F                75:   BOTTOM HOLE TEMPERATURE
 TCS .HRS               2:   TIME CURCULATED STOPPED
 MRT .F                75:   MAXIMUM RECORDED TEMPERATURE
 LUN .               2958:   LOGGING UNIT NUMBER
 LUL .             CASPER:   LOGGING UNIT LOCATION
 ENGI.             HUGHES:   RECORDING ENGINEER
 WITN.         HARRINGTON:   WITNESSED BY
 CLNT.            A2DTECH:   CLIENT CODE
 ORIG.           5" PRINT:   ORIGIN OF DATA
 UWI .       490251044800:   UNIQUE WELL ID
 DICO. A2D Technologies, Inc.:   DIGITIZING COMPANY
~OTHER INFORMATION
~A   DEPT      ILD         SN        SPR       CALD       DPHI       DRHO         GRD      RHOB   
# ...
  425.0000    16.7775    11.7025   -49.9248     8.2190     0.1107     0.0132   107.1540     2.4743
  425.5000    16.4677    11.6987   -50.0752     8.2190     0.1131     0.0140   101.1727     2.4735
  426.0000    16.3512    11.6949   -50.6767     8.2190     0.1146     0.0200   100.4459     2.4705
  426.5000    16.3491    11.6902   -50.6767     8.2190     0.1152     0.0283    99.8350     2.4676
  427.0000    16.3470    11.6059   -50.8271     8.2190     0.1143     0.0344    95.9306     2.4653
  427.5000    16.1192    11.6021   -50.8271     8.2190     0.1088     0.0389   100.3143     2.4698
  428.0000    15.8951    11.5184   -50.8271     8.2190     0.1013     0.0382   102.0692     2.4788
  428.5000    15.8931    11.4344   -50.9774     8.2190     0.1007     0.0345   100.0306     2.4871
  429.0000    15.8778    11.2737   -51.2782     8.2190     0.1019     0.0307   103.5394     2.4901
  429.5000    15.4538    11.1153   -51.8797     8.2190     0.1004     0.0212   108.7990     2.4841
  430.0000    15.4518    11.1116   -53.0827     8.2190     0.0980     0.0137   105.8834     2.4781
  430.5000    15.2285    11.0306   -53.0827     8.2190     0.1015     0.0190    99.9664     2.4752
  431.0000    15.0246    11.0271   -53.0827     8.2190     0.1036     0.0273    90.5642     2.4767
  431.5000    14.7134    10.9475   -53.0827     8.2190     0.1036     0.0288    91.4443     2.4857
  432.0000    14.6098    10.8677   -53.2331     8.2190     0.1012     0.0207    98.8936     2.4872
  432.5000    14.2078    10.7149   -54.2857     8.2044     0.0981     0.0319   107.1608     2.4827
  433.0000    14.1078    10.5643   -55.1880     8.2044     0.0931     0.0432   112.7705     2.4827
  433.5000    13.8155    10.4159   -55.4887     8.2044     0.0879     0.0530   111.0238     2.4812
  434.0000    13.8132    10.1276   -55.4887     8.2044     0.0900     0.0329   108.5462     2.4910
  434.5000    13.8115     9.9165   -55.7895     8.2044     0.0969     0.0291   100.3431     2.4970
  435.0000    13.8097     9.7771   -56.2406     8.2044     0.0990     0.0352    93.8110     2.4971
  435.5000    13.7977     9.5733   -56.3910     8.2044     0.0998     0.0367    89.7275     2.4900
  436.0000    12.7032     9.3084   -56.3910     8.1898     0.1004     0.0353    89.1467     2.4761
  436.5000    11.8505     9.2412   -56.3910     8.1898     0.1031     0.0309    90.7596     2.4753
  437.0000    11.0469     9.3031   -56.3910     8.1898     0.1070     0.0272    92.8066     2.4769
  437.5000     9.6217     8.9061   -56.3910     8.1898     0.1093     0.0211    95.4385     2.4736
  438.0000     8.3744     7.7125   -56.5514     8.1898     0.1135     0.0265   103.6178     2.4462
  438.5000     7.7046     7.2448   -56.8421     8.1898     0.1180     0.0416   105.9616     2.4290
  439.0000     8.3720     6.7120   -57.2932     8.2044     0.1285     0.0476   102.8971     2.4305
  439.5000     8.1985     6.6635   -57.2932     8.2044     0.1475     0.0160   102.3163     2.4448
  440.0000     8.3698     6.7076   -57.4436     8.2044     0.1499     0.0103   108.8908     2.4074
  440.5000     8.9074     6.8455   -57.4436     8.2190     0.1403     0.0305   114.5883     2.4560
  441.0000     9.6124     7.0840   -57.5940     8.2190     0.1223     0.0381   121.0169     2.5039
  441.5000    10.5911     7.8009   -57.5940     8.2190     0.0931     0.0419   126.2754     2.5069
  442.0000    12.0293     8.4730   -57.4436     8.2190     0.0771     0.0464   123.6528     2.5152
  442.5000    13.5910     9.0141   -57.2932     8.2190     0.0768     0.0382   121.7592     2.5167
  443.0000    13.7795    10.1352   -55.7895     8.2190     0.0783     0.0308   120.7414     2.5204
  443.5000    13.9697    10.4884   -54.2857     8.2044     0.0795     0.0234   121.3305     2.5234
  444.0000    14.1625    10.6310   -53.6842     8.2044     0.0824     0.0122   114.9113     2.5190
  444.5000    14.1607    10.8494   -53.6842     8.1898     0.0839     0.0242   105.8643     2.5092
  445.0000    14.1589    10.9969   -53.3835     8.1898     0.0794     0.0333   108.2052     2.5070
  445.5000    14.3543    11.1464   -53.0827     8.1898     0.0731     0.0423   113.4648     2.5168
  446.0000    14.5534    11.2201   -53.0827     8.1752     0.0799     0.0392   112.1551     2.5243
  446.5000    14.8570    11.3718   -52.6316     8.1752     0.0826     0.0184   105.1519     2.5205
  447.0000    15.0621    11.5332   -52.4812     8.1898     0.0802     0.0275   106.3249     2.5093
  447.5000    15.3773    11.7642   -52.4687     8.1898     0.0790     0.0335   106.0371     2.5123
  448.0000    15.4818    12.0059   -52.1805     8.2044     0.0793     0.0235   104.4354     2.5146
  448.5000    15.8053    12.1693   -52.1805     8.2044     0.0852     0.0112   103.9908     2.5139
  449.0000    16.2478    12.3464   -52.0301     8.2190     0.0873     0.0180   106.6344     2.5094
  449.5000    16.5867    12.5023   -51.8797     8.2336     0.0891     0.0315   109.2663     2.5057
  450.0000    16.7000    12.5850   -51.8797     8.2190     0.0822     0.0390   111.4592     2.5057
  450.5000    17.1676    12.7551   -51.8797     8.2190     0.0735     0.0406   106.6468     2.5169
  451.0000    17.4046    12.9285   -51.8797     8.2336     0.0729     0.0369   103.7322     2.5237
  451.5000    17.6100    13.0129   -51.8797     8.2336     0.0773     0.0287   100.8167     2.5252
  452.0000    17.7353    13.1000   -51.8797     8.2190     0.0860     0.0220   101.8427     2.5147
  452.5000    17.8833    13.0947   -51.8797     8.2190     0.0896     0.0213   103.1607     2.5080
  453.0000    17.8804    13.1813   -52.4812     8.2190     0.0859     0.0259   104.6676     2.5050
  453.5000    18.3811    13.0851   -52.4812     8.2190     0.0880     0.0319   103.8999     2.5028
  454.0000    18.8943    13.0809   -52.4812     8.2190     0.0790     0.0358   101.7142     2.5095
  454.5000    19.4226    12.9832   -52.4812     8.2190     0.0796     0.0327   100.8093     2.5186
  455.0000    19.4187    12.4537   -51.8797     8.2190     0.0793     0.0351   101.8881     2.5073
  455.5000    19.4155    12.1941   -51.7293     8.2190     0.0781     0.0396   100.2678     2.5118
  456.0000    19.4123    12.0227   -51.2782     8.2190     0.0813     0.0254    96.6223     2.5193
  456.5000    19.2742    12.0187   -51.2782     8.2190     0.0849     0.0164    93.7067     2.5147
  457.0000    19.2711    12.0140   -50.9774     8.2190     0.0834     0.0195    94.0380     2.5066
  457.5000    19.2679    12.0101   -50.6767     8.2336     0.0768     0.0301    94.7379     2.5003
  458.0000    19.1316    12.0896   -50.6767     8.2336     0.0794     0.0354    97.2993     2.4980
  458.5000    19.1277    12.0021   -50.6767     8.2482     0.0869     0.0331    99.7109     2.4958
  459.0000    18.8611    11.9974   -50.6767     8.2482     0.0951     0.0280   101.8248     2.5026
  459.5000    18.8581    11.9935   -51.5789     8.2628     0.0978     0.0258   104.0146     2.5094
  460.0000    18.7247    11.8250   -50.6767     8.2628     0.0939     0.0326   101.9708     2.4997
  460.5000    18.3354    11.6578   -50.2256     8.2628     0.0927     0.0356   101.3869     2.4930
  461.0000    18.3324    11.4940   -50.2256     8.2628     0.0921     0.0372   104.3066     2.4915
  461.5000    17.9519    11.4111   -50.2256     8.2628     0.0903     0.0387   105.4744     2.4923
  462.0000    17.8249    11.4074   -50.6767     8.2774     0.0831     0.0440   106.4964     2.4946
  462.5000    17.6809    11.3242   -51.4286     8.2774     0.0768     0.0508   108.2482     2.5014
  463.0000    17.3309    11.2425   -51.8797     8.2774     0.0777     0.0411   108.3942     2.5104
  463.5000    17.0893    11.1614   -52.0301     8.2815     0.0905     0.0292   104.8905     2.5172
  464.0000    16.8512    11.0778   -52.1805     8.2920     0.0967     0.0352   102.5547     2.5007
  464.5000    16.7169    10.8490   -52.4812     8.2920     0.0899     0.0353   100.9489     2.4910
  465.0000    16.3841    10.6228   -52.4812     8.2774     0.0884     0.0353   104.1849     2.4993
