~VERSION INFORMATION
 VERS.                2.0:   CWLS LOG ASCII STANDARD - VERSION 2.0
 WRAP.                 NO:   ONE LINE PER DEPTH STEP
~WELL INFORMATION
#MNEM.UNIT      DATA TYPE    INFORMATION
#----------   ------------   ------------------------------
 STRT.F            8.0000:   START DEPTH
 STOP.F          916.0000:   STOP DEPTH
 STEP.F            0.5000:   STEP LENGTH
 NULL.          -999.2500:   NO VALUE
 COMP. LAWRENCE/ALLISON INC:   COMPANY
 WELL.    41-66 SX #11-11:   WELL
 FLD .             NPR #3:   FIELD
 LOC .      S11 T38N R78W:   LOCATION
 CNTY.            NATRONA:   COUNTY
 STAT.            WYOMING:   STATE
 CTRY. UNITED STATES OF AMERICA:   COUNTRY
 SRVC.           Gearhart:   SERVICE COMPANY
 DATE.        13-MAY-1987:   LOGDATE
 API .       490251112600:   API NUMBER
~CURVE INFORMATION
#MNEM.UNIT       API CODE    CURVE DESCRIPTION
#----------   ------------   ------------------------------
 DEPT.F                  :   
 GRR .GAPI   07 310 01 00:   GAMMA RAY FROM RES. LOG.
 RILM.OHMM   07 120 44 00:   INDUCTION LOG MEDIUM RESISTIVITY
 RILD.OHMM   07 120 46 00:   INDUCTION LOG DEEP RESISTIVITY
~PARAMETER INFORMATION
#MNEM.UNIT          VALUE    DESCRIPTION
#----------   ------------   ------------------------------
 PD  .                 GL:   PERMANENT DATUM
 EPD .F              5166:   ELEVATION PERMANENT DATUM
 LMF .                 KB:   LOG MEASURED FROM
 DAPD.F                 8:   FEET ABOVE PERMANENT DATUM
 DMF .                 KB:   DRILLING MEASURED FROM
 EKB .F              5174:   KELLING BUSHING
 EDF .F              5174:   DRILLING FLOOR
 EGL .F              5166:   GROUND LEVEL
 DATE.            5-13-87:   RUN DATE
 RUN .                  1:   RUN NUMBER
 DD  .F               945:   DEPTH DRILLER
 DL  .F               930:   DEPTH LOGGER
 BLI .F               921:   BOTTOM LOG INTERVAL
 TLI .F                49:   TOP LOG INTERVAL
 CS  .IN            8.625:   CASING SIZE
 CBD .F                47:   CASING BOTTOM DRILLER
 CBL .F                49:   CASING BOTTOM LOGGER
 BS  .IN            7.875:   BIT SIZE
 BSD .F               945:   BIT SIZE AT DEPTH
 DFT .           AIR FOAM:   DRILLING FLUID TYPE
 TCS .HRS            2230:   TIME CURCULATED STOPPED
 TLAB.HRS            1105:   TIME LOGGER AT BOTTOM
 MRT .F                80:   MAXIMUM RECORDED TEMPERATURE
 LUN .               7597:   LOGGING UNIT NUMBER
 LUL .                GLT:   LOGGING UNIT LOCATION
 ENGI.            WANGLER:   RECORDING ENGINEER
 WITN.             STRONG:   WITNESSED BY
 CLNT.            A2DTECH:   CLIENT CODE
 ORIG.       2", 5" PRINT:   ORIGIN OF DATA
 UWI .       490251112600:   UNIQUE WELL ID
 DICO. A2D Technologies, Inc.:   DIGITIZING COMPANY
~OTHER INFORMATION
~A    DEPT      GRR      RILM       RILD   
# ...
  827.0000    77.1461    11.9583    12.4265
  827.5000    78.7867    11.8748    12.3572
  828.0000    80.6011    11.7928    12.2882
  828.5000    82.6766    11.7113    12.2196
  829.0000    82.5739    11.6305    12.1327
  829.5000    80.8224    11.5501    12.0298
  830.0000    79.0222    11.4704    11.9272
  830.5000    77.4123    11.3912    11.8255
  831.0000    77.0278    11.3125    11.7247
  831.5000    78.8342    11.2344    11.6248
  832.0000    80.7808    11.1291    11.5254
  832.5000    82.3145    10.9950    11.5109
  833.0000    80.3497    10.8624    11.5023
  833.5000    78.3615    10.7792    11.4938
  834.0000    78.0568    10.8112    11.4852
  834.5000    80.1002    10.8440    11.4767
  835.0000    82.0747    10.8769    11.4681
  835.5000    81.1086    10.9100    11.4595
  836.0000    79.9076    10.9431    11.4510
  836.5000    80.7597    10.9763    11.4425
  837.0000    82.6232    11.0097    11.4339
  837.5000    84.4899    11.0430    11.4254
  838.0000    84.8794    11.0763    11.4167
  838.5000    83.4936    11.0897    11.4095
  839.0000    83.7687    11.0157    11.3635
  839.5000    84.4509    10.9576    11.3123
  840.0000    84.9345    10.8997    11.2616
  840.5000    84.9322    10.8422    11.2111
  841.0000    84.3631    10.7850    11.1609
  841.5000    83.3949    10.7281    11.1109
  842.0000    82.5108    10.6715    11.0611
  842.5000    82.9061    10.6151    11.0115
  843.0000    83.6836    10.5591    10.9621
  843.5000    86.1605    10.5034    10.9127
  844.0000    88.8569    10.4783    10.8810
  844.5000    91.0842    10.5186    10.9060
  845.0000    90.1335    10.5534    10.9271
  845.5000    87.8543    10.5884    10.9483
  846.0000    85.6152    10.6235    10.9696
  846.5000    85.0073    10.6587    10.9909
  847.0000    85.0156    10.6940    11.0122
  847.5000    85.1918    10.7295    11.0336
  848.0000    85.3763    10.7649    11.0552
  848.5000    85.5958    10.7788    11.0760
  849.0000    85.8158    10.7802    11.0887
  849.5000    86.0462    10.6463    10.9659
  850.0000    86.6358    10.5539    10.8809
  850.5000    87.6353    10.4627    10.7965
  851.0000    88.6265    10.3722    10.7129
  851.5000    89.3530    10.2825    10.6298
  852.0000    88.8990    10.1935    10.5475
  852.5000    88.2829    10.1054    10.4657
  853.0000    86.9961    10.0180    10.3799
  853.5000    85.7971     9.9313    10.2673
  854.0000    85.3792     9.8455    10.1191
  854.5000    88.0566     9.7603     9.9731
  855.0000    90.8976     9.6783     9.8291
  855.5000    91.9567     9.5994     9.6872
  856.0000    91.4659     9.5212     9.5464
  856.5000    91.4130     9.4452     9.4069
  857.0000    92.9398     9.2890     9.2695
  857.5000    93.3163     9.1383     9.1340
  858.0000    90.9037     8.9901     9.0005
  858.5000    88.5480     8.8442     8.8690
  859.0000    88.3828     8.7007     8.6761
  859.5000    89.6736     8.5946     8.2947
  860.0000    91.4020     8.2736     8.0381
  860.5000    93.3628     7.9812     7.7274
  861.0000    95.4805     7.6744     7.0688
  861.5000    97.6032     6.6427     6.4644
  862.0000    99.2652     5.7333     5.9127
  862.5000   100.6712     4.8789     5.3618
  863.0000   102.0306     4.5818     5.1618
  863.5000   107.5583     4.2741     5.0666
  864.0000   115.5081     4.0781     5.0666
  864.5000   121.3494     4.0398     5.0930
  865.0000   120.5212     4.5242     5.1632
  865.5000   111.1632     4.9906     5.5531
  866.0000    99.8179     5.4787     6.0703
  866.5000    91.9322     6.0205     6.6357
  867.0000    88.6863     6.6140     7.2537
  867.5000    88.9663     7.2663     7.9247
  868.0000    90.6692     7.7326     8.3346
  868.5000    92.0211     7.9901     8.4895
  869.0000    92.1224     8.2549     8.6538
  869.5000    91.7590     8.3865     8.8212
  870.0000    91.4979     8.4538     8.9920
  870.5000    92.4627     8.5139     9.1660
  871.0000    93.1031     8.7104     9.3434
  871.5000    92.2405     8.8672     9.5242
  872.0000    91.1848     9.0269     9.7085
  872.5000    90.5398     9.1894     9.8964
  873.0000    90.3415     9.3653    10.0880
  873.5000    89.7560     9.4312    10.2833
  874.0000    88.4391     9.4975    10.4785
  874.5000    87.1280     9.5347    10.6063
  875.0000    87.1889     9.8704    10.7331
  875.5000    87.4570    10.1987    10.8615
  876.0000    87.7407    10.5378    10.9915
  876.5000    87.3638    10.6780    11.1230
  877.0000    86.8346    10.8418    11.2562
  877.5000    86.2797    11.0049    11.3340
  878.0000    86.1276    11.1705    11.3847
  878.5000    87.2150    11.3386    11.4356
  879.0000    88.5844    11.5153    11.4867
  879.5000    88.9926    11.5074    11.5355
  880.0000    88.0344    11.4997    11.6167
  880.5000    84.6077    11.4920    11.7347
  881.0000    81.3414    11.4843    11.7097
  881.5000    80.2098    11.4765    11.6649
  882.0000    79.6270    11.4688    11.6202
  882.5000    79.6298    11.4611    11.5758
  883.0000    79.9447    11.4534    11.5315
  883.5000    80.7685    11.4457    11.4873
  884.0000    82.6808    11.4380    11.4434
  884.5000    84.1457    11.4303    11.3996
  885.0000    84.1152    11.4228    11.3560
  885.5000    84.1005    11.4150    11.3125
  886.0000    84.8301    11.4072    11.2693
  886.5000    85.6918    11.1212    11.2264
  887.0000    85.0327    10.7692    11.1957
  887.5000    84.7735    10.4276    11.1962
  888.0000    86.3162    10.0970    10.9365
  888.5000    88.2465     9.7773    10.7416
  889.0000    88.2219     9.4642    10.5496
  889.5000    86.9879     9.2431    10.3611
  890.0000    87.8563     9.1787    10.1760
  890.5000    90.5312     9.1183     9.9943
  891.0000    93.2293     9.0575     9.8157
  891.5000    94.3220     9.0099     9.6404
  892.0000    92.8751     8.7460     9.4681
  892.5000    91.0685     8.5340     9.4166
  893.0000    90.3044     8.2762     9.3836
  893.5000    90.7385     8.2633     9.3508
  894.0000    92.4675     8.2402     9.3181
  894.5000    94.8359     8.2171     9.2855
  895.0000    97.2337     8.1941     9.2530
  895.5000    98.0428     8.1711     9.2206
  896.0000    96.8028     8.1483     9.1883
  896.5000    92.3030     8.1220     9.1562
  897.0000    90.0953     8.1429     9.1242
  897.5000    89.3193     8.1686     9.0953
  898.0000    91.0671     8.1945     8.9980
  898.5000    92.0209     8.2206     8.9101
  899.0000    91.2811     8.2458     8.8414
  899.5000    91.6567     8.2759     8.7313
  900.0000    92.6153     8.2006     8.6246
  900.5000    92.3991     7.9847     8.5192
  901.0000    92.7716     7.8227     8.4151
  901.5000    95.4038     7.6637     8.3122
  902.0000    98.2025     7.5085     8.2107
  902.5000    99.5340     7.4356     8.1103
  903.0000    97.0816     7.3884     8.0114
  903.5000    93.8698     7.3406     7.9227
  904.0000    90.6875     7.2933     7.8427
  904.5000    90.2250     7.2462     7.7632
  905.0000    92.3221     7.1994     7.6845
  905.5000    94.2511     7.1529     7.6067
  906.0000    95.0413     7.0944     7.5310
  906.5000    95.7829     6.9904     7.1067
  907.0000    96.5619     6.7677     6.6665
  907.5000  -999.2500     6.2779     6.2997
  908.0000  -999.2500     5.8235     6.2357
  908.5000  -999.2500     5.4020     6.2716
  909.0000  -999.2500     5.2597     6.3313
  909.5000  -999.2500     5.3620     6.3915
  910.0000  -999.2500     5.5589     6.4523
  910.5000  -999.2500     5.8419     6.5137
  911.0000  -999.2500     6.2298     6.7405
  911.5000  -999.2500     6.4844     7.0806
  912.0000  -999.2500     6.7256     7.4378
  912.5000  -999.2500     6.9783     7.8131
  913.0000  -999.2500     7.2408     8.2073
  913.5000  -999.2500     7.5130     8.6214
  914.0000  -999.2500     7.7955     9.0326
  914.5000  -999.2500     8.0452  -999.2500
  915.0000  -999.2500     8.1403  -999.2500
  915.5000  -999.2500     8.2410  -999.2500
  916.0000  -999.2500     8.3431  -999.2500
