~VERSION INFORMATION
 VERS.                2.0:   CWLS LOG ASCII STANDARD - VERSION 2.0
 WRAP.                 NO:   ONE LINE PER DEPTH STEP
~WELL INFORMATION
#MNEM.UNIT      DATA TYPE    INFORMATION
#----------   ------------   ------------------------------
 STRT.F            0.0000:   START DEPTH
 STOP.F         1283.5000:   STOP DEPTH
 STEP.F            0.5000:   STEP LENGTH
 NULL.          -999.2500:   NO VALUE
 COMP.      U.S. NAVY NPR:   COMPANY
 WELL. NAVAL PETROLEUM RESERVE 3 ST-11 #88-11:   WELL
 FLD .             TEAPOT:   FIELD
 LOC .      S11 T38N R78W:   LOCATION
 CNTY.            NATRONA:   COUNTY
 STAT.            WYOMING:   STATE
 CTRY. UNITED STATES OF AMERICA:   COUNTRY
 SRVC.       Schlumberger:   SERVICE COMPANY
 DATE.        01-NOV-1958:   LOGDATE
 API .       490250632600:   API NUMBER
~CURVE INFORMATION
#MNEM.UNIT       API CODE    CURVE DESCRIPTION
#----------   ------------   ------------------------------
 DEPT.F                  :   
 GRN .GAPI   35 310 01 00:   GAMMA RAY
 NEUT.NAPI   35 330 01 00:   NEUTRON
 ASN .OHMM   01 041 16 00:   AMPLIFIED SHORT NORMAL
 LAT .OHMM   01 070 18 00:   LATERAL 18"
 LN  .OHMM   01 060 64 00:   LONG NORMAL 64"
 SPR .MV     01 010 01 00:   SPONTANEOUS POTENTIAL
 CALM.IN     15 280 01 00:   CALIPER FROM MICRO LOG
~PARAMETER INFORMATION
#MNEM.UNIT          VALUE    DESCRIPTION
#----------   ------------   ------------------------------
 LMF .                 KB:   LOG MEASURED FROM
 DMF .                 KB:   DRILLING MEASURED FROM
 EKB .F              5289:   KELLING BUSHING
 EGL .F              5279:   GROUND LEVEL
 DATE.        01-NOV-1958:   RUN DATE
 RUN .                  1:   RUN NUMBER
 DD  .F              1280:   DEPTH DRILLER
 DL  .F              1283:   DEPTH LOGGER
 BLI .F              1282:   BOTTOM LOG INTERVAL
 TLI .F               150:   TOP LOG INTERVAL
 CBD .F                45:   CASING BOTTOM DRILLER
 BS  .IN            7.875:   BIT SIZE
 BSD .F              1280:   BIT SIZE AT DEPTH
 DFT .                GEL:   DRILLING FLUID TYPE
 DFD .                9.1:   DRILLING FLUID DENSITY
 DFV .                 63:   DRILLING FLUID VISCOSITY
 DFL .                2.1:   DRILLING FLUID LOSS
 RMS .OHMM            2.4:   RESISTIVITY MUD SAMPLE
 MST .F                56:   MUD SAMPLE TEMPERATURE
 RMF .OHMM           1.45:   RESISTIVITY MUD FILTRATE SAMPLE
 MFST.F                79:   MUD FILTRATE SAMPLE TEMPERATURE
 RMC .OHMM            1.7:   RESISTIVITY MUD CAKE
 MCST.F                79:   MUD CAKE SAMPLE TEMPERATURE
 MFSS.               MEAS:   MUD FILTRATE SAMPLE SOURCE
 MCSS.               MEAS:   MUD CAKE SAMPLE SOURCE
 RMB .OHMM            1.6:   RESISTIVITY MUD AT BHT
 BHT .F                79:   BOTTOM HOLE TEMPERATURE
 TCS .HRS               1:   TIME CURCULATED STOPPED
 MRT .F                79:   MAXIMUM RECORDED TEMPERATURE
 LUN .               2544:   LOGGING UNIT NUMBER
 LUL .                 NC:   LOGGING UNIT LOCATION
 ENGI.            EARNEST:   RECORDING ENGINEER
 WITN.             MARTIN:   WITNESSED BY
 CLNT.            A2DTECH:   CLIENT CODE
 ORIG.         2.5" PRINT:   ORIGIN OF DATA
 UWI .       490250632600:   UNIQUE WELL ID
 DICO. A2D Technologies, Inc.:   DIGITIZING COMPANY
~OTHER INFORMATION
~A    DEPT       GRN     NEUT        ASN        LAT         LN        SPR       CALM   
# ...
  364.0000     5.2384   384.9877     6.7739     5.7827     5.9221   -12.3319     8.1648
  364.5000     4.8927   372.4092     6.4753     5.9213     6.0607   -12.3277     8.1656
  365.0000     4.6479   366.1976     6.3125     6.0598     6.0634   -12.5972     8.1665
  365.5000     4.4275   379.2596     6.2576     6.0625     6.1441   -12.5932     8.1673
  366.0000     4.4144   381.0521     6.1500     6.2011     6.2053   -12.8627     8.1681
  366.5000     4.7268   382.5585     6.1774     6.2172     6.2080   -12.8585     8.1689
  367.0000     5.1664   392.1736     6.2087     6.3424     6.2107   -12.8927     8.1699
  367.5000     5.1660   401.1027     6.2695     6.5048     6.2133   -13.1242     8.1707
  368.0000     5.1893   389.7544     6.3659     6.6486     6.0798   -13.1198     8.1442
  368.5000     5.2486   389.0964     6.6970     6.8940     5.8108   -13.1157     8.1451
  369.0000     5.1352   392.0493     6.9279     7.0326     5.5416   -13.1116     8.1459
  369.5000     4.9979   391.2658     7.2330     7.1712     5.5443   -13.0099     8.1467
  370.0000     5.1920   392.8741     7.4348     7.2237     5.5469   -12.8298     8.1474
  370.5000     5.6027   403.6104     7.5745     7.5034     5.5496   -12.8257     8.1482
  371.0000     5.6432   400.8078     7.6877     7.5870     5.6882   -12.8216     8.1491
  371.5000     5.4627   394.0632     7.6459     7.6601     5.8269   -12.5439     8.1540
  372.0000     4.9223   385.1215     7.5895     7.5217     5.8423   -12.5398     8.1779
  372.5000     5.2020   391.0598     7.4579     7.3834     5.9864   -12.2614     8.1787
  373.0000     4.9816   392.5201     7.3495     7.1908     6.1305   -12.2574     8.1795
  373.5000     4.7812   408.1608     7.2139     7.0576     6.2456   -12.2534     8.1803
  374.0000     4.7827   412.6064     7.1326     6.9243     6.2483   -12.2493     8.1811
  374.5000     5.0449   414.8130     7.0786     6.9270     6.2511   -12.2453     8.1820
  375.0000     5.1400   403.2732     6.9973     6.7935     6.2085   -12.2413     8.1828
  375.5000     4.9996   396.7700     6.9432     6.7965     6.1200   -12.2373     8.1837
  376.0000     5.3993   390.6600     6.8620     6.6633     6.0671   -12.2333     8.1845
  376.5000     5.3429   392.6425     6.8079     6.6659     5.9900   -12.5029     8.1853
  377.0000     5.2500   400.4705     6.7263     6.5326     5.9927   -12.7724     8.1861
  377.5000     5.1360   401.5068     6.6168     6.2637     5.9955   -12.7819     8.1869
  378.0000     5.1301   404.1489     6.5344     6.2663     5.9982   -13.0379     8.1877
  378.5000     5.2371   401.9681     6.4520     6.2690     6.0014   -13.0336     8.1885
  379.0000     5.3168   388.3831     6.3967     6.2717     6.0041   -13.0295     8.1893
  379.5000     5.3964   377.1555     6.3082     6.2616     6.0068   -13.0254     8.1901
  380.0000     5.1560   365.9280     6.2119     6.1411     6.0091   -13.0213     8.1909
  380.5000     5.3356   374.1053     6.3293     6.1440     6.0118   -13.0172     8.1918
  381.0000     5.2552   398.7021     6.4219     6.1467     6.0148   -12.7395     8.1926
  381.5000     5.2981   409.1632     6.5332     6.1495     5.9592   -12.6269     8.1934
  382.0000     5.3592   406.9455     6.6446     6.1522     5.8840   -12.4578     8.1942
  382.5000     5.3803   399.3487     6.7559     6.1549     5.8867   -12.1801     8.1950
  383.0000     5.4015   399.4868     6.8529     6.2070     5.8895   -12.1760     8.1958
  383.5000     5.3074   409.4342     6.9359     6.2962     5.8921   -12.1719     8.1968
  384.0000     5.0800   414.3540     7.0022     6.2989     5.8949   -12.1670     8.1976
  384.5000     5.0523   425.1721     7.0840     6.3016     5.8976   -12.1630     8.1984
  385.0000     5.1719   430.1664     7.1386     6.3043     5.9003   -12.4331     8.1992
  385.5000     5.2116   416.3063     7.1389     6.3071     5.7668   -12.4285     8.1728
  386.0000     5.2112   397.3671     7.1392     6.3103     5.7698   -12.4245     8.1736
  386.5000     5.2094   406.5391     7.1123     6.1766     5.7725   -12.6940     8.1744
  387.0000     5.2104   395.3115     7.0582     6.3157     5.7353   -12.6900     8.2024
  387.5000     4.9267   382.5913     6.8954     6.3183     5.5967   -12.6860     8.1998
  388.0000     4.9488   377.3344     6.6511     6.1851     5.4580   -13.2291     8.1767
  388.5000     5.1787   384.1009     6.4610     6.1878     5.2396   -13.2251     8.1776
  389.0000     5.2813   391.5158     6.3502     6.1905     5.0447   -13.2210     8.1784
  389.5000     5.3285   386.2350     6.2690     6.1931     4.9731   -13.2169     8.1792
  390.0000     5.0493   377.9511     6.2138     6.1958     4.9758   -13.2128     8.1683
  390.5000     5.1111   384.6357     6.1633     6.1985     4.8426   -13.1603     8.1537
  391.0000     5.3071   382.0771     6.1364     6.2011     4.8458   -12.9310     8.1545
  391.5000     5.5667   379.7510     6.1095     6.2038     4.8485   -12.8549     8.1555
  392.0000     5.0664   380.8580     6.0826     6.0706     4.8512   -12.6492     8.1563
  392.5000     4.5860   387.4752     6.0924     5.9374     4.9898   -12.6451     8.1571
  393.0000     4.6256   386.6964     6.1589     5.9402     4.9924   -12.5334     8.1578
  393.5000     4.8661   387.4104     6.2312     5.9201     4.9951   -12.3634     8.1586
  394.0000     5.2464   391.8560     6.2870     5.8095     4.9978   -12.2280     8.1594
  394.5000     5.3338   394.8109     6.2600     5.7792     5.0004   -12.0816     8.1602
  395.0000     5.5040   394.7765     6.1893     5.6790     5.0031   -12.0775     8.1610
  395.5000     5.2326   394.7276     6.1117     5.6821     5.0058   -12.0726     8.1618
  396.0000     5.0677   401.3077     6.0305     5.5484     5.0085   -12.0686     8.1627
  396.5000     5.0555   412.2044     5.9764     5.4152     5.0112   -12.0646     8.1635
  397.0000     5.3456   423.7106     5.9223     5.5543     5.0139   -12.0606     8.1643
  397.5000     5.6019   420.2092     5.8682     5.5571     5.0166   -12.3305     8.1651
  398.0000     5.1815   406.2337     5.7598     5.5598     5.0193   -12.3261     8.1659
  398.5000     5.2212   407.1578     5.7872     5.5625     5.0221   -12.5959     8.1536
  399.0000     4.8808   409.4703     5.7875     5.4293     5.0592   -12.8653     8.1404
  399.5000     4.8097   412.3807     5.7878     5.4326     5.1634   -13.1347     8.1413
  400.0000     4.8400   415.3336     5.7880     5.4352     5.1662   -13.1307     8.1421
  400.5000     4.9026   400.3744     5.7328     5.4379     5.0685   -13.1266     8.1429
  401.0000     5.3976   395.8639     5.6752     5.5764     4.9030   -13.3962     8.1437
  401.5000     5.5788   386.1290     5.5916     5.5802     4.9070   -13.1184     8.1445
  402.0000     5.4416   378.6332     5.4536     5.5842     4.9110   -13.1143     8.1453
  402.5000     5.2397   387.6125     5.3487     5.5876     4.9150   -13.0509     8.1461
  403.0000     5.0808   392.0730     5.2663     5.5910     5.0550   -12.8325     8.1741
  403.5000     4.8728   395.8320     5.2111     5.5944     5.0590   -12.5549     8.1749
  404.0000     4.8213   405.1589     5.2663     5.5978     5.0630   -12.5508     8.1757
  404.5000     4.8764   406.8321     5.4654     5.4654     5.2029   -12.2731     8.1765
  405.0000     4.7960   407.3656     5.6726     5.4688     5.3429   -11.9954     8.1773
  405.5000     4.7156   410.2192     5.7833     5.4727     5.3470   -11.9837     8.1782
  406.0000     5.2073   392.7039     5.8669     5.4761     5.3601   -11.9708     8.1790
  406.5000     5.3268   394.1056     5.9144     5.4794     5.5047   -11.9643     8.1798
  407.0000     5.3460   402.3427     5.9334     5.3465     5.6311   -11.9590     8.1806
  407.5000     5.3449   404.1163     5.9341     5.3503     5.4989   -11.9536     8.1816
  408.0000     5.3667   405.4774     5.9075     5.2174     5.5033   -11.9483     8.1824
  408.5000     5.3030   403.1514     5.8967     5.2211     5.5074   -11.9429     8.1832
  409.0000     5.4023   391.9981     5.8302     5.2244     5.5115   -12.2111     8.1822
