~VERSION INFORMATION
 VERS.                2.0:   CWLS LOG ASCII STANDARD - VERSION 2.0
 WRAP.                 NO:   ONE LINE PER DEPTH STEP
~WELL INFORMATION
#MNEM.UNIT      DATA TYPE    INFORMATION
#----------   ------------   ------------------------------
 STRT.F            0.0000:   START DEPTH
 STOP.F          652.0000:   STOP DEPTH
 STEP.F            0.5000:   STEP LENGTH
 NULL.          -999.2500:   NO VALUE
 COMP. US DEPTMNT OF ENRGY:   COMPANY
 WELL. NPR ##3 14-14-SX-11:   WELL
 FLD .   TEAPOT NAVAL RES:   FIELD
 LOC .      S11 T38N R78W:   LOCATION
 CNTY.            NATRONA:   COUNTY
 STAT.            WYOMING:   STATE
 CTRY. UNITED STATES OF AMERICA:   COUNTRY
 SRVC.            Unknown:   SERVICE COMPANY
 DATE.        03-JAN-1985:   LOGDATE
 API .       490251102400:   API NUMBER
~CURVE INFORMATION
#MNEM.UNIT       API CODE    CURVE DESCRIPTION
#----------   ------------   ------------------------------
 DEPT.F                  :   
 CALD.IN     45 280 60 00:   CALIPER
 CORR.G/C3   45 356 01 00:   DENSITY CORRECTION
 PORD.DEC    45 890 12 00:   DENSITY POROSITY SANDSTONE
 CNC .DEC    42 890 03 00:   NEUTRON POROSITY SANDSTONE
 SPR .MV     11 010 01 00:   SPONTANEOUS POTENTIAL FROM RES.
 GRR .GAPI   11 310 01 00:   GAMMA RAY FROM RES.
 RS  .OHMM   11 220 09 00:   RESISTIVITY SHALLOW
 RD  .OHMM   11 220 10 00:   RESISTIVITY DEEP
 DEN .G/C3   45 350 01 00:   COMPENSATED BULK DENSTIY
~PARAMETER INFORMATION
#MNEM.UNIT          VALUE    DESCRIPTION
#----------   ------------   ------------------------------
 PD  .                 GL:   PERMANENT DATUM
 EPD .F            5197.3:   ELEVATION PERMANENT DATUM
 LMF .                 KB:   LOG MEASURED FROM
 DMF .                 KB:   DRILLING MEASURED FROM
 EKB .F            5197.3:   KELLING BUSHING
 EGL .F            5197.3:   GROUND LEVEL
 DATE.         3-JAN-1985:   RUN DATE
 RUN .                  1:   RUN NUMBER
 DD  .F               650:   DEPTH DRILLER
 DL  .F               653:   DEPTH LOGGER
 BLI .F               651:   BOTTOM LOG INTERVAL
 CS  .IN            8.625:   CASING SIZE
 CBD .F                20:   CASING BOTTOM DRILLER
 CBL .F                20:   CASING BOTTOM LOGGER
 BS  .IN             6.25:   BIT SIZE
 BSD .F               650:   BIT SIZE AT DEPTH
 DFT .                KCL:   DRILLING FLUID TYPE
 RMS .OHMM            .12:   RESISTIVITY MUD SAMPLE
 MST .F                70:   MUD SAMPLE TEMPERATURE
 RMF .OHMM            .09:   RESISTIVITY MUD FILTRATE SAMPLE
 MFST.F                70:   MUD FILTRATE SAMPLE TEMPERATURE
 RMC .OHMM            .15:   RESISTIVITY MUD CAKE
 MCST.F                70:   MUD CAKE SAMPLE TEMPERATURE
 MFSS.               CALC:   MUD FILTRATE SAMPLE SOURCE
 MCSS.               CALC:   MUD CAKE SAMPLE SOURCE
 RMB .OHMM             .1:   RESISTIVITY MUD AT BHT
 BHT .F                80:   BOTTOM HOLE TEMPERATURE
 TCS .HRS               3:   TIME CURCULATED STOPPED
 MRT .F                80:   MAXIMUM RECORDED TEMPERATURE
 LUN .               6274:   LOGGING UNIT NUMBER
 LUL .               GLTE:   LOGGING UNIT LOCATION
 ENGI.               MACK:   RECORDING ENGINEER
 WITN.               PAGE:   WITNESSED BY
 CLNT.            A2DTECH:   CLIENT CODE
 ORIG.       2", 5" PRINT:   ORIGIN OF DATA
 UWI .       490251102400:   UNIQUE WELL ID
 DICO. A2D Technologies, Inc.:   DIGITIZING COMPANY
~OTHER INFORMATION
~A    DEPT    CALD       CORR       PORD        CNC        SPR         GRR        RS         RD        DEN   
# ...
  401.5000     6.3302     0.0372     0.2368     0.2657   -28.8879    70.6036    23.4287    27.5785     2.2751
  402.0000     6.3315     0.0267     0.2409     0.2626   -28.1110    67.7893    20.9764    25.4597     2.2748
  402.5000     6.3328     0.0085     0.2307     0.2575   -27.3311    69.9232    19.4675    23.1790     2.2903
  403.0000     6.3341     0.0079     0.2171     0.2546   -26.7473    72.8389    20.2300    23.2027     2.3117
  403.5000     6.3355     0.0232     0.2058     0.2536   -26.3217    73.9297    20.8524    24.1490     2.3327
  404.0000     6.3368     0.0378     0.1985     0.2525   -25.9022    74.8209    21.5264    24.7324     2.3419
  404.5000     6.3381     0.0413     0.1937     0.2505   -25.4827    76.3687    22.3297    25.3294     2.3508
  405.0000     6.3394     0.0443     0.1943     0.2479   -25.0497    77.6038    23.2173    25.9406     2.3509
  405.5000     6.3407     0.0473     0.2014     0.2453   -24.9364    75.5715    24.1376    26.5665     2.3434
  406.0000     6.3421     0.0498     0.2118     0.2472   -24.9082    72.9371    24.9532    27.1120     2.3191
  406.5000     6.3434     0.0610     0.2226     0.2501   -24.8827    70.2665    23.7150    26.0589     2.3079
  407.0000     6.3447     0.0646     0.2100     0.2528   -24.8564    69.1701    21.1206    24.7164     2.3350
  407.5000     6.3460     0.0570     0.1848     0.2482   -24.8300    71.1784    21.1390    23.3937     2.3730
  408.0000     6.3473     0.0495     0.1657     0.2426   -24.8037    73.3816    20.9407    23.1790     2.4043
  408.5000     6.3486     0.0419     0.1621     0.2377   -24.7771    74.3305    24.5199    26.3925     2.3976
  409.0000     6.3500     0.0449     0.1716     0.2411   -24.7307    73.2567    27.5276    29.0459     2.3873
  409.5000     6.3513     0.0573     0.1728     0.2488   -24.5799    71.8781    30.2838    31.9937     2.3905
  410.0000     6.3526     0.0604     0.1625     0.2500   -24.4297    70.4822    28.7599    31.0490     2.3977
  410.5000     6.3539     0.0428     0.1726     0.2426   -24.2797    69.7360    27.2782    30.0648     2.4028
  411.0000     6.3530     0.0300     0.1884     0.2377   -24.1299    70.1796    25.8729    29.1276     2.3696
  411.5000     6.3488     0.0437     0.1983     0.2337   -23.9800    72.0054    24.2725    28.3911     2.3446
  412.0000     6.3445     0.0497     0.1848     0.2337   -23.8302    71.5935    24.8459    28.1305     2.3610
  412.5000     6.3403     0.0428     0.1681     0.2373   -23.6800    70.8391    25.5886    27.6166     2.3866
  413.0000     6.3360     0.0362     0.1744     0.2432   -23.5298    71.8240    26.3534    30.0622     2.3965
  413.5000     6.3347     0.0293     0.1859     0.2509   -23.3798    74.0705    27.1411    30.8474     2.3629
  414.0000     6.3347     0.0334     0.1957     0.2569   -23.4760    76.5592    27.8724    29.0695     2.3456
  414.5000     6.3347     0.0357     0.2003     0.2604   -23.7855    76.7212    25.5695    27.6746     2.3421
  415.0000     6.3347     0.0231     0.1992     0.2616   -24.0928    75.4418    23.8121    26.3724     2.3443
  415.5000     6.3347     0.0254     0.1956     0.2602   -24.4004    74.7976    23.1790    26.1304     2.3518
  416.0000     6.3347     0.0449     0.1905     0.2558   -24.7079    77.0072    23.2437    26.3565     2.3588
  416.5000     6.3347     0.0642     0.1856     0.2532   -25.0151    77.8658    23.3073    26.5792     2.3663
  417.0000     6.3347     0.0548     0.1860     0.2532   -25.3228    76.7618    23.3929    26.8632     2.3618
  417.5000     6.3347     0.0387     0.1912     0.2563   -25.6323    76.0319    23.2303    26.2269     2.3545
  418.0000     6.3347     0.0218     0.1945     0.2592   -25.9723    78.1372    22.9662    25.6270     2.3511
  418.5000     6.3347     0.0288     0.1935     0.2620   -26.3079    80.6486    21.5682    25.0410     2.3549
  419.0000     6.3347     0.0428     0.1878     0.2632   -26.6432    79.9070    20.3722    24.5682     2.3667
  419.5000     6.3347     0.0575     0.1808     0.2487   -26.9787    79.1568    20.3994    24.2293     2.3785
  420.0000     6.3347     0.0507     0.1740     0.2463   -27.3144    79.6633    20.4384    24.0497     2.3905
  420.5000     6.3347     0.0384     0.1712     0.2509   -27.6513    80.8498    20.4762    24.1854     2.3905
  421.0000     6.3347     0.0268     0.1728     0.2572   -27.8769    81.9213    20.5134    24.2788     2.3884
  421.5000     6.3347     0.0298     0.1743     0.2546   -28.0492    81.9433    20.5591    24.3726     2.3875
  422.0000     6.3347     0.0334     0.1736     0.2511   -28.2215    81.9502    20.3624    24.4973     2.3865
  422.5000     6.3347     0.0371     0.1728     0.2476   -28.3939    82.5446    20.0640    24.2110     2.3841
  423.0000     6.3347     0.0347     0.1771     0.2440   -28.5664    83.8174    19.7726    23.7944     2.3758
  423.5000     6.3347     0.0293     0.1817     0.2444   -28.7391    83.5046    19.4853    23.3850     2.3676
  424.0000     6.3347     0.0247     0.1862     0.2478   -28.9146    82.5927    19.4544    23.1790     2.3614
  424.5000     6.3347     0.0316     0.1908     0.2512   -29.0099    81.6956    19.4544    23.5821     2.3561
  425.0000     6.3347     0.0384     0.1937     0.2535   -29.1044    80.7844    19.4544    23.8565     2.3508
  425.5000     6.3347     0.0260     0.1966     0.2545   -29.1973    80.5859    19.4543    24.0581     2.3459
  426.0000     6.3347     0.0168     0.1983     0.2556   -29.2906    80.3533    19.4546    24.0869     2.3461
  426.5000     6.3347     0.0186     0.1961     0.2563   -29.3839    81.8513    19.4846    24.1141     2.3520
  427.0000     6.3347     0.0207     0.1925     0.2557   -29.4773    84.0498    19.5182    24.1418     2.3561
  427.5000     6.3347     0.0268     0.1910     0.2560   -29.5707    86.3344    19.5516    24.1698     2.3582
  428.0000     6.3347     0.0329     0.1898     0.2592   -29.6640    88.6439    19.5851    24.1979     2.3600
  428.5000     6.3347     0.0392     0.1889     0.2610   -29.7574    88.7708    19.6187    24.2261     2.3600
  429.0000     6.3347     0.0353     0.1884     0.2586   -29.8507    88.7584    19.6345    24.2538     2.3599
  429.5000     6.3347     0.0302     0.1888     0.2564   -29.9441    88.7720    19.5209    24.2725     2.3596
  430.0000     6.3347     0.0322     0.1893     0.2515   -30.0375    87.8564    19.4206    23.9930     2.3581
  430.5000     6.3347     0.0341     0.1895     0.2468   -30.1308    86.5891    19.3227    23.7857     2.3591
  431.0000     6.3347     0.0362     0.1881     0.2423   -30.2242    87.5707    19.1648    23.5802     2.3626
  431.5000     6.3347     0.0290     0.1860     0.2399   -30.3176    89.1919    18.8511    23.3764     2.3658
  432.0000     6.3347     0.0206     0.1860     0.2460   -30.4109    90.8436    18.5425    23.1744     2.3636
  432.5000     6.3347     0.0159     0.1872     0.2510   -30.5043    91.8667    18.4075    22.9662     2.3630
  433.0000     6.3347     0.0231     0.1857     0.2548   -30.5979    91.1424    18.4075    22.9353     2.3679
  433.5000     6.3347     0.0300     0.1832     0.2556   -30.6911    89.0083    18.4074    22.9032     2.3726
  434.0000     6.3347     0.0368     0.1807     0.2519   -30.7727    87.2345    18.4075    22.8711     2.3752
  434.5000     6.3347     0.0436     0.1795     0.2472   -30.7852    88.0894    18.4077    22.8390     2.3758
  435.0000     6.3347     0.0462     0.1804     0.2424   -30.7992    88.5725    18.4075    22.8067     2.3738
  435.5000     6.3347     0.0310     0.1813     0.2397   -30.8133    86.9839    18.2749    22.7751     2.3713
  436.0000     6.3347     0.0282     0.1822     0.2439   -30.8275    83.7489    18.1065    22.6838     2.3750
  436.5000     6.3347     0.0389     0.1788     0.2516   -30.8417    80.9364    17.9397    22.4993     2.3804
  437.0000     6.3347     0.0498     0.1750     0.2487   -30.8558    82.4592    17.7744    22.3162     2.3854
  437.5000     6.3347     0.0480     0.1753     0.2457   -30.8700    84.9314    17.5782    21.9316     2.3781
