~VERSION INFORMATION
 VERS.                2.0:   CWLS LOG ASCII STANDARD - VERSION 2.0
 WRAP.                 NO:   ONE LINE PER DEPTH STEP
~WELL INFORMATION
#MNEM.UNIT      DATA TYPE    INFORMATION
#----------   ------------   ------------------------------
 STRT.F            0.0000:   START DEPTH
 STOP.F          612.5000:   STOP DEPTH
 STEP.F            0.5000:   STEP LENGTH
 NULL.          -999.2500:   NO VALUE
 COMP.   FLUOR DANIEL INC:   COMPANY
 WELL. NAVAL PETROLEUM RESERVE 3 SX-3 82 #2-3:   WELL
 FLD .             TEAPOT:   FIELD
 LOC .       S3 T38N R78W:   LOCATION
 CNTY.            NATRONA:   COUNTY
 STAT.            WYOMING:   STATE
 CTRY. UNITED STATES OF AMERICA:   COUNTRY
 SRVC.      Western Atlas:   SERVICE COMPANY
 DATE.        28-JUL-1995:   LOGDATE
 API .       490252274000:   API NUMBER
~CURVE INFORMATION
#MNEM.UNIT       API CODE    CURVE DESCRIPTION
#----------   ------------   ------------------------------
 DEPT.F                  :   
 GRR .GAPI   07 310 01 00:   GAMMA RAY FROM RES. LOG.
 RILD.OHMM   07 120 46 00:   INDUCTION LOG DEEP RESISTIVITY
 RILM.OHMM   07 120 44 00:   INDUCTION LOG MEDIUM RESISTIVITY
~PARAMETER INFORMATION
#MNEM.UNIT          VALUE    DESCRIPTION
#----------   ------------   ------------------------------
 PD  .                 GL:   PERMANENT DATUM
 EPD .F              5123:   ELEVATION PERMANENT DATUM
 LMF .                 KB:   LOG MEASURED FROM
 DAPD.F                10:   FEET ABOVE PERMANENT DATUM
 DMF .                 KB:   DRILLING MEASURED FROM
 EKB .F              5133:   KELLING BUSHING
 EDF .F              5132:   DRILLING FLOOR
 EGL .F              5123:   GROUND LEVEL
 DATE.            7-28-95:   RUN DATE
 RUN .                  1:   RUN NUMBER
 DD  .F               620:   DEPTH DRILLER
 DL  .F               620:   DEPTH LOGGER
 BLI .F               612:   BOTTOM LOG INTERVAL
 TLI .F                54:   TOP LOG INTERVAL
 CS  .IN            9.625:   CASING SIZE
 CBD .F                53:   CASING BOTTOM DRILLER
 CBL .F                54:   CASING BOTTOM LOGGER
 BS  .IN             8.75:   BIT SIZE
 BSD .F               620:   BIT SIZE AT DEPTH
 DFT .                AIR:   DRILLING FLUID TYPE
 BHT .F                91:   BOTTOM HOLE TEMPERATURE
 MRT .F                91:   MAXIMUM RECORDED TEMPERATURE
 LUN .            HL 6530:   LOGGING UNIT NUMBER
 LUL .             CASPER:   LOGGING UNIT LOCATION
 ENGI.          RASMUSSEN:   RECORDING ENGINEER
 WITN.              HARDY:   WITNESSED BY
 CLNT.            A2DTECH:   CLIENT CODE
 ORIG.       2", 5" PRINT:   ORIGIN OF DATA
 UWI .       490252274000:   UNIQUE WELL ID
 DICO. A2D Technologies, Inc.:   DIGITIZING COMPANY
~OTHER INFORMATION
~A    DEPT      GRR      RILD       RILM   
# ...
  546.0000   114.4726     9.9189    10.2041
  546.5000   111.2588    10.0562    10.3612
  547.0000   111.5048    10.1494    10.5619
  547.5000   112.1611    10.2264    10.7665
  548.0000   110.9190    10.3357    10.9752
  548.5000   109.0768    10.4461    11.1878
  549.0000   109.3023    10.5577    11.3700
  549.5000   111.6053    10.6705    11.4754
  550.0000   113.1239    10.7273    11.5817
  550.5000   114.3942    10.8771    11.6890
  551.0000   115.6500    11.0460    11.7736
  551.5000   116.2970    11.2176    11.8038
  552.0000   114.6291    11.3387    11.8342
  552.5000   111.0819    11.3385    11.8646
  553.0000   108.3660    11.3764    11.9101
  553.5000   108.7292    11.4184    11.9821
  554.0000   109.8945    11.4607    12.0546
  554.5000   110.7109    11.5030    12.1274
  555.0000   110.8496    11.5490    12.2073
  555.5000   111.0122    11.5491    12.1538
  556.0000   112.5012    11.5491    12.0808
  556.5000   115.7314    11.5495    12.0081
  557.0000   117.9730    11.5501    11.9359
  557.5000   118.6718    11.5460    11.8735
  558.0000   118.6843    11.6449    11.9775
  558.5000   118.6609    11.5583    11.9314
  559.0000   117.3491    11.4725    11.8855
  559.5000   114.3159    11.3872    11.8398
  560.0000   112.0645    11.3026    11.7943
  560.5000   110.4025    11.2186    11.7380
  561.0000   109.1654    11.1307    11.5531
  561.5000   110.2387    10.9646    11.3712
  562.0000   111.5680    10.7915    11.1921
  562.5000   114.1922    10.6211    11.0159
  563.0000   116.8416    10.4534    10.8424
  563.5000   118.4099    10.2883    10.6717
  564.0000   119.3533    10.1258    10.5036
  564.5000   118.4896     9.9659    10.3382
  565.0000   117.2869     9.8085    10.1755
  565.5000   117.5242     9.6536    10.0152
  566.0000   118.6137     9.5011     9.8575
  566.5000   119.7201     9.3509     9.7023
  567.0000   119.4196     9.2031     9.5495
  567.5000   118.8749     9.1194     9.4580
  568.0000   118.3232     9.0549     9.3855
  568.5000   117.7778     8.9908     9.3136
  569.0000   117.6860     8.9270     9.2423
  569.5000   119.6349     8.8638     9.1697
  570.0000   122.9111     8.8210     9.1697
  570.5000   126.9412     8.7929     9.1697
  571.0000   129.0965     8.7649     9.1697
  571.5000   126.1243     8.7370     9.1695
  572.0000   122.7208     8.7092     9.1696
  572.5000   122.6936     8.6815     9.1700
  573.0000   123.3316     8.6617     9.1223
  573.5000   122.8074     8.5892     9.0027
  574.0000   122.8989     8.5170     8.8845
  574.5000   125.1638     8.4205     8.7544
  575.0000   128.6240     8.3009     8.6173
  575.5000   129.8815     8.1829     8.4823
  576.0000   129.0316     8.0666     8.3495
  576.5000   127.9381     7.9520     8.2187
  577.0000   128.4713     7.8390     8.0899
  577.5000   130.5596     7.7276     7.9632
  578.0000   131.5153     7.6178     7.8385
  578.5000   131.3038     7.5335     7.7662
  579.0000   130.4061     7.4839     7.7662
  579.5000   129.0416     7.4347     7.7662
  580.0000   128.5908     7.2625     7.6975
  580.5000   128.3869     7.0212     7.3923
  581.0000   127.2971     6.7880     7.0992
  581.5000   123.5112     6.5625     6.8177
  582.0000   121.3825     6.3444     6.5474
  582.5000   123.3901     6.2232     6.1661
  583.0000   126.3774     6.2483     6.1661
  583.5000   127.9184     6.2717     6.4030
  584.0000   125.1914     6.3887     6.7149
  584.5000   121.6484     6.5630     7.1419
  585.0000   121.8789     6.7972     7.5649
  585.5000   125.3875     7.2183     7.9088
  586.0000   128.2837     7.6655     8.2683
  586.5000   130.3912     8.1404     8.6442
  587.0000   130.3153     8.5855     9.0372
  587.5000   129.7245     8.8680     9.4271
  588.0000   127.9638     9.0854     9.5393
  588.5000   124.7571     9.1419     9.5946
  589.0000   123.6815     9.2066     9.6502
  589.5000   124.3842     9.2551     9.6917
  590.0000   125.5732     9.2549     9.6444
  590.5000   124.3900     9.2547     9.5999
  591.0000   123.0973     9.2547     9.5556
  591.5000   122.3825     9.2547     9.5145
  592.0000   123.1587     9.1931     9.4976
  592.5000   125.0551     9.1226     9.4781
  593.0000   124.6748     9.0531     9.4586
  593.5000   123.2699     8.9850     9.4392
  594.0000   121.8749     8.9223     9.4198
  594.5000   120.4989     9.0202     9.4004
  595.0000   119.4535     9.0411     9.3811
  595.5000   119.9562     9.0620     9.3621
  596.0000   122.0889     9.0830     9.3402
  596.5000  -999.2500     9.0854     9.3422
  597.0000  -999.2500     9.0854     9.3405
  597.5000  -999.2500     8.7766     9.0230
  598.0000  -999.2500     8.5020     8.7407
  598.5000  -999.2500     8.2360     8.4683
  599.0000  -999.2500     7.9167     8.1420
  599.5000  -999.2500     7.5600     7.7772
  600.0000  -999.2500     7.0816     7.2855
  600.5000  -999.2500     6.6303     6.8167
  601.0000  -999.2500     6.1671     6.3415
  601.5000  -999.2500     5.2778     5.8379
  602.0000  -999.2500     4.4572     4.8624
  602.5000  -999.2500     3.7646     3.9223
  603.0000  -999.2500     3.1798     3.1727
  603.5000  -999.2500     2.8849     2.7804
  604.0000  -999.2500     2.7428     2.5424
  604.5000  -999.2500     2.5424     2.4162
  605.0000  -999.2500     2.4729     2.3614
  605.5000  -999.2500     2.4054     2.5660
  606.0000  -999.2500     2.5238     2.8683
  606.5000  -999.2500     2.6974     3.2065
  607.0000  -999.2500     3.0102     3.5849
  607.5000  -999.2500     3.5096     4.1681
  608.0000  -999.2500     4.0918     4.9335
  608.5000  -999.2500     4.7715     5.8376
  609.0000  -999.2500     5.5639     6.9076
  609.5000  -999.2500     6.4877     7.6316
  610.0000  -999.2500     6.9768     7.5960
  610.5000  -999.2500     7.1247     7.5645
  611.0000  -999.2500     7.2804  -999.2500
  611.5000  -999.2500     7.2590  -999.2500
  612.0000  -999.2500     7.2370  -999.2500
  612.5000  -999.2500     7.2137  -999.2500
