~VERSION INFORMATION
 VERS.                2.0:   CWLS LOG ASCII STANDARD - VERSION 2.0
 WRAP.                 NO:   ONE LINE PER DEPTH STEP
~WELL INFORMATION
#MNEM.UNIT      DATA TYPE    INFORMATION
#----------   ------------   ------------------------------
 STRT.F           36.0000:   START DEPTH
 STOP.F         3160.0000:   STOP DEPTH
 STEP.F            0.5000:   STEP LENGTH
 NULL.          -999.2500:   NO VALUE
 COMP.    FENIX & SCISSON:   COMPANY
 WELL.        NPR-3 #28-3:   WELL
 FLD .             TEAPOT:   FIELD
 LOC .       S3 T38N R78W:   LOCATION
 CNTY.            NATRONA:   COUNTY
 STAT.            WYOMING:   STATE
 CTRY. UNITED STATES OF AMERICA:   COUNTRY
 SRVC.            Unknown:   SERVICE COMPANY
 DATE.        01-JUL-1978:   LOGDATE
 API .       490251066500:   API NUMBER
~CURVE INFORMATION
#MNEM.UNIT       API CODE    CURVE DESCRIPTION
#----------   ------------   ------------------------------
 DEPT.F                  :   
 ILD .OHMM   05 120 46 00:   INDUCTION LOG DEEP
 SN  .OHMM   05 040 16 00:   SHORT NORMAL 16"
 SPR .MV     05 010 01 00:   SPONTANEOUS POTENTIAL FROM RES.
 CALD.IN     45 280 60 00:   CALIPER FROM DENSITY LOG
 CORR.G/C3   45 356 01 00:   DENSITY CORRECTION
 DPHI.DEC    45 890 12 00:   DENSITY POROSITY SANDSTONE
 GRD .GAPI   45 310 01 00:   GAMMA RAY FROM DENSITY LOG
 RHOB.G/C3   45 350 01 00:   BULK DENSITY
 GR  .GAPI   30 310 01 00:   GAMMA RAY
~PARAMETER INFORMATION
#MNEM.UNIT          VALUE    DESCRIPTION
#----------   ------------   ------------------------------
 PD  .                 GL:   PERMANENT DATUM
 EPD .F              5264:   ELEVATION PERMANENT DATUM
 LMF .                 KB:   LOG MEASURED FROM
 DAPD.F                 4:   FEET ABOVE PERMANENT DATUM
 DMF .                 KB:   DRILLING MEASURED FROM
 EKB .F              5268:   KELLING BUSHING
 EGL .F              5264:   GROUND LEVEL
 DATE.        01-JUL-1978:   RUN DATE
 RUN .                  1:   RUN NUMBER
 DD  .F               630:   DEPTH DRILLER
 DL  .F               636:   DEPTH LOGGER
 BLI .F               630:   BOTTOM LOG INTERVAL
 TLI .F                50:   TOP LOG INTERVAL
 CS  .IN            8.625:   CASING SIZE
 CBD .F                40:   CASING BOTTOM DRILLER
 BS  .IN            7.875:   BIT SIZE
 BSD .F               630:   BIT SIZE AT DEPTH
 DFT .                KCL:   DRILLING FLUID TYPE
 DFD .                8.6:   DRILLING FLUID DENSITY
 DFV .                 32:   DRILLING FLUID VISCOSITY
 DFPH.                9.5:   DRILLING FLUID PH
 MSS .           FLOWLINE:   MUD SAMPLE SOURCE
 BHT .F                74:   BOTTOM HOLE TEMPERATURE
 TCS .HRS               1:   TIME CURCULATED STOPPED
 MRT .F                74:   MAXIMUM RECORDED TEMPERATURE
 LUN .               2958:   LOGGING UNIT NUMBER
 LUL .               CASP:   LOGGING UNIT LOCATION
 ENGI.             MILLER:   RECORDING ENGINEER
 WITN.           MCGINLEY:   WITNESSED BY
 CLNT.            A2DTECH:   CLIENT CODE
 ORIG.        2" 5" PRINT:   ORIGIN OF DATA
 UWI .       490251066500:   UNIQUE WELL ID
 DICO. A2D Technologies, Inc.:   DIGITIZING COMPANY
~OTHER INFORMATION
~A   DEPT      ILD         SN        SPR       CALD       CORR       DPHI         GRD      RHOB         GR   
# ...
  218.5000     8.4180     8.1321   -39.6006     7.6451     0.0048     0.1386    93.1690     2.4489  -999.2500
  219.0000     8.4169     8.1310   -39.6042     7.6466     0.0079     0.1360    92.5812     2.4528  -999.2500
  219.5000     8.3578     8.1299   -39.4569     7.6477     0.0080     0.1345    90.1997     2.4565  -999.2500
  220.0000     8.3567     8.1289   -39.4597     7.6489     0.0081     0.1330    88.1171     2.4596  -999.2500
  220.5000     8.2978     8.1841   -39.3117     7.6500     0.0082     0.1294    87.3798     2.4641  -999.2500
  221.0000     8.2967     8.1828   -39.3153     7.6512     0.0082     0.1249    86.9307     2.4694  -999.2500
  221.5000     8.2956     8.1817   -39.3189     7.6524     0.0098     0.1252    86.8022     2.4761  -999.2500
  222.0000     8.3521     8.1806   -39.3218     7.6535     0.0114     0.1297    89.0570     2.4665  -999.2500
  222.5000     8.4088     8.1795   -39.3246     7.6547     0.0115     0.1279    92.2061     2.4650  -999.2500
  223.0000     8.4075     8.2046   -39.3275     7.6561     0.0116     0.1290    92.6621     2.4681  -999.2500
  223.5000     8.4649     8.2341   -39.3304     7.6573     0.0117     0.1248    91.0305     2.4720  -999.2500
  224.0000     8.4636     8.2901   -39.3333     7.6584     0.0118     0.1227    89.9943     2.4779  -999.2500
  224.5000     8.5214     8.3465   -39.3368     7.6596     0.0119     0.1239    90.0134     2.4794  -999.2500
  225.0000     8.6385     8.4032   -39.1888     7.6607     0.0075     0.1296    91.9083     2.4675  -999.2500
  225.5000     8.6973     8.4601   -39.1924     7.6619     0.0016     0.1283    93.6146     2.4616  -999.2500
  226.0000     8.6958     8.4590   -39.3454     7.6631    -0.0043     0.1268    93.9237     2.4691  -999.2500
  226.5000     8.6947     8.4576   -39.3483     7.6645    -0.0057     0.1316    93.9338     2.4677  -999.2500
  227.0000     8.6935     8.4565   -39.3519     7.6656    -0.0041     0.1379    92.4492     2.4588  -999.2500
  227.5000     8.6924     8.4553   -39.2039     7.6668    -0.0024     0.1432    88.8718     2.4483  -999.2500
  228.0000     8.6314     8.4542   -39.2075     7.6527     0.0006     0.1420    86.6398     2.4455  -999.2500
  228.5000     8.5706     8.4531   -39.2103     7.6542     0.0021     0.1345    86.4823     2.4530  -999.2500
  229.0000     8.4518     8.4519   -39.2132     7.6553     0.0007     0.1288    86.0647     2.4605  -999.2500
  229.5000     8.3925     8.4506   -39.2168     7.6415     0.0008     0.1321    85.1779     2.4650  -999.2500
  230.0000     8.2762     8.4495   -39.2197     7.6280    -0.0006     0.1322    85.9354     2.4658  -999.2500
  230.5000     8.2751     8.4484   -39.3727     7.6292    -0.0005     0.1288    89.5330     2.4666  -999.2500
  231.0000     8.2738     8.3891   -39.3168     7.6303    -0.0019     0.1354    90.2879     2.4614  -999.2500
  231.5000     8.2727     8.3302   -39.2282     7.6315    -0.0063     0.1374    87.3111     2.4563  -999.2500
  232.0000     8.2716     8.2715   -39.2312     7.6327    -0.0109     0.1263    85.2048     2.4630  -999.2500
  232.5000     8.2705     8.2135   -39.3848     7.6338    -0.0151     0.1335    84.4912     2.4683  -999.2500
  233.0000     8.2694     8.0997   -39.3877     7.6350    -0.0150     0.1382    86.1481     2.4587  -999.2500
  233.5000     8.2111     8.0428   -39.3906     7.6362    -0.0149     0.1358    88.9983     2.4557  -999.2500
  234.0000     8.1535     7.9864   -39.2432     7.6376    -0.0118     0.1397    90.8021     2.4521  -999.2500
  234.5000     8.0406     7.8755   -39.2628     7.6387    -0.0072     0.1406    90.5133     2.4476  -999.2500
  235.0000     7.9841     7.8744   -39.3999     7.6399    -0.0027     0.1442    88.7297     2.4425  -999.2500
  235.5000     7.9831     7.8734   -39.2519     7.6258    -0.0011     0.1471    87.6935     2.4410  -999.2500
  236.0000     7.9818     7.8724   -39.2555     7.6273     0.0005     0.1444    89.4998     2.4434  -999.2500
  236.5000     7.9807     7.8713   -39.2584     7.6135     0.0006     0.1408    91.9016     2.4471  -999.2500
  237.0000     7.9797     7.8703   -39.2613     7.6146     0.0007     0.1378    92.0612     2.4516  -999.2500
  237.5000     7.9786     7.8692   -39.2648     7.6161     0.0008     0.1348    92.2208     2.4569  -999.2500
  238.0000     7.9776     7.9225   -39.2677     7.6172    -0.0007     0.1318    92.2309     2.4614  -999.2500
  238.5000     8.0316     7.9215   -39.4207     7.6184    -0.0035     0.1309    91.9421     2.4630  -999.2500
  239.0000     8.1422     7.9754   -39.4236     7.6046    -0.0064     0.1344    90.0090     2.4630  -999.2500
  239.5000     8.1977     8.0496   -39.4264     7.6057    -0.0093     0.1328    88.0759     2.4623  -999.2500
  240.0000     8.3682     8.1402   -39.4300     7.6069    -0.0122     0.1332    89.1349     2.4594  -999.2500
  240.5000     8.4251     8.1956   -39.4329     7.6081    -0.0121     0.1409    90.0419     2.4533  -999.2500
  241.0000     8.5409     8.2510   -39.4354     7.5943    -0.0091     0.1421    90.6499     2.4483  -999.2500
  241.5000     8.6587     8.3074   -39.2885     7.5957    -0.0060     0.1427    91.1084     2.4461  -999.2500
  242.0000     8.7175     8.3644   -39.2913     7.5969    -0.0029     0.1439    91.2680     2.4425  -999.2500
  242.5000     8.7771     8.4205   -39.2943     7.5980    -0.0013     0.1439    90.8297     2.4433  -999.2500
  243.0000     8.8978     8.4775   -39.1469     7.5992    -0.0012     0.1405    87.4998     2.4485  -999.2500
  243.5000     9.0204     8.5352   -39.1505     7.6003    -0.0018     0.1329    86.0692     2.4583  -999.2500
  244.0000     9.0817     8.5935   -39.1534     7.6015    -0.0041     0.1372    86.3783     2.4546  -999.2500
  244.5000     9.1435     8.6517   -39.1562     7.6051    -0.0070     0.1390    90.4243     2.4563  -999.2500
  245.0000     9.1420     8.6585   -39.1592     7.6190    -0.0101     0.1339    90.7334     2.4614  -999.2500
  245.5000     9.2042     8.7093   -39.0118     7.6202    -0.0128     0.1402    90.5940     2.4495  -999.2500
  246.0000     9.2029     8.7079   -39.0154     7.6213    -0.0157     0.1431    88.5114     2.4466  -999.2500
  246.5000     9.2014     8.7067   -39.0183     7.6073    -0.0170     0.1392    86.2794     2.4504  -999.2500
  247.0000     9.2002     8.7660   -39.0211     7.6087    -0.0185     0.1395    86.5885     2.4512  -999.2500
  247.5000     9.1990     8.7648   -39.1742     7.6099    -0.0184     0.1401    85.5548     2.4505  -999.2500
  248.0000     9.1345     8.7633   -39.1772     7.6111    -0.0183     0.1428    84.6655     2.4490  -999.2500
  248.5000     9.1278     8.6419   -39.1806     7.5972    -0.0152     0.1472    88.5646     2.4439  -999.2500
  249.0000     9.0689     8.6408   -39.1835     7.5987    -0.0121     0.1520    88.5747     2.4356  -999.2500
  249.5000     9.0677     8.6397   -39.1863     7.5998    -0.0090     0.1567    89.3322     2.4276  -999.2500
  250.0000     9.0537     8.6984   -39.1899     7.6308    -0.0045     0.1546    91.8834     2.4254  -999.2500
  250.5000     9.0007     8.6361   -39.1941     7.6169    -0.0014     0.1516    93.0937     2.4307  -999.2500
  251.0000     9.1230     8.6937   -39.0482     7.6029     0.0031     0.1441    91.4675     2.4366  -999.2500
  251.5000     9.3756     8.6909   -39.0526     7.5743     0.0047     0.1396    89.5388     2.4441  -999.2500
  252.0000     9.5689     8.7494   -38.9066     7.5753     0.0048     0.1506    87.3112     2.4509  -999.2500
  252.5000     9.6989     8.8073   -38.9119     7.5763     0.0049     0.1495    86.8772     2.4345  -999.2500
  253.0000     9.8980     8.9888   -38.9161     7.5773     0.0049     0.1465    85.9948     2.4382  -999.2500
  253.5000     9.9634     9.1115   -38.7702     7.5784     0.0035     0.1435    84.5145     2.4457  -999.2500
  254.0000    10.0987     9.2358   -38.7755     7.5794     0.0021     0.1410    83.7816     2.4502  -999.2500
  254.5000    10.1655     9.3620   -38.7798     7.5804     0.0007     0.1404    85.8162     2.4518  -999.2500
