~VERSION INFORMATION
 VERS.                2.0:   CWLS LOG ASCII STANDARD - VERSION 2.0
 WRAP.                 NO:   ONE LINE PER DEPTH STEP
~WELL INFORMATION
#MNEM.UNIT      DATA TYPE    INFORMATION
#----------   ------------   ------------------------------
 STRT.F           78.5000:   START DEPTH
 STOP.F         1021.0000:   STOP DEPTH
 STEP.F            0.5000:   STEP LENGTH
 NULL.          -999.2500:   NO VALUE
 COMP. U S NAVY/INTEX OIL CO:   COMPANY
 WELL.     NRR 3 ##65S-11:   WELL
 FLD .             TEAPOT:   FIELD
 LOC .      S11 T38N R78W:   LOCATION
 CNTY.            NATRONA:   COUNTY
 STAT.            WYOMING:   STATE
 CTRY. UNITED STATES OF AMERICA:   COUNTRY
 SRVC.       Schlumberger:   SERVICE COMPANY
 DATE.        09-MAR-1960:   LOGDATE
 API .       490250634100:   API NUMBER
~CURVE INFORMATION
#MNEM.UNIT       API CODE    CURVE DESCRIPTION
#----------   ------------   ------------------------------
 DEPT.F                  :   
 SPR .MV     05 010 01 00:   SPONTANEOUS POTENTIAL FROM RES.
 ILD .OHMM   05 120 46 00:   INDUCTION LOG DEEP
 CILD.MMHO   05 110 00 00:   CONDUCTIVITY INDUCTION LOG
 ASN .OHMM   05 041 16 00:   AMPLIFIED SHORT NORMAL 16"
~PARAMETER INFORMATION
#MNEM.UNIT          VALUE    DESCRIPTION
#----------   ------------   ------------------------------
 PD  .                 GL:   PERMANENT DATUM
 EPD .F              5227:   ELEVATION PERMANENT DATUM
 LMF .                 KB:   LOG MEASURED FROM
 DAPD.F                 5:   FEET ABOVE PERMANENT DATUM
 DMF .                 KB:   DRILLING MEASURED FROM
 EKB .F              5232:   KELLING BUSHING
 EGL .F              5227:   GROUND LEVEL
 DATE.             3-9-60:   RUN DATE
 RUN .                  1:   RUN NUMBER
 DD  .F              1025:   DEPTH DRILLER
 DL  .F              1026:   DEPTH LOGGER
 BLI .F              1021:   BOTTOM LOG INTERVAL
 TLI .F                80:   TOP LOG INTERVAL
 CBD .F                12:   CASING BOTTOM DRILLER
 BS  .IN            7.875:   BIT SIZE
 BSD .F              1025:   BIT SIZE AT DEPTH
 DFT .          OIL EMULS:   DRILLING FLUID TYPE
 DFD .               10.2:   DRILLING FLUID DENSITY
 DFV .                 36:   DRILLING FLUID VISCOSITY
 DFPH.                7.5:   DRILLING FLUID PH
 DFL .                  4:   DRILLING FLUID LOSS
 MSS .          FLOW LINE:   MUD SAMPLE SOURCE
 RMS .OHMM           2.18:   RESISTIVITY MUD SAMPLE
 MST .F                64:   MUD SAMPLE TEMPERATURE
 RMF .OHMM           1.17:   RESISTIVITY MUD FILTRATE SAMPLE
 MFST.F                63:   MUD FILTRATE SAMPLE TEMPERATURE
 RMC .OHMM           2.02:   RESISTIVITY MUD CAKE
 MCST.F                64:   MUD CAKE SAMPLE TEMPERATURE
 MFSS.                  M:   MUD FILTRATE SAMPLE SOURCE
 MCSS.                  M:   MUD CAKE SAMPLE SOURCE
 TCS .HRS             .75:   TIME CURCULATED STOPPED
 LUN .               2795:   LOGGING UNIT NUMBER
 LUL .               CSPR:   LOGGING UNIT LOCATION
 ENGI.              SCOTT:   RECORDING ENGINEER
 WITN.          JORGENSEN:   WITNESSED BY
 CLNT.            A2DTECH:   CLIENT CODE
 ORIG.           2" PRINT:   ORIGIN OF DATA
 UWI .       490250634100:   UNIQUE WELL ID
 DICO. A2D Technologies, Inc.:   DIGITIZING COMPANY
~OTHER INFORMATION
~A   DEPT      SPR        ILD       CILD        ASN   
# ...
  151.5000   -63.0931     6.6784   153.7485     8.1230
  152.0000   -63.1766     6.7702   153.5451     8.2397
  152.5000   -63.2571     6.6743   153.3417     8.2649
  153.0000   -63.3418     6.5663   153.1383     8.2025
  153.5000   -63.4193     6.4541   152.9349     8.0686
  154.0000   -63.5093     6.3447   154.0414     7.9349
  154.5000   -63.5030     6.2336   157.4315     7.8013
  155.0000   -63.4239     6.1232   160.8216     7.6650
  155.5000   -63.3598     6.0123   164.2118     7.5355
  156.0000   -63.2902     5.9020   167.6019     7.3913
  156.5000   -63.2208     5.7912   170.9920     7.3151
  157.0000   -63.1583     5.6818   174.3821     7.3400
  157.5000   -63.0774     5.5684   177.7722     7.4939
  158.0000   -62.9820     5.4771   181.1623     7.6882
  158.5000   -62.8963     5.5720   180.6971     7.8476
  159.0000   -62.8079     5.6919   176.3384     7.8741
  159.5000   -62.7192     5.8071   171.9797     7.7777
  160.0000   -62.6329     5.9243   167.8357     7.5559
  160.5000   -62.5387     6.0406   166.3112     7.5137
  161.0000   -62.6297     6.1574   164.8583     7.7350
  161.5000   -62.7848     6.2672   163.4776     7.9434
  162.0000   -62.9277     6.3737   160.1373     8.1638
  162.5000   -63.0759     6.4782   155.5455     8.3387
  163.0000   -63.2219     6.5594   152.8123     8.3539
  163.5000   -63.3688     6.5640   151.1740     8.3745
  164.0000   -63.5172     6.5638   149.8124     8.3500
  164.5000   -63.4897     6.5635   150.7999     8.2700
  165.0000   -63.4235     6.5633   151.6483     8.2032
  165.5000   -63.3656     6.5631   152.4997     8.1351
  166.0000   -63.3040     6.5627   153.3612     8.0604
  166.5000   -63.2443     6.5628   154.2269     8.0921
  167.0000   -63.1836     6.5620   154.3527     8.1830
  167.5000   -63.1234     6.5626   152.3273     8.2557
  168.0000   -63.0630     6.5659   149.8719     8.3350
  168.5000   -63.0028     6.6687   149.8655     8.4162
  169.0000   -62.9425     6.8124   149.7996     8.4925
  169.5000   -62.8822     6.9490   148.9045     8.5412
  170.0000   -62.8217     7.0891   146.1924     8.6816
  170.5000   -62.7617     7.2275   143.4803     8.9478
  171.0000   -62.7007     7.3671   140.7682     9.2149
  171.5000   -62.6418     7.5057   138.0561     9.4811
  172.0000   -62.5778     7.6459   135.3440     9.4875
  172.5000   -62.5392     7.7827   132.6319     9.4511
  173.0000   -62.6532     7.9265   129.8217     9.4214
  173.5000   -62.7775     8.0519   127.0727     9.4013
  174.0000   -62.9004     8.0790   125.5988     9.4974
  174.5000   -63.0235     7.9779   125.6068     9.6210
  175.0000   -63.1471     7.7767   128.0931     9.7066
  175.5000   -63.2693     7.5924   131.0822     9.5770
  176.0000   -63.3945     7.3984   134.0663     9.3543
  176.5000   -63.5137     7.2105   137.0396     9.0729
  177.0000   -63.6457     7.0177   140.0036     8.8080
  177.5000   -63.7156     6.8299   142.9633     8.5267
  178.0000   -63.5503     6.6371   145.9252     8.3024
  178.5000   -63.3916     6.5264   148.8940     8.2675
  179.0000   -63.2313     6.4839   151.8669     8.2693
  179.5000   -63.0711     6.4527   154.8414     8.3385
  180.0000   -62.9139     6.5198   155.9154     8.4709
  180.5000   -62.7491     6.6306   153.8867     8.6035
  181.0000   -62.5995     6.7292   150.9486     8.6590
  181.5000   -62.4151     6.8330   148.0105     8.6746
  182.0000   -62.3428     6.9340   145.0724     8.6826
  182.5000   -62.4595     7.0363   142.7856     8.7173
  183.0000   -62.5537     7.1380   141.5498     8.8580
  183.5000   -62.6616     7.2398   139.8547     8.9926
  184.0000   -62.7604     7.3538   137.7755     9.1482
  184.5000   -62.8666     7.4631   135.9074     9.3368
  185.0000   -62.9646     7.5928   133.4920     9.5236
  185.5000   -63.0776     7.7210   131.0765     9.7116
  186.0000   -63.1378     7.8496   128.6611     9.9139
  186.5000   -63.1299     7.9791   126.2456    10.0758
  187.0000   -63.1340     8.1059   123.8302    10.2581
  187.5000   -63.1315     8.2382   121.4147    10.4257
  188.0000   -63.1341     8.3601   118.7375    10.5904
  188.5000   -63.1229     8.5042   118.4352    10.7879
  189.0000   -63.0029     8.5500   118.0962    10.8244
  189.5000   -62.8636     8.4735   117.7355    10.6469
  190.0000   -62.7279     8.4152   118.6874    10.5467
  190.5000   -62.5905     8.3473   119.7044    10.4478
  191.0000   -62.4545     8.2846   120.7214    10.3415
  191.5000   -62.3168     8.2193   121.7385    10.2665
  192.0000   -62.1819     8.1549   122.7555    10.2599
  192.5000   -62.0407     8.0909   123.7726    10.2228
  193.0000   -61.9334     8.0247   124.7896    10.2009
  193.5000   -62.0002     7.9723   125.7515    10.1642
  194.0000   -62.0798     7.9976   125.2154    10.1958
  194.5000   -62.1577     8.0298   124.7069    10.2749
  195.0000   -62.2361     8.0610   124.1984    10.2706
  195.5000   -62.3141     8.0925   123.6899    10.2649
  196.0000   -62.3929     8.1238   123.1814    10.3463
  196.5000   -62.4702     8.1554   122.6729    10.3758
  197.0000   -62.5501     8.1868   122.1643    10.3712
  197.5000   -62.6252     8.2186   121.7435    10.3651
  198.0000   -62.7073     8.2494   121.9140    10.4454
  198.5000   -62.7028     8.2820   122.0595    10.4757
  199.0000   -62.6478     8.3109   122.2050    10.4715
  199.5000   -62.6061     8.3476   122.3504    10.4384
  200.0000   -62.5584     8.3507   122.4959    10.1237
  200.5000   -62.5137     8.2248   122.6414    10.2734
  201.0000   -62.4670     8.1123   123.1329    10.5778
  201.5000   -62.4216     7.9975   124.4957    10.8582
  202.0000   -62.3756     7.8816   125.8584    11.1495
  202.5000   -62.3194     7.8991   126.4418    11.4265
  203.0000   -62.1502     7.9522   125.5333    11.1993
  203.5000   -61.9372     7.9909   124.6248    10.8345
  204.0000   -61.7441     8.0477   123.7641    10.5110
  204.5000   -61.8241     8.0249   122.8029    10.1445
  205.0000   -61.9577     7.9068   126.2446     9.8964
  205.5000   -62.0800     7.8012   129.9355     9.5840
  206.0000   -62.2073     7.6877   133.3266     9.5285
  206.5000   -62.3324     7.5802   134.8589     9.6648
  207.0000   -62.4585     7.4649   134.8515     9.8081
  207.5000   -62.5849     7.3815   133.7359     9.8542
  208.0000   -62.7098     7.4869   131.6232     9.7902
  208.5000   -62.8374     7.6082   129.7595     9.7595
  209.0000   -62.9595     7.7277   129.1240     9.6935
  209.5000   -63.0907     7.8465   128.5399     9.7542
  210.0000   -63.1262     7.9678   127.9559     9.8443
  210.5000   -63.0195     8.0692   126.6570    10.0385
  211.0000   -62.9253     8.1398   124.9845    10.4913
  211.5000   -62.8261     8.2028   123.3121    10.6132
  212.0000   -62.7298     8.2655   121.6396    10.7186
  212.5000   -62.6323     8.3284   119.9672    10.7688
  213.0000   -62.5347     8.3912   118.6602    10.8329
  213.5000   -62.4378     8.4542   118.3682    10.8877
  214.0000   -62.3349     8.5169   118.0761    10.9492
  214.5000   -62.3296     8.5802   117.7355    11.0041
  215.0000   -62.3449     8.6426   116.2213    11.0666
  215.5000   -62.3554     8.7069   114.3754    11.0087
  216.0000   -62.3680     8.7676   112.5442    10.9982
  216.5000   -62.3795     8.8362   110.7171    11.0884
  217.0000   -62.3915     8.8721   110.2193    11.1659
  217.5000   -62.4033     8.8670   111.5434    11.1528
  218.0000   -62.4152     8.8708   112.8717    11.0908
  218.5000   -62.4270     8.8594   114.1977    11.0384
  219.0000   -62.4388     8.7528   115.5213    10.9800
  219.5000   -62.4508     8.6318   116.8437    10.9279
  220.0000   -62.4624     8.5137   118.1577    10.8574
  220.5000   -62.4750     8.3945   119.0638    10.6591
  221.0000   -62.4855     8.2758   119.6479    10.4513
  221.5000   -62.5000     8.1569   120.2319    10.2777
  222.0000   -62.5072     8.0382   120.7415    10.2778
  222.5000   -62.5283     7.9193   123.0461    10.1889
  223.0000   -62.4631     7.8004   125.0902    10.0925
  223.5000   -62.3403     7.6817   127.1343    10.0453
  224.0000   -62.2343     7.5626   129.1784     9.9594
