~VERSION INFORMATION
 VERS.                2.0:   CWLS LOG ASCII STANDARD - VERSION 2.0
 WRAP.                 NO:   ONE LINE PER DEPTH STEP
~WELL INFORMATION
#MNEM.UNIT      DATA TYPE    INFORMATION
#----------   ------------   ------------------------------
 STRT.F           50.0000:   START DEPTH
 STOP.F         1561.5000:   STOP DEPTH
 STEP.F            0.5000:   STEP LENGTH
 NULL.          -999.2500:   NO VALUE
 COMP. FENIX & SCISSON INC:   COMPANY
 WELL.  72 SH 3 STX #72-3:   WELL
 FLD .             TEAPOT:   FIELD
 LOC .       S3 T38N R78W:   LOCATION
 CNTY.            NATRONA:   COUNTY
 STAT.            WYOMING:   STATE
 CTRY. UNITED STATES OF AMERICA:   COUNTRY
 SRVC.           BIRDWELL:   SERVICE COMPANY
 DATE.        31-JUL-1979:   LOGDATE
 API .       490251078600:   API NUMBER
~CURVE INFORMATION
#MNEM.UNIT       API CODE    CURVE DESCRIPTION
#----------   ------------   ------------------------------
 DEPT.F                  :   
 CALD.IN     45 280 60 00:   CALIPER FROM DENSITY LOG
 GRD .GAPI   45 310 01 00:   GAMMA RAY FROM DENSITY LOG
 RHOB.G/C3   45 350 01 00:   BULK DENSITY
 CORR.G/C3   45 356 01 00:   DENSITY CORRECTION
 DPHI.DEC    45 890 12 00:   DENSITY POROSITY SANDSTONE
 GR  .GAPI   81 310 01 00:   GAMMA RAY
~PARAMETER INFORMATION
#MNEM.UNIT          VALUE    DESCRIPTION
#----------   ------------   ------------------------------
 PD  .                 GL:   PERMANENT DATUM
 EPD .F              5165:   ELEVATION PERMANENT DATUM
 LMF .                 KB:   LOG MEASURED FROM
 DAPD.F                10:   FEET ABOVE PERMANENT DATUM
 DMF .                 KB:   DRILLING MEASURED FROM
 EKB .F              5175:   KELLING BUSHING
 EGL .F              5165:   GROUND LEVEL
 DATE.            7-31-79:   RUN DATE
 RUN .                  1:   RUN NUMBER
 DD  .F              1564:   DEPTH DRILLER
 DL  .F              1560:   DEPTH LOGGER
 BLI .F              1560:   BOTTOM LOG INTERVAL
 TLI .F               700:   TOP LOG INTERVAL
 CS  .IN            9.625:   CASING SIZE
 CBD .F               691:   CASING BOTTOM DRILLER
 CBL .F               680:   CASING BOTTOM LOGGER
 BS  .IN            7.875:   BIT SIZE
 BSD .F              1564:   BIT SIZE AT DEPTH
 DFT .                OIL:   DRILLING FLUID TYPE
 BHT .F                92:   BOTTOM HOLE TEMPERATURE
 TCS .HRS               2:   TIME CURCULATED STOPPED
 MRT .F                92:   MAXIMUM RECORDED TEMPERATURE
 LUN .               3029:   LOGGING UNIT NUMBER
 LUL .                CPR:   LOGGING UNIT LOCATION
 ENGI.             MILLER:   RECORDING ENGINEER
 WITN.           DINSMORE:   WITNESSED BY
 CLNT.            A2DTECH:   CLIENT CODE
 ORIG.       2", 5" PRINT:   ORIGIN OF DATA
 UWI .       490251078600:   UNIQUE WELL ID
 DICO. A2D Technologies, Inc.:   DIGITIZING COMPANY
~OTHER INFORMATION
~A   DEPT     CALD        GRD       RHOB       CORR       DPHI          GR  
# ...
 1506.0000     8.6021   101.2405     2.5528     0.0019    -0.0065    95.2306
 1506.5000     8.6012   100.4878     2.5527     0.0046    -0.0087    97.3552
 1507.0000     8.6003   103.7321     2.5611     0.0072    -0.0106    97.1361
 1507.5000     8.5995   105.5043     2.5673     0.0100    -0.0088    93.0588
 1508.0000     8.5986   104.2694     2.5554     0.0077    -0.0026    87.5795
 1508.5000     8.5977   103.0195     2.5397     0.0047     0.0036    86.1926
 1509.0000     8.5968   100.6890     2.5293     0.0016     0.0054    90.7691
 1509.5000     8.5960    98.2525     2.5293    -0.0006     0.0048    95.5865
 1510.0000     8.5951    95.9238     2.5370     0.0023     0.0078    98.4933
 1510.5000     8.5942    96.9215     2.5468     0.0052     0.0010    98.7049
 1511.0000     8.5934    98.0814     2.5567     0.0081    -0.0059    98.6183
 1511.5000     8.5925    98.8238     2.5583     0.0115    -0.0090    98.0179
 1512.0000     8.5916    97.6787     2.5543     0.0075    -0.0070    97.3765
 1512.5000     8.5907    99.0568     2.5501    -0.0014    -0.0022    95.3151
 1513.0000     8.5899   100.5872     2.5463    -0.0042    -0.0010    93.3083
 1513.5000     8.5890    99.3320     2.5470    -0.0003    -0.0032    91.2938
 1514.0000     8.5881    97.1806     2.5622     0.0036    -0.0087    90.1982
 1514.5000     8.5872    96.6167     2.5696     0.0075    -0.0130    90.4901
 1515.0000     8.5864   101.9285     2.5633     0.0083    -0.0070    92.0784
 1515.5000     8.5855   107.0721     2.5535     0.0049    -0.0010    96.0035
 1516.0000     8.5846   106.4995     2.5367     0.0016     0.0049    99.8780
 1516.5000     8.5837   105.7256     2.5199    -0.0018     0.0108   100.3243
 1517.0000     8.5829   105.0391     2.5194    -0.0047     0.0142    96.7411
 1517.5000     8.5820   101.3344     2.5210    -0.0015     0.0127    94.4288
 1518.0000     8.5811    97.1608     2.5332     0.0010     0.0092    94.3192
 1518.5000     8.5802    93.3569     2.5456     0.0034     0.0021    94.1407
 1519.0000     8.5794    96.9183     2.5580     0.0058    -0.0057    92.6002
 1519.5000     8.5785    98.6944     2.5691     0.0082    -0.0122    89.5087
 1520.0000     8.5776    98.0614     2.5639     0.0107    -0.0125    96.2850
 1520.5000     8.5767   102.1775     2.5584     0.0091    -0.0098    95.3015
 1521.0000     8.5759   101.4987     2.5570     0.0063    -0.0089    94.0025
 1521.5000     8.5750   100.4148     2.5602     0.0035    -0.0105    92.7504
 1522.0000     8.5741    99.3065     2.5635     0.0007    -0.0099    92.1831
 1522.5000     8.5732    98.0129     2.5625    -0.0022    -0.0076    97.6038
 1523.0000     8.5724    96.7472     2.5596    -0.0018    -0.0053   102.6382
 1523.5000     8.5715    95.6262     2.5566    -0.0002    -0.0055   102.3281
 1524.0000     8.5706    96.1242     2.5530     0.0015    -0.0051    98.0491
 1524.5000     8.5697    98.2957     2.5492     0.0032    -0.0026    94.6021
 1525.0000     8.5689   100.3807     2.5508     0.0048    -0.0029    91.1685
 1525.5000     8.5680   101.2363     2.5539     0.0066    -0.0054    87.9684
 1526.0000     8.5671    98.7968     2.5544     0.0053    -0.0046    89.4010
 1526.5000     8.5662    96.7886     2.5507     0.0029    -0.0033    90.8865
 1527.0000     8.5654    95.3956     2.5512     0.0005    -0.0050    92.4238
 1527.5000     8.5645    97.2638     2.5577    -0.0019    -0.0078    95.2627
 1528.0000     8.5636   110.8624     2.5641    -0.0027    -0.0106    99.0619
 1528.5000     8.5627   111.1940     2.5686    -0.0003    -0.0130    96.0340
 1529.0000     8.5619    98.9671     2.5641     0.0021    -0.0112    93.5977
 1529.5000     8.5610    94.3575     2.5559     0.0045    -0.0054    96.8524
 1530.0000     8.5601    95.7427     2.5605     0.0069    -0.0074    93.9156
 1530.5000     8.5592    98.8908     2.5660     0.0064    -0.0095    92.0171
 1531.0000     8.5584   101.0687     2.5685     0.0058    -0.0116    94.9148
 1531.5000     8.5575   101.1415     2.5666     0.0051    -0.0133    94.0063
 1532.0000     8.5566   103.3506     2.5663     0.0072    -0.0152    99.5100
 1532.5000     8.5557   106.1124     2.5718     0.0110    -0.0171   101.1775
 1533.0000     8.5549   106.0349     2.5773     0.0151    -0.0190    99.1805
 1533.5000     8.5540   106.0480     2.5755     0.0053    -0.0150    96.7372
 1534.0000     8.5531   104.1976     2.5587    -0.0076    -0.0072    95.6229
 1534.5000     8.5522   101.0309     2.5374    -0.0102     0.0005    95.7754
 1535.0000     8.5514    98.2341     2.5438    -0.0056     0.0032    94.5052
 1535.5000     8.5505    97.5910     2.5500    -0.0009     0.0017    91.7101
 1536.0000     8.5496    96.8830     2.5392     0.0031     0.0025    88.8009
 1536.5000     8.5487    97.8911     2.5344     0.0000     0.0051    87.4846
 1537.0000     8.5479   100.0376     2.5429    -0.0050     0.0003    93.9908
 1537.5000     8.5470    99.9709     2.5537    -0.0100    -0.0098    97.4903
 1538.0000     8.5461    95.2110     2.5671    -0.0070    -0.0122    94.9081
 1538.5000     8.5452    94.5967     2.5657     0.0032    -0.0127    98.1498
 1539.0000     8.5444    94.7810     2.5554     0.0036    -0.0042    99.0024
 1539.5000     8.5435    95.9254     2.5453    -0.0017     0.0024    92.7138
 1540.0000     8.5426   100.8367     2.5346    -0.0069     0.0074    87.9119
 1540.5000     8.5418   103.3372     2.5445    -0.0040     0.0011    87.1646
 1541.0000     8.5409   104.5337     2.5602    -0.0004    -0.0092    93.3829
 1541.5000     8.5400   105.7140     2.5734     0.0033    -0.0174    96.8639
 1542.0000     8.5391   106.8310     2.5700     0.0069    -0.0182    94.5011
 1542.5000     8.5383   105.5968     2.5571     0.0082    -0.0093    90.6451
 1543.0000     8.5374   107.5603     2.5495     0.0064    -0.0046    89.6660
 1543.5000     8.5371   108.3168     2.5557     0.0046    -0.0063    90.2437
 1544.0000     8.5371   106.7460     2.5653     0.0027    -0.0089    97.5325
 1544.5000     8.5371   109.4424     2.5683     0.0009    -0.0114   101.0270
 1545.0000     8.5371   106.3903     2.5642    -0.0009    -0.0095   100.0841
 1545.5000     8.5371   101.5994     2.5598    -0.0027    -0.0077   102.9784
 1546.0000     8.5371    97.9417     2.5666    -0.0001    -0.0109   104.8307
 1546.5000     8.5371    98.2633     2.5749     0.0061    -0.0162   100.8529
 1547.0000     8.5371    99.8476     2.5772     0.0119    -0.0198    96.0784
 1547.5000     8.5371   101.9182     2.5714     0.0120    -0.0134    93.0208
 1548.0000     8.5370   103.7982     2.5619     0.0014    -0.0065    91.4572
 1548.5000     8.5338   103.2816     2.5509    -0.0090    -0.0004    91.1318
 1549.0000     8.5270   102.1219     2.5397    -0.0196     0.0003    93.6936
 1549.5000     8.5202   100.9728     2.5364    -0.0285     0.0007    90.5753
 1550.0000     8.5134    99.8235     2.5507    -0.0216    -0.0020    87.3111
 1550.5000     8.5066    98.7518     2.5657    -0.0144    -0.0122    90.1624
 1551.0000     8.4999   100.5279     2.5649    -0.0074    -0.0140    98.7282
 1551.5000     8.4931   102.9379     2.5518    -0.0003    -0.0082    98.0241
 1552.0000     8.4863  -999.2500     2.5648     0.0066    -0.0156    95.1776
 1552.5000     8.4795  -999.2500     2.5823     0.0080    -0.0234   101.6220
 1553.0000     8.4727  -999.2500     2.5851    -0.0002    -0.0172   105.0277
 1553.5000     8.4660  -999.2500     2.5644    -0.0083    -0.0069   106.6918
 1554.0000     8.4590  -999.2500     2.5495    -0.0053    -0.0049   100.9540
 1554.5000     8.4519  -999.2500     2.5487     0.0033    -0.0059    93.6719
 1555.0000     8.4411  -999.2500     2.5518     0.0106    -0.0057    86.9552
 1555.5000     8.4303  -999.2500     2.5551     0.0051    -0.0049    86.8286
 1556.0000     8.4192  -999.2500     2.5585    -0.0004    -0.0085    90.2883
 1556.5000     8.4169  -999.2500     2.5688    -0.0047    -0.0151    93.1504
 1557.0000     8.4168  -999.2500     2.5721    -0.0016    -0.0132    93.2883
 1557.5000     8.4168  -999.2500     2.5604     0.0014    -0.0092    91.5073
