~VERSION INFORMATION
 VERS.                2.0:   CWLS LOG ASCII STANDARD - VERSION 2.0
 WRAP.                 NO:   ONE LINE PER DEPTH STEP
~WELL INFORMATION
#MNEM.UNIT      DATA TYPE    INFORMATION
#----------   ------------   ------------------------------
 STRT.F           38.0000:   START DEPTH
 STOP.F          637.0000:   STOP DEPTH
 STEP.F            0.5000:   STEP LENGTH
 NULL.          -999.2500:   NO VALUE
 COMP. FENIX & SCISSON INC:   COMPANY
 WELL.    NPR ##3 57-S-34:   WELL
 FLD .             TEAPOT:   FIELD
 LOC .      S34 T39N R78W:   LOCATION
 CNTY.            NATRONA:   COUNTY
 STAT.            WYOMING:   STATE
 CTRY. UNITED STATES OF AMERICA:   COUNTRY
 SRVC.              Welex:   SERVICE COMPANY
 DATE.        12-MAR-1977:   LOGDATE
 API .       490251030600:   API NUMBER
~CURVE INFORMATION
#MNEM.UNIT       API CODE    CURVE DESCRIPTION
#----------   ------------   ------------------------------
 DEPT.F                  :   
 SPR .MV     07 010 01 00:   SPONTANEOUS POTENTIAL
 ILM .OHMM   07 120 44 00:   INDUCTION LOG MEDIUM
 ILD .OHMM   07 120 46 00:   INDUCTION LOG DEEP
 SGRD.OHMM   07 221 05 00:   SHALLOW SHORT GUARD RESISTIVITY
 CALD.IN     45 280 60 00:   CALIPER FROM DENSITY LOG
 GRD .GAPI   45 310 01 00:   GAMMA RAY FROM DENSITY LOG
 CORR.G/C3   45 356 01 00:   DENSITY CORRECTION
 DPHI.DEC    45 890 12 00:   DENSITY POROSITY SANDSTONE
 RHOB.G/C3   45 350 01 00:   BULK DENSITY
~PARAMETER INFORMATION
#MNEM.UNIT          VALUE    DESCRIPTION
#----------   ------------   ------------------------------
 PD  .                 GL:   PERMANENT DATUM
 EPD .F              5107:   ELEVATION PERMANENT DATUM
 LMF .                 GL:   LOG MEASURED FROM
 DMF .                 GL:   DRILLING MEASURED FROM
 EGL .F              5107:   GROUND LEVEL
 DATE.          3-12-1977:   RUN DATE
 RUN .                  1:   RUN NUMBER
 DD  .F               650:   DEPTH DRILLER
 DL  .F               637:   DEPTH LOGGER
 BLI .F               636:   BOTTOM LOG INTERVAL
 TLI .F                46:   TOP LOG INTERVAL
 CS  .IN            8.625:   CASING SIZE
 CBD .F                45:   CASING BOTTOM DRILLER
 CBL .F                46:   CASING BOTTOM LOGGER
 BS  .IN            7.875:   BIT SIZE
 BSD .F               650:   BIT SIZE AT DEPTH
 DFT .            KCL MUD:   DRILLING FLUID TYPE
 DFD .                8.9:   DRILLING FLUID DENSITY
 DFV .                 35:   DRILLING FLUID VISCOSITY
 MSS .            MUD PIT:   MUD SAMPLE SOURCE
 RMS .OHMM            .53:   RESISTIVITY MUD SAMPLE
 MST .F                68:   MUD SAMPLE TEMPERATURE
 RMF .OHMM            .41:   RESISTIVITY MUD FILTRATE SAMPLE
 MFST.F                69:   MUD FILTRATE SAMPLE TEMPERATURE
 RMC .OHMM            .62:   RESISTIVITY MUD CAKE
 MCST.F                65:   MUD CAKE SAMPLE TEMPERATURE
 MFSS.           MEASURED:   MUD FILTRATE SAMPLE SOURCE
 MCSS.           MEASURED:   MUD CAKE SAMPLE SOURCE
 RMB .OHMM            .60:   RESISTIVITY MUD AT BHT
 BHT .F                60:   BOTTOM HOLE TEMPERATURE
 TCS .HRS               1:   TIME CURCULATED STOPPED
 MRT .F                60:   MAXIMUM RECORDED TEMPERATURE
 LUN .               0716:   LOGGING UNIT NUMBER
 LUL .             VERNAL:   LOGGING UNIT LOCATION
 ENGI.        E. CALLAHAN:   RECORDING ENGINEER
 WITN.         STUEBUNGER:   WITNESSED BY
 CLNT.            A2DTECH:   CLIENT CODE
 ORIG.           5" PRINT:   ORIGIN OF DATA
 UWI .       490251030600:   UNIQUE WELL ID
 DICO. A2D Technologies, Inc.:   DIGITIZING COMPANY
~OTHER INFORMATION
~A   DEPT      SPR        ILM        ILD       SGRD       CALD        GRD       CORR       DPHI       RHOB   
# ...
  439.5000   -35.3254     9.4395     7.7908    10.3734     8.2202   107.4955     0.0552     0.1056     2.4740
  440.0000   -31.6000     9.3726     8.0063    10.4412     8.2198   108.4212     0.0659     0.1086     2.4663
  440.5000   -29.5188     9.6321     8.1194    10.6691     8.2195   107.0242     0.0783     0.1052     2.4671
  441.0000   -27.8861    10.2473     8.4544    11.2578     8.2192   104.6992     0.0844     0.1098     2.4761
  441.5000   -27.9004    11.2074     8.9320    12.0598     8.2034   101.7550     0.0875     0.1120     2.4638
  442.0000   -30.1541    12.4556     9.5022    14.0365     8.1721    96.6436     0.0998     0.1052     2.4663
  442.5000   -33.9025    13.3127    10.1790    18.3752     8.1099    93.5446     0.0998     0.1065     2.4664
  443.0000   -34.2129    13.8725    11.1326    27.6226     8.0164    88.2784     0.1067     0.1127     2.4656
  443.5000   -36.7656    14.5561    12.3471    27.0182     7.9221    77.7490     0.1136     0.1149     2.4633
  444.0000   -37.8356    15.5932    13.3459    20.2228     7.8279    63.8141     0.1058     0.1316     2.4469
  444.5000   -38.4357    16.9367    14.4622    27.5927     7.8455    60.5603     0.0996     0.1381     2.4172
  445.0000   -38.7461    18.2861    15.1739    30.8105     7.9380    59.7729     0.0902     0.1574     2.3992
  445.5000   -38.1597    19.4350    15.8108    28.9419     8.0306    61.3334     0.0732     0.1760     2.3458
  446.0000   -36.6764    19.4298    16.1360    27.5652     8.1077    63.3375     0.0607     0.1896     2.3334
  446.5000   -35.1932    18.7651    16.3545    20.4686     8.2003    62.5604     0.0623     0.1980     2.3280
  447.0000   -33.9970    18.1230    16.3477    22.8822     8.2774    62.7115     0.0715     0.2008     2.3110
  447.5000   -32.8274    17.9771    16.2270    27.7288     8.3390    66.2688     0.0807     0.1986     2.3141
  448.0000   -32.3876    18.3654    15.8872    22.8384     8.3542    66.5761     0.0698     0.1996     2.3172
  448.5000   -32.9999    18.2329    15.4473    20.8680     8.3539    66.4175     0.0713     0.1915     2.3118
  449.0000   -33.6093    17.2479    14.9160    19.3332     8.3535    66.5693     0.0744     0.1863     2.3343
  449.5000   -34.2187    16.3160    14.5030    18.4136     8.3378    68.7334     0.0743     0.1838     2.3336
  450.0000   -34.0807    16.0889    14.1015    18.9237     8.2600    69.8148     0.0728     0.1714     2.3497
  450.5000   -33.8552    16.4252    13.8097    18.5280     8.2444    71.0542     0.0681     0.1655     2.3708
  451.0000   -33.0423    16.8754    13.5178    19.0413     8.2288    72.1393     0.0681     0.1624     2.3777
  451.5000   -32.6124    16.9890    13.3308    19.9790     8.2131    72.4505     0.0666     0.1482     2.4010
  452.0000   -33.2210    16.7503    13.3273    20.6750     8.2130    72.4520     0.0651     0.1510     2.3963
  452.5000   -33.9770    16.2894    13.4154    20.2438     8.2128    72.2988     0.0604     0.1513     2.4010
  453.0000   -34.5835    16.3980    13.5988    21.2408     8.2281    71.8359     0.0450     0.1662     2.3700
  453.5000   -34.7415    16.7370    13.7855    19.6769     8.2745    71.3731     0.0449     0.1674     2.3669
  454.0000   -34.4315    17.2003    14.1677    20.0827     8.2898    70.2911     0.0559     0.1770     2.3546
  454.5000   -33.7145    18.0479    14.6626    22.4247     8.2896    68.2802     0.0558     0.1876     2.3275
  455.0000   -32.8262    19.2008    15.2907    23.2544     8.2894    66.8886     0.0605     0.1975     2.3089
  455.5000   -31.9379    20.7115    16.1446    29.7527     8.2738    65.9614     0.0667     0.2071     2.3035
  456.0000   -31.6273    21.6185    16.8245    41.7378     8.2737    65.0341     0.0745     0.2158     2.2803
  456.5000   -31.3423    22.9596    17.6549    33.2114     8.2271    64.4161     0.0776     0.2205     2.2756
  457.0000   -30.9173    23.5968    18.1468    35.8271     8.2114    63.7985     0.0869     0.2242     2.2679
  457.5000   -31.0775    23.4281    18.5213    27.5339     8.2113    63.6452     0.0931     0.2223     2.2718
  458.0000   -24.3596    22.4708    18.1358    40.2661     8.2111    64.8856     0.0885     0.2137     2.2950
  458.5000   -18.9870    21.2562    17.6350    29.8972     8.2110    66.7443     0.0870     0.2093     2.3028
  459.0000   -15.8566    20.5281    17.2681    23.7896     8.2263    64.1147     0.0932     0.2034     2.3090
  459.5000   -14.3704    19.6893    16.7922    21.1443     8.2261    65.5094     0.1071     0.1889     2.3368
  460.0000   -17.5201    19.2802    16.2169    20.7713     8.2105    81.4552     0.1195     0.1750     2.3616
  460.5000   -20.2193    19.0106    15.9849    23.1386     8.1484    83.4692     0.1335     0.1654     2.3756
  461.0000   -20.6763    18.8747    15.8742    24.7646     8.0709    84.5543     0.1366     0.1554     2.3926
  461.5000   -22.7775    19.1406    16.0922    20.1169     7.9514    85.4847     0.1319     0.1573     2.3879
  462.0000   -24.4305    19.5278    15.7564    22.4629     7.8197    84.8670     0.1258     0.1539     2.4011
  462.5000   -25.0390    19.3870    15.3222    26.8782     7.6834    83.4750     0.1258     0.1545     2.3880
  463.0000   -25.3465    18.4667    14.8999    31.7196     7.6368    84.7153     0.1335     0.1521     2.3911
  463.5000   -25.6519    17.2293    14.4789    33.0523     7.6522    85.4909     0.1382     0.1366     2.4205
  464.0000   -23.8689    15.9641    13.9919    18.8703     7.7139    84.8732     0.1274     0.1316     2.4251
  464.5000   -23.7255    15.8500    13.7008    18.2230     7.7757    81.4692     0.1135     0.1341     2.4236
  465.0000   -24.3366    15.5197    13.5089    17.8430     7.8375    80.2320     0.0995     0.1409     2.4097
  465.5000   -24.9431    14.4797    13.2279    17.3505     7.8992    83.6395     0.0872     0.1539     2.3911
  466.0000   -20.3179    13.7924    13.0426    16.8716     7.9764    85.9631     0.0733     0.1614     2.3795
  466.5000   -14.9453    13.8843    12.8453    16.7496     8.0227    87.2030     0.0624     0.1664     2.3710
  467.0000   -12.4128    14.2703    12.5047    16.9760     8.0226    87.0494     0.0532     0.1676     2.3640
  467.5000   -10.4534    14.6647    12.2446    17.0895     8.0379    87.2061     0.0547     0.1654     2.3687
  468.0000    -9.8888    14.8658    12.0731    16.8479     8.0377    89.6841     0.0733     0.1608     2.3834
  468.5000   -11.6933    14.4558    11.9866    16.8274     8.0221    87.3640     0.0811     0.1620     2.3834
  469.0000   -14.5419    13.9612    11.9834    17.1951     8.0220    85.5080     0.0811     0.1617     2.3834
  469.5000   -17.3905    13.6712    11.9795    17.9104     8.0218    85.0448     0.0795     0.1602     2.3772
  470.0000   -21.1360    14.5648    12.1440    21.2831     8.0216    88.1427     0.0811     0.1658     2.3683
  470.5000   -20.6983    15.4725    12.2251    23.4407     8.0215    89.3826     0.0827     0.1673     2.3656
  471.0000   -20.4058    15.6847    12.3059    17.1654     8.0059    89.3842     0.0842     0.1683     2.3649
  471.5000   -22.0608    14.4319    12.3881    17.7634     8.0057    89.2305     0.0858     0.1642     2.3673
  472.0000   -21.6209    13.9381    12.3939    18.1297     7.9901    87.2201     0.0920     0.1605     2.3728
  472.5000   -19.3873    14.9313    12.5541    18.2495     7.9899    85.8281     0.1075     0.1590     2.3790
  473.0000   -16.3617    15.9952    12.6379    17.7443     7.9898    85.8300     0.1106     0.1540     2.3852
  473.5000   -15.6676    15.8798    12.8996    19.0084     7.9896    85.0576     0.1137     0.1513     2.3922
  474.0000   -23.4511    15.9867    13.2572    19.6722     7.9740    83.5418     0.1153     0.1398     2.4038
  474.5000   -22.8617    16.0933    13.5317    18.8649     7.9583    82.8931     0.1169     0.1378     2.4129
  475.0000   -22.2724    16.3129    13.9069    18.0907     7.9272    82.4046     0.1076     0.1442     2.4137
  475.5000   -21.6831    16.9990    14.1948    18.3366     7.8806    81.4566     0.1076     0.1469     2.4013
