~VERSION INFORMATION
 VERS.                2.0:   CWLS LOG ASCII STANDARD - VERSION 2.0
 WRAP.                 NO:   ONE LINE PER DEPTH STEP
~WELL INFORMATION
#MNEM.UNIT      DATA TYPE    INFORMATION
#----------   ------------   ------------------------------
 STRT.F           20.0000:   START DEPTH
 STOP.F          436.5000:   STOP DEPTH
 STEP.F            0.5000:   STEP LENGTH
 NULL.          -999.2500:   NO VALUE
 COMP. FENIX & SCISSON INC:   COMPANY
 WELL. NPR 3 SX-10 #55-10:   WELL
 FLD .        YEAPOT DOME:   FIELD
 LOC .      S10 T38N R78W:   LOCATION
 CNTY.            NATRONA:   COUNTY
 STAT.            WYOMING:   STATE
 CTRY. UNITED STATES OF AMERICA:   COUNTRY
 SRVC.           BIRDWELL:   SERVICE COMPANY
 DATE.        06-JUN-1978:   LOGDATE
 API .       490251062900:   API NUMBER
~CURVE INFORMATION
#MNEM.UNIT       API CODE    CURVE DESCRIPTION
#----------   ------------   ------------------------------
 DEPT.F                  :   
 GRD .GAPI   45 310 01 00:   GAMMA RAY FROM DENSITY LOG
 CALD.IN     45 280 60 00:   CALIPER FROM DENSITY LOG
 RHOB.G/C3   45 350 01 00:   BULK DENSITY
 DPHI.DEC    45 890 12 00:   DENSITY POROSITY SANDSTONE
 CORR.G/C3   45 356 01 00:   DENSITY CORRECTION
 SPR .MV     05 010 01 00:   SPONTANEOUS POTENTIAL FROM RES.
 SN  .OHMM   05 040 16 00:   SHORT NORMAL 16"
 ILD .OHMM   05 120 46 00:   INDUCTION LOG DEEP
~PARAMETER INFORMATION
#MNEM.UNIT          VALUE    DESCRIPTION
#----------   ------------   ------------------------------
 PD  .                 GL:   PERMANENT DATUM
 EPD .F              5202:   ELEVATION PERMANENT DATUM
 LMF .                 KB:   LOG MEASURED FROM
 DAPD.F                 4:   FEET ABOVE PERMANENT DATUM
 DMF .                 KB:   DRILLING MEASURED FROM
 EKB .F              5206:   KELLING BUSHING
 EGL .F              5202:   GROUND LEVEL
 DATE.             6-6-78:   RUN DATE
 RUN .                  1:   RUN NUMBER
 DD  .F               425:   DEPTH DRILLER
 DL  .F               436:   DEPTH LOGGER
 BLI .F               432:   BOTTOM LOG INTERVAL
 TLI .F                40:   TOP LOG INTERVAL
 CS  .IN            8.625:   CASING SIZE
 CBD .F                40:   CASING BOTTOM DRILLER
 CBL .F                40:   CASING BOTTOM LOGGER
 BS  .IN            7.875:   BIT SIZE
 BSD .F               425:   BIT SIZE AT DEPTH
 DFT .            KCL/OIL:   DRILLING FLUID TYPE
 DFD .                8.6:   DRILLING FLUID DENSITY
 DFV .                 34:   DRILLING FLUID VISCOSITY
 DFPH.                 10:   DRILLING FLUID PH
 DFL .                7.6:   DRILLING FLUID LOSS
 MSS .                PIT:   MUD SAMPLE SOURCE
 TCS .HRS               4:   TIME CURCULATED STOPPED
 LUN .               2958:   LOGGING UNIT NUMBER
 LUL .               CASP:   LOGGING UNIT LOCATION
 ENGI.            POINTER:   RECORDING ENGINEER
 WITN.           MCGINLEY:   WITNESSED BY
 CLNT.            A2DTECH:   CLIENT CODE
 ORIG. 1", 2", 2.5", 5" PRINT:   ORIGIN OF DATA
 UWI .       490251062900:   UNIQUE WELL ID
 DICO. A2D Technologies, Inc.:   DIGITIZING COMPANY
~OTHER INFORMATION
~A   DEPT       GRD      CALD       RHOB       DPHI       CORR        SPR         SN        ILD   
   20.0000    83.8492  -999.2500  -999.2500  -999.2500  -999.2500  -999.2500  -999.2500  -999.2500
   20.5000    83.8492  -999.2500  -999.2500  -999.2500  -999.2500  -999.2500  -999.2500  -999.2500
   21.0000    83.8492  -999.2500  -999.2500  -999.2500  -999.2500  -999.2500  -999.2500  -999.2500
   21.5000    83.8492  -999.2500  -999.2500  -999.2500  -999.2500  -999.2500  -999.2500  -999.2500
   22.0000    83.8492  -999.2500  -999.2500  -999.2500  -999.2500  -999.2500  -999.2500  -999.2500
   22.5000    83.8492  -999.2500  -999.2500  -999.2500  -999.2500  -999.2500  -999.2500  -999.2500
   23.0000    83.8492  -999.2500  -999.2500  -999.2500  -999.2500  -999.2500  -999.2500  -999.2500
   23.5000    83.9113  -999.2500  -999.2500  -999.2500  -999.2500  -999.2500  -999.2500  -999.2500
   24.0000    83.8677  -999.2500  -999.2500  -999.2500  -999.2500  -999.2500  -999.2500  -999.2500
   24.5000    84.0165  -999.2500  -999.2500  -999.2500  -999.2500  -999.2500  -999.2500  -999.2500
   25.0000    85.6226  -999.2500  -999.2500  -999.2500  -999.2500  -999.2500  -999.2500  -999.2500
   25.5000    86.0723  -999.2500  -999.2500  -999.2500  -999.2500  -999.2500  -999.2500  -999.2500
   26.0000    86.6615  -999.2500  -999.2500  -999.2500  -999.2500  -999.2500  -999.2500  -999.2500
   26.5000    87.2054  -999.2500  -999.2500  -999.2500  -999.2500  -999.2500  -999.2500  -999.2500
   27.0000    87.3294  -999.2500  -999.2500  -999.2500  -999.2500  -999.2500  -999.2500  -999.2500
   27.5000    87.0879  -999.2500  -999.2500  -999.2500  -999.2500  -999.2500  -999.2500  -999.2500
   28.0000    86.8739  -999.2500  -999.2500  -999.2500  -999.2500  -999.2500  -999.2500  -999.2500
   28.5000    86.6266  -999.2500  -999.2500  -999.2500  -999.2500  -999.2500  -999.2500  -999.2500
   29.0000    86.0065  -999.2500  -999.2500  -999.2500  -999.2500  -999.2500  -999.2500  -999.2500
   29.5000    85.2363  -999.2500  -999.2500  -999.2500  -999.2500  -999.2500  -999.2500  -999.2500
   30.0000    85.2661  -999.2500  -999.2500  -999.2500  -999.2500  -999.2500  -999.2500  -999.2500
   30.5000    85.5818  -999.2500  -999.2500  -999.2500  -999.2500  -999.2500  -999.2500  -999.2500
   31.0000    86.2233  -999.2500  -999.2500  -999.2500  -999.2500  -999.2500  -999.2500  -999.2500
   31.5000    87.6977  -999.2500  -999.2500  -999.2500  -999.2500  -999.2500  -999.2500  -999.2500
   32.0000    89.0715  -999.2500  -999.2500  -999.2500  -999.2500  -999.2500  -999.2500  -999.2500
   32.5000    90.5334  -999.2500  -999.2500  -999.2500  -999.2500  -999.2500  -999.2500  -999.2500
   33.0000    91.0752  -999.2500  -999.2500  -999.2500  -999.2500  -999.2500  -999.2500  -999.2500
   33.5000    91.4051  -999.2500  -999.2500  -999.2500  -999.2500  -999.2500  -999.2500  -999.2500
   34.0000    93.6749  -999.2500  -999.2500  -999.2500  -999.2500  -999.2500  -999.2500  -999.2500
   34.5000    98.1332     7.5675  -999.2500  -999.2500  -999.2500  -999.2500  -999.2500  -999.2500
   35.0000   102.0563     7.5675  -999.2500  -999.2500     0.2022  -999.2500  -999.2500  -999.2500
   35.5000   106.1014     7.6121     2.4093     0.1765     0.1699  -999.2500  -999.2500  -999.2500
   36.0000   110.1162     7.7847     2.3781     0.1934     0.1272  -999.2500  -999.2500  -999.2500
   36.5000   114.0834     7.9573     2.3469     0.2093     0.0840  -999.2500  -999.2500  -999.2500
   37.0000   118.3273     8.1300     2.2800     0.2223     0.0319  -999.2500  -999.2500  -999.2500
   37.5000   120.8297     8.2817     2.1844     0.2660    -0.0227  -999.2500  -999.2500  -999.2500
   38.0000   121.3077     8.2218     2.1829     0.2980     0.0957  -999.2500  -999.2500  -999.2500
   38.5000   122.0471     8.0909     2.3148     0.1663     0.0885  -999.2500  -999.2500  -999.2500
   39.0000   122.3301     7.9761     2.4145     0.1712     0.0339  -999.2500  -999.2500  -999.2500
   39.5000   121.1227     7.8615     2.4038     0.1676     0.0329  -999.2500  -999.2500  -999.2500
   40.0000   121.2332     7.7430     2.4017     0.1702     0.0336  -999.2500  -999.2500     3.7586
   40.5000   122.5483     7.6276     2.3923     0.1750     0.0336  -999.2500  -999.2500     3.7690
   41.0000   123.1819     7.5108     2.3821     0.1801     0.0343  -999.2500  -999.2500     3.7838
   41.5000   122.9849     7.3939     2.3737     0.1852     0.0346  -999.2500  -999.2500     3.8029
   42.0000   122.9311     7.2784     2.3652     0.1903     0.0351  -999.2500  -999.2500     3.8105
   42.5000   122.7032     7.1604     2.3564     0.1955     0.0354  -999.2500  -999.2500     3.8255
   43.0000   123.3962     7.0448     2.3583     0.1963     0.0358  -999.2500  -999.2500     3.8405
   43.5000   124.1906     6.9392     2.3651     0.1904     0.0364  -999.2500  -999.2500     3.8556
   44.0000   124.9807     6.9353     2.3803     0.1827     0.0352  -999.2500  -999.2500     3.8708
   44.5000   125.7096     7.0175     2.3949     0.1750     0.0325  -999.2500  -999.2500     3.8860
   45.0000   126.4912     7.1316     2.4100     0.1673     0.0298  -999.2500  -999.2500     3.9012
   45.5000   126.9837     7.2416     2.4221     0.1584     0.0273  -999.2500  -999.2500     3.9165
   46.0000   126.8105     7.3513     2.4265     0.1560     0.0250  -999.2500  -999.2500     3.9319
   46.5000   126.0892     7.4671     2.4311     0.1531     0.0289  -999.2500  -999.2500     3.9474
   47.0000   125.3665     7.5651     2.4355     0.1502     0.0329  -999.2500  -999.2500     3.9629
   47.5000   125.3336     7.6472     2.4399     0.1477     0.0363  -999.2500  -999.2500     3.9784
   48.0000   125.8090     7.7298     2.4445     0.1453     0.0352  -999.2500  -999.2500     3.9941
   48.5000   126.2674     7.7984     2.4458     0.1439     0.0342  -999.2500  -999.2500     4.0097
   49.0000   126.6649     7.7365     2.4471     0.1434     0.0331  -999.2500  -999.2500     4.0255
   49.5000   127.0186     7.6803     2.4483     0.1429     0.0321  -999.2500  -999.2500     4.0411
   50.0000   125.9572     7.6169     2.4494     0.1424     0.0310  -999.2500  -999.2500     4.1208
   50.5000   124.9066     7.5570     2.4505     0.1418     0.0300  -999.2500  -999.2500     4.2304
   51.0000   123.7990     7.4985     2.4479     0.1438     0.0289  -999.2500  -999.2500     4.3429
   51.5000   122.7034     7.4325     2.4452     0.1473     0.0301  -999.2500  -999.2500     4.4584
   52.0000   121.6377     7.4073     2.4429     0.1473     0.0320  -999.2500  -999.2500     4.5768
   52.5000   120.5450     7.4151     2.4428     0.1473     0.0355  -999.2500  -999.2500     4.6985
   53.0000   119.4122     7.4555     2.4424     0.1473     0.0395  -999.2500  -999.2500     4.8233
   53.5000   118.9840     7.6130     2.4369     0.1508     0.0437  -999.2500  -999.2500     4.9515
   54.0000   119.4727     7.8176     2.4317     0.1539     0.0475  -999.2500  -999.2500     5.0831
   54.5000   119.8864     8.0291     2.4264     0.1570     0.0520  -999.2500  -999.2500     5.1431
   55.0000   118.7305     8.0562     2.4213     0.1602     0.0533  -999.2500  -999.2500     5.1471
   55.5000   117.1385     8.0857     2.4160     0.1633     0.0545  -999.2500  -999.2500     5.1511
   56.0000   116.7938     8.0643     2.4102     0.1664     0.0558  -999.2500  -999.2500     5.1551
   56.5000   118.2019     8.0463     2.3920     0.1696     0.0562  -999.2500  -999.2500     5.1591
   57.0000   119.4146     7.9104     2.3668     0.1852     0.0559  -999.2500  -999.2500     5.1631
   57.5000   120.6767     7.7400     2.3433     0.2041     0.0493  -999.2500  -999.2500     5.1672
   58.0000   121.9136     7.5626     2.3188     0.2230     0.0426  -999.2500  -999.2500     5.1712
   58.5000   123.1888     7.4588     2.2955     0.2396     0.0371  -999.2500  -999.2500     5.1752
   59.0000   123.2007     7.4131     2.2717     0.2445     0.0428  -999.2500  -999.2500     5.1792
   59.5000   122.6942     7.3956     2.2676     0.2483     0.0477  -999.2500  -999.2500     5.1834
   60.0000   121.8423     7.3818     2.2937     0.2262     0.0538  -999.2500  -999.2500     5.1873
