~VERSION INFORMATION
 VERS.                2.0:   CWLS LOG ASCII STANDARD - VERSION 2.0
 WRAP.                 NO:   ONE LINE PER DEPTH STEP
~WELL INFORMATION
#MNEM.UNIT      DATA TYPE    INFORMATION
#----------   ------------   ------------------------------
 STRT.F           32.0000:   START DEPTH
 STOP.F          707.0000:   STOP DEPTH
 STEP.F            0.5000:   STEP LENGTH
 NULL.          -999.2500:   NO VALUE
 COMP. FENIX & SCISSON INC:   COMPANY
 WELL.     NPR 3 #28SX-11:   WELL
 FLD .             TEAPOT:   FIELD
 LOC .      S11 T38N R78W:   LOCATION
 CNTY.            NATRONA:   COUNTY
 STAT.            WYOMING:   STATE
 CTRY. UNITED STATES OF AMERICA:   COUNTRY
 SRVC.              Welex:   SERVICE COMPANY
 DATE.        26-APR-1977:   LOGDATE
 API .       490251034400:   API NUMBER
~CURVE INFORMATION
#MNEM.UNIT       API CODE    CURVE DESCRIPTION
#----------   ------------   ------------------------------
 DEPT.F                  :   
 CALD.IN     45 280 60 00:   CALIPER FROM DENSITY LOG
 GRD .GAPI   45 310 01 00:   GAMMA RAY FROM DENSITY LOG
 CORR.G/C3   45 356 01 00:   DENSITY CORRECTION
 DPHI.DEC    45 890 12 00:   DENSITY POROSITY SANDSTONE
 RHOB.G/C3   45 350 01 00:   BULK DENSITY
~PARAMETER INFORMATION
#MNEM.UNIT          VALUE    DESCRIPTION
#----------   ------------   ------------------------------
 PD  .                 GL:   PERMANENT DATUM
 EPD .F              5203:   ELEVATION PERMANENT DATUM
 LMF .                 GL:   LOG MEASURED FROM
 DMF .                 GL:   DRILLING MEASURED FROM
 EGL .F              5203:   GROUND LEVEL
 DATE.        26-APR-1977:   RUN DATE
 RUN .                  1:   RUN NUMBER
 DD  .F               714:   DEPTH DRILLER
 DL  .F               709:   DEPTH LOGGER
 BLI .F               707:   BOTTOM LOG INTERVAL
 TLI .F                32:   TOP LOG INTERVAL
 CS  .IN            8.625:   CASING SIZE
 BS  .IN               12:   BIT SIZE
 BSD .F               714:   BIT SIZE AT DEPTH
 DFT .            KCL MUD:   DRILLING FLUID TYPE
 DFD .                8.7:   DRILLING FLUID DENSITY
 TCS .HRS            0100:   TIME CURCULATED STOPPED
 MRT .F                74:   MAXIMUM RECORDED TEMPERATURE
 ENGI.            C. DOAK:   RECORDING ENGINEER
 WITN.           ROB LYON:   WITNESSED BY
 CLNT.            A2DTECH:   CLIENT CODE
 ORIG.           5" PRINT:   ORIGIN OF DATA
 UWI .       490251034400:   UNIQUE WELL ID
 DICO. A2D Technologies, Inc.:   DIGITIZING COMPANY
~OTHER INFORMATION
~A   DEPT       CALD      GRD        CORR      DPHI       RHOB   
# ...
  276.0000     7.9344   119.5163     0.0094     0.1338     2.4479
  276.5000     7.9344   121.4519     0.0111     0.1290     2.4557
  277.0000     7.9345   123.2396     0.0188     0.1209     2.4779
  277.5000     7.9345   124.2877     0.0250     0.1137     2.4877
  278.0000     7.9346   122.9688     0.0282     0.1125     2.4907
  278.5000     7.9346   120.7624     0.0223     0.1164     2.4736
  279.0000     7.9346   120.1801     0.0195     0.1271     2.4648
  279.5000     7.9347   123.1544     0.0182     0.1321     2.4581
  280.0000     7.9347   124.6462     0.0169     0.1324     2.4574
  280.5000     7.9348   123.9191     0.0155     0.1306     2.4612
  281.0000     7.9348   120.9731     0.0157     0.1270     2.4658
  281.5000     7.9349   117.7312     0.0174     0.1231     2.4725
  282.0000     7.9349   116.5572     0.0176     0.1210     2.4756
  282.5000     7.9350   118.9397     0.0178     0.1218     2.4675
  283.0000     7.9350   117.4730     0.0195     0.1236     2.4660
  283.5000     7.9351   116.1541     0.0211     0.1242     2.4765
  284.0000     7.9351   118.3856     0.0213     0.1229     2.4788
  284.5000     7.9351   121.3567     0.0230     0.1211     2.4752
  285.0000     7.9352   123.7361     0.0247     0.1148     2.4842
  285.5000     7.9352   119.6067     0.0309     0.1079     2.4947
  286.0000     7.9353   120.0630     0.0416     0.1064     2.5015
  286.5000     7.9353   124.3655     0.0343     0.1168     2.4881
  287.0000     7.9354   125.5615     0.0299     0.1198     2.4807
  287.5000     7.9354   126.9054     0.0316     0.1078     2.4793
  288.0000     7.9355   128.3972     0.0333     0.1006     2.4958
  288.5000     7.9355   129.4453     0.0350     0.0946     2.5108
  289.0000     7.9355   130.3454     0.0352     0.0919     2.5198
  289.5000     7.9356   131.0976     0.0339     0.0916     2.5213
  290.0000     7.9356   131.4028     0.0340     0.0999     2.5043
  290.5000     7.9357   127.4244     0.0342     0.1056     2.4976
  291.0000     7.9357   124.4784     0.0344     0.1038     2.4984
  291.5000     7.9358   122.8637     0.0346     0.1031     2.4985
  292.0000     7.9358   123.4680     0.0333     0.1034     2.4993
  292.5000     7.9359   123.7167     0.0274     0.1049     2.4971
  293.0000     7.9359   123.1553     0.0231     0.1069     2.4927
  293.5000     7.9359   125.5766     0.0217     0.1111     2.4861
  294.0000     7.9360   126.3288     0.0204     0.1176     2.4802
  294.5000     7.9360   126.5052     0.0206     0.1200     2.4750
  295.0000     7.9361   125.4663     0.0223     0.1170     2.4855
  295.5000     7.9361   123.2599     0.0240     0.1146     2.4931
  296.0000     7.9362   121.6452     0.0257     0.1136     2.4805
  296.5000     7.9362   120.3264     0.0258     0.1151     2.4783
  297.0000     7.9363   118.8597     0.0260     0.1175     2.4813
  297.5000     7.9363   117.6888     0.0277     0.1177     2.4836
  298.0000     7.9364   116.2220     0.0264     0.1162     2.4852
  298.5000     7.9364   114.6073     0.0266     0.1150     2.4868
  299.0000     7.9361   112.9927     0.0267     0.1147     2.4876
  299.5000     7.9358   111.5259     0.0254     0.1147     2.4891
  300.0000     7.9355   110.0592     0.0241     0.1149     2.4864
  300.5000     7.9346   112.7040     0.0220     0.1180     2.4785
  301.0000     7.9337   115.1163     0.0199     0.1211     2.4677
  301.5000     7.9329   116.9047     0.0186     0.1223     2.4700
  302.0000     7.9320   118.2493     0.0156     0.1193     2.4746
  302.5000     7.9311   119.2980     0.0144     0.1169     2.4814
  303.0000     7.9302   120.7906     0.0161     0.1142     2.4876
  303.5000     7.9293   122.2831     0.0178     0.1109     2.4942
  304.0000     7.9285   123.0360     0.0210     0.1085     2.4995
  304.5000     7.9276   118.9072     0.0257     0.1064     2.5025
  305.0000     7.9267   112.7074     0.0275     0.1045     2.4854
  305.5000     7.9258   109.4662     0.0271     0.1048     2.4705
  306.0000     7.9250   110.3670     0.0214     0.1185     2.4691
  306.5000     7.9241   113.1909     0.0172     0.1191     2.4834
  307.0000     7.9232   116.1627     0.0189     0.1127     2.4946
  307.5000     7.9223   117.8083     0.0206     0.1086     2.5036
  308.0000     7.9214   119.7635     0.0222     0.1167     2.4851
  308.5000     7.9206   121.5657     0.0224     0.1157     2.4769
  309.0000     7.9197   123.1944     0.0226     0.1075     2.4874
  309.5000     7.9188   123.9212     0.0230     0.1039     2.4972
  310.0000     7.9179   122.5443     0.0259     0.1007     2.5025
  310.5000     7.9170   120.9200     0.0291     0.0998     2.5055
  311.0000     7.9162   119.0945     0.0308     0.0998     2.5034
  311.5000     7.9153   115.5455     0.0310     0.1024     2.4870
  312.0000     7.9144   116.8901     0.0326     0.1146     2.4833
  312.5000     7.9135   119.4182     0.0298     0.1107     2.4946
  313.0000     7.9126   118.5438     0.0254     0.1080     2.4999
  313.5000     7.9118   116.9298     0.0226     0.1131     2.4880
  314.0000     7.9109   119.4579     0.0212     0.1211     2.4702
  314.5000     7.9100   120.8025     0.0183     0.1199     2.4718
  315.0000     7.9093   121.7033     0.0201     0.1181     2.4838
  315.5000     7.9096   118.9059     0.0308     0.1178     2.4905
  316.0000     7.9099   117.5844     0.0339     0.1234     2.4779
  316.5000     7.9101   120.2637     0.0266     0.1249     2.4683
  317.0000     7.9104   121.6083     0.0222     0.1183     2.4713
  317.5000     7.9106   119.9943     0.0194     0.1195     2.4744
  318.0000     7.9109   117.0490     0.0195     0.1227     2.4782
  318.5000     7.9111   115.5829     0.0212     0.1209     2.4820
  319.0000     7.9114   115.1524     0.0244     0.1170     2.4910
  319.5000     7.9116   114.1301     0.0276     0.1101     2.5052
  320.0000     7.9119   112.8120     0.0292     0.1155     2.4986
  320.5000     7.9121   112.2302     0.0309     0.1178     2.4852
  321.0000     7.9124   114.4657     0.0326     0.1160     2.4853
  321.5000     7.9126   115.6623     0.0388     0.1073     2.4913
  322.0000     7.9129   115.9714     0.0465     0.1007     2.5048
  322.5000     7.9132   114.3574     0.0512     0.0944     2.5161
  323.0000     7.9134   112.0038     0.0498     0.0923     2.5199
  323.5000     7.9137   110.5378     0.0424     0.0923     2.4998
  324.0000     7.9139   109.2196     0.0336     0.0971     2.4917
  324.5000     7.9142   107.3098     0.0292     0.1126     2.4835
  325.0000     7.9144   105.4000     0.0278     0.1176     2.4858
  325.5000     7.9147   104.0818     0.0265     0.1209     2.4822
  326.0000     7.9149   104.2430     0.0282     0.1229     2.4747
  326.5000     7.9152   106.6231     0.0284     0.1244     2.4689
  327.0000     7.9154   108.8553     0.0300     0.1253     2.4675
  327.5000     7.9157   112.2709     0.0317     0.1203     2.4798
  328.0000     7.9159   115.3906     0.0334     0.1168     2.4855
  328.5000     7.9162   113.1849     0.0336     0.1198     2.4727
  329.0000     7.9165   109.6361     0.0337     0.1231     2.4722
  329.5000     7.9167   108.7735     0.0339     0.1198     2.4816
  330.0000     7.9170   110.7199     0.0341     0.1150     2.4895
  330.5000     7.9172   111.3284     0.0342     0.1129     2.4910
  331.0000     7.9175   111.7889     0.0359     0.1143     2.4814
  331.5000     7.9177   112.3975     0.0376     0.1194     2.4740
  332.0000     7.9180   112.0236     0.0407     0.1212     2.4726
  332.5000     7.9182   109.5118     0.0424     0.1161     2.4809
  333.0000     7.9185   107.3869     0.0441     0.1107     2.4906
  333.5000     7.9187   110.9537     0.0442     0.1062     2.4974
  334.0000     7.9190   113.1859     0.0414     0.1034     2.5020
  334.5000     7.9192   113.9355     0.0370     0.1025     2.4998
  335.0000     7.9195   110.8455     0.0312     0.1043     2.4857
  335.5000     7.9198   108.9357     0.0283     0.1156     2.4761
  336.0000     7.9200   106.8779     0.0255     0.1204     2.4716
  336.5000     7.9203   107.7787     0.0302     0.1189     2.4807
