~VERSION INFORMATION
 VERS.                2.0:   CWLS LOG ASCII STANDARD - VERSION 2.0
 WRAP.                 NO:   ONE LINE PER DEPTH STEP
~WELL INFORMATION
#MNEM.UNIT      DATA TYPE    INFORMATION
#----------   ------------   ------------------------------
 STRT.F           88.0000:   START DEPTH
 STOP.F          893.0000:   STOP DEPTH
 STEP.F            0.5000:   STEP LENGTH
 NULL.          -999.2500:   NO VALUE
 COMP.          U.S. NAVY:   COMPANY
 WELL. RES 3 TEAPOT DOM #24S-35:   WELL
 FLD .        TEAPOT DOME:   FIELD
 LOC .      S35 T39N R78W:   LOCATION
 CNTY.            NATRONA:   COUNTY
 STAT.            WYOMING:   STATE
 CTRY. UNITED STATES OF AMERICA:   COUNTRY
 SRVC.       Schlumberger:   SERVICE COMPANY
 DATE.        26-JUL-1963:   LOGDATE
 API .       490250654800:   API NUMBER
~CURVE INFORMATION
#MNEM.UNIT       API CODE    CURVE DESCRIPTION
#----------   ------------   ------------------------------
 DEPT.F                  :   
 CALS.IN     60 280 50 00:   CALIPER FROM SONIC LOG
 DT  .US/F   60 520 00 00:   INTERVAL TRANSIT TIME
 GR  .GAPI   30 310 01 00:   GAMMA RAY
 ASN .OHMM   05 041 16 00:   AMPLIFIED SHORT NORMAL 16"
 CILD.MMHO   05 110 46 00:   CONDUCTIVITY INDUCTION LOG DEEP
 ILD .OHMM   05 120 46 00:   INDUCTION LOG DEEP
 SPR .MV     05 010 01 00:   SPONTANEOUS POTENTIAL FROM RES.
~PARAMETER INFORMATION
#MNEM.UNIT          VALUE    DESCRIPTION
#----------   ------------   ------------------------------
 PD  .                 GL:   PERMANENT DATUM
 EPD .F              5116:   ELEVATION PERMANENT DATUM
 LMF .                 KB:   LOG MEASURED FROM
 DAPD.F                 5:   FEET ABOVE PERMANENT DATUM
 DMF .                 KB:   DRILLING MEASURED FROM
 EKB .F              5121:   KELLING BUSHING
 EGL .F              5116:   GROUND LEVEL
 DATE.        26-JUL-1963:   RUN DATE
 RUN .                  1:   RUN NUMBER
 DD  .F               900:   DEPTH DRILLER
 DL  .F               894:   DEPTH LOGGER
 BLI .F               893:   BOTTOM LOG INTERVAL
 TLI .F                88:   TOP LOG INTERVAL
 CBD .F                10:   CASING BOTTOM DRILLER
 BS  .IN             6.75:   BIT SIZE
 BSD .F               900:   BIT SIZE AT DEPTH
 DFT .            GEL-OIL:   DRILLING FLUID TYPE
 DFD .                9.5:   DRILLING FLUID DENSITY
 DFV .                 92:   DRILLING FLUID VISCOSITY
 DFPH.                9.5:   DRILLING FLUID PH
 DFL .                5.8:   DRILLING FLUID LOSS
 MSS .           FLOWLINE:   MUD SAMPLE SOURCE
 RMS .OHMM           4.05:   RESISTIVITY MUD SAMPLE
 MST .F                75:   MUD SAMPLE TEMPERATURE
 RMF .OHMM           3.91:   RESISTIVITY MUD FILTRATE SAMPLE
 MFST.F                75:   MUD FILTRATE SAMPLE TEMPERATURE
 RMC .OHMM           3.54:   RESISTIVITY MUD CAKE
 MCST.F                75:   MUD CAKE SAMPLE TEMPERATURE
 MFSS.               MEAS:   MUD FILTRATE SAMPLE SOURCE
 MCSS.               MEAS:   MUD CAKE SAMPLE SOURCE
 TCS .HRS             0.5:   TIME CURCULATED STOPPED
 LUN .               4507:   LOGGING UNIT NUMBER
 LUL .               CSPR:   LOGGING UNIT LOCATION
 ENGI.             KNOBEL:   RECORDING ENGINEER
 WITN.          JORGENSON:   WITNESSED BY
 CLNT.            A2DTECH:   CLIENT CODE
 ORIG.           5" PRINT:   ORIGIN OF DATA
 UWI .       490250654800:   UNIQUE WELL ID
 DICO. A2D Technologies, Inc.:   DIGITIZING COMPANY
~OTHER INFORMATION
~A   DEPT     CALS         DT         GR          ASN      CILD         ILD      SPR   
# ...
  770.5000     6.9637   101.9380    78.2111     6.6239   180.7556     5.5998   -10.0415
  771.0000     6.9638   100.5780    79.3020     6.9394   173.1898     5.8958   -10.0528
  771.5000     6.9640   100.3501    79.9234     7.5571   165.6240     6.1929   -10.0641
  772.0000     6.9794   100.1222    78.5978     7.8272   159.5757     6.4889   -10.0759
  772.5000     6.9795    99.8188    75.5312     8.0066   154.8430     6.7106   -10.2376
  773.0000     6.9797    99.5155    73.0238     8.1255   150.5139     7.0065   -10.4015
  773.5000     6.9646    99.1255    76.1480     8.2439   148.2592     7.0784   -10.7138
  774.0000     6.9648    98.6702    74.8914     8.3174   147.5266     7.2245   -10.8753
  774.5000     6.9497    98.1522    69.8790     8.3607   146.7901     7.2968   -11.1878
  775.0000     6.9499    97.6979    70.6569     8.4039   146.0528     7.4388   -11.0474
  775.5000     6.9500    97.5454    73.1562     8.4618   144.5569     7.3583   -11.0607
  776.0000     6.9350    97.0911    74.5601     8.5202   143.0609     7.3534   -10.9178
  776.5000     6.9351    96.4859    70.6431     8.5937   140.0528     7.3472   -10.6295
  777.0000     6.9201    95.7297    70.8034     8.6678   138.5568     7.3423   -10.3384
  777.5000     6.9050    96.1810    73.3879     8.7856   137.0609     7.3374   -10.0501
  778.0000     6.9052    96.7833    71.7236     8.8893   137.0877     7.4835    -9.6082
  778.5000     6.9053    97.2347    70.7812     8.9634   138.6267     7.4773    -9.1506
  779.0000     6.9055    97.6881    76.0963     8.9292   140.1709     7.4724    -8.5764
  779.5000     6.9056    98.3139    77.8131     8.8673   139.4337     7.5431    -8.2827
  780.0000     6.9093    99.4940    76.5566     8.7895   138.6964     7.6136    -7.8435
  780.5000     6.9211    99.4171    72.9538     8.7269   138.3485     7.6075    -7.7033
  781.0000     6.9365    97.9817    75.1389     8.6793   137.1422     7.7548    -7.7166
  781.5000     6.9518    96.1689    72.4739     8.7523   134.9726     7.8242    -8.0289
  782.0000     6.9671    94.6579    62.6102     8.9317   131.2004     7.8948    -8.4920
  782.5000     6.8457    93.6753    61.8127     9.0960   132.7394     7.5865    -8.6941
  783.0000     6.7851    92.9946    64.0261     9.2900   141.8709     7.0488    -9.2701
  783.5000     6.7241    93.8988    60.2737     9.3792   154.0320     6.2915    -9.8841
  784.0000     6.6638    96.0860    57.2710     9.4073   169.9867     5.7578   -10.1964
  784.5000     6.6640   101.8958    63.8380     9.0416   183.6652     5.4508   -10.0344
  785.0000     6.6793   103.9321    70.7192     8.0707   190.5159     5.4446    -9.7678
  785.5000     6.6643   103.7797    73.8445     6.9490   188.2659     5.4397    -9.7784
  786.0000     6.6492   104.0046    74.7789     6.8567   186.0112     5.4348    -9.9399
  786.5000     6.6190   103.6254    79.4691     6.9297   186.0327     5.4299    -9.9532
  787.0000     6.6192    96.6805    83.5334     6.8670   184.4665     5.7258    -9.8104
  787.5000     6.6193    94.3394    84.7807     7.3182   172.4239     6.3251    -9.6702
  788.0000     6.6195    94.8663    76.1689     8.3599   152.7185     7.0755    -9.6835
  788.5000     6.6196    95.1667    59.0973     9.6072   137.5655     7.9757    -9.5433
  789.0000     6.6502    95.1652    55.9280     9.7832   125.2454     8.5750    -9.5566
  789.5000     6.6655    95.0882    57.0597     9.9592   111.8171     9.0232    -9.5672
  790.0000     6.6819    94.9358    62.2214    10.1351   109.5571     9.0181    -9.4268
  790.5000     6.7963    94.7819    63.3122    10.3111   113.3775     9.0121    -9.4403
  791.0000     6.9091    94.6310    64.2466    10.4039   114.9165     8.9317    -9.4510
  791.5000     6.9549    95.0065    65.1821    10.4774   113.4259     8.8512    -9.6124
  792.0000     6.9702    95.2318    62.0465    10.6261   111.9299     8.9206    -9.6231
  792.5000     6.9704    95.1545    60.7900    10.8509   109.6752     8.9924    -9.4829
  793.0000     6.9705    95.0775    59.5334    11.1553   105.9030     9.3639    -9.4947
  793.5000     6.9707    94.7742    58.2769    11.9051    99.8601    10.0375    -9.5068
  794.0000     6.9708    94.3953    57.0203    12.5837    94.5705    10.7879    -9.8191
  794.5000     6.9710    95.5259    55.2649    13.2624    88.5221    11.6138   -10.1341
  795.0000     6.9863    99.7509    53.3699    14.1830    83.2325    12.1475   -11.0497
  795.5000     6.9865   103.4475    48.3982    15.2999    74.1547    13.3398   -11.9653
  796.0000     6.9714   106.6158    43.2293    16.2812    67.3476    14.3168   -13.6351
  796.5000     6.9331   112.2141    34.3045    18.3970    64.3342    15.3693   -17.4191
  797.0000     6.5766   116.8810    29.2920    20.8557    61.3208    16.4960   -20.1447
  797.5000     6.5463   118.8378    24.5926    21.6449    59.0661    16.9455   -23.7752
  798.0000     6.4857   118.5345    11.4425    22.0210    57.5701    17.1659   -26.9533
  798.5000     6.5163   117.6269     8.3080    22.4727    56.0741    17.4721   -28.6257
  799.0000     6.6684   115.2859     6.7385    23.0978    56.1009    17.8359   -29.2397
  799.5000     6.6990   110.9825     6.8905    24.1321    55.3637    18.2073   -29.5520
  800.0000     6.7295   110.0755     8.2942    24.8864    54.6288    18.4290   -29.7134
  800.5000     6.7293   110.7547     7.6521    25.0369    54.6360    19.1852   -28.8031
  801.0000     6.7140   110.4528     7.8707    25.1875    53.8845    19.4880   -28.1955
  801.5000     6.6530   109.2453    10.9447    25.3381    53.8935    19.7909   -27.2862
  802.0000     6.6073   112.8679    12.1943    25.7912    54.6595    19.8671   -26.3769
  802.5000     6.5616   118.7634    11.7210    27.3033    54.6667    19.7923   -27.1719
  803.0000     6.5614   119.7358    13.4394    30.0256    49.3628    19.7175   -28.9314
  803.5000     6.6068   117.9645    11.4019    31.3108    50.1290    19.7360   -30.2846
  804.0000     6.5915   118.4528    12.8073    32.2934    49.3772    19.7946   -30.7338
  804.5000     6.5609   119.5849    15.6219    32.9735    49.3862    19.8709   -30.7285
  805.0000     6.5456   118.5283    14.0531    32.8971    49.3934    20.0982   -31.3264
  805.5000     6.5302   115.2830    13.8935    32.7449    47.8832    20.4012   -32.8304
  806.0000     6.5453   112.0377    10.6041    32.7442    46.3748    20.7040   -31.3179
  806.5000     6.5299   112.1887    10.2879    32.4409    46.3820    21.0824   -29.8053
  807.0000     6.5450   111.1321    10.2848    31.8351    46.3892    21.3852   -31.3455
  807.5000     6.6056   109.2453     9.0292    31.9100    47.9138    21.4615   -32.5106
  808.0000     6.6055   107.1321     6.3657    31.9849    47.9211    21.6134   -33.1096
  808.5000     6.6357   107.7358     3.3900    31.3032    47.9301    21.6897   -33.5578
  809.0000     6.6660   112.8679     7.7680    29.7140    47.9373    21.6904   -34.3077
  809.5000     6.5728   116.1887     4.7915    28.2004    48.7032    21.6911   -33.3973
  810.0000     6.5288   115.3585     5.7274    27.1407    49.4691    21.1633   -30.6781
  810.5000     6.5135   115.8868     9.9497    26.1564    50.9939    20.4087   -30.3721
  811.0000     6.5285   115.4340    14.6415    25.2480    52.5203    19.8807   -31.5745
  811.5000     6.5436   114.1509    20.1157    25.2473    54.8036    19.3528   -33.5580
  812.0000     6.5131   112.6364    23.2426    24.9440    55.5696    18.9728   -34.7333
  812.5000     6.4673   111.6352    21.8049    23.9599    55.5135    18.6746   -33.9738
  813.0000     6.4064   109.8203    20.8890    22.5974    55.5842    18.4487   -33.6679
  813.5000     6.3606   106.7547    25.8930    22.5211    55.5930    18.2984   -34.5686
  814.0000     6.4821   102.9057    30.2718    22.2178    56.3589    18.0725   -35.4692
  814.5000     6.6035    99.1321    33.3994    21.6876    57.1249    17.9154   -35.3131
  815.0000     6.7249    96.6415    27.4488    21.2330    57.8908    17.2433   -33.6496
  815.5000     6.7248    94.8302    26.9762    20.4756    58.6585    16.6398   -29.8746
