~VERSION INFORMATION
 VERS.                2.0:   CWLS LOG ASCII STANDARD - VERSION 2.0
 WRAP.                 NO:   ONE LINE PER DEPTH STEP
~WELL INFORMATION
#MNEM.UNIT      DATA TYPE    INFORMATION
#----------   ------------   ------------------------------
 STRT.F           12.5000:   START DEPTH
 STOP.F          688.0000:   STOP DEPTH
 STEP.F            0.5000:   STEP LENGTH
 NULL.          -999.2500:   NO VALUE
 COMP. FENIX & SCISSON INC:   COMPANY
 WELL. 26-66 SX 11 WO #26-11:   WELL
 FLD .             TEAPOT:   FIELD
 LOC .      S11 T38N R78W:   LOCATION
 CNTY.            NATRONA:   COUNTY
 STAT.            WYOMING:   STATE
 CTRY. UNITED STATES OF AMERICA:   COUNTRY
 SRVC.      Dresser Atlas:   SERVICE COMPANY
 DATE.        28-AUG-1980:   LOGDATE
 API .       490251084700:   API NUMBER
~CURVE INFORMATION
#MNEM.UNIT       API CODE    CURVE DESCRIPTION
#----------   ------------   ------------------------------
 DEPT.F                  :   
 SFL .OHMM   07 220 01 00:   SHALLOW FOCUSED LOG RESISTIVITY
 ILD .OHMM   07 120 46 00:   INDUCTION LOG DEEP
 ILM .OHMM   07 120 44 00:   INDUCTION LOG MEDIUM
 SPR .MV     07 010 01 00:   SPONTANEOUS POTENTIAL
 CORR.G/C3   45 356 01 00:   DENSITY CORRECTION
 RHOB.G/C3   45 350 01 00:   BULK DENSITY
 DPOR.DEC    45 890 12 00:   DENSITY POROSITY SANDSTONE
 NPOR.DEC    42 890 03 00:   NEUTRON POROSITY SANDSTONE
 GRD .GAPI   45 310 01 00:   GAMMA RAY FROM DENSITY LOG
~PARAMETER INFORMATION
#MNEM.UNIT          VALUE    DESCRIPTION
#----------   ------------   ------------------------------
 PD  .                 GL:   PERMANENT DATUM
 EPD .F              5194:   ELEVATION PERMANENT DATUM
 LMF .                 KB:   LOG MEASURED FROM
 DAPD.F                 5:   FEET ABOVE PERMANENT DATUM
 DMF .                 KB:   DRILLING MEASURED FROM
 EKB .F              5199:   KELLING BUSHING
 EGL .F              5194:   GROUND LEVEL
 DATE.          8-28-1980:   RUN DATE
 RUN .                  1:   RUN NUMBER
 DD  .F               700:   DEPTH DRILLER
 DL  .F               689:   DEPTH LOGGER
 BLI .F               688:   BOTTOM LOG INTERVAL
 TLI .F                14:   TOP LOG INTERVAL
 BS  .IN             8.75:   BIT SIZE
 BSD .F               700:   BIT SIZE AT DEPTH
 DFT .                KCL:   DRILLING FLUID TYPE
 DFD .                8.8:   DRILLING FLUID DENSITY
 DFV .                 55:   DRILLING FLUID VISCOSITY
 DFPH.                 11:   DRILLING FLUID PH
 DFL .                  8:   DRILLING FLUID LOSS
 MSS .           FLOWLINE:   MUD SAMPLE SOURCE
 RMS .OHMM            .72:   RESISTIVITY MUD SAMPLE
 MST .F                66:   MUD SAMPLE TEMPERATURE
 RMF .OHMM            .21:   RESISTIVITY MUD FILTRATE SAMPLE
 MFST.F                66:   MUD FILTRATE SAMPLE TEMPERATURE
 RMC .OHMM           1.24:   RESISTIVITY MUD CAKE
 MCST.F                66:   MUD CAKE SAMPLE TEMPERATURE
 MFSS.               MEAS:   MUD FILTRATE SAMPLE SOURCE
 MCSS.               MEAS:   MUD CAKE SAMPLE SOURCE
 BHT .F               100:   BOTTOM HOLE TEMPERATURE
 TCS .HRS               2:   TIME CURCULATED STOPPED
 MRT .F               100:   MAXIMUM RECORDED TEMPERATURE
 LUN .               6240:   LOGGING UNIT NUMBER
 LUL .               RYTN:   LOGGING UNIT LOCATION
 ENGI.           J. GETTY:   RECORDING ENGINEER
 WITN.              FIVAS:   WITNESSED BY
 CLNT.            A2DTECH:   CLIENT CODE
 ORIG.      1" 2.5" PRINT:   ORIGIN OF DATA
 UWI .       490251084700:   UNIQUE WELL ID
 DICO. A2D Technologies, Inc.:   DIGITIZING COMPANY
~OTHER INFORMATION
~A   DEPT      SFL        ILD        ILM        SPR       CORR       RHOB       DPOR         NPOR      GRD   
# ...
  414.0000     7.8208     5.8032     6.2085   -70.2412     0.0302     2.4495     0.1371     0.3298   138.3830
  414.5000     7.9137     5.6339     6.0112   -70.9787     0.0376     2.4438     0.1390     0.3179   139.8748
  415.0000     8.0661     5.4695     5.8201   -71.7086     0.0447     2.4345     0.1437     0.3131   140.8615
  415.5000     7.6796     5.3099     5.6351   -72.4418     0.0515     2.4284     0.1473     0.3338   140.4138
  416.0000     6.7578     5.1550     5.4559   -72.6958     0.0458     2.4263     0.1490     0.3615   137.9536
  416.5000     5.9466     4.9820     5.2825   -72.5368     0.0399     2.4241     0.1507     0.3559   136.4254
  417.0000     5.0752     4.9177     5.1146   -72.3936     0.0333     2.4216     0.1514     0.3421   137.3783
  417.5000     5.2596     4.8444     5.0740   -72.2658     0.0271     2.4192     0.1538     0.3282   139.9911
  418.0000     5.7782     4.7703     5.0737   -72.1304     0.0209     2.4262     0.1482     0.3115   141.5954
  418.5000     5.8725     4.7136     5.1781   -71.9939     0.0142     2.4345     0.1434     0.3233   141.7948
  419.0000     5.9735     4.7134     5.3611   -71.8600     0.0123     2.4304     0.1469     0.3380   142.1253
  419.5000     6.1897     4.8761     5.5508   -71.7254     0.0086     2.4260     0.1490     0.3528   142.4842
  420.0000     6.4561     5.0945     5.7473   -71.5902     0.0098     2.4556     0.1323     0.3403   141.4459
  420.5000     6.4978     5.3228     5.9508   -71.4549     0.0224     2.4946     0.1057     0.3187   139.9353
  421.0000     6.5407     5.5615     6.1614   -71.3196     0.0583     2.5386     0.0837     0.3207   138.5150
  421.5000     6.5807     5.8111     6.3789   -71.1846     0.0594     2.5331     0.0902     0.3242   138.6104
  422.0000     7.0340     6.0719     6.6041   -71.0497     0.0594     2.5013     0.1100     0.3187   142.1426
  422.5000     7.4873     6.3444     6.8374   -70.9139     0.0406     2.4934     0.1076     0.3096   142.0943
  423.0000     8.0645     6.5807     7.0789   -70.7788     0.0445     2.4987     0.1028     0.3034   139.6960
  423.5000     8.0554     6.8207     7.2719   -70.6458     0.0423     2.5007     0.1159     0.2991   137.6142
  424.0000     8.0293     7.0332     7.3969   -70.5080     0.0269     2.4503     0.1363     0.2932   135.5422
  424.5000     8.0036     7.2520     7.5241   -70.3653     0.0100     2.4567     0.1307     0.2948   135.3657
  425.0000     7.9783     7.3481     7.6517   -70.2957     0.0342     2.4739     0.1139     0.2986   136.3689
  425.5000     7.9531     7.3163     7.7702   -70.3448     0.0568     2.4860     0.1139     0.3021   138.2133
  426.0000     7.9280     7.2847     7.5860   -70.3876     0.0368     2.4639     0.1247     0.3191   137.7037
  426.5000     7.8541     7.2533     7.4219   -70.4275     0.0096     2.4408     0.1426     0.3472   137.0254
  427.0000     7.7543     7.2171     7.2614   -70.4704     0.0142     2.4320     0.1459     0.3399   136.3073
  427.5000     7.6557     7.0207     7.1045   -70.5117     0.0150     2.4216     0.1512     0.3277   138.3731
  428.0000     7.5574     6.7922     6.9507   -70.5525     0.0147     2.4112     0.1574     0.3175   142.2662
  428.5000     7.4614     6.5712     6.8001   -70.5995     0.0272     2.4283     0.1451     0.3171   139.0869
  429.0000     7.3523     6.3573     6.6532   -70.6373     0.0556     2.4954     0.1125     0.3324   142.1058
  429.5000     7.2206     6.1504     6.5089   -70.6606     0.0875     2.5488     0.0771     0.3477   145.5415
  430.0000     7.0684     5.9502     6.3678   -70.9430     0.0787     2.5437     0.0790     0.3599   148.1706
  430.5000     6.9193     5.8106     6.2228   -71.4437     0.0593     2.4570     0.1268     0.3688   149.1669
  431.0000     6.7734     5.5740     5.9279   -71.9257     0.0516     2.4328     0.1521     0.3791   147.6700
  431.5000     6.5603     5.3471     5.6323   -72.4086     0.0555     2.4016     0.1673     0.3913   145.7633
  432.0000     6.2866     5.1295     5.3515   -72.9105     0.0571     2.3748     0.1801     0.4060   145.1554
  432.5000     5.8591     4.9207     5.0847   -73.1733     0.0480     2.3875     0.1705     0.4060   145.6101
  433.0000     5.1558     4.7204     4.8906   -73.1541     0.0410     2.4260     0.1506     0.3914   145.7970
  433.5000     4.5412     4.5457     4.8906   -73.1517     0.0461     2.4652     0.1307     0.3769   140.5726
  434.0000     4.6261     4.4578     5.2386   -73.1338     0.0485     2.4929     0.1068     0.3559   135.4911
  434.5000     5.4106     4.6261     5.5608   -73.0882     0.0504     2.4969     0.1068     0.3441   132.2439
  435.0000     6.2677     4.9356     5.9027   -73.0439     0.0321     2.4807     0.1174     0.3294   133.7997
  435.5000     7.0848     5.2733     6.2656   -73.0019     0.0342     2.4632     0.1323     0.3146   136.5832
  436.0000     7.6299     5.6342     6.4798   -72.9590     0.0380     2.4548     0.1279     0.3028   141.1353
  436.5000     7.5747     6.0197     6.6590   -72.9173     0.0366     2.4733     0.1206     0.3083   146.2496
  437.0000     7.4213     6.4317     6.8445   -72.8725     0.0261     2.4810     0.1147     0.3153   151.4909
  437.5000     7.3523     6.8718     7.0342   -72.8264     0.0156     2.4573     0.1275     0.3204   160.7400
  438.0000     7.4053     6.9729     7.2291   -72.7932     0.0119     2.4405     0.1402     0.3234   157.1371
  438.5000     7.5228     6.9952     7.3545   -72.7645     0.0127     2.4455     0.1373     0.3274   144.5186
  439.0000     7.6421     7.0176     7.3742   -73.0833     0.0252     2.4564     0.1298     0.3274   142.9306
  439.5000     7.7633     7.0401     7.3936   -73.3726     0.0381     2.4729     0.1223     0.3210   139.1892
  440.0000     7.8865     7.0627     7.4129   -73.6707     0.0512     2.4860     0.1163     0.3151   140.3323
  440.5000     7.9180     7.0844     7.4324   -73.9744     0.0635     2.5242     0.0984     0.3337   141.9941
  441.0000     7.9180     7.0754     7.4520   -74.2870     0.0640     2.5154     0.0908     0.3215   144.6619
  441.5000     7.9180     7.0667     7.4719   -74.2963     0.0588     2.5001     0.1000     0.3012   145.4142
  442.0000     7.9180     7.0580     7.4895   -74.1221     0.0513     2.4920     0.1096     0.2941   142.3169
  442.5000     7.9180     7.0492     7.4736   -73.9589     0.0442     2.4931     0.1096     0.2990   138.7193
  443.0000     7.9180     7.0405     7.4595   -73.8005     0.0359     2.4936     0.1084     0.3060   136.9144
  443.5000     7.9180     7.0317     7.4455   -73.6301     0.0285     2.4838     0.1147     0.3134   139.7690
  444.0000     7.9175     7.0230     7.4314   -73.6238     0.0211     2.4565     0.1307     0.3209   147.7806
  444.5000     7.9199     7.0144     7.4177   -73.7589     0.0138     2.4290     0.1466     0.3090   149.8453
  445.0000     7.9153     7.0057     7.4038   -73.8856     0.0081     2.4161     0.1546     0.2952   148.9592
  445.5000     7.8037     6.9966     7.3900   -74.0093     0.0081     2.4232     0.1474     0.2901   146.4725
  446.0000     7.6903     6.9883     7.3758   -74.1365     0.0079     2.4416     0.1331     0.2988   142.4642
  446.5000     7.6271     6.9817     7.3607   -74.2536     0.0080     2.4480     0.1349     0.3073   139.6749
  447.0000     7.6322     6.9719     7.3282   -74.3703     0.0081     2.4422     0.1394     0.3210   143.7794
  447.5000     7.6299     6.9559     7.2641   -74.1669     0.0077     2.4452     0.1296     0.3179   151.8451
  448.0000     7.6299     6.9690     7.2118   -73.9655     0.0149     2.4901     0.1050     0.3040   154.7300
  448.5000     7.6299     6.6852     6.9438   -73.7528     0.0484     2.5419     0.0805     0.2925   152.7177
  449.0000     7.6299     6.4626     6.7176   -73.5375     0.0676     2.5377     0.0797     0.2988   145.8334
  449.5000     7.6299     6.2473     6.4988   -73.3296     0.0614     2.5034     0.1096     0.3123   147.5383
  450.0000     7.6299     6.0392     6.2871   -73.2013     0.0527     2.4562     0.1346     0.3210   152.3830
