~VERSION INFORMATION
 VERS.                2.0:   CWLS LOG ASCII STANDARD - VERSION 2.0
 WRAP.                 NO:   ONE LINE PER DEPTH STEP
~WELL INFORMATION
#MNEM.UNIT      DATA TYPE    INFORMATION
#----------   ------------   ------------------------------
 STRT.F            4.0000:   START DEPTH
 STOP.F          564.0000:   STOP DEPTH
 STEP.F            0.1000:   STEP LENGTH
 NULL.          -999.2500:   NO VALUE
 COMP.       F D SERV INC:   COMPANY
 WELL. NAVAL PETROLEUM RESERVE 3 SX-3 #88-4-3:   WELL
 FLD .             TEAPOT:   FIELD
 LOC .       S3 T38N R78W:   LOCATION
 CNTY.            NATRONA:   COUNTY
 STAT.            WYOMING:   STATE
 CTRY. UNITED STATES OF AMERICA:   COUNTRY
 SRVC.      Western Atlas:   SERVICE COMPANY
 DATE.        15-OCT-1992:   LOGDATE
 API .       490252255000:   API NUMBER
~CURVE INFORMATION
#MNEM.UNIT       API CODE    CURVE DESCRIPTION
#----------   ------------   ------------------------------
 DEPT.F                  :   
 GRR .GAPI   07 310 01 00:   GAMMA RAY
 RILD.OHMM   07 120 46 00:   INDUCTION LOG DEEP RESISTIVITY
 RILM.OHMM   07 120 44 00:   INDUCTION LOG MEDIUM RESISTIVITY
~PARAMETER INFORMATION
#MNEM.UNIT          VALUE    DESCRIPTION
#----------   ------------   ------------------------------
 PD  .                 GL:   PERMANENT DATUM
 EPD .F              5129:   ELEVATION PERMANENT DATUM
 LMF .                 KB:   LOG MEASURED FROM
 DAPD.F                10:   FEET ABOVE PERMANENT DATUM
 DMF .                 KB:   DRILLING MEASURED FROM
 EKB .F              5139:   KELLING BUSHING
 EGL .F              5129:   GROUND LEVEL
 DATE.        15-OCT-1992:   RUN DATE
 RUN .                  1:   RUN NUMBER
 DD  .F               570:   DEPTH DRILLER
 DL  .F               570:   DEPTH LOGGER
 BLI .F               564:   BOTTOM LOG INTERVAL
 TLI .F               564:   TOP LOG INTERVAL
 CS  .IN            8.625:   CASING SIZE
 CBL .F                94:   CASING BOTTOM LOGGER
 BS  .IN            7.875:   BIT SIZE
 BSD .F               570:   BIT SIZE AT DEPTH
 DFT .           AIR FOAM:   DRILLING FLUID TYPE
 TCS .HRS               4:   TIME CURCULATED STOPPED
 MRT .F                72:   MAXIMUM RECORDED TEMPERATURE
 LUN .            HL-6345:   LOGGING UNIT NUMBER
 LUL .          FT.MORGAN:   LOGGING UNIT LOCATION
 ENGI.             BURLEY:   RECORDING ENGINEER
 WITN.        DARY STRONG:   WITNESSED BY
 CLNT.            A2DTECH:   CLIENT CODE
 ORIG.           5" PRINT:   ORIGIN OF DATA
 UWI .       490252255000:   UNIQUE WELL ID
 DICO. A2D Technologies, Inc.:   DIGITIZING COMPANY
~OTHER INFORMATION
~A    DEPT      GRR      RILD       RILM   
# ...
  186.0000   116.0060     8.0953     8.2621
  186.1000   116.0067     8.0837     8.2260
  186.2000   115.7963     8.0574     8.2242
  186.3000   115.7071     8.0103     8.1689
  186.4000   115.7077     7.9702     8.1294
  186.5000   115.7083     7.9700     8.0823
  186.6000   115.7161     7.8830     8.0557
  186.7000   116.0103     7.8248     8.0453
  186.8000   116.0108     7.8031     7.9998
  186.9000   116.1666     7.8029     8.0001
  187.0000   116.3128     7.7972     7.9244
  187.1000   116.2601     7.7478     7.8607
  187.2000   116.0132     7.7476     7.8153
  187.3000   116.0140     7.6836     7.7700
  187.4000   116.0144     7.6166     7.7249
  187.5000   116.0150     7.5721     7.6356
  187.6000   116.0156     7.5321     7.6179
  187.7000   116.0162     7.5318     7.5917
  187.8000   116.0168     7.4539     7.5137
  187.9000   116.6772     7.3967     7.4075
  188.0000   117.3440     7.3535     7.4078
  188.1000   118.0108     7.2872     7.2818
  188.2000   118.9930     7.1664     7.2209
  188.3000   120.2741     7.1190     7.1792
  188.4000   120.5317     7.0119     7.1070
  188.5000   121.0176     6.9433     6.9973
  188.6000   121.5178     6.8663     6.9554
  188.7000   121.8773     6.7667     6.8779
  188.8000   122.0379     6.7234     6.8285
  188.9000   122.0385     6.5884     6.7454
  189.0000   122.0391     6.5560     6.6556
  189.1000   122.0397     6.4697     6.6171
  189.2000   122.0403     6.3892     6.5767
  189.3000   122.0409     6.3435     6.4692
  189.4000   121.9565     6.2705     6.4400
  189.5000   121.6731     6.2273     6.4200
  189.6000   121.1405     6.2272     6.3953
  189.7000   120.9081     6.2270     6.3955
  189.8000   120.2948     6.2268     6.3956
  189.9000   119.6770     6.2266     6.3958
  190.0000   119.0978     6.2265     6.3960
  190.1000   118.4074     6.1901     6.3962
  190.2000   118.1366     6.1825     6.3964
  190.3000   117.4526     6.2037     6.4007
  190.4000   116.7038     6.2258     6.4418
  190.5000   115.9549     6.2256     6.4420
  190.6000   115.2059     6.2254     6.4421
  190.7000   114.4571     6.2252     6.4423
  190.8000   113.6289     6.2251     6.4425
  190.9000   112.9594     6.2455     6.4427
  191.0000   112.5554     6.2686     6.4429
  191.1000   112.3062     6.2800     6.4430
  191.2000   112.1275     6.3569     6.4432
  191.3000   112.1478     6.3568     6.4434
  191.4000   112.4296     6.3566     6.4540
  191.5000   113.3042     6.3766     6.4919
  191.6000   113.9689     6.4010     6.5351
  191.7000   114.4692     6.4058     6.5685
  191.8000   114.9037     6.4458     6.6071
  191.9000   115.1689     6.4806     6.6280
  192.0000   115.7414     6.5183     6.6482
  192.1000   115.9557     6.5365     6.7242
  192.2000   116.0433     6.5483     6.7697
  192.3000   115.9320     6.5822     6.8035
  192.4000   115.6218     6.5820     6.8435
  192.5000   115.1328     6.6517     6.9015
  192.6000   114.8428     6.7020     6.9729
  192.7000   114.6344     6.7410     7.0167
  192.8000   114.5432     6.7803     7.1620
  192.9000   114.6508     6.8231     7.1969
  193.0000   115.0136     6.9126     7.2128
  193.1000   115.7584     6.9480     7.2488
  193.2000   116.3502     6.9609     7.3245
  193.3000   116.9630     7.0186     7.3675
  193.4000   117.8663     7.1198     7.4191
  193.5000   118.7640     7.1587     7.4544
  193.6000   119.5653     7.1585     7.5250
  193.7000   120.5644     7.2302     7.5954
  193.8000   121.0647     7.3149     7.6312
  193.9000   121.5649     7.3619     7.6314
  194.0000   121.9168     7.3826     7.6760
  194.1000   122.0698     7.4673     7.6856
  194.2000   122.0239     7.5181     7.7122
  194.3000   121.7702     7.5545     7.7575
  194.4000   121.0346     7.5707     7.7949
  194.5000   120.6747     7.5705     7.7951
  194.6000   120.1384     7.5703     7.7953
  194.7000   119.6674     7.5706     7.7956
  194.8000   119.6263     7.6232     7.8217
  194.9000   119.3678     7.6590     7.8509
  195.0000   118.8872     7.6765     7.8511
  195.1000   118.3882     7.6942     7.8514
  195.2000   117.8891     7.7302     7.8516
  195.3000   117.3901     7.7300     7.8518
  195.4000   116.8911     7.7298     7.8520
  195.5000   116.3639     7.7296     7.8522
  195.6000   115.8930     7.7293     7.8525
  195.7000   115.5788     7.7460     7.8527
  195.8000   115.1956     7.7834     7.8529
  195.9000   114.7795     7.7832     7.8531
  196.0000   114.4661     7.7830     7.8533
  196.1000   113.6608     7.7827     7.8536
  196.2000   113.4304     7.7825     7.8538
  196.3000   113.0011     7.7823     7.8540
  196.4000   112.6312     7.7821     7.8542
  196.5000   112.3819     7.7818     7.8544
  196.6000   112.1599     7.7816     7.8547
  196.7000   112.1607     7.7814     7.8549
  196.8000   112.3874     7.7812     7.8551
  196.9000   112.4626     7.7810     7.8553
  197.0000   112.5875     7.7808     7.8555
  197.1000   112.9113     7.7805     7.8558
  197.2000   113.3666     7.7389     7.8560
  197.3000   113.3673     7.7256     7.8562
  197.4000   113.5891     7.7254     7.8564
  197.5000   114.0100     7.7117     7.8567
  197.6000   114.5103     7.6666     7.8569
  197.7000   114.8734     7.6170     7.8571
  197.8000   114.8740     7.5773     7.8358
  197.9000   114.8747     7.5632     7.8026
  198.0000   114.6587     7.5630     7.8028
  198.1000   114.4094     7.5628     7.8030
  198.2000   114.1602     7.5594     7.7255
  198.3000   113.9747     7.5094     7.6946
  198.4000   113.9753     7.5092     7.6949
  198.5000   113.9760     7.5090     7.6839
  198.6000   114.4000     7.4888     7.6415
  198.7000   114.7395     7.4451     7.6417
  198.8000   114.8800     7.4016     7.6419
  198.9000   114.9985     7.3516     7.6421
  199.0000   115.4987     7.3514     7.6231
  199.1000   116.0849     7.3512     7.5891
  199.2000   116.2923     7.3510     7.5870
  199.3000   116.6988     7.3410     7.4837
  199.4000   117.3041     7.2991     7.4839
  199.5000   118.1082     7.2989     7.4572
  199.6000   119.1081     7.2639     7.4141
  199.7000   120.2991     7.2215     7.3712
  199.8000   120.7038     7.1793     7.3271
  199.9000   120.9023     7.1374     7.2268
  200.0000   120.9023     7.0956     7.1933
  200.1000   120.9023     7.0954     7.1262
  200.2000   120.9023     7.0952     7.1262
  200.3000   120.8521     7.0950     7.0849
  200.4000   120.6015     7.0948     7.0764
  200.5000   120.3008     7.0946     7.0519
  200.6000   119.8997     7.0785     7.0269
  200.7000   119.5489     7.0296     7.0115
  200.8000   119.1980     6.9461     6.9289
  200.9000   118.7970     6.9459     6.8891
  201.0000   118.7970     6.9143     6.8490
  201.1000   119.3985     6.8509     6.7632
  201.2000   119.5990     6.7857     6.6751
  201.3000   119.8496     6.7394     6.6293
  201.4000   120.3007     6.6583     6.5505
  201.5000   121.0526     6.5465     6.5132
  201.6000   121.8045     6.4328     6.4461
  201.7000   121.8045     6.3005     6.3713
  201.8000   121.4035     6.1547     6.2973
  201.9000   120.9023     6.0122     6.2241
  202.0000   120.3008     5.8663     6.1494
  202.1000   119.5489     5.7375     6.0123
  202.2000   118.7970     5.6539     5.9260
  202.3000   117.8947     5.5705     5.7817
  202.4000   117.2932     5.4735     5.6171
  202.5000   116.3910     5.3782     5.5194
  202.6000   115.4887     5.2787     5.4195
  202.7000   114.7870     5.2212     5.3592
  202.8000   114.2857     5.1385     5.3204
  202.9000   114.2857     5.0646     5.2894
  203.0000   114.4862     5.0057     5.2479
  203.1000   114.5865     4.9474     5.1959
  203.2000   114.6867     4.8853     5.1959
  203.3000   114.9373     4.8329     5.1959
  203.4000   115.1880     4.8169     5.1734
  203.5000   115.6892     4.8167     5.1596
  203.6000   115.7895     4.8255     5.1596
  203.7000   115.9398     4.8536     5.1596
  203.8000   116.0902     4.8845     5.1596
  203.9000   116.0902     4.9104     5.1880
  204.0000   116.0902     4.9390     5.1959
  204.1000   116.3910     4.9678     5.1959
