~VERSION INFORMATION
 VERS.                2.0:   CWLS LOG ASCII STANDARD - VERSION 2.0
 WRAP.                 NO:   ONE LINE PER DEPTH STEP
~WELL INFORMATION
#MNEM.UNIT      DATA TYPE    INFORMATION
#----------   ------------   ------------------------------
 STRT.F           25.0000:   START DEPTH
 STOP.F          528.0000:   STOP DEPTH
 STEP.F            0.5000:   STEP LENGTH
 NULL.          -999.2500:   NO VALUE
 COMP. FENIX & SCISSON INC:   COMPANY
 WELL.       NPR #3 #11-3:   WELL
 FLD .             NPR #3:   FIELD
 LOC .       S3 T38N R78W:   LOCATION
 CNTY.            NATRONA:   COUNTY
 STAT.            WYOMING:   STATE
 CTRY. UNITED STATES OF AMERICA:   COUNTRY
 SRVC.       Schlumberger:   SERVICE COMPANY
 DATE.        01-MAR-1977:   LOGDATE
 API .       490251028300:   API NUMBER
~CURVE INFORMATION
#MNEM.UNIT       API CODE    CURVE DESCRIPTION
#----------   ------------   ------------------------------
 DEPT.F                  :   
 SPR .MV     07 010 01 00:   SPONTANEOUS POTENTIAL
 LL8 .OHMM   07 220 08 00:   LATEROLOG-8 RES.
 ILM .OHMM   07 120 44 00:   INDUCTION LOG MEDIUM
 ILD .OHMM   07 120 46 00:   INDUCTION LOG DEEP
 GRD .GAPI   45 310 01 00:   GAMMA RAY FROM DENSITY LOG
 CALD.IN     45 280 60 00:   CALIPER
 RHOB.G/C3   45 350 01 00:   BULK DENSITY
 CORR.G/C3   45 356 01 00:   DENSITY CORRECTION
 DPHI.DEC    45 890 12 00:   DENSITY POROSITY SANDSTONE
~PARAMETER INFORMATION
#MNEM.UNIT          VALUE    DESCRIPTION
#----------   ------------   ------------------------------
 PD  .                 GL:   PERMANENT DATUM
 EPD .F              5178:   ELEVATION PERMANENT DATUM
 LMF .                 GL:   LOG MEASURED FROM
 DMF .                 GL:   DRILLING MEASURED FROM
 EKB .F              5183:   KELLING BUSHING
 EGL .F              5178:   GROUND LEVEL
 DATE.           3-1-1977:   RUN DATE
 RUN .                  1:   RUN NUMBER
 DD  .F               535:   DEPTH DRILLER
 DL  .F               526:   DEPTH LOGGER
 BLI .F               520:   BOTTOM LOG INTERVAL
 TLI .F                30:   TOP LOG INTERVAL
 CS  .IN            8.625:   CASING SIZE
 CBD .F                40:   CASING BOTTOM DRILLER
 CBL .F                30:   CASING BOTTOM LOGGER
 BS  .IN            7.875:   BIT SIZE
 BSD .F               535:   BIT SIZE AT DEPTH
 DFT .                KCL:   DRILLING FLUID TYPE
 DFD .                8.7:   DRILLING FLUID DENSITY
 DFV .                 37:   DRILLING FLUID VISCOSITY
 DFPH.                  8:   DRILLING FLUID PH
 DFL .                7.2:   DRILLING FLUID LOSS
 MSS .                PIT:   MUD SAMPLE SOURCE
 RMS .OHMM           .495:   RESISTIVITY MUD SAMPLE
 MST .F                62:   MUD SAMPLE TEMPERATURE
 RMF .OHMM           .406:   RESISTIVITY MUD FILTRATE SAMPLE
 MFST.F                65:   MUD FILTRATE SAMPLE TEMPERATURE
 MFSS.                  M:   MUD FILTRATE SAMPLE SOURCE
 RMB .OHMM           .438:   RESISTIVITY MUD AT BHT
 BHT .F                70:   BOTTOM HOLE TEMPERATURE
 TCS .HRS            0800:   TIME CURCULATED STOPPED
 TLAB.HRS            1130:   TIME LOGGER AT BOTTOM
 MRT .F                70:   MAXIMUM RECORDED TEMPERATURE
 LUN .               5642:   LOGGING UNIT NUMBER
 LUL .               CSPR:   LOGGING UNIT LOCATION
 ENGI.             MARTIN:   RECORDING ENGINEER
 CLNT.            A2DTECH:   CLIENT CODE
 ORIG.       2", 5" PRINT:   ORIGIN OF DATA
 UWI .       490251028300:   UNIQUE WELL ID
 DICO. A2D Technologies, Inc.:   DIGITIZING COMPANY
~OTHER INFORMATION
~A   DEPT      SPR        LL8        ILM        ILD         GRD      CALD       RHOB       CORR       DPHI   
# ...
  171.0000   -48.4459    12.4713    11.8649    11.3180    90.6644     8.0921     2.4473    -0.0005     0.1166
  171.5000   -46.3868    12.3673    11.8071    11.2114    91.8533     8.0914     2.4515     0.0000     0.1145
  172.0000   -47.5852    12.2642    11.7444    11.1176    94.3018     8.0907     2.4556     0.0046     0.1118
  172.5000   -48.8077    12.1947    11.6844    11.1794    97.0099     8.0900     2.4595     0.0094     0.1142
  173.0000   -49.8190    12.2889    11.6437    11.2652    99.7095     8.0893     2.4543     0.0078     0.1171
  173.5000   -50.8107    12.3923    11.8216    11.3523   100.2390     8.0886     2.4492     0.0027     0.1156
  174.0000   -51.7849    12.4965    11.9585    11.4402    98.5082     8.0879     2.4597     0.0078     0.1095
  174.5000   -52.2739    12.6542    12.0970    11.5290    96.8509     8.0871     2.4762     0.0147     0.1070
  175.0000   -51.4213    12.5393    12.1947    11.6437    96.1351     8.0864     2.4850     0.0165     0.1113
  175.5000   -50.6853    12.3134    12.0274    11.5018    96.4133     8.0857     2.4675     0.0101     0.1165
  176.0000   -50.3585    12.0915    11.8442    11.3018    95.9283     8.0850     2.4540     0.0037     0.1218
  176.5000   -51.6924    11.8737    11.6638    11.1052    95.1134     8.0843     2.4406    -0.0029     0.1298
  177.0000   -51.0591    11.6598    11.4861    10.9121    93.7533     8.0836     2.4398     0.0008     0.1331
  177.5000   -47.9520    11.4498    11.3111    10.7877    92.4025     8.0829     2.4583     0.0068     0.1253
  178.0000   -45.6807    11.2435    11.1729    10.6967    91.0480     8.0822     2.4778     0.0129     0.1169
  178.5000   -49.7020    11.0152    11.0733    10.6065    90.0409     8.0815     2.4890     0.0107     0.1098
  179.0000   -54.9680    11.1063    10.9746    10.5170    90.5034     8.0808     2.4773     0.0104     0.1136
  179.5000   -59.1283    11.2436    10.8768    10.4283    92.6734     8.0801     2.4838     0.0131     0.1178
  180.0000   -58.1891    11.4303    10.7798    10.3404    94.9971     8.0794     2.4877     0.0158     0.1163
  180.5000   -56.9751    11.3389    10.6837    10.2532    97.1031     8.0787     2.4677     0.0188     0.1192
  181.0000   -55.8596    11.1417    10.5885    10.1667    97.2006     8.0780     2.4520     0.0160     0.1230
  181.5000   -55.5965    10.9479    10.4983    10.0810    96.7949     8.0774     2.4545     0.0091     0.1217
  182.0000   -55.8328    10.7575    10.4212     9.9959    96.3922     8.0772     2.4550     0.0025     0.1229
  182.5000   -57.4127    10.6152    10.3447     9.9116    95.9867     8.0769     2.4539     0.0045     0.1229
  183.0000   -58.7960    10.7198    10.2687     9.8281    95.6680     8.0766     2.4589     0.0111     0.1202
  183.5000   -58.3415    10.9138    10.1933     9.7452    96.0165     8.0763     2.4641     0.0175     0.1178
  184.0000   -56.0385    10.7462    10.1185     9.6630    96.3877     8.0760     2.4726     0.0211     0.1214
  184.5000   -54.1239    10.5448    10.0442     9.5815    97.5186     8.0758     2.4630     0.0111     0.1197
  185.0000   -54.9438    10.3484     9.9705     9.5007    98.7533     8.0755     2.4603     0.0022     0.1186
  185.5000   -55.9426    10.1572     9.8973     9.4205   100.0558     8.0752     2.4492     0.0038     0.1308
  186.0000   -55.5278    10.0423     9.8246     9.3411    98.8484     8.0749     2.4376     0.0022     0.1391
  186.5000   -54.1071    10.1593     9.7631     9.3025    96.5591     8.0747     2.4391     0.0006     0.1270
  187.0000   -51.6391    10.1886     9.7417     9.2733    94.8904     8.0744     2.4408    -0.0011     0.1303
  187.5000   -48.4664    10.2298     9.7203     9.2442    95.3725     8.0741     2.4425    -0.0032     0.1275
  188.0000   -45.4020    10.1786     9.6990     9.2153    95.2804     8.0738     2.4454     0.0056     0.1239
  188.5000   -46.0368    10.0938     9.6776     9.1864    95.0797     8.0735     2.4482     0.0112     0.1235
  189.0000   -48.5143    10.0423     9.5885     9.1576    95.6759     8.0733     2.4513     0.0147     0.1252
  189.5000   -51.1198    10.1473     9.7207     9.1289    95.6257     8.0730     2.4550     0.0179     0.1228
  190.0000   -53.7529    10.7354     9.8583     9.1002    98.5793     8.0727     2.4587     0.0212     0.1190
  190.5000   -54.4097    11.1182     9.7333     9.0718   101.0623     8.0724     2.4627     0.0244     0.1205
  191.0000   -53.0394    10.4024     9.5752     8.9950    99.9995     8.0722     2.4735     0.0275     0.1171
  191.5000   -52.3406    10.0474     9.4197     8.8965    99.3084     8.0719     2.4734     0.0307     0.1130
  192.0000   -51.9132    10.4207     9.2668     8.7989   100.0699     8.0716     2.4710     0.0258     0.1172
  192.5000   -51.4602    10.1974     9.1163     8.7032   100.9270     8.0713     2.4697     0.0126     0.1173
  193.0000   -52.9332     9.3615     8.9682     8.5850    97.0866     8.0710     2.4689     0.0112     0.1154
  193.5000   -54.8004     8.5941     8.8225     8.4501    92.4662     8.0708     2.4588     0.0141     0.1227
  194.0000   -55.8535     7.8897     8.6793     8.3174    90.3283     8.0705     2.4467     0.0075     0.1288
  194.5000   -55.0960     7.3995     8.5383     8.1868    91.5355     8.0702     2.4346    -0.0005     0.1339
  195.0000   -54.3881     8.1126     8.4183     8.0582    93.0921     8.0699     2.4249     0.0028     0.1359
  195.5000   -53.6876     9.0753     8.2645     7.9317    94.6424     8.0696     2.4311     0.0078     0.1332
  196.0000   -53.2842     9.0218     8.2658     7.8318    96.2000     8.0694     2.4372     0.0129     0.1303
  196.5000   -54.8064     8.9214     8.2685     7.8948    97.7432     8.0691     2.4333     0.0140     0.1301
  197.0000   -55.7565     8.8216     8.2698     7.9582    97.0173     8.0688     2.4268     0.0148     0.1332
  197.5000   -54.7293     8.7262     8.2698     8.0222    96.3466     8.0685     2.4257     0.0191     0.1319
  198.0000   -53.2320     8.6612     8.3327     8.0867    96.1171     8.0682     2.4380     0.0256     0.1266
  198.5000   -50.2541     9.0747     8.4015     8.1183    95.9094     8.0680     2.4504     0.0285     0.1198
  199.0000   -47.3657     9.4128     8.4710     8.1183    94.9039     8.0677     2.4603     0.0223     0.1220
  199.5000   -45.7582     9.2354     8.5410     8.1183    93.6640     8.0674     2.4511     0.0161     0.1260
  200.0000   -46.0409     8.9900     8.6116     8.1473    94.8610     8.0671     2.4417     0.0097     0.1301
  200.5000   -48.3959     8.8228     8.6909     8.2444    95.9301     8.0668     2.4328     0.0102     0.1339
  201.0000   -50.6751     9.0025     8.7899     8.3427    96.0865     8.0666     2.4388     0.0150     0.1313
  201.5000   -52.5519     9.1429     8.8899     8.4421    97.2733     8.0663     2.4342     0.0090     0.1290
  202.0000   -51.5972     9.2403     8.9912     8.5428    97.8640     8.0660     2.4254     0.0030     0.1337
  202.5000   -51.4703     9.4920     9.0936     8.6446    98.0744     8.0657     2.4250     0.0149     0.1383
  203.0000   -52.8432     9.7744     9.1971     8.7476    98.2848     8.0654     2.4367     0.0201     0.1314
  203.5000   -53.1729    10.0652     9.3018     8.8519   100.9127     8.0652     2.4460     0.0232     0.1262
  204.0000   -52.5820    10.3248     9.4078     8.9574   103.6574     8.0649     2.4551     0.0264     0.1229
  204.5000   -53.4643    10.1560     9.4889     9.0710   103.5313     8.0646     2.4585     0.0292     0.1197
  205.0000   -54.2178     9.9779     9.4049     8.9918   102.7430     8.0643     2.4633     0.0245     0.1166
  205.5000   -53.5728     9.8030     9.3216     8.8854   101.9318     8.0641     2.4681     0.0183     0.1195
  206.0000   -52.6685     9.6312     9.2392     8.7803   101.3319     8.0638     2.4687     0.0132     0.1222
  206.5000   -51.8698     9.4865     9.1574     8.6764   101.1673     8.0635     2.4590     0.0168     0.1194
  207.0000   -52.7084     9.3520     9.0764     8.5737   101.0088     8.0632     2.4552     0.0210     0.1150
