~VERSION INFORMATION
 VERS.                2.0:   CWLS LOG ASCII STANDARD - VERSION 2.0
 WRAP.                 NO:   ONE LINE PER DEPTH STEP
~WELL INFORMATION
#MNEM.UNIT      DATA TYPE    INFORMATION
#----------   ------------   ------------------------------
 STRT.F           42.0000:   START DEPTH
 STOP.F          533.0000:   STOP DEPTH
 STEP.F            0.5000:   STEP LENGTH
 NULL.          -999.2500:   NO VALUE
 COMP.    FENIX & SCISSON:   COMPANY
 WELL.      NPR-3 #38S3-3:   WELL
 FLD .             TEAPOT:   FIELD
 LOC .       S3 T38N R78W:   LOCATION
 CNTY.            NATRONA:   COUNTY
 STAT.            WYOMING:   STATE
 CTRY. UNITED STATES OF AMERICA:   COUNTRY
 SRVC.           BIRDWELL:   SERVICE COMPANY
 DATE.        29-JUN-1978:   LOGDATE
 API .       490251066300:   API NUMBER
~CURVE INFORMATION
#MNEM.UNIT       API CODE    CURVE DESCRIPTION
#----------   ------------   ------------------------------
 DEPT.F                  :   
 ILD .OHMM   05 120 46 00:   INDUCTION LOG DEEP
 SN  .OHMM   05 040 16 00:   SHORT NORMAL 16"
 SPR .MV     05 010 01 00:   SPONTANEOUS POTENTIAL FROM RES.
 CALD.IN     45 280 60 00:   CALIPER FROM DENSITY LOG
 CORR.G/C3   45 356 01 00:   DENSITY CORRECTION
 DPHI.DEC    45 890 12 00:   DENSITY POROSITY SANDSTONE
 GRD .GAPI   45 310 01 00:   GAMMA RAY FROM DENSITY LOG
 RHOB.G/C3   45 350 01 00:   BULK DENSITY
~PARAMETER INFORMATION
#MNEM.UNIT          VALUE    DESCRIPTION
#----------   ------------   ------------------------------
 PD  .                 GL:   PERMANENT DATUM
 EPD .F              5238:   ELEVATION PERMANENT DATUM
 LMF .                 KB:   LOG MEASURED FROM
 DAPD.F                 4:   FEET ABOVE PERMANENT DATUM
 DMF .                 KB:   DRILLING MEASURED FROM
 EKB .F              5242:   KELLING BUSHING
 EGL .F              5238:   GROUND LEVEL
 DATE.        29-JUN-1978:   RUN DATE
 RUN .                  1:   RUN NUMBER
 DD  .F               530:   DEPTH DRILLER
 DL  .F               540:   DEPTH LOGGER
 BLI .F               533:   BOTTOM LOG INTERVAL
 TLI .F                40:   TOP LOG INTERVAL
 CS  .IN            8.625:   CASING SIZE
 CBD .F                40:   CASING BOTTOM DRILLER
 BS  .IN            7.875:   BIT SIZE
 BSD .F               530:   BIT SIZE AT DEPTH
 DFT .                KCL:   DRILLING FLUID TYPE
 DFD .                8.7:   DRILLING FLUID DENSITY
 DFV .                 34:   DRILLING FLUID VISCOSITY
 DFPH.                9.5:   DRILLING FLUID PH
 MSS .           FLOWLINE:   MUD SAMPLE SOURCE
 RMS .OHMM            0.2:   RESISTIVITY MUD SAMPLE
 MST .F                82:   MUD SAMPLE TEMPERATURE
 RMF .OHMM           0.18:   RESISTIVITY MUD FILTRATE SAMPLE
 MFST.F                82:   MUD FILTRATE SAMPLE TEMPERATURE
 RMC .OHMM           0.14:   RESISTIVITY MUD CAKE
 MCST.F                82:   MUD CAKE SAMPLE TEMPERATURE
 MFSS.               MEAS:   MUD FILTRATE SAMPLE SOURCE
 TCS .HRS               1:   TIME CURCULATED STOPPED
 LUN .               2958:   LOGGING UNIT NUMBER
 LUL .             CASPER:   LOGGING UNIT LOCATION
 ENGI.             MILLER:   RECORDING ENGINEER
 WITN.         ZARGARNIAN:   WITNESSED BY
 CLNT.            A2DTECH:   CLIENT CODE
 ORIG.           5" PRINT:   ORIGIN OF DATA
 UWI .       490251066300:   UNIQUE WELL ID
 DICO. A2D Technologies, Inc.:   DIGITIZING COMPANY
~OTHER INFORMATION
~A   DEPT      ILD         SN        SPR       CALD       CORR       DPHI         GRD      RHOB   
# ...
  325.5000     5.6533     6.8580   -16.6882     7.5549     0.0220     0.1364    84.0303     2.4637
  326.0000     5.8235     6.9046   -16.9868     7.5245     0.0279     0.1343    83.4288     2.4816
  326.5000     5.9744     6.8090   -16.9833     7.4343     0.0323     0.1328    86.8697     2.4741
  327.0000     6.0994     6.8079   -17.1308     7.3438     0.0322     0.1331    87.4628     2.4659
  327.5000     6.0994     6.7827   -17.2784     7.2237     0.0247     0.1316    85.8117     2.4883
  328.0000     5.8924     6.7128   -17.7259     7.1485     0.0187     0.1209    85.0597     2.4920
  328.5000     5.5758     6.5291   -18.1742     7.1181     0.0157     0.1284    84.6053     2.4883
  329.0000     5.3127     6.3502   -18.4722     7.1023     0.0141     0.1389    83.5547     2.4755
  329.5000     5.1325     6.1764   -18.9197     7.0423     0.0036     0.1520    85.6470     2.4643
  330.0000     4.9927     6.0074   -19.2177     6.9520     0.0006     0.1679    87.8890     2.4418
  330.5000     4.8567     5.8393   -19.3659     6.9218     0.0080     0.1815    91.0540     2.4231
  331.0000     4.7901     5.7620   -19.0616     6.9662     0.0154     0.1898    93.5697     2.4058
  331.5000     4.7901     5.7612   -18.7573     6.9956     0.0243     0.1877    91.9195     2.3841
  332.0000     4.7901     5.8407   -18.3034     6.9802     0.0213     0.1635    90.1196     2.4245
  332.5000     4.7901     6.0047   -17.8494     6.9498     0.0138     0.1599    90.8869     2.4335
  333.0000     4.8567     6.2562   -17.5458     6.8738     0.0136     0.1680    95.2015     2.4290
  333.5000     5.0971     6.5200   -17.0912     6.8442     0.0213     0.1740    98.3416     2.4125
  334.0000     5.4239     6.7949   -16.7876     7.0832     0.0256     0.1497    96.3920     2.4035
  334.5000     6.0574     6.9862   -16.6344     7.3373     0.0240     0.1314    92.4773     2.4466
  335.0000     6.4458     7.2284   -16.4812     7.5624     0.0195     0.1197    90.9949     2.4941
  335.5000     6.6722     7.3787   -16.3272     7.6207     0.0105     0.1126    90.9914     2.5075
  336.0000     6.8590     7.4806   -16.1530     7.6503     0.0119     0.1108    91.1384     2.5098
  336.5000     7.0511     7.5315   -16.0208     7.6799     0.0178     0.1102    91.1340     2.5135
  337.0000     7.2485     7.5824   -15.7172     7.6781     0.0240     0.1075    90.2314     2.5195
  337.5000     7.3493     7.6868   -15.7137     7.6189     0.0326     0.1036    84.5393     2.5292
  338.0000     7.2485     7.6855   -15.7109     7.5137     0.0416     0.0964    82.4408     2.5352
  338.5000     7.1491     7.6845   -15.7080     7.3486     0.0355     0.1039    84.2462     2.5103
  339.0000     7.0511     7.6833   -15.7052     7.1807     0.0402     0.1149    85.8751     2.4940
  339.5000     7.0026     7.6823   -15.7017     7.0333     0.0608     0.1150    85.7219     2.5292
  340.0000     6.9544     7.6813   -15.6988     7.0179     0.0712     0.1135    84.6705     2.5396
  340.5000     6.9544     7.6802   -15.6960     7.0325     0.0682     0.1123    84.6746     2.5404
  341.0000     6.9544     7.6790   -15.8436     7.0470     0.0590     0.1108    85.7105     2.5156
  341.5000     6.9065     7.6780   -15.8406     7.0465     0.0412     0.1114    86.7548     2.4931
  342.0000     6.8590     7.7496   -15.8372     7.0461     0.0277     0.1243    87.0516     2.4811
  342.5000     6.8118     7.6760   -15.9854     7.0007     0.0187     0.1339    86.1227     2.4720
  343.0000     6.7650     7.6750   -15.9819     6.8919     0.0171     0.1415    83.5997     2.4631
  343.5000     6.7650     7.5101   -15.9788     6.8052     0.0216     0.1507    80.3028     2.4534
  344.0000     6.8590     7.3614   -15.8251     6.8646     0.0245     0.1555    81.2235     2.4466
  344.5000     7.0039     7.3098   -15.6719     7.1337     0.0230     0.1513    87.1814     2.4421
  345.0000     7.2485     7.3088   -15.5187     7.3528     0.0184     0.1447    89.2736     2.4631
  345.5000     7.6602     7.3021   -15.6662     7.6118     0.0109     0.1301    87.3240     2.4795
  346.0000     8.2077     7.2564   -15.6627     7.6713     0.0034     0.1214    82.8286     2.4863
  346.5000     8.4376     7.2555   -15.8110     7.6858    -0.0026     0.1227    80.4299     2.4906
  347.0000     8.3795     7.2545   -15.8074     7.6853    -0.0042     0.1260    78.4802     2.4853
  347.5000     7.9842     7.1987   -15.8045     7.6549     0.0037     0.1305    76.5306     2.4711
  348.0000     7.5551     7.0548   -15.6507     7.5796     0.0181     0.1419    79.9693     2.4621
  348.5000     7.0511     6.9572   -15.6478     7.4744     0.0255     0.1467    81.4628     2.4561
  349.0000     6.5807     6.8609   -15.4946     7.3691     0.0270     0.1593    82.0581     2.4531
  349.5000     6.2271     6.7153   -15.3414     7.3388     0.0364     0.1770    85.0486     2.4411
  350.0000     6.0158     6.6720   -15.1875     7.4131     0.0761     0.1944    90.4334     2.3803
  350.5000     5.9333     6.7176   -15.0343     7.3828     0.1507     0.1887    94.1724     2.3774
  351.0000     5.8924     6.7633   -14.7307     7.1876     0.1656     0.1680    93.8695     2.4561
  351.5000     5.8924     7.0554   -14.6590     7.0824     0.0761     0.1199    85.4827     2.5499
  352.0000     5.8924     8.3747   -14.5151     7.0521     0.0164     0.1151    75.8975     2.5088
  352.5000     6.3136     8.7885   -14.4207     7.0666     0.0208     0.1214    74.6972     2.4839
  353.0000     7.0182     9.0335   -14.4179     7.1260     0.0238     0.1262    75.4413     2.4824
  353.5000     7.7667     9.3531   -14.1143     7.2154     0.0253     0.1310    77.0845     2.4817
  354.0000     8.0952     9.6095   -14.1107     7.3197     0.0253     0.1355    80.5232     2.4800
  354.5000     8.3795     9.6751   -13.8071     7.3792     0.0267     0.1400    82.0167     2.4652
  355.0000     8.6738     9.7405   -13.2028     7.3937     0.0267     0.1500    82.9114     2.4517
  355.5000     8.7339     9.8068   -12.7488     7.2734     0.0252     0.1493    83.8061     2.4509
  356.0000     8.9167     9.9415   -12.2747     7.1982     0.0207     0.1391    84.1020     2.4600
  356.5000     9.2939    10.0787   -11.5394     7.1828     0.0132     0.1385    83.9479     2.4645
  357.0000    10.2428    10.6494   -10.9351     7.2421     0.0073     0.1409    83.7946     2.4660
  357.5000    11.1984    11.3385   -10.1803     7.3315     0.0057     0.1526    83.1923     2.4547
  358.0000    11.8343    12.0551    -8.3328     7.4209     0.0072     0.1706    81.3915     2.4352
  358.5000    12.5064    12.7380    -6.5649     7.5103     0.0117     0.1827    78.2443     2.4292
  359.0000    13.4932    13.6468    -5.5094     7.6595     0.0221     0.2006    65.0671     2.4112
  359.5000    14.8626    14.4199    -5.0555     7.7489     0.0340     0.2180    48.7462     2.3867
  360.0000    16.1464    14.4274    -4.6015     7.7636     0.0430     0.2366    34.2209     2.3197
  360.5000    18.0324    14.5767    -4.4476     7.7331     0.0355     0.2091    33.0197     2.3242
  361.0000    18.5441    14.6244    -4.2396     7.6577     0.0280     0.1880    33.3156     2.3783
  361.5000    18.2831    14.6280    -4.1411     7.5675     0.0280     0.1943    35.1085     2.3865
  362.0000    17.7851    14.6309    -3.9879     7.4622     0.0355     0.2000    40.1939     2.3700
  362.5000    17.3006    14.5323    -3.8340     7.3271     0.0608     0.2267    47.0766     2.3333
  363.0000    16.7136    14.3365    -3.8312     7.0870     0.1011     0.2195    54.2587     2.3378
  363.5000    16.1301    14.1427    -3.6782     6.9369     0.1056     0.2072    59.6444     2.3745
  364.0000    15.4912    13.9515    -3.5247     6.8289     0.0966     0.1886    61.7367     2.4016
  364.5000    15.0692    13.8582    -3.5218     6.8612     0.0756     0.1787    56.4928     2.3956
  365.0000    14.6588    13.7661    -3.6694     6.9655     0.0428     0.2048    53.1959     2.3746
  365.5000    14.3583    13.7690    -3.5155     7.0849     0.0368     0.2234    51.0968     2.3453
