~VERSION INFORMATION
 VERS.                2.0:   CWLS LOG ASCII STANDARD - VERSION 2.0
 WRAP.                 NO:   ONE LINE PER DEPTH STEP
~WELL INFORMATION
#MNEM.UNIT      DATA TYPE    INFORMATION
#----------   ------------   ------------------------------
 STRT.F            0.0000:   START DEPTH
 STOP.F         3024.5000:   STOP DEPTH
 STEP.F            0.5000:   STEP LENGTH
 NULL.          -999.2500:   NO VALUE
 COMP. LAWRENCE/ALLISON INC:   COMPANY
 WELL.   NPR 3 77X #77-28:   WELL
 FLD .           N.P.R. 3:   FIELD
 LOC .      S28 T39N R78W:   LOCATION
 CNTY.            NATRONA:   COUNTY
 STAT.            WYOMING:   STATE
 CTRY. UNITED STATES OF AMERICA:   COUNTRY
 SRVC.      Dresser Atlas:   SERVICE COMPANY
 DATE.        19-OCT-1986:   LOGDATE
 API .       490251110400:   API NUMBER
~CURVE INFORMATION
#MNEM.UNIT       API CODE    CURVE DESCRIPTION
#----------   ------------   ------------------------------
 DEPT.F                  :   
 PORD.DEC    45 890 12 00:   DENSITY POROSITY SANDSTONE
 CNC .DEC    42 890 03 00:   NEUTRON POROSITY SANDSTONE
 DEN .G/C3   45 350 01 00:   COMPENSATED BULK DENSTIY
 CORR.G/C3   45 356 01 00:   DENSITY CORRECTION
 CALD.IN     45 280 60 00:   CALIPER FROM DENSITY LOG
 GRR .GAPI   07 310 01 00:   GAMMA RAY FROM RES. LOG.
 RFOC.OHMM   07 220 04 00:   RESISTIVITY FOCUSED LOG
 RILD.OHMM   07 120 46 00:   INDUCTION LOG DEEP RESISTIVITY
 RILM.OHMM   07 120 44 00:   INDUCTION LOG MEDIUM RESISTIVITY
 SPR .MV     07 010 01 00:   SPONTANEOUS POTENTIAL
~PARAMETER INFORMATION
#MNEM.UNIT          VALUE    DESCRIPTION
#----------   ------------   ------------------------------
 PD  .                 GL:   PERMANENT DATUM
 EPD .F              5074:   ELEVATION PERMANENT DATUM
 LMF .                 KB:   LOG MEASURED FROM
 DAPD.F                12:   FEET ABOVE PERMANENT DATUM
 DMF .                 KB:   DRILLING MEASURED FROM
 EKB .F              5086:   KELLING BUSHING
 EGL .F              5074:   GROUND LEVEL
 DATE.           10-19-86:   RUN DATE
 RUN .                  1:   RUN NUMBER
 DD  .F              3021:   DEPTH DRILLER
 DL  .F              3025:   DEPTH LOGGER
 BLI .F              3023:   BOTTOM LOG INTERVAL
 CS  .IN            8.625:   CASING SIZE
 CBD .F               620:   CASING BOTTOM DRILLER
 CBL .F               615:   CASING BOTTOM LOGGER
 BS  .IN            7.875:   BIT SIZE
 BSD .F              3021:   BIT SIZE AT DEPTH
 DFT .        KCL POLYMER:   DRILLING FLUID TYPE
 DFD .                8.9:   DRILLING FLUID DENSITY
 DFV .                 38:   DRILLING FLUID VISCOSITY
 DFPH.                9.5:   DRILLING FLUID PH
 DFL .               11.2:   DRILLING FLUID LOSS
 MSS .           FLOWLINE:   MUD SAMPLE SOURCE
 RMS .OHMM            .25:   RESISTIVITY MUD SAMPLE
 MST .F                65:   MUD SAMPLE TEMPERATURE
 RMF .OHMM           .203:   RESISTIVITY MUD FILTRATE SAMPLE
 MFST.F                65:   MUD FILTRATE SAMPLE TEMPERATURE
 RMC .OHMM            .31:   RESISTIVITY MUD CAKE
 MCST.F                65:   MUD CAKE SAMPLE TEMPERATURE
 MFSS.               MEAS:   MUD FILTRATE SAMPLE SOURCE
 MCSS.               CALC:   MUD CAKE SAMPLE SOURCE
 RMB .OHMM           .136:   RESISTIVITY MUD AT BHT
 BHT .F               119:   BOTTOM HOLE TEMPERATURE
 TCS .HRS               5:   TIME CURCULATED STOPPED
 MRT .F               119:   MAXIMUM RECORDED TEMPERATURE
 LUN .               6274:   LOGGING UNIT NUMBER
 LUL .               GLTE:   LOGGING UNIT LOCATION
 ENGI.             RAUTIO:   RECORDING ENGINEER
 WITN.             STRONG:   WITNESSED BY
 CLNT.            A2DTECH:   CLIENT CODE
 ORIG.       2", 5" PRINT:   ORIGIN OF DATA
 UWI .       490251110400:   UNIQUE WELL ID
 DICO. A2D Technologies, Inc.:   DIGITIZING COMPANY
~OTHER INFORMATION
~A    DEPT    PORD        CNC        DEN       CORR       CALD        GRR       RFOC       RILD       RILM        SPR   
# ...
  938.0000  -999.2500  -999.2500  -999.2500  -999.2500  -999.2500    97.9911     9.1489     8.7752     8.4287   -77.2357
  938.5000  -999.2500  -999.2500  -999.2500  -999.2500  -999.2500    95.6337     9.1488     8.7261     8.3828   -77.2277
  939.0000  -999.2500  -999.2500  -999.2500  -999.2500  -999.2500    96.3527     9.1411     8.6773     8.3372   -77.5198
  939.5000  -999.2500  -999.2500  -999.2500  -999.2500  -999.2500    97.2136     9.0785     8.6287     8.2918   -77.8400
  940.0000  -999.2500  -999.2500  -999.2500  -999.2500  -999.2500    96.3096     9.0164     8.5804     8.2467   -78.1603
  940.5000  -999.2500  -999.2500  -999.2500  -999.2500  -999.2500    95.6116     8.9548     8.5323     8.2018   -78.4823
  941.0000  -999.2500  -999.2500  -999.2500  -999.2500  -999.2500    96.5876     8.8935     8.4846     8.1571   -78.8120
  941.5000  -999.2500  -999.2500  -999.2500  -999.2500  -999.2500   100.5874     8.8327     8.4371     8.1127   -78.8321
  942.0000  -999.2500  -999.2500  -999.2500  -999.2500  -999.2500   104.2436     8.7723     8.3898     8.0683   -78.8184
  942.5000  -999.2500  -999.2500  -999.2500  -999.2500  -999.2500   103.0938     8.7375     8.3446     8.0431   -78.4847
  943.0000  -999.2500  -999.2500  -999.2500  -999.2500  -999.2500    99.9631     8.7375     8.3444     8.0431   -78.1365
  943.5000  -999.2500  -999.2500  -999.2500  -999.2500  -999.2500    98.4157     8.7510     8.3441     8.0431   -77.7897
  944.0000  -999.2500  -999.2500  -999.2500  -999.2500  -999.2500   101.6666     8.8613     8.4439     8.0995   -77.4473
  944.5000  -999.2500  -999.2500  -999.2500  -999.2500  -999.2500   104.9193     8.9730     8.5803     8.1606   -77.2835
  945.0000  -999.2500  -999.2500  -999.2500  -999.2500  -999.2500   106.7735     9.0862     8.7187     8.2220   -77.4111
  945.5000  -999.2500  -999.2500  -999.2500  -999.2500  -999.2500   106.7581     9.2335     8.8998     8.2840   -77.5350
  946.0000  -999.2500  -999.2500  -999.2500  -999.2500  -999.2500   106.7759     9.1541     8.8439     8.3464   -77.6597
  946.5000  -999.2500  -999.2500  -999.2500  -999.2500  -999.2500   104.7029     9.0448     8.7383     8.4092   -77.7850
  947.0000  -999.2500  -999.2500  -999.2500  -999.2500  -999.2500   101.1211     8.9810     8.6575     8.4218   -77.8323
  947.5000  -999.2500  -999.2500  -999.2500  -999.2500  -999.2500    97.4852     8.9825     8.6822     8.4218   -77.8332
  948.0000  -999.2500  -999.2500  -999.2500  -999.2500  -999.2500    97.0467     9.0667     8.7202     8.4218   -77.8982
  948.5000  -999.2500  -999.2500  -999.2500  -999.2500  -999.2500    99.1333     9.1339     8.7583     8.4218   -78.0277
  949.0000  -999.2500  -999.2500  -999.2500  -999.2500  -999.2500   101.2203     9.1489     8.7967     8.4218   -78.1575
  949.5000  -999.2500  -999.2500  -999.2500  -999.2500  -999.2500   103.2991     9.1263     8.8183     8.4218   -78.2886
  950.0000  -999.2500  -999.2500  -999.2500  -999.2500  -999.2500   104.7264     9.1101     8.8183     8.4218   -78.4227
  950.5000  -999.2500  -999.2500  -999.2500  -999.2500  -999.2500   103.3963     9.0940     8.8183     8.4218   -78.3742
  951.0000  -999.2500  -999.2500  -999.2500  -999.2500  -999.2500   102.7754     9.0780     8.8183     8.4218   -78.3104
  951.5000  -999.2500  -999.2500  -999.2500  -999.2500  -999.2500   103.5953     9.0649     8.8183     8.4219   -78.2475
  952.0000  -999.2500  -999.2500  -999.2500  -999.2500  -999.2500   104.6488     9.1070     8.8183     8.4220   -78.1846
  952.5000  -999.2500  -999.2500  -999.2500  -999.2500  -999.2500   103.7346     9.1749     8.8185     8.4218   -78.1223
  953.0000  -999.2500  -999.2500  -999.2500  -999.2500  -999.2500   102.2256     9.2342     8.8185     8.3968   -78.0588
  953.5000  -999.2500  -999.2500  -999.2500  -999.2500  -999.2500   100.6869     9.1473     8.8195     8.3206   -78.1331
  954.0000  -999.2500  -999.2500  -999.2500  -999.2500  -999.2500    99.2661     9.0564     8.7425     8.2451   -78.3115
  954.5000  -999.2500  -999.2500  -999.2500  -999.2500  -999.2500    99.4352     8.9666     8.6784     8.1703   -78.4921
  955.0000  -999.2500  -999.2500  -999.2500  -999.2500  -999.2500   102.3430     8.8777     8.6147     8.1175   -78.6725
  955.5000  -999.2500  -999.2500  -999.2500  -999.2500  -999.2500   104.8424     8.8172     8.5516     8.1175   -78.8256
  956.0000  -999.2500  -999.2500  -999.2500  -999.2500  -999.2500   103.5996     8.8187     8.4997     8.1175   -78.7743
  956.5000  -999.2500  -999.2500  -999.2500  -999.2500  -999.2500   101.9902     8.8679     8.5734     8.1175   -78.7266
  957.0000  -999.2500  -999.2500  -999.2500  -999.2500  -999.2500   104.6443     8.9106     8.6575     8.0431   -78.6782
  957.5000  -999.2500  -999.2500  -999.2500  -999.2500  -999.2500   107.4177     8.9537     8.5881     8.0062   -78.6317
  958.0000  -999.2500  -999.2500  -999.2500  -999.2500  -999.2500   105.2700     8.9826     8.4860     7.9517   -78.8773
  958.5000  -999.2500  -999.2500  -999.2500  -999.2500  -999.2500    98.6846     8.8210     8.3851     7.8975   -79.1558
  959.0000  -999.2500  -999.2500  -999.2500  -999.2500  -999.2500    96.4317     8.6814     8.2854     7.8437   -79.4336
  959.5000  -999.2500  -999.2500  -999.2500  -999.2500  -999.2500   100.6212     8.6575     8.2683     7.7903   -79.7110
  960.0000  -999.2500  -999.2500  -999.2500  -999.2500  -999.2500   104.7573     8.6573     8.2683     7.7372   -79.9884
  960.5000  -999.2500  -999.2500  -999.2500  -999.2500  -999.2500   106.0640     8.6575     8.2683     7.6845   -80.2661
  961.0000  -999.2500  -999.2500  -999.2500  -999.2500  -999.2500   104.0066     8.6573     8.2683     7.6322   -80.5452
  961.5000  -999.2500  -999.2500  -999.2500  -999.2500  -999.2500   102.4034     8.6582     8.2682     7.5414   -80.8134
  962.0000  -999.2500  -999.2500  -999.2500  -999.2500  -999.2500   104.1003     8.5723     8.2691     7.5414   -80.6557
  962.5000  -999.2500  -999.2500  -999.2500  -999.2500  -999.2500   105.9750     8.4704     8.2042     7.5537   -80.4585
  963.0000  -999.2500  -999.2500  -999.2500  -999.2500  -999.2500   105.3687     8.3447     8.1440     7.5963   -80.2622
  963.5000  -999.2500  -999.2500  -999.2500  -999.2500  -999.2500   103.4485     8.3793     8.0842     7.6394   -80.0666
  964.0000  -999.2500  -999.2500  -999.2500  -999.2500  -999.2500   101.5008     8.4257     8.0249     7.6814   -79.8705
  964.5000  -999.2500  -999.2500  -999.2500  -999.2500  -999.2500   101.1786     8.4723     7.9661     7.6655   -79.6775
  965.0000  -999.2500  -999.2500  -999.2500  -999.2500  -999.2500   100.7434     8.5192     7.9077     7.6493   -79.4871
  965.5000  -999.2500  -999.2500  -999.2500  -999.2500  -999.2500    99.8053     8.5664     7.8242     7.6332   -79.2799
  966.0000  -999.2500  -999.2500  -999.2500  -999.2500  -999.2500   100.0348     8.5782     7.8765     7.6111   -79.4247
  966.5000  -999.2500  -999.2500  -999.2500  -999.2500  -999.2500   101.2528     8.5782     7.9713     7.6408   -79.5748
  967.0000  -999.2500  -999.2500  -999.2500  -999.2500  -999.2500   102.3717     8.4275     8.0431     7.6908   -79.7262
  967.5000  -999.2500  -999.2500  -999.2500  -999.2500  -999.2500   102.2396     8.2683     8.0431     7.7412   -79.8770
  968.0000  -999.2500  -999.2500  -999.2500  -999.2500  -999.2500   101.9810     8.2683     8.0431     7.7918   -80.0277
  968.5000  -999.2500  -999.2500  -999.2500  -999.2500  -999.2500   100.8126     8.3844     7.9675     7.8242   -80.1785
  969.0000  -999.2500  -999.2500  -999.2500  -999.2500  -999.2500    99.6312     8.5419     7.8678     7.6935   -80.3297
  969.5000  -999.2500  -999.2500  -999.2500  -999.2500  -999.2500    99.8664     8.7029     7.7694     7.5839   -80.4825
  970.0000  -999.2500  -999.2500  -999.2500  -999.2500  -999.2500   101.1398     8.8186     7.6815     7.4758   -80.6113
  970.5000  -999.2500  -999.2500  -999.2500  -999.2500  -999.2500   101.9939     8.8198     7.8098     7.4039   -80.4661
  971.0000  -999.2500  -999.2500  -999.2500  -999.2500  -999.2500   103.0171     8.3344     7.9287     7.4439   -80.3431
