~VERSION INFORMATION
 VERS.                2.0:   CWLS LOG ASCII STANDARD - VERSION 2.0
 WRAP.                 NO:   ONE LINE PER DEPTH STEP
~WELL INFORMATION
#MNEM.UNIT      DATA TYPE    INFORMATION
#----------   ------------   ------------------------------
 STRT.F          600.0000:   START DEPTH
 STOP.F         2218.0000:   STOP DEPTH
 STEP.F            0.5000:   STEP LENGTH
 NULL.          -999.2500:   NO VALUE
 COMP. US DEPTMNT OF ENRGY:   COMPANY
 WELL.   37 STX 10 #37-10:   WELL
 FLD .             TEAPOT:   FIELD
 LOC .      S10 T38N R78W:   LOCATION
 CNTY.            NATRONA:   COUNTY
 STAT.            WYOMING:   STATE
 CTRY. UNITED STATES OF AMERICA:   COUNTRY
 SRVC.            Unknown:   SERVICE COMPANY
 DATE.        15-MAY-1991:   LOGDATE
 API .       490251094200:   API NUMBER
~CURVE INFORMATION
#MNEM.UNIT       API CODE    CURVE DESCRIPTION
#----------   ------------   ------------------------------
 DEPT.F                  :   
 TGAS.UNITS  91 830 01 00:   TOTAL GAS FROM HOTWIRE
 ROP .MIN/FT 91 810 01 00:   RATE OF DRILLING PENETRATION
~PARAMETER INFORMATION
#MNEM.UNIT          VALUE    DESCRIPTION
#----------   ------------   ------------------------------
 EKB .F              5231:   KELLING BUSHING
 EGL .F              5221:   GROUND LEVEL
 DATE.            5-15-91:   RUN DATE
 DD  .F              2218:   DEPTH DRILLER
 BLI .F              2218:   BOTTOM LOG INTERVAL
 TLI .F               960:   TOP LOG INTERVAL
 ENGI.              TOWER:   RECORDING ENGINEER
 WITN.               HUSK:   WITNESSED BY
 CLNT.            A2DTECH:   CLIENT CODE
 ORIG.           5" PRINT:   ORIGIN OF DATA
 UWI .       490251094200:   UNIQUE WELL ID
 DICO. A2D Technologies, Inc.:   DIGITIZING COMPANY
~OTHER INFORMATION
~A   DEPT     TGAS          ROP 
# ...
 1086.0000    41.7555     0.7225
 1086.5000    41.8096     0.7547
 1087.0000    41.8637     0.7190
 1087.5000    41.9179     0.6848
 1088.0000    41.9720     0.6506
 1088.5000    42.0262     0.6164
 1089.0000    42.0803     0.5864
 1089.5000    42.1344     0.5772
 1090.0000    42.1886     0.5769
 1090.5000    42.2427     0.5766
 1091.0000    42.2969     0.5764
 1091.5000    42.3510     0.5761
 1092.0000    42.4052     0.5758
 1092.5000    42.4593     0.5842
 1093.0000    42.5134     0.6066
 1093.5000    42.5676     0.6239
 1094.0000    42.6217     0.6403
 1094.5000    42.6759     0.6570
 1095.0000    42.7300     0.6740
 1095.5000    42.7841     0.6901
 1096.0000    42.8383     0.7011
 1096.5000    42.8924     0.7121
 1097.0000    42.9466     0.7159
 1097.5000    43.0007     0.7232
 1098.0000    43.0548     0.7264
 1098.5000    43.1090     0.7261
 1099.0000    43.1631     0.7258
 1099.5000    43.2173     0.7145
 1100.0000    43.2727     0.7035
 1100.5000    43.3427     0.6898
 1101.0000    43.4127     0.6762
 1101.5000    43.4827     0.6568
 1102.0000    43.5528     0.6426
 1102.5000    43.6228     0.6401
 1103.0000    43.6928     0.6298
 1103.5000    43.7628     0.6303
 1104.0000    43.8328     0.6418
 1104.5000    43.8999     0.6533
 1105.0000    43.9606     0.6759
 1105.5000    44.0213     0.6984
 1106.0000    44.0819     0.7432
 1106.5000    44.1426     0.7888
 1107.0000    44.2033     0.8244
 1107.5000    44.2640     0.8679
 1108.0000    44.3246     0.8879
 1108.5000    44.3853     0.8885
 1109.0000    44.4460     0.8890
 1109.5000    44.5066     0.8867
 1110.0000    44.5673     0.8791
 1110.5000    44.6280     0.8797
 1111.0000    44.6886     0.8802
 1111.5000    44.7493     0.8808
 1112.0000    44.8100     0.8813
 1112.5000    44.8707     0.8819
 1113.0000    44.9313     0.8824
 1113.5000    44.9920     0.8770
 1114.0000    44.9602     0.8599
 1114.5000    44.8192     0.8377
 1115.0000    44.6783     0.8084
 1115.5000    44.5374     0.7673
 1116.0000    44.3965     0.7223
 1116.5000    44.2556     0.6774
 1117.0000    44.1147     0.6324
 1117.5000    43.9738     0.6236
 1118.0000    43.8329     0.6243
 1118.5000    43.6920     0.6358
 1119.0000    43.5511     0.6693
 1119.5000    43.4101     0.6918
 1120.0000    43.2692     0.7363
 1120.5000    43.3524     0.7569
 1121.0000    43.4356     0.7775
 1121.5000    43.5188     0.7981
 1122.0000    43.6020     0.8197
 1122.5000    43.6852     0.8187
 1123.0000    43.7683     0.8286
 1123.5000    43.8515     0.8275
 1124.0000    43.9347     0.8374
 1124.5000    44.0179     0.8363
 1125.0000    44.1011     0.8353
 1125.5000    44.1843     0.8452
 1126.0000    44.2674     0.8419
 1126.5000    44.3506     0.8319
 1127.0000    44.4338     0.8334
 1127.5000    44.5170     0.8407
 1128.0000    44.6002     0.8363
 1128.5000    44.6834     0.8202
 1129.0000    44.7665     0.7926
 1129.5000    44.8497     0.7576
 1130.0000    44.8918     0.7225
 1130.5000    44.5553     0.7022
 1131.0000    44.1014     0.7063
 1131.5000    43.6475     0.7221
 1132.0000    43.1937     0.7377
 1132.5000    42.7398     0.7603
 1133.0000    42.2859     0.7931
 1133.5000    41.8346     0.8191
 1134.0000    41.6953     0.8478
 1134.5000    41.5560     0.8732
 1135.0000    41.4168     0.8947
 1135.5000    41.2775     0.9081
 1136.0000    41.1382     0.9183
 1136.5000    40.9990     0.9198
 1137.0000    40.8597     0.9075
 1137.5000    40.7204     0.8954
 1138.0000    40.5811     0.8724
 1138.5000    40.4419     0.8384
 1139.0000    40.3026     0.7933
 1139.5000    40.1633     0.7593
 1140.0000    40.0240     0.7363
 1140.5000    39.7135     0.7269
 1141.0000    39.4030     0.7175
 1141.5000    39.0924     0.7068
 1142.0000    38.7819     0.6799
 1142.5000    38.4713     0.6622
 1143.0000    38.1608     0.6424
 1143.5000    37.8503     0.6264
 1144.0000    37.5397     0.6264
 1144.5000    37.2292     0.6264
 1145.0000    36.7241     0.6264
 1145.5000    35.9107     0.6264
 1146.0000    35.0974     0.6264
 1146.5000    34.2840     0.6484
 1147.0000    33.4706     0.6829
 1147.5000    32.6573     0.7634
 1148.0000    31.8042     0.8608
 1148.5000    32.9124     0.9011
 1149.0000    31.8571     0.8885
 1149.5000    31.5575     0.8752
 1150.0000    31.2567     0.8526
 1150.5000    30.9559     0.8325
 1151.0000    30.6550     0.8242
 1151.5000    30.3542     0.8242
 1152.0000    30.0534     0.8168
 1152.5000    29.8267     0.7862
 1153.0000    29.7125     0.7321
 1153.5000    29.5983     0.6642
 1154.0000    29.4841     0.5962
 1154.5000    29.3698     0.5604
 1155.0000    29.2556     0.5771
 1155.5000    29.1414     0.6102
 1156.0000    29.0272     0.6433
 1156.5000    28.9130     0.6593
 1157.0000    28.7988     0.6655
 1157.5000    28.6846     0.6703
 1158.0000    28.5703     0.6703
 1158.5000    28.4561     0.6703
 1159.0000    28.3419     0.6703
 1159.5000    28.2277     0.6703
 1160.0000    28.1228     0.6730
 1160.5000    28.4960     0.6767
 1161.0000    28.8411     0.6804
 1161.5000    29.1861     0.6841
 1162.0000    29.5312     0.6878
 1162.5000    29.8763     0.6896
 1163.0000    30.2213     0.6837
 1163.5000    30.5664     0.6719
 1164.0000    30.9340     0.6659
 1164.5000    30.7580     0.6715
 1165.0000    30.5698     0.7015
 1165.5000    30.3816     0.7593
 1166.0000    30.1934     0.8333
 1166.5000    30.0052     0.8827
 1167.0000    29.8170     0.8934
 1167.5000    29.6288     0.8929
 1168.0000    29.4406     0.9165
 1168.5000    29.2524     0.9497
 1169.0000    29.0641     0.9830
 1169.5000    28.8759     1.0444
 1170.0000    28.6877     1.0988
 1170.5000    28.4995     1.1312
 1171.0000    28.3113     1.1087
 1171.5000    28.1231     1.0532
 1172.0000    27.8981     1.0197
 1172.5000    27.8546     1.0082
 1173.0000    27.8005     1.0077
 1173.5000    27.7464     1.0297
 1174.0000    27.6923     1.0945
 1174.5000    27.6382     1.0584
 1175.0000    27.5841     1.0119
 1175.5000    27.5300     0.9538
 1176.0000    27.4760     0.8946
 1176.5000    27.4219     0.9229
 1177.0000    27.3678     0.9694
 1177.5000    27.3137     1.0252
 1178.0000    27.2596     1.0707
 1178.5000    27.2055     1.0729
 1179.0000    27.1514     1.0467
 1179.5000    27.0974     0.9988
 1180.0000    27.0541     0.9194
 1180.5000    27.0267     0.8675
 1181.0000    26.9993     0.8666
 1181.5000    26.9719     0.8657
 1182.0000    26.9444     0.8647
 1182.5000    26.9170     0.8640
 1183.0000    26.8896     0.8412
 1183.5000    26.8622     0.8074
 1184.0000    26.8347     0.7623
 1184.5000    26.8073     0.7509
 1185.0000    26.7799     0.7743
 1185.5000    26.7525     0.7962
 1186.0000    26.7251     0.8220
 1186.5000    26.6976     0.8597
 1187.0000    26.6702     0.8676
 1187.5000    26.6428     0.8668
 1188.0000    26.6154     0.8625
 1188.5000    26.5879     0.8464
 1189.0000    26.5605     0.8058
 1189.5000    26.5331     0.7274
 1190.0000    26.5057     0.6909
 1190.5000    26.4782     0.7351
 1191.0000    26.4508     0.7912
 1191.5000    26.4234     0.8410
 1192.0000    26.3960     0.8725
 1192.5000    26.3686     0.8805
 1193.0000    26.3411     0.8797
 1193.5000    26.3137     0.8711
 1194.0000    26.2863     0.8752
 1194.5000    26.2589     0.8857
 1195.0000    26.2314     0.9531
 1195.5000    26.2040     1.0073
 1196.0000    26.1766     1.0285
 1196.5000    26.1492     1.0277
 1197.0000    26.1218     1.0159
 1197.5000    26.0943     0.9931
 1198.0000    26.0669     0.9585
 1198.5000    26.0395     0.9255
 1199.0000    26.0121     0.9247
 1199.5000    25.9846     0.9268
 1200.0000    25.9550     0.9487
 1200.5000    25.9052     0.9729
 1201.0000    25.8511     1.0063
 1201.5000    25.7969     1.0398
 1202.0000    25.7428     1.0736
 1202.5000    25.6887     1.1078
 1203.0000    25.6345     1.1420
 1203.5000    25.5804     1.1688
 1204.0000    25.5262     1.1916
 1204.5000    25.4721     1.1978
 1205.0000    25.4180     1.1717
 1205.5000    25.3638     1.1429
 1206.0000    25.3097     1.1319
 1206.5000    25.2555     1.1209
 1207.0000    25.2014     1.1099
