~VERSION INFORMATION
 VERS.                2.0:   CWLS LOG ASCII STANDARD - VERSION 2.0
 WRAP.                 NO:   ONE LINE PER DEPTH STEP
~WELL INFORMATION
#MNEM.UNIT      DATA TYPE    INFORMATION
#----------   ------------   ------------------------------
 STRT.F           33.0000:   START DEPTH
 STOP.F         1310.0000:   STOP DEPTH
 STEP.F            0.5000:   STEP LENGTH
 NULL.          -999.2500:   NO VALUE
 COMP. FENIX & SCISSON INC:   COMPANY
 WELL.    NPR-3 #76-14 SX:   WELL
 FLD .        TEAPOT DOME:   FIELD
 LOC .      S14 T38N R78W:   LOCATION
 CNTY.            NATRONA:   COUNTY
 STAT.            WYOMING:   STATE
 CTRY. UNITED STATES OF AMERICA:   COUNTRY
 SRVC.            Unknown:   SERVICE COMPANY
 DATE.        12-APR-1978:   LOGDATE
 API .       490251061200:   API NUMBER
~CURVE INFORMATION
#MNEM.UNIT       API CODE    CURVE DESCRIPTION
#----------   ------------   ------------------------------
 DEPT.F                  :   
 SPR .MV     05 010 01 00:   SPONTANEOUS POTENTIAL FROM RES.
 SN  .OHMM   05 040 16 00:   SHORT NORMAL 16"
 ILD .OHMM   05 120 46 00:   INDUCTION LOG DEEP
 CALD.IN     45 280 60 00:   CALIPER FROM DENSITY LOG
 GRD .GAPI   45 310 01 00:   GAMMA RAY FROM DENSITY LOG
 DPOR.DEC    45 890 12 00:   DENSITY POROSITY SANDSTONE
 CORR.G/C3   45 356 01 00:   DENSITY CORRECTION
 RHOB.G/C3   45 350 01 00:   BULK DENSITY
~PARAMETER INFORMATION
#MNEM.UNIT          VALUE    DESCRIPTION
#----------   ------------   ------------------------------
 PD  .                 GL:   PERMANENT DATUM
 EPD .F              5332:   ELEVATION PERMANENT DATUM
 LMF .                 KB:   LOG MEASURED FROM
 DMF .                 KB:   DRILLING MEASURED FROM
 EKB .F              5336:   KELLING BUSHING
 EGL .F              5332:   GROUND LEVEL
 DATE.          4-12-1978:   RUN DATE
 RUN .                  1:   RUN NUMBER
 DD  .F              1300:   DEPTH DRILLER
 DL  .F              1302:   DEPTH LOGGER
 BLI .F              1298:   BOTTOM LOG INTERVAL
 TLI .F                50:   TOP LOG INTERVAL
 CS  .IN            8.625:   CASING SIZE
 CBD .F                40:   CASING BOTTOM DRILLER
 CBL .F                46:   CASING BOTTOM LOGGER
 BS  .IN            7.875:   BIT SIZE
 BSD .F              1300:   BIT SIZE AT DEPTH
 DFT .                KCL:   DRILLING FLUID TYPE
 DFD .                8.5:   DRILLING FLUID DENSITY
 DFV .                 28:   DRILLING FLUID VISCOSITY
 MSS .            MUD PIT:   MUD SAMPLE SOURCE
 RMS .OHMM           1.45:   RESISTIVITY MUD SAMPLE
 MST .F                50:   MUD SAMPLE TEMPERATURE
 RMF .OHMM           1.25:   RESISTIVITY MUD FILTRATE SAMPLE
 MFST.F                62:   MUD FILTRATE SAMPLE TEMPERATURE
 RMC .OHMM           1.65:   RESISTIVITY MUD CAKE
 MCST.F                61:   MUD CAKE SAMPLE TEMPERATURE
 MFSS.           MEASURED:   MUD FILTRATE SAMPLE SOURCE
 MCSS.           MEASURED:   MUD CAKE SAMPLE SOURCE
 RMB .OHMM            .93:   RESISTIVITY MUD AT BHT
 BHT .F                78:   BOTTOM HOLE TEMPERATURE
 TCS .HRS               6:   TIME CURCULATED STOPPED
 MRT .F                78:   MAXIMUM RECORDED TEMPERATURE
 LUN .               2958:   LOGGING UNIT NUMBER
 LUL .                CAS:   LOGGING UNIT LOCATION
 ENGI.             MILLER:   RECORDING ENGINEER
 WITN.           MCGINLEY:   WITNESSED BY
 CLNT.            A2DTECH:   CLIENT CODE
 ORIG.      2" , 5" PRINT:   ORIGIN OF DATA
 UWI .       490251061200:   UNIQUE WELL ID
 DICO. A2D Technologies, Inc.:   DIGITIZING COMPANY
~OTHER INFORMATION
~A   DEPT      SPR         SN        ILD       CALD         GRD      DPOR       CORR       RHOB   
# ...
 1045.5000   -27.1000     6.7249     5.4382     7.8469    68.1895     0.0976     0.0350     2.4987
 1046.0000   -27.1000     6.5922     5.3626     7.8455    69.0779     0.0911     0.0342     2.4931
 1046.5000   -27.1000     6.4577     5.2881     7.8442    69.9994     0.0919     0.0334     2.4892
 1047.0000   -27.1000     6.2898     5.1651     7.8428    68.8264     0.0923     0.0326     2.4963
 1047.5000   -27.1000     6.1204     5.0301     7.8415    67.2032     0.0954     0.0318     2.5004
 1048.0000   -27.1000     5.9554     4.8987     7.8401    66.4861     0.1011     0.0310     2.4903
 1048.5000   -27.1000     5.7948     4.7707     7.8387    68.1393     0.1068     0.0302     2.4789
 1049.0000   -27.1000     5.6386     4.6459     7.8374    70.3026     0.1125     0.0310     2.4675
 1049.5000   -27.1000     5.4866     4.5244     7.8360    70.9093     0.1134     0.0360     2.4562
 1050.0000   -27.1000     5.3387     4.4640     7.8347    71.4946     0.1128     0.0408     2.4528
 1050.5000   -27.1000     5.1948     4.4640     7.8333    70.9799     0.1121     0.0456     2.4548
 1051.0000   -27.1000     5.1268     4.4640     7.8320    68.2190     0.1108     0.0464     2.4623
 1051.5000   -27.1000     5.1734     4.5054     7.8306    65.3147     0.1063     0.0416     2.4700
 1052.0000   -27.1000     5.2205     4.6102     7.8283    65.3738     0.1000     0.0368     2.4776
 1052.5000   -27.1000     5.8475     4.8101     7.8253    66.2557     0.0956     0.0320     2.4852
 1053.0000   -27.1000     6.2930     5.0186     7.8222    66.4341     0.0947     0.0318     2.4919
 1053.5000   -27.1000     6.7722     5.2364     7.8191    67.0943     0.0943     0.0317     2.4918
 1054.0000   -27.1000     7.1472     5.4637     7.8161    68.6954     0.0919     0.0317     2.4914
 1054.5000   -27.1000     7.3478     5.7004     7.8130    69.2262     0.0899     0.0316     2.4934
 1055.0000   -27.1000     7.3478     5.9426     7.8099    69.5317     0.0891     0.0316     2.4995
 1055.5000   -27.1000     7.3417     5.9466     7.8069    71.3718     0.0888     0.0315     2.5050
 1056.0000   -27.1000     7.3367     5.9516     7.8038    72.8242     0.0885     0.0315     2.5054
 1056.5000   -27.1000     7.3316     5.9565     7.8007    70.2284     0.0840     0.0314     2.5027
 1057.0000   -27.1000     7.3266     5.9614     7.7976    68.2613     0.0751     0.0314     2.5140
 1057.5000   -27.1000     7.3216     5.9663     7.7946    68.2943     0.0789     0.0313     2.5258
 1058.0000   -27.1000     7.3165     5.9713     7.7920    68.3002     0.0824     0.0313     2.5250
 1058.5000   -27.1000     7.3115     5.9762     7.8113    68.2910     0.0863     0.0312     2.5191
 1059.0000   -27.1002     7.3065     5.9811     7.8564    69.7589     0.0856     0.0312     2.5132
 1059.5000   -27.1003     7.3015     5.9861     7.8376    71.4263     0.0840     0.0311     2.5095
 1060.0000   -27.0989     7.2965     5.9910     7.8215    71.6697     0.0823     0.0311     2.5130
 1060.5000   -27.0205     7.2915     5.9960     7.8410    71.4713     0.0793     0.0310     2.5131
 1061.0000   -26.8100     7.2865     6.0009     7.8615    71.5135     0.0767     0.0310     2.5176
 1061.5000   -26.6015     7.2815     6.0059     7.8504    72.8495     0.0784     0.0309     2.5245
 1062.0000   -26.3926     7.2765     6.0109     7.8156    72.6008     0.0786     0.0309     2.5212
 1062.5000   -26.1838     7.2715     6.0158     7.8489    70.7654     0.0775     0.0308     2.5254
 1063.0000   -25.9749     7.2665     6.0208     7.8590    69.3708     0.0804     0.0308     2.5241
 1063.5000   -25.7643     7.2615     6.0258     7.8667    73.8611     0.0820     0.0307     2.5190
 1064.0000   -25.6649     7.2565     6.0308     7.8654    76.9770     0.0829     0.0306     2.5154
 1064.5000   -25.6130     7.2515     6.0358     7.8092    73.0766     0.0838     0.0306     2.5170
 1065.0000   -25.5616     7.2465     6.0407     7.8133    69.1575     0.0846     0.0305     2.5140
 1065.5000   -25.5101     7.2416     6.0459     7.8640    66.2455     0.0844     0.0305     2.5103
 1066.0000   -25.4586     7.2366     6.0507     7.9110    67.8462     0.0838     0.0304     2.5120
 1066.5000   -25.4070     7.2316     6.0542     7.8552    69.4023     0.0854     0.0304     2.5168
 1067.0000   -25.3555     7.2266     5.9288     7.8094    71.7235     0.0891     0.0303     2.5096
 1067.5000   -25.3039     7.2217     5.8467     7.8339    73.9611     0.0923     0.0303     2.5025
 1068.0000   -25.2523     7.2150     5.7657     7.8793    76.4253     0.0927     0.0302     2.4954
 1068.5000   -25.2007     7.2162     5.6858     7.9101    80.1057     0.0920     0.0302     2.4940
 1069.0000   -25.1490     6.9988     5.6070     7.8879    80.6205     0.0915     0.0301     2.4956
 1069.5000   -25.1006     6.8428     5.5294     7.8650    78.7034     0.0923     0.0301     2.4977
 1070.0000   -25.0921     6.6902     5.4528     7.8601    77.9938     0.0933     0.0300     2.4991
 1070.5000   -25.0849     6.5409     5.3773     7.8887    77.6057     0.0943     0.0300     2.4992
 1071.0000   -25.0776     6.3955     5.3028     7.9167    76.0681     0.0972     0.0299     2.4923
 1071.5000   -25.0703     6.3115     5.2293     7.9457    74.3096     0.1014     0.0299     2.4827
 1072.0000   -25.0629     6.2663     5.1569     7.9184    73.0982     0.1055     0.0306     2.4756
 1072.5000   -25.0556     6.2232     5.0854     7.8899    71.9187     0.1097     0.0325     2.4701
 1073.0000   -25.0482     5.9893     5.0149     7.8961    70.7365     0.1124     0.0344     2.4646
 1073.5000   -25.0409     5.7725     4.9454     7.9247    69.5559     0.1136     0.0353     2.4591
 1074.0000   -25.0335     5.5635     4.8954     7.9512    68.6709     0.1121     0.0325     2.4535
 1074.5000   -25.0262     5.4187     4.8956     7.8947    68.9480     0.1096     0.0298     2.4559
 1075.0000   -25.0188     5.4187     4.8945     7.8511    71.0296     0.1074     0.0271     2.4610
 1075.5000   -25.0115     5.5462     4.8933     7.8868    73.0179     0.0995     0.0258     2.4805
 1076.0000   -25.0041     5.8084     4.9426     7.9209    74.9671     0.0903     0.0275     2.4903
 1076.5000   -24.9968     6.1575     5.0085     7.9513    76.2482     0.0899     0.0306     2.4996
 1077.0000   -24.9895     6.4573     5.2174     7.9648    75.1611     0.0892     0.0338     2.5012
 1077.5000   -24.9821     6.5171     5.4350     7.9237    72.3303     0.0868     0.0369     2.5030
 1078.0000   -24.9748     6.5103     5.6225     7.8934    69.4595     0.0844     0.0401     2.5065
 1078.5000   -24.9674     6.4981     5.6225     7.9215    68.7744     0.0819     0.0433     2.5129
 1079.0000   -24.9601     6.4860     5.3979     7.9486    68.6152     0.0841     0.0443     2.5142
 1079.5000   -24.9527     6.4739     5.2559     7.9647    68.8017     0.0890     0.0448     2.5113
 1080.0000   -24.9454     6.4618     5.1173     7.9276    70.5059     0.0938     0.0453     2.5016
 1080.5000   -24.9380     6.3787     4.9824     7.8411    72.1834     0.0987     0.0463     2.4910
 1081.0000   -24.9307     6.0469     4.8514     7.9134    73.8682     0.1036     0.0515     2.4803
 1081.5000   -24.9233     5.7328     4.8061     7.9501    74.0496     0.1085     0.0625     2.4695
 1082.0000   -24.9160     5.4344     4.8061     7.9116    72.7989     0.1096     0.0817     2.4646
 1082.5000   -24.9086     5.1743     4.8061     7.9394    71.5439     0.0849     0.0878     2.4990
 1083.0000   -24.9012     5.1743     4.8061     7.9678    71.0373     0.0751     0.0655     2.5156
 1083.5000   -24.9000     5.3196     4.8061     7.9445    71.3934     0.0699     0.0654     2.5240
 1084.0000   -24.9000     5.3178     4.8061     7.8825    72.1569     0.0643     0.0674     2.5322
 1084.5000   -24.9000     5.8031     5.0227     7.7880    72.7417     0.0638     0.0658     2.5441
 1085.0000   -24.9000     6.2023     5.3402     7.6908    72.8335     0.0624     0.0590     2.5504
 1085.5000   -24.9000     6.6273     5.6776     7.6787    72.8138     0.0606     0.0523     2.5495
