~VERSION INFORMATION
 VERS.                2.0:   CWLS LOG ASCII STANDARD - VERSION 2.0
 WRAP.                 NO:   ONE LINE PER DEPTH STEP
~WELL INFORMATION
#MNEM.UNIT      DATA TYPE    INFORMATION
#----------   ------------   ------------------------------
 STRT.F            8.0000:   START DEPTH
 STOP.F          508.0000:   STOP DEPTH
 STEP.F            0.1000:   STEP LENGTH
 NULL.          -999.2500:   NO VALUE
 COMP. LAWRENCE/ALLISON INC:   COMPANY
 WELL. NPR 3 47-12 SX #3-3:   WELL
 FLD .             TEAPOT:   FIELD
 LOC .       S3 T38N R78W:   LOCATION
 CNTY.            NATRONA:   COUNTY
 STAT.            WYOMING:   STATE
 CTRY. UNITED STATES OF AMERICA:   COUNTRY
 SRVC.           Gearhart:   SERVICE COMPANY
 DATE.        12-AUG-1988:   LOGDATE
 API .       490251124100:   API NUMBER
~CURVE INFORMATION
#MNEM.UNIT       API CODE    CURVE DESCRIPTION
#----------   ------------   ------------------------------
 DEPT.F                  :   
 GRR .GAPI   07 310 01 00:   GAMMA RAY
 RILD.OHMM   07 120 46 00:   INDUCTION LOG DEEP RESISTIVITY
 RILM.OHMM   07 120 44 00:   INDUCTION LOG MEDIUM RESISTIVITY
~PARAMETER INFORMATION
#MNEM.UNIT          VALUE    DESCRIPTION
#----------   ------------   ------------------------------
 PD  .                 GL:   PERMANENT DATUM
 EPD .F              5208:   ELEVATION PERMANENT DATUM
 LMF .                 KB:   LOG MEASURED FROM
 DAPD.F                10:   FEET ABOVE PERMANENT DATUM
 DMF .                 KB:   DRILLING MEASURED FROM
 EKB .F              5218:   KELLING BUSHING
 EDF .F              5216:   DRILLING FLOOR
 EGL .F              5208:   GROUND LEVEL
 DATE.        12-AUG-1988:   RUN DATE
 RUN .                  1:   RUN NUMBER
 DD  .F               515:   DEPTH DRILLER
 DL  .F               516:   DEPTH LOGGER
 BLI .F               508:   BOTTOM LOG INTERVAL
 TLI .F                50:   TOP LOG INTERVAL
 CS  .IN            9.625:   CASING SIZE
 CBD .F                50:   CASING BOTTOM DRILLER
 CBL .F                50:   CASING BOTTOM LOGGER
 BS  .IN             8.75:   BIT SIZE
 BSD .F               515:   BIT SIZE AT DEPTH
 DFT .                AIR:   DRILLING FLUID TYPE
 TCS .HRS            1500:   TIME CURCULATED STOPPED
 TLAB.HRS            1640:   TIME LOGGER AT BOTTOM
 MRT .F                70:   MAXIMUM RECORDED TEMPERATURE
 LUN .               7597:   LOGGING UNIT NUMBER
 LUL .           GILLETTE:   LOGGING UNIT LOCATION
 ENGI.         WEATHERMON:   RECORDING ENGINEER
 WITN.             STRONG:   WITNESSED BY
 CLNT.            A2DTECH:   CLIENT CODE
 ORIG.       2", 5" PRINT:   ORIGIN OF DATA
 UWI .       490251124100:   UNIQUE WELL ID
 DICO. A2D Technologies, Inc.:   DIGITIZING COMPANY
~OTHER INFORMATION
~A    DEPT      GRR      RILD       RILM   
# ...
   80.8000   128.3686     9.6705     8.9195
   80.9000   128.6763     9.6703     8.8988
   81.0000   128.9299     9.6702     8.8988
   81.1000   129.1835     9.6700     8.8988
   81.2000   129.4371     9.6699     8.8988
   81.3000   129.6902     9.6697     8.8988
   81.4000   129.3883     9.6696     8.8988
   81.5000   129.3888     9.6695     8.8988
   81.6000   129.2353     9.6693     8.8988
   81.7000   128.9830     9.6692     8.8988
   81.8000   128.7855     9.6407     8.8988
   81.9000   128.7755     9.6020     8.8988
   82.0000   128.1817     9.5957     8.8988
   82.1000   127.9736     9.5353     8.8988
   82.2000   127.7213     9.5351     8.8988
   82.3000   127.5782     9.5350     8.8988
   82.4000   127.5191     9.5349     8.8988
   82.5000   127.2768     9.5348     8.8988
   82.6000   127.2776     9.5280     8.8988
   82.7000   127.2781     9.4685     8.8988
   82.8000   127.4424     9.4179     8.9195
   82.9000   127.5819     9.4027     8.9609
   83.0000   127.5825     9.3740     8.9609
   83.1000   127.6129     9.3374     8.9609
   83.2000   128.1889     9.3302     8.9609
   83.3000   128.6261     9.2725     8.9922
   83.4000   128.9638     9.2723     9.0234
   83.5000   129.3362     9.2722     9.0234
   83.6000   129.7734     9.2433     9.0234
   83.7000   130.0270     9.2078     9.0234
   83.8000   130.3105     9.2077     9.0234
   83.9000   130.5342     9.2075     9.0234
   84.0000   130.6142     9.2074     9.0234
   84.1000   130.6148     9.2073     9.0234
   84.2000   130.5412     9.2072     9.0234
   84.3000   130.3134     9.2070     9.0234
   84.4000   130.3141     9.2069     9.0234
   84.5000   130.3146     9.2068     8.9922
   84.6000   130.3153     9.2066     8.9609
   84.7000   130.5734     9.2065     8.9609
   84.8000   131.0007     9.2064     8.9609
   84.9000   131.2835     9.1872     8.9609
   85.0000   131.8306     9.1424     8.9609
   85.1000   132.2967     9.1423     8.9609
   85.2000   132.6201     9.1421     8.9402
   85.3000   132.8737     9.1420     8.8988
   85.4000   133.0433     9.1419     8.8988
   85.5000   133.0095     9.1224     8.8988
   85.6000   132.7419     9.0784     8.8988
   85.7000   132.5049     9.0782     8.8988
   85.8000   132.0646     9.0271     8.8783
   85.9000   131.5592     9.0151     8.8372
   86.0000   130.9650     9.0150     8.8372
   86.1000   130.2068     8.9952     8.7862
   86.2000   129.4173     8.9431     8.7760
   86.3000   128.6906     8.8903     8.7456
   86.4000   127.7396     8.8901     8.7152
   86.5000   126.8715     8.8900     8.7051
   86.6000   126.2067     8.8599     8.6548
   86.7000   125.7893     8.8283     8.6548
   86.8000   125.7900     8.8282     8.6548
   86.9000   125.7906     8.8280     8.6248
   87.0000   125.9888     8.8279     8.5948
   87.1000   126.2424     8.8278     8.5849
   87.2000   126.7912     8.7974     8.5353
   87.3000   127.7550     8.7664     8.5353
   87.4000   128.5168     8.7663     8.4959
   87.5000   128.8201     8.7662     8.4468
   87.6000   129.2258     8.7660     8.4175
   87.7000   129.7321     8.7659     8.4175
   87.8000   130.1353     8.7658     8.4175
   87.9000   130.3889     8.7657     8.3591
   88.0000   130.6425     8.7656     8.3591
   88.1000   130.9417     8.7654     8.3302
   88.2000   131.1496     8.7653     8.3012
   88.3000   131.2454     8.7652     8.2916
   88.4000   131.1379     8.7650     8.2437
   88.5000   131.0025     8.7650     8.2437
   88.6000   131.2472     8.7649     8.2056
   88.7000   131.2479     8.7647     8.1866
   88.8000   131.2484     8.7646     8.1866
   88.9000   131.5744     8.7645     8.1866
   89.0000   132.0808     8.7643     8.1866
   89.1000   132.6503     8.7859     8.1866
   89.2000   133.4098     8.8252     8.1866
   89.3000   134.2772     8.8266     8.1866
   89.4000   134.7119     8.8864     8.2056
   89.5000   135.0510     8.8863     8.2533
   89.6000   135.1867     8.9189     8.3012
   89.7000   135.1873     8.9706     8.3012
   89.8000   135.1879     9.0103     8.3398
   89.9000   135.1886     9.0121     8.3883
   90.0000   135.1891     9.0728     8.4175
   90.1000   135.1897     9.1170     8.4273
   90.2000   135.0676     9.1699     8.4762
   90.3000   134.8153     9.2231     8.5353
   90.4000   134.5398     9.2634     8.5353
   90.5000   133.9819     9.2684     8.5651
   90.6000   133.7558     9.3926     8.5948
   90.7000   133.1493     9.3925     8.5948
   90.8000   132.6459     9.4280     8.5948
   90.9000   132.3156     9.4827     8.6548
   91.0000   131.8103     9.5236     8.6548
   91.1000   131.2624     9.5266     8.6548
   91.2000   131.0314     9.5896     8.6749
   91.3000   130.7791     9.6374     8.7152
   91.4000   130.3944     9.6933     8.7152
   91.5000   129.9718     9.7496     8.7760
   91.6000   129.7193     9.7911     8.7760
   91.7000   129.4506     9.7909     8.7760
   91.8000   128.9785     9.7907     8.7964
   91.9000   128.6599     9.8401     8.8372
   92.0000   128.4075     9.8972     8.8372
   92.1000   128.1552     9.9273     8.8885
   92.2000   127.9027     9.9272     8.8988
   92.3000   127.6388     9.9270     8.8988
   92.4000   127.6394     9.9269     8.8988
   92.5000   127.6399     9.9268     8.9091
   92.6000   127.4986     9.9266     8.9609
   92.7000   127.3386     9.9265     8.9609
   92.8000   127.3820     9.9264     9.0026
   92.9000   127.6424     9.9262     9.0234
   93.0000   127.6430     9.9260     9.0234
   93.1000   128.0367     9.9259     9.0339
   93.2000   128.5430     9.9258     9.0863
   93.3000   129.0493     9.9256     9.0863
   93.4000   129.5559     9.9425     9.0863
   93.5000   130.0666     9.9946     9.1180
   93.6000   130.3182     9.9944     9.1497
   93.7000   130.7731     9.9943     9.1497
   93.8000   131.1279     9.9941     9.1497
   93.9000   131.3814     9.9940     9.1497
   94.0000   131.5824     9.9938     9.1497
   94.1000   131.5859     9.9937     9.1816
   94.2000   131.8863     9.9936     9.2135
   94.3000   131.8868     9.9934     9.2135
   94.4000   131.8875     9.9933     9.2135
   94.5000   131.8880     9.9932     9.2135
   94.6000   131.8886     9.9930     9.2135
   94.7000   131.8892     9.9929     9.2135
   94.8000   131.8900     9.9927     9.2135
   94.9000   131.8905     9.9926     9.2242
   95.0000   131.8911    10.0343     9.2778
   95.1000   131.8917    10.0620     9.2778
   95.2000   131.8923    10.0618     9.2778
   95.3000   131.8929    10.0617     9.3102
   95.4000   131.8936    10.0615     9.3425
   95.5000   131.8941    10.0614     9.3534
   95.6000   132.0609    10.0613     9.4077
   95.7000   132.1979    10.0611     9.4077
   95.8000   132.2655    10.0610     9.4077
   95.9000   132.5365    10.0609     9.4405
   96.0000   133.1075    10.0607     9.4733
   96.1000   133.5492    10.0605     9.4843
   96.2000   134.3978    10.0604     9.5394
   96.3000   135.1675    10.0603     9.5394
   96.4000   135.6022    10.0601     9.5394
   96.5000   135.8558    10.0600     9.5394
   96.6000   136.1368    10.0599     9.5394
   96.7000   136.1374    10.0597     9.5394
   96.8000   136.1380    10.0596     9.5394
   96.9000   136.1386    10.0595     9.5394
   97.0000   136.0626    10.0593     9.4953
   97.1000   135.8102    10.0592     9.4405
   97.2000   135.5353    10.0590     9.4077
   97.3000   134.8444    10.0589     9.4077
   97.4000   134.2673    10.0588     9.4077
   97.5000   133.6311    10.0586     9.3425
   97.6000   132.8727    10.0585     9.3425
   97.7000   132.1143    10.0584     9.3102
   97.8000   131.3029    10.0582     9.2778
   97.9000   131.3035    10.0580     9.2671
   98.0000   131.1184    10.0579     9.2135
   98.1000   131.0021    10.0578     9.1603
   98.2000   131.0027    10.0361     9.1497
   98.3000   131.0033     9.9779     9.1497
   98.4000   131.0040     9.9186     9.1497
   98.5000   131.2447     9.8627     9.1391
   98.6000   131.3077     9.8055     9.0863
   98.7000   131.5899     9.7814     9.0339
   98.8000   132.0051     9.7598     9.0234
   98.9000   132.2587     9.7032     8.9921
