~VERSION INFORMATION
 VERS.                2.0:   CWLS LOG ASCII STANDARD - VERSION 2.0
 WRAP.                 NO:   ONE LINE PER DEPTH STEP
~WELL INFORMATION
#MNEM.UNIT      DATA TYPE    INFORMATION
#----------   ------------   ------------------------------
 STRT.F            8.0000:   START DEPTH
 STOP.F          508.0000:   STOP DEPTH
 STEP.F            0.1000:   STEP LENGTH
 NULL.          -999.2500:   NO VALUE
 COMP. LAWRENCE/ALLISON INC:   COMPANY
 WELL. NPR 3 47-12 SX #3-3:   WELL
 FLD .             TEAPOT:   FIELD
 LOC .       S3 T38N R78W:   LOCATION
 CNTY.            NATRONA:   COUNTY
 STAT.            WYOMING:   STATE
 CTRY. UNITED STATES OF AMERICA:   COUNTRY
 SRVC.           Gearhart:   SERVICE COMPANY
 DATE.        12-AUG-1988:   LOGDATE
 API .       490251124100:   API NUMBER
~CURVE INFORMATION
#MNEM.UNIT       API CODE    CURVE DESCRIPTION
#----------   ------------   ------------------------------
 DEPT.F                  :   
 GRR .GAPI   07 310 01 00:   GAMMA RAY
 RILD.OHMM   07 120 46 00:   INDUCTION LOG DEEP RESISTIVITY
 RILM.OHMM   07 120 44 00:   INDUCTION LOG MEDIUM RESISTIVITY
~PARAMETER INFORMATION
#MNEM.UNIT          VALUE    DESCRIPTION
#----------   ------------   ------------------------------
 PD  .                 GL:   PERMANENT DATUM
 EPD .F              5208:   ELEVATION PERMANENT DATUM
 LMF .                 KB:   LOG MEASURED FROM
 DAPD.F                10:   FEET ABOVE PERMANENT DATUM
 DMF .                 KB:   DRILLING MEASURED FROM
 EKB .F              5218:   KELLING BUSHING
 EDF .F              5216:   DRILLING FLOOR
 EGL .F              5208:   GROUND LEVEL
 DATE.        12-AUG-1988:   RUN DATE
 RUN .                  1:   RUN NUMBER
 DD  .F               515:   DEPTH DRILLER
 DL  .F               516:   DEPTH LOGGER
 BLI .F               508:   BOTTOM LOG INTERVAL
 TLI .F                50:   TOP LOG INTERVAL
 CS  .IN            9.625:   CASING SIZE
 CBD .F                50:   CASING BOTTOM DRILLER
 CBL .F                50:   CASING BOTTOM LOGGER
 BS  .IN             8.75:   BIT SIZE
 BSD .F               515:   BIT SIZE AT DEPTH
 DFT .                AIR:   DRILLING FLUID TYPE
 TCS .HRS            1500:   TIME CURCULATED STOPPED
 TLAB.HRS            1640:   TIME LOGGER AT BOTTOM
 MRT .F                70:   MAXIMUM RECORDED TEMPERATURE
 LUN .               7597:   LOGGING UNIT NUMBER
 LUL .           GILLETTE:   LOGGING UNIT LOCATION
 ENGI.         WEATHERMON:   RECORDING ENGINEER
 WITN.             STRONG:   WITNESSED BY
 CLNT.            A2DTECH:   CLIENT CODE
 ORIG.       2", 5" PRINT:   ORIGIN OF DATA
 UWI .       490251124100:   UNIQUE WELL ID
 DICO. A2D Technologies, Inc.:   DIGITIZING COMPANY
~OTHER INFORMATION
~A    DEPT      GRR      RILD       RILM   
# ...
  426.6000    96.4797    14.9261    14.0666
  426.7000    96.6820    14.9195    14.0659
  426.8000    96.6826    14.8211    14.0651
  426.9000    96.6832    14.8204    14.0643
  427.0000    96.4821    14.8195    14.0635
  427.1000    96.3819    14.8187    14.0627
  427.2000    96.2816    14.8179    14.0619
  427.3000    95.9796    14.8170    14.0612
  427.4000    95.4759    14.8161    14.0604
  427.5000    94.8715    14.8154    14.0596
  427.6000    94.2669    14.7544    14.0588
  427.7000    93.5111    14.7112    14.0581
  427.8000    92.8561    14.7104    14.0572
  427.9000    92.3020    14.7096    14.0565
  428.0000    91.5461    14.7087    14.0557
  428.1000    91.5469    14.7079    14.0549
  428.2000    91.5474    14.7071    14.0851
  428.3000    91.5480    14.7063    14.1515
  428.4000    91.6494    14.7055    14.1506
  428.5000    91.9021    14.7047    14.1499
  428.6000    92.1549    14.7038    14.1490
  428.7000    92.4076    14.7030    14.1482
  428.8000    92.6604    14.7022    14.1814
  428.9000    93.0645    14.7014    14.2453
  429.0000    93.4685    14.7006    14.2446
  429.1000    93.7213    14.6998    14.2436
  429.2000    93.9740    14.6989    14.2430
  429.3000    94.4788    14.6982    14.2422
  429.4000    94.9837    14.6974    14.2414
  429.5000    95.4886    14.6965    14.2406
  429.6000    95.9936    14.6957    14.2445
  429.7000    96.4481    14.6948    14.3382
  429.8000    96.7009    14.6940    14.3375
  429.9000    97.2056    14.6933    14.3367
  430.0000    97.5088    14.6924    14.2962
  430.1000    97.7615    14.6916    14.2359
  430.2000    98.1152    14.6908    14.2350
  430.3000    98.5697    14.6899    14.2342
  430.4000    98.8224    14.6892    14.2334
  430.5000    98.8231    14.6882    14.2327
  430.6000    98.8236    14.6875    14.2319
  430.7000    98.8242    14.6867    14.2311
  430.8000    98.8248    14.6493    14.2303
  430.9000    98.8254    14.5834    14.2295
  431.0000    98.8260    14.5826    14.2287
  431.1000    98.8268    14.5817    14.2279
  431.2000    98.8273    14.5810    14.2271
  431.3000    98.8279    14.5802    14.2263
  431.4000    98.8284    14.5794    14.2126
  431.5000    98.8290    14.5786    14.1262
  431.6000    98.8297    14.5777    14.1255
  431.7000    98.8303    14.5768    14.1247
  431.8000    98.8309    14.5761    14.1239
  431.9000    98.8315    14.5753    14.1231
  432.0000    98.8321    14.5745    14.1223
  432.1000    98.8327    14.5737    14.1215
  432.2000    98.8333    14.5729    14.1206
  432.3000    99.0860    14.5720    14.0540
  432.4000    99.1371    14.5713    14.0213
  432.5000    99.2889    14.5705    14.0206
  432.6000    99.5417    14.5697    14.0198
  432.7000    99.7945    14.5688    14.0190
  432.8000   100.0472    14.5586    14.0181
  432.9000   100.2999    14.4663    14.0175
  433.0000   100.7544    14.4656    14.0167
  433.1000   101.1080    14.4648    14.0159
  433.2000   101.2599    14.4640    14.0151
  433.3000   101.3110    14.4632    14.0197
  433.4000   101.5637    14.4624    14.1112
  433.5000   101.5644    14.4615    14.1105
  433.6000   101.3632    14.4608    14.1097
  433.7000   101.2629    14.4600    14.1089
  433.8000   101.0619    14.4591    14.1082
  433.9000   100.5582    14.4583    14.1074
  434.0000   100.0545    14.4576    14.1065
  434.1000    99.4500    14.4567    14.1058
  434.2000    99.0470    14.3752    14.1051
  434.3000    98.5433    14.3551    14.1043
  434.4000    98.1406    14.3543    14.1035
  434.5000    97.8891    14.3535    14.1027
  434.6000    97.6375    14.3374    14.1018
  434.7000    97.3860    14.2525    14.1011
  434.8000    97.3362    14.2518    14.1003
  434.9000    97.3368    14.2510    14.0995
  435.0000    97.3374    14.2502    14.0987
  435.1000    97.3885    14.2494    14.0980
  435.2000    97.6412    14.2486    14.0972
  435.3000    97.6418    14.2478    14.0964
  435.4000    97.8441    14.2469    14.0956
  435.5000    98.2481    14.2462    14.0949
  435.6000    98.6521    14.1942    14.0621
  435.7000    98.9049    14.1460    13.9957
  435.8000    99.1576    14.1452    13.9949
  435.9000    99.4103    14.1445    13.9939
  436.0000    99.4614    14.1436    13.9933
  436.1000    99.3108    14.1429    13.9925
  436.2000    99.1600    14.1421    13.9918
  436.3000    99.1102    14.1413    13.9910
  436.4000    98.8587    14.1196    13.9871
  436.5000    98.8594    14.0419    13.8924
  436.6000    98.8599    14.0410    13.8918
  436.7000    98.8605    14.0403    13.8910
  436.8000    98.7603    14.0395    13.8533
  436.9000    98.5590    14.0002    13.7932
  437.0000    98.5598    13.9408    13.7924
  437.1000    98.5605    13.9400    13.7916
  437.2000    98.7627    13.9392    13.7909
  437.3000    98.8642    13.9385    13.7353
  437.4000    98.9656    13.8817    13.6938
  437.5000    99.2183    13.8404    13.6931
  437.6000    99.4711    13.8397    13.6840
  437.7000    99.7238    13.8389    13.5967
  437.8000   100.1783    13.8381    13.5960
  437.9000   100.6832    13.8374    13.5953
  438.0000   101.1881    13.8367    13.5945
  438.1000   101.6930    13.8359    13.5938
  438.2000   102.1979    13.8089    13.5821
  438.3000   102.4506    13.7386    13.4980
  438.4000   103.1068    13.7377    13.4973
  438.5000   103.7126    13.7370    13.4965
  438.6000   104.2175    13.6773    13.4958
  438.7000   104.6720    13.6404    13.4950
  438.8000   104.9248    13.6396    13.4808
  438.9000   105.4295    13.6266    13.4001
  439.0000   105.9344    13.5437    13.3994
  439.1000   106.2880    13.5430    13.3986
  439.2000   106.6417    13.5422    13.3979
  439.3000   107.1466    13.5415    13.3971
  439.4000   107.6514    13.5113    13.3963
  439.5000   107.9547    13.4463    13.3956
  439.6000   108.1569    13.4455    13.3947
  439.7000   108.4096    13.4448    13.3941
  439.8000   108.5616    13.4440    13.3933
  439.9000   108.5622    13.4433    13.3926
  440.0000   108.5628    13.4425    13.3919
  440.1000   108.5635    13.4417    13.3912
  440.2000   108.5640    13.4410    13.3903
  440.3000   108.5646    13.4401    13.3897
  440.4000   108.5652    13.4396    13.3889
  440.5000   108.5658    13.4388    13.3881
  440.6000   108.5664    13.4381    13.3874
  440.7000   108.3149    13.4373    13.3866
  440.8000   108.2651    13.4366    13.3858
  440.9000   108.2656    13.4357    13.3851
  441.0000   108.1654    13.4351    13.3844
  441.1000   107.9643    13.4343    13.3837
  441.2000   107.9649    13.4336    13.3830
  441.3000   107.9655    13.4328    13.3822
  441.4000   107.7644    13.4321    13.3814
  441.5000   107.6642    13.4312    13.4526
  441.6000   107.6647    13.4306    13.4733
  441.7000   107.6653    13.4298    13.4725
  441.8000   107.6660    13.4290    13.4718
  441.9000   107.6666    13.4283    13.4711
  442.0000   107.4655    13.4276    13.4703
  442.1000   107.3652    13.4268    13.4696
  442.2000   107.1641    13.4261    13.4688
  442.3000   106.6604    13.4254    13.4681
  442.4000   106.1567    13.4246    13.4673
  442.5000   105.8549    13.4239    13.4666
  442.6000   105.6536    13.4231    13.4658
  442.7000   105.2509    13.4223    13.4651
  442.8000   104.8480    13.4216    13.4643
  442.9000   104.5461    13.4209    13.4635
  443.0000   104.0424    13.4201    13.4628
  443.1000   103.7405    13.4194    13.4620
  443.2000   103.7410    13.4186    13.4613
  443.3000   103.7416    13.4179    13.4604
  443.4000   103.7422    13.4172    13.4598
  443.5000   103.7428    13.4741    13.4590
  443.6000   103.7434    13.5092    13.4583
  443.7000   103.9961    13.5084    13.4576
  443.8000   104.2489    13.4959    13.4569
  443.9000   104.5017    13.4134    13.4560
  444.0000   104.7544    13.4127    13.4554
  444.1000   104.9567    13.4119    13.4546
  444.2000   104.9573    13.4112    13.4538
  444.3000   104.9580    13.4104    13.4313
  444.4000   104.7568    13.4097    13.3591
  444.5000   104.6565    13.4089    13.3583
  444.6000   104.4554    13.4082    13.3576
  444.7000   104.0022    13.4075    13.3569
