~VERSION INFORMATION
 VERS.                2.0:   CWLS LOG ASCII STANDARD - VERSION 2.0
 WRAP.                 NO:   ONE LINE PER DEPTH STEP
~WELL INFORMATION
#MNEM.UNIT      DATA TYPE    INFORMATION
#----------   ------------   ------------------------------
 STRT.F           30.0000:   START DEPTH
 STOP.F          656.5000:   STOP DEPTH
 STEP.F            0.5000:   STEP LENGTH
 NULL.          -999.2500:   NO VALUE
 COMP. BROWN JOHN E&C INC:   COMPANY
 WELL. NPR 3 SHX-18-25 #25-11:   WELL
 FLD .              NPR 3:   FIELD
 LOC .      S11 T38N R78W:   LOCATION
 CNTY.            NATRONA:   COUNTY
 STAT.            WYOMING:   STATE
 CTRY. UNITED STATES OF AMERICA:   COUNTRY
 SRVC.           Gearhart:   SERVICE COMPANY
 DATE.        09-JUL-1987:   LOGDATE
 API .       490251114100:   API NUMBER
~CURVE INFORMATION
#MNEM.UNIT       API CODE    CURVE DESCRIPTION
#----------   ------------   ------------------------------
 DEPT.F                  :   
 GRR .GAPI   07 310 01 00:   GAMMA RAY FROM RES. LOG.
 RILM.OHMM   07 120 44 00:   INDUCTION LOG MEDIUM RESISTIVITY
 RILD.OHMM   07 120 46 00:   INDUCTION LOG DEEP RESISTIVITY
~PARAMETER INFORMATION
#MNEM.UNIT          VALUE    DESCRIPTION
#----------   ------------   ------------------------------
 PD  .                 GL:   PERMANENT DATUM
 EPD .F              5222:   ELEVATION PERMANENT DATUM
 LMF .                 KB:   LOG MEASURED FROM
 DAPD.F                 8:   FEET ABOVE PERMANENT DATUM
 DMF .                 KB:   DRILLING MEASURED FROM
 EKB .F              5230:   KELLING BUSHING
 EDF .F              5228:   DRILLING FLOOR
 EGL .F              5222:   GROUND LEVEL
 DATE.             7-9-87:   RUN DATE
 RUN .                  1:   RUN NUMBER
 DD  .F               662:   DEPTH DRILLER
 DL  .F               664:   DEPTH LOGGER
 BLI .F               662:   BOTTOM LOG INTERVAL
 TLI .F                30:   TOP LOG INTERVAL
 CS  .IN            8.625:   CASING SIZE
 CBD .F                48:   CASING BOTTOM DRILLER
 CBL .F                48:   CASING BOTTOM LOGGER
 BS  .IN            7.875:   BIT SIZE
 BSD .F               662:   BIT SIZE AT DEPTH
 DFT .                AIR:   DRILLING FLUID TYPE
 TLAB.HRS            1552:   TIME LOGGER AT BOTTOM
 MRT .F                80:   MAXIMUM RECORDED TEMPERATURE
 LUN .               7597:   LOGGING UNIT NUMBER
 LUL .           GILLETTE:   LOGGING UNIT LOCATION
 ENGI.         WEATHERMON:   RECORDING ENGINEER
 WITN.             STRONG:   WITNESSED BY
 CLNT.            A2DTECH:   CLIENT CODE
 ORIG.       2", 5" PRINT:   ORIGIN OF DATA
 UWI .       490251114100:   UNIQUE WELL ID
 DICO. A2D Technologies, Inc.:   DIGITIZING COMPANY
~OTHER INFORMATION
~A   DEPT       GRR      RILM       RILD   
# ...
  576.0000   114.8891     7.2656     6.7381
  576.5000   116.2785     6.7788     6.4367
  577.0000   116.8120     6.5614     6.3172
  577.5000   116.2199     6.6237     6.2663
  578.0000   115.6197     6.7399     6.3917
  578.5000   115.6915     6.8102     6.4853
  579.0000   119.5253     6.1515     6.5518
  579.5000   124.1827     5.7093     6.6127
  580.0000   128.7775     5.5566     6.7475
  580.5000   131.9573     5.8160     6.9198
  581.0000   123.9462     6.4177     7.1806
  581.5000   116.9334     7.0816     7.4046
  582.0000   110.2806     7.8141     7.9941
  582.5000   107.9391     8.6225     8.6403
  583.0000   106.0074     9.5145     9.3356
  583.5000   102.9170    10.0052    10.0868
  584.0000    99.8437    10.1590    10.4057
  584.5000    98.6636    10.3153    10.6249
  585.0000   101.8534    10.4739    10.8487
  585.5000   105.3988    10.7044    11.0772
  586.0000   108.1745    10.9668    11.3105
  586.5000   107.3188    11.2357    11.5487
  587.0000   106.8531    11.5365    11.7920
  587.5000   112.7599    11.7539    12.0404
  588.0000   114.1841    11.9979    12.2941
  588.5000   111.3535    12.2468    12.5524
  589.0000   108.4007    12.5010    12.8196
  589.5000   106.3343    12.7604    12.9945
  590.0000   107.0959    13.0252    13.1390
  590.5000   107.7644    13.2955    13.2850
  591.0000   107.5817    13.5714    13.4327
  591.5000   105.5629    13.8531    13.5821
  592.0000   103.5899    14.0253    13.7331
  592.5000   101.5681    14.0611    13.8858
  593.0000    99.7364    14.0969    14.0401
  593.5000    98.4197    14.1327    14.1393
  594.0000    97.5346    14.1687    14.0927
  594.5000    97.4125    14.2048    14.0586
  595.0000    99.6924    14.2410    14.0246
  595.5000   100.9523    14.2706    13.9907
  596.0000   101.8653    14.0759    13.9567
  596.5000   103.8582    13.9132    13.9229
  597.0000   106.0864    13.7524    13.8895
  597.5000   107.6208    13.5935    13.7922
  598.0000   106.4667    13.4364    13.6716
  598.5000   105.1110    13.2805    13.5522
  599.0000   105.4125    13.2100    13.4339
  599.5000   107.1375    13.1576    13.3166
  600.0000   108.7133    13.1055    13.2530
  600.5000   107.5124    13.0535    13.3310
  601.0000   105.9009    12.9777    13.3762
  601.5000   105.3919    12.7794    13.0901
  602.0000   105.4106    12.5842    12.8490
  602.5000   106.4521    12.3919    12.6123
  603.0000   108.4024    12.2026    12.3800
  603.5000   111.3385    12.0161    12.1519
  604.0000   113.3523    11.8326    11.9282
  604.5000   113.8241    11.6518    11.7179
  605.0000   113.6268    11.4738    11.5514
  605.5000   113.4921    11.2985    11.3869
  606.0000   114.9993    11.1258    11.2248
  606.5000   116.5945    10.9558    11.0650
  607.0000   116.6726    10.8043    10.9074
  607.5000   114.9672    10.6600    10.7521
  608.0000   113.3014    10.5176    10.5990
  608.5000   112.8016    10.3771    10.4480
  609.0000   113.4956    10.2385    10.2992
  609.5000   114.1861    10.1023    10.2146
  610.0000   114.8872    10.0256    10.1859
  610.5000   115.5926     9.9983    10.1573
  611.0000   116.2266     9.9702    10.1288
  611.5000   115.5292     9.9422    10.1003
  612.0000   114.7926     9.9143    10.0719
  612.5000   114.0656     9.8865    10.0437
  613.0000   113.3341     9.8583    10.0155
  613.5000   113.1806     9.7752     9.9873
  614.0000   113.4065     9.6377     9.9593
  614.5000   111.9786     9.5021     9.8309
  615.0000   109.9560     9.3685     9.6542
  615.5000   109.7440     9.2367     9.4807
  616.0000   112.7246     9.1194     9.3103
  616.5000   115.6761     9.0246     9.1430
  617.0000   118.6352     8.9307     8.9875
  617.5000   120.8142     8.8378     8.9260
  618.0000   118.4873     8.7458     8.8680
  618.5000   116.2597     8.6548     8.8104
  619.0000   114.9439     8.5024     8.7531
  619.5000   117.0961     8.3823     8.5386
  620.0000   119.3167     8.2698     8.2910
  620.5000   120.0934     7.9139     8.0506
  621.0000   118.5814     7.5917     7.8172
  621.5000   117.0142     7.2825     7.5906
  622.0000   117.5699     6.9860     7.5394
  622.5000   118.8162     6.8102     7.5394
  623.0000   120.1003     6.9630     7.6691
  623.5000   119.0674     7.1325     7.8755
  624.0000   117.4419     7.5396     8.0875
  624.5000   119.0910     7.9317     8.3411
  625.0000   120.8672     8.3443     8.7989
  625.5000   121.8462     8.7783     9.2818
  626.0000   120.5352     9.2349     9.7913
  626.5000   119.2139     9.7153    10.0427
  627.0000   117.9088    10.0274    10.2298
  627.5000   117.5501    10.2700    10.2067
  628.0000   117.2459    10.5175    10.1864
  628.5000   117.5098    10.5175    10.1661
  629.0000   118.4419    10.5175    10.1459
  629.5000   119.3830    10.5176    10.1257
  630.0000   120.2148    10.5160    10.1056
  630.5000   118.8150    10.5040    10.0856
  631.0000   117.3483    10.4920    10.0654
  631.5000   115.8941    10.4801    10.0426
  632.0000   114.4412    10.4681    10.0934
  632.5000   112.9824    10.4562    10.1537
  633.0000   111.5211    10.4444    10.2146
  633.5000   110.3398    10.4327    10.2759
  634.0000   111.6954    10.4194    10.3375
  634.5000   113.2852    10.3681    10.3994
  635.0000   114.8865    10.3162    10.4618
  635.5000   116.5033    10.2636    10.5175
  636.0000   115.3891    10.1774     9.9337
  636.5000   113.5909     9.8189     9.4354
  637.0000   111.7607     9.4731     9.0126
  637.5000   109.9445     9.1394     8.6437
  638.0000   108.5958     8.8175     8.2895
  638.5000   108.6689     8.5070     7.6160
  639.0000   111.2977     7.8780     6.7044
  639.5000   114.2157     7.1818     5.8850
  640.0000   114.0017     6.5392     5.0987
  640.5000   113.2074     5.5534     4.4174
  641.0000   112.8135     4.5215     3.8742
  641.5000   113.3933     3.8295     3.5288
  642.0000   111.9661     3.2986     3.2378
  642.5000   110.2583     2.8399     3.0182
  643.0000   111.6633     2.5570     2.9904
  643.5000   113.7623     2.5085     2.9904
  644.0000   115.8646     2.5319     3.1031
  644.5000   116.8244     2.8051     3.2844
  645.0000   117.1103     3.2035     3.5146
  645.5000   117.3816     3.6585     3.8645
  646.0000   117.6535     4.1781     4.4412
  646.5000   117.8516     4.7715     5.1039
  647.0000   117.6939     5.4491     5.8655
  647.5000   117.5422     6.2230     6.7107
  648.0000   116.6219     6.8172     7.4700
  648.5000   114.9348     7.3592     7.7593
  649.0000   114.2825     7.7629     8.0709
  649.5000   109.9567     8.0681     8.3950
  650.0000    98.9738     8.1641     8.5658
  650.5000    89.7658     8.2613     8.6600
  651.0000   104.0349     8.3596     8.7551
  651.5000   116.8767     8.4592     8.8511
  652.0000  -999.2500     8.5814     8.9875
  652.5000  -999.2500     8.5583     8.8835
  653.0000  -999.2500     8.5201     8.7128
  653.5000  -999.2500     8.4818     8.5454
  654.0000  -999.2500     8.4439     8.3812
  654.5000  -999.2500     8.4243     8.2201
  655.0000  -999.2500     8.4733     8.1183
  655.5000  -999.2500     8.5114  -999.2500
  656.0000  -999.2500     8.5497  -999.2500
  656.5000  -999.2500     8.5814  -999.2500
