~VERSION INFORMATION
 VERS.                2.0:   CWLS LOG ASCII STANDARD - VERSION 2.0
 WRAP.                 NO:   ONE LINE PER DEPTH STEP
~WELL INFORMATION
#MNEM.UNIT      DATA TYPE    INFORMATION
#----------   ------------   ------------------------------
 STRT.F           38.0000:   START DEPTH
 STOP.F          818.0000:   STOP DEPTH
 STEP.F            0.5000:   STEP LENGTH
 NULL.          -999.2500:   NO VALUE
 COMP. FENIX & SCISSON INC:   COMPANY
 WELL. NAVAL PETROLEUM RESERVE 3 SX-1 #32-14:   WELL
 FLD .             TEAPOT:   FIELD
 LOC .      S14 T38N R78W:   LOCATION
 CNTY.            NATRONA:   COUNTY
 STAT.            WYOMING:   STATE
 CTRY. UNITED STATES OF AMERICA:   COUNTRY
 SRVC.            Unknown:   SERVICE COMPANY
 DATE.        03-MAY-1978:   LOGDATE
 API .       490251061900:   API NUMBER
~CURVE INFORMATION
#MNEM.UNIT       API CODE    CURVE DESCRIPTION
#----------   ------------   ------------------------------
 DEPT.F                  :   
 SPR .MV     05 010 01 00:   SPONTANEOUS POTENTIAL FROM RES.
 ILD .OHMM   05 120 46 00:   INDUCTION LOG DEEP
 SN  .OHMM   05 040 16 00:   SHORT NORMAL 16"
 CALD.IN     45 280 60 00:   CALIPER
 GRD .GAPI   45 310 01 00:   GAMMA RAY FROM DENSITY LOG
 RHOB.G/C3   45 350 01 00:   BULK DENSITY
 DPHI.DEC    45 890 12 00:   DENSITY POROSITY SANDSTONE
 CORR.G/C3   45 356 01 00:   DENSITY CORRECTION
~PARAMETER INFORMATION
#MNEM.UNIT          VALUE    DESCRIPTION
#----------   ------------   ------------------------------
 PD  .                 GL:   PERMANENT DATUM
 EPD .F              5209:   ELEVATION PERMANENT DATUM
 LMF .                 KB:   LOG MEASURED FROM
 DAPD.F                 4:   FEET ABOVE PERMANENT DATUM
 DMF .                 KB:   DRILLING MEASURED FROM
 EKB .F              5213:   KELLING BUSHING
 EGL .F              5209:   GROUND LEVEL
 DATE.           5-3-1978:   RUN DATE
 RUN .                  1:   RUN NUMBER
 DD  .F               806:   DEPTH DRILLER
 DL  .F               824:   DEPTH LOGGER
 BLI .F               818:   BOTTOM LOG INTERVAL
 TLI .F                50:   TOP LOG INTERVAL
 CS  .IN            8.625:   CASING SIZE
 CBD .F                40:   CASING BOTTOM DRILLER
 BS  .IN            7.875:   BIT SIZE
 BSD .F               806:   BIT SIZE AT DEPTH
 DFT .                KCL:   DRILLING FLUID TYPE
 DFD .                8.6:   DRILLING FLUID DENSITY
 DFV .                 34:   DRILLING FLUID VISCOSITY
 DFPH.                  9:   DRILLING FLUID PH
 DFL .               16.4:   DRILLING FLUID LOSS
 MSS .           FLOWLINE:   MUD SAMPLE SOURCE
 RMS .OHMM            .75:   RESISTIVITY MUD SAMPLE
 MST .F                52:   MUD SAMPLE TEMPERATURE
 RMF .OHMM            .65:   RESISTIVITY MUD FILTRATE SAMPLE
 MFST.F                60:   MUD FILTRATE SAMPLE TEMPERATURE
 RMC .OHMM            1.2:   RESISTIVITY MUD CAKE
 MCST.F                62:   MUD CAKE SAMPLE TEMPERATURE
 MFSS.               MEAS:   MUD FILTRATE SAMPLE SOURCE
 RMB .OHMM            .54:   RESISTIVITY MUD AT BHT
 BHT .F                72:   BOTTOM HOLE TEMPERATURE
 TCS .HRS               1:   TIME CURCULATED STOPPED
 MRT .F                72:   MAXIMUM RECORDED TEMPERATURE
 LUN .               2958:   LOGGING UNIT NUMBER
 LUL .               CASP:   LOGGING UNIT LOCATION
 ENGI.             MILLER:   RECORDING ENGINEER
 WITN.           MCGINLEY:   WITNESSED BY
 CLNT.            A2DTECH:   CLIENT CODE
 ORIG.           5" PRINT:   ORIGIN OF DATA
 UWI .       490251061900:   UNIQUE WELL ID
 DICO. A2D Technologies, Inc.:   DIGITIZING COMPANY
~OTHER INFORMATION
~A   DEPT      SPR        ILD         SN         CALD      GRD       RHOB       DPHI       CORR   
# ...
  200.0000   -34.8445     7.6227    10.0702     8.4811    48.6142     2.4097     0.1895     0.0084
  200.5000   -35.5660     6.9465     8.6060     8.3945    56.2415     2.3887     0.2080     0.0047
  201.0000   -35.5575     6.2580     7.3547     8.3079    65.0024     2.3462     0.2324     0.0063
  201.5000   -35.6863     5.6487     6.2854     8.2214    74.4397     2.3006     0.2269     0.0185
  202.0000   -36.0601     5.5851     5.6368     8.1348    82.6443     2.2758     0.2165     0.0350
  202.5000   -36.3728     5.8131     5.6813     8.0367    84.5652     2.2954     0.2061     0.0374
  203.0000   -35.9970     6.1157     5.9262     7.8816    81.5742     2.3461     0.1957     0.0232
  203.5000   -35.1293     6.9578     6.3643     7.7256    70.7098     2.3667     0.1916     0.0205
  204.0000   -33.6385     8.0014     7.5698     7.5694    63.7157     2.3755     0.1929     0.0201
  204.5000   -33.1750     8.8875     8.6902     7.4110    64.1181     2.3704     0.1937     0.0197
  205.0000   -33.0960     9.8317     8.9300     7.3832    63.8507     2.3711     0.1908     0.0192
  205.5000   -33.0196    10.4786     9.0998     7.4312    63.1797     2.3774     0.1865     0.0187
  206.0000   -32.9421    10.7419     9.3216     7.4782    63.6643     2.3837     0.1857     0.0152
  206.5000   -32.8639    11.0119     9.5288     7.3605    64.8385     2.3822     0.1961     0.0078
  207.0000   -32.7859    11.2468     9.7405     7.2403    64.9210     2.3707     0.1965     0.0024
  207.5000   -32.7086    11.5426     9.9569     7.2244    64.7330     2.3632     0.1930     0.0052
  208.0000   -32.6297    11.8638    10.1781     7.2228    64.3998     2.3791     0.1849     0.0171
  208.5000   -32.4898    12.1929    10.4047     7.2852    63.5756     2.3885     0.1893     0.0202
  209.0000   -32.0989    12.5307    10.5652     7.4303    62.9445     2.3829     0.1918     0.0185
  209.5000   -31.7169    12.7947    10.7120     7.6076    63.0400     2.3769     0.1965     0.0167
  210.0000   -31.3757    12.9518    10.8606     7.7850    63.3400     2.3709     0.1965     0.0147
  210.5000   -31.3091    13.1055    11.0114     7.9625    63.6135     2.3646     0.1953     0.0165
  211.0000   -31.2395    13.2231    11.1643     8.1433    63.6520     2.3654     0.1936     0.0202
  211.5000   -31.1688    13.3284    11.3193     8.2862    63.6994     2.3674     0.1919     0.0253
  212.0000   -31.0979    13.3988    11.4764     8.4644    63.7452     2.3699     0.1901     0.0304
  212.5000   -31.0271    13.3977    11.6358     8.6345    63.7831     2.3816     0.1808     0.0310
  213.0000   -30.9562    13.3977    11.7973     8.6408    64.2610     2.3956     0.1767     0.0275
  213.5000   -30.8853    13.4550    11.9611     8.6395    64.4095     2.4075     0.1759     0.0240
  214.0000   -30.8141    13.6072    12.0157     8.6272    63.3605     2.4065     0.1762     0.0205
  214.5000   -30.7553    13.7612    12.1155     8.5181    63.0990     2.4021     0.1802     0.0170
  215.0000   -30.7097    13.9169    12.2162     8.3968    65.5491     2.3951     0.1854     0.0163
  215.5000   -30.6641    14.0744    12.3177     8.2805    68.3088     2.3892     0.1898     0.0161
  216.0000   -30.6184    14.1783    12.4975     8.0407    69.0036     2.3839     0.1940     0.0159
  216.5000   -30.5728    14.2199    12.6783     7.7495    65.3670     2.3726     0.1985     0.0158
  217.0000   -30.5271    14.2617    12.6776     7.5852    65.1008     2.3616     0.2033     0.0155
  217.5000   -30.4814    14.4188    12.6775     7.5773    65.5042     2.3507     0.2080     0.0154
  218.0000   -30.4358    14.8173    12.6774     7.5623    65.8972     2.3428     0.2127     0.0152
  218.5000   -30.3901    14.9965    12.6774     7.4319    65.3868     2.3377     0.2157     0.0149
  219.0000   -30.3445    15.2014    12.7336     7.2920    64.0558     2.3374     0.2142     0.0147
  219.5000   -30.2988    15.4091    12.8837     7.2633    62.7196     2.3417     0.2101     0.0146
  220.0000   -30.2531    15.6197    13.0356     7.2558    61.5412     2.3507     0.2078     0.0115
  220.5000   -30.2075    15.8331    13.1892     7.2480    64.4378     2.3598     0.2055     0.0065
  221.0000   -30.1618    16.0494    13.3644     7.2666    66.5997     2.3603     0.2027     0.0023
  221.5000   -30.1162    16.2687    13.5664     7.4939    67.2317     2.3545     0.1976     0.0087
  222.0000   -30.0704    16.4910    13.7714     7.6011    66.8987     2.3615     0.1924     0.0166
  222.5000   -30.0246    16.8398    13.9796     7.7867    65.1195     2.3813     0.1874     0.0165
  223.0000   -29.9811    17.2661    14.1909     8.0270    62.8182     2.3853     0.1745     0.0190
  223.5000   -29.9798    17.7033    14.6889     8.1161    60.5151     2.3870     0.1610     0.0246
  224.0000   -29.9800    18.3237    15.4628     8.2073    58.7388     2.4268     0.1440     0.0303
  224.5000   -29.9797    19.3971    16.2775     8.2984    58.7191     2.4639     0.1280     0.0359
  225.0000   -29.9785    20.5333    17.1351     8.3860    58.8146     2.4990     0.1112     0.0416
  225.5000   -29.9842    21.6466    18.3990     8.4439    58.5204     2.5339     0.0936     0.0442
  226.0000   -30.3262    22.6535    20.3264     8.5014    57.6711     2.5709     0.0761     0.0296
  226.5000   -30.5807    22.6526    21.4837     8.5590    56.8845     2.5725     0.0761     0.0183
  227.0000   -30.5772    22.4139    21.8257     8.6166    53.3501     2.5664     0.0980     0.0186
  227.5000   -30.5780    22.2520    21.8457     8.6745    50.0514     2.5422     0.1184     0.0197
  228.0000   -30.5777    21.6234    20.4451     8.6937    50.1819     2.5095     0.1412     0.0213
  228.5000   -30.5777    20.4200    19.2367     8.6424    53.3878     2.4606     0.1610     0.0236
  229.0000   -30.5777    19.0830    18.1055     8.5782    60.1347     2.4410     0.1673     0.0260
  229.5000   -30.5777    17.8336    17.0417     8.5140    64.2447     2.4282     0.1854     0.0263
  230.0000   -30.5777    16.7275    16.0911     8.4498    64.1024     2.3924     0.1955     0.0258
  230.5000   -30.5777    15.9614    15.2737     8.3857    63.9581     2.3736     0.2024     0.0253
  231.0000   -30.5777    15.2303    14.6467     8.3220    63.7967     2.3606     0.2069     0.0248
  231.5000   -30.5777    14.7278    14.1415     8.2599    63.6367     2.3532     0.2043     0.0244
  232.0000   -30.5777    14.4994    13.7355     8.1375    63.5088     2.3602     0.1959     0.0239
  232.5000   -30.5774    14.2746    13.5848     8.0177    64.0259     2.3687     0.1897     0.0234
  233.0000   -30.5758    14.1589    13.4358     7.9820    67.9888     2.3773     0.1893     0.0229
  233.5000   -30.5868    14.2204    13.2749     7.9970    71.2263     2.3836     0.1886     0.0224
  234.0000   -30.8292    14.2621    12.9560     8.0273    70.8090     2.3845     0.1872     0.0219
  234.5000   -31.0746    14.2899    12.6135     8.0690    69.5723     2.3856     0.1838     0.0214
  235.0000   -31.3187    13.9878    12.2801     8.1219    68.3466     2.3880     0.1779     0.0209
  235.5000   -31.5624    13.5542    11.9555     8.1745    67.9440     2.4016     0.1718     0.0204
  236.0000   -31.8235    12.3324    11.4161     8.2272    68.1831     2.4116     0.1671     0.0199
  236.5000   -32.1562    11.2306    10.8423     8.2798    71.3240     2.4204     0.1577     0.0194
  237.0000   -32.4957    10.5922    10.0248     8.3115    75.2130     2.4360     0.1488     0.0189
  237.5000   -32.9296    10.0740     9.2071     8.3427    76.4353     2.4521     0.1459     0.0184
  238.0000   -33.8112     9.3398     8.4517     8.3825    78.7374     2.4532     0.1459     0.0214
  238.5000   -34.6856     8.5473     7.9154     8.3834    80.1363     2.4504     0.1459     0.0251
  239.0000   -35.3739     7.9238     7.6881     8.3853    79.6889     2.4608     0.1355     0.0254
  239.5000   -35.4286     7.9238     7.6423     8.3875    79.2419     2.4821     0.1307     0.0230
  240.0000   -35.5042     7.9256     7.5977     8.3897    78.8045     2.4812     0.1362     0.0206
