~VERSION INFORMATION
 VERS.                2.0:   CWLS LOG ASCII STANDARD - VERSION 2.0
 WRAP.                 NO:   ONE LINE PER DEPTH STEP
~WELL INFORMATION
#MNEM.UNIT      DATA TYPE    INFORMATION
#----------   ------------   ------------------------------
 STRT.F           80.0000:   START DEPTH
 STOP.F          715.0000:   STOP DEPTH
 STEP.F            0.5000:   STEP LENGTH
 NULL.          -999.2500:   NO VALUE
 COMP. U S NAVY-INTEX OIL:   COMPANY
 WELL.     NPR #3 #37-S-2:   WELL
 FLD .             TEAPOT:   FIELD
 LOC .       S2 T38N R78W:   LOCATION
 CNTY.            NATRONA:   COUNTY
 STAT.            WYOMING:   STATE
 CTRY. UNITED STATES OF AMERICA:   COUNTRY
 SRVC.       Schlumberger:   SERVICE COMPANY
 DATE.        21-JUN-1962:   LOGDATE
 API .       490250640600:   API NUMBER
~CURVE INFORMATION
#MNEM.UNIT       API CODE    CURVE DESCRIPTION
#----------   ------------   ------------------------------
 DEPT.F                  :   
 ASN .OHMM   05 041 16 00:   AMPLIFIED SHORT NORMAL 16"
 CILD.MMHO   05 110 46 00:   CONDUCTIVITY INDUCTION LOG DEEP
 ILD .OHMM   05 120 46 00:   INDUCTION LOG DEEP
 SPR .MV     05 010 01 00:   SPONTANEOUS POTENTIAL FROM RES.
 GR  .GAPI   30 310 01 00:   GAMMA RAY
~PARAMETER INFORMATION
#MNEM.UNIT          VALUE    DESCRIPTION
#----------   ------------   ------------------------------
 LMF .                 KB:   LOG MEASURED FROM
 DMF .                 KB:   DRILLING MEASURED FROM
 EKB .F              5159:   KELLING BUSHING
 EGL .F              5154:   GROUND LEVEL
 DATE.        21-JUN-1962:   RUN DATE
 RUN .                  1:   RUN NUMBER
 DD  .F               715:   DEPTH DRILLER
 DL  .F               716:   DEPTH LOGGER
 BLI .F               715:   BOTTOM LOG INTERVAL
 TLI .F                80:   TOP LOG INTERVAL
 BS  .IN             6.75:   BIT SIZE
 BSD .F               715:   BIT SIZE AT DEPTH
 DFT .       OIL-EMULSION:   DRILLING FLUID TYPE
 DFD .                9.3:   DRILLING FLUID DENSITY
 DFV .                 50:   DRILLING FLUID VISCOSITY
 DFL .                3.8:   DRILLING FLUID LOSS
 RMS .OHMM            3.9:   RESISTIVITY MUD SAMPLE
 MST .F                72:   MUD SAMPLE TEMPERATURE
 RMF .OHMM            2.6:   RESISTIVITY MUD FILTRATE SAMPLE
 MFST.F                72:   MUD FILTRATE SAMPLE TEMPERATURE
 RMC .OHMM            5.2:   RESISTIVITY MUD CAKE
 MCST.F                72:   MUD CAKE SAMPLE TEMPERATURE
 TCS .HRS               1:   TIME CURCULATED STOPPED
 LUN .               2503:   LOGGING UNIT NUMBER
 LUL .               CSPR:   LOGGING UNIT LOCATION
 ENGI.             DANNER:   RECORDING ENGINEER
 WITN.          JORGENSEN:   WITNESSED BY
 CLNT.            A2DTECH:   CLIENT CODE
 ORIG.           5" PRINT:   ORIGIN OF DATA
 UWI .       490250640600:   UNIQUE WELL ID
 DICO. A2D Technologies, Inc.:   DIGITIZING COMPANY
~OTHER INFORMATION
~A   DEPT        ASN      CILD         ILD      SPR         GR   
# ...
  385.0000     9.2900   119.4686     7.9866   -74.6497  -999.2500
  385.5000     9.3220   119.4015     8.0672   -74.0232  -999.2500
  386.0000     9.3537   118.5758     8.2232   -72.7903  -999.2500
  386.5000     9.3854   118.4955     8.2285   -72.6245  -999.2500
  387.0000     9.3869   118.4292     8.2348   -72.4586  -999.2500
  387.5000     9.3883   119.1205     8.0891   -72.4453  -999.2500
  388.0000     9.3743   119.0542     7.9434   -72.2794  -999.2500
  388.5000     9.3006   118.9879     7.8719   -72.2660  -999.2500
  389.0000     9.2266   120.4367     7.7275   -72.1002  -999.2500
  389.5000     9.1979   121.1288     7.6560   -72.0868  -999.2500
  390.0000     9.1540   122.6262     7.6624   -72.0630  -999.2500
  390.5000     9.0501   127.0394     7.5166   -71.9070  -999.2500
  391.0000     8.9458   129.2624     7.4465   -71.8908  -999.2500
  391.5000     8.8114   131.4523     7.3762   -71.8774  -999.2500
  392.0000     8.7222   132.9011     7.3060   -71.8640  -999.2500
  392.5000     8.6179   133.6090     7.2357   -71.8506  -999.2500
  393.0000     8.5138   134.3003     7.1654   -71.9930  -999.2500
  393.5000     8.3683   136.4924     7.1719   -72.1321  -999.2500
  394.0000     8.2297   139.4541     7.1004   -72.1153  -999.2500
  394.5000     8.2009   140.1454     7.1068   -72.2546  -999.2500
  395.0000     8.2175   139.3049     7.1120   -72.3934  -999.2500
  395.5000     8.2650   137.7235     7.2679   -72.5518  -999.2500
  396.0000     8.3609   136.1420     7.4239   -73.8876  -999.2500
  396.5000     8.5547   133.0454     7.4291   -74.4840  -999.2500
  397.0000     8.7374   129.9488     7.4914   -74.6264  -999.2500
  397.5000     8.9050   126.8522     7.5717   -74.4572  -999.2500
  398.0000     9.0576   123.7556     7.6521   -74.1389  -999.2500
  398.5000     9.2101   122.1741     7.6765   -73.8207  -999.2500
  399.0000     9.2263   120.5909     7.7572   -73.8073  -999.2500
  399.5000     9.0318   118.9946     7.8388   -73.6414  -999.2500
  400.0000     8.9577   117.4132     7.9948   -73.3232  -999.2500
  400.5000     9.2710   117.3469     8.0754   -73.1570  -999.2500
  401.0000     9.4595   117.2806     8.0806   -73.1406  -999.2500
  401.5000     9.4006   118.7294     8.0090   -73.1272  -999.2500
  402.0000     9.3324   120.1949     8.0155   -73.4187  -999.2500
  402.5000     9.2517   121.6288     8.0206   -73.7135  -999.2500
  403.0000     9.1927   123.0760     8.0258   -73.6968  -999.2500
  403.5000     9.1638   123.0097     7.9555   -73.0736  -999.2500
  404.0000     9.1346   125.1995     7.8309   -72.7553  -999.2500
  404.5000     9.0758   125.9074     7.6709   -72.4371  -999.2500
  405.0000     9.0617   126.5986     7.6784   -72.4237  -999.2500
  405.5000     9.0181   128.0309     7.6074   -72.2480  -999.2500
  406.0000     9.0040   127.9646     7.6148   -72.0671  -999.2500
  406.5000     9.0056   127.1407     7.6208   -71.9228  -999.2500
  407.0000     9.0070   125.5593     7.7022   -71.8912  -999.2500
  407.5000     9.0083   125.4924     7.7081   -71.8517  -999.2500
  408.0000     9.0250   125.4242     7.7141   -72.1401  -999.2500
  408.5000     9.0412   123.8286     7.7954   -72.2760  -999.2500
  409.0000     9.0598   122.2472     7.9522   -72.4119  -999.2500
  409.5000     9.2557   119.1506     7.9581   -72.8527  -999.2500
  410.0000     9.4987   118.3267     8.1149   -72.3747  -999.2500
  410.5000     9.6360   115.9877     8.1963   -72.2058  -999.2500
  411.0000     9.7280   113.6486     8.3531   -72.1893  -999.2500
  411.5000     9.8351   112.0672     8.4344   -72.1727  -999.2500
  412.0000     9.9724   109.7273     8.5913   -72.1562  -999.2500
  412.5000    10.0886   107.2601     8.7544   -72.2921  -999.2500
  413.0000    10.2318   105.0513     8.9050   -72.4322  -999.2500
  413.5000    10.5353   102.2603     9.0630   -72.5640  -999.2500
  414.0000    10.6877   100.0298     9.2198   -72.7040  -999.2500
  414.5000    10.8401    97.7045     9.4520   -72.6834  -999.2500
  415.0000    11.0991    96.8939     9.6842   -72.3620  -999.2500
  415.5000    11.3715    94.5682     9.8410   -71.8881  -999.2500
  416.0000    11.6769    91.4749    10.1486   -72.0244  -999.2500
  416.5000    11.5872    88.3925    10.2299   -72.4649  -999.2500
  417.0000    11.7008    85.3101    10.3867   -73.0640  -999.2500
  417.5000    12.2835    83.7428    10.6189   -73.8038  -999.2500
  418.0000    12.4356    82.1756    10.7003   -74.3970  -999.2500
  418.5000    12.3614    82.1235    10.7062   -74.6854  -999.2500
  419.0000    12.3630    82.0713    10.5614   -75.1220  -999.2500
  419.5000    12.3644    82.7768    10.4917   -75.2621  -999.2500
  420.0000    12.3657    84.2398    10.4978   -75.2414  -999.2500
  420.5000    12.2915    84.9470    10.5038   -75.0725  -999.2500
  421.0000    12.2170    84.8932    10.5098   -74.7451  -999.2500
  421.5000    12.0676    85.6060    10.5157   -74.2998  -999.2500
  422.0000    12.0690    87.1212    10.3590   -73.8048  -999.2500
  422.5000    11.9192    89.5076    10.0766   -73.6358  -999.2500
  423.0000    11.7695    92.2474     9.9317   -74.2290  -999.2500
  423.5000    11.6198    92.9659     9.9376   -74.3650  -999.2500
  424.0000    11.4701    93.6583     9.9436   -74.0394  -999.2500
  424.5000    11.4714    93.6062     9.6479   -73.4132  -999.2500
  425.0000    11.4728    93.5541     9.6538   -73.2442  -999.2500
  425.5000    11.3986    93.5020     9.6598   -73.2277  -999.2500
  426.0000    11.4002    93.4499     9.6657   -73.2112  -999.2500
  426.5000    11.4014    93.3977     9.6717   -73.3512  -999.2500
  427.0000    11.4027    93.3456     9.7530   -74.0928  -999.2500
  427.5000    11.4043    93.2935     9.8344   -74.6860  -999.2500
  428.0000    11.4811    92.4838     9.8404   -73.7548  -999.2500
  428.5000    11.3311    91.6741     9.9971   -72.9761  -999.2500
  429.0000    11.1817    91.6212     9.9277   -73.1128  -999.2500
  429.5000    11.1072    93.0850     9.7821   -73.4004  -999.2500
  430.0000    11.0330    94.5350     9.7084   -73.9939  -999.2500
  430.5000    10.8836    95.2535     9.6347   -73.6722  -999.2500
  431.0000    10.7339    95.9590     9.5744   -73.3425  -999.2500
  431.5000    10.5841    96.6644     9.5064   -72.8765  -999.2500
  432.0000    10.3589    97.3699     9.4355   -72.7073  -999.2500
  432.5000    10.2847    98.8199     9.3660   -72.3825  -999.2500
  433.0000    10.2861    99.5254     9.1472   -72.3660  -999.2500
  433.5000    10.2875   101.7460     9.0023   -72.3495  -999.2500
  434.0000    10.2888   102.4644     8.9314   -72.4895  -999.2500
  434.5000     9.9826   104.6742     8.9388   -72.6254  -999.2500
  435.0000     9.6042   104.6199     8.8678   -72.7572  -999.2500
  435.5000     9.4620   105.3254     8.7984   -72.8973  -999.2500
  436.0000     9.3878   106.7884     8.5781   -72.5717  -999.2500
  436.5000     9.3895   107.4939     8.5855   -72.5552  -999.2500
  437.0000     9.4664   109.8485     8.5915   -72.3863  -999.2500
  437.5000     9.6188   110.4199     8.5974   -72.5229  -999.2500
  438.0000     9.6956   110.3548     8.6034   -72.5057  -999.2500
  438.5000     9.6970   110.3027     8.6094   -72.6418  -999.2500
  439.0000     9.6983   108.7354     8.6154   -72.7775  -999.2500
  439.5000     9.7752   107.1681     8.7076   -72.7607  -999.2500
  440.0000    10.0031   104.8433     8.9303   -72.7439  -999.2500
  440.5000    10.0796   101.7609     9.0117   -72.7238  -999.2500
  441.0000     9.7792   100.1936     9.0176   -73.6219  -999.2500
  441.5000     9.6295    99.3839     8.9467   -74.2193  -999.2500
  442.0000     9.4798   100.8485     8.9541   -72.9791  -999.2500
  442.5000     9.6359   102.3100     8.9600   -72.3528  -999.2500
  443.0000     9.7091   103.7730     8.9660   -72.3363  -999.2500
  443.5000     9.7104   105.9936     8.8965   -72.4764  -999.2500
  444.0000     9.6362   107.5758     8.5254   -72.4749  -999.2500
  444.5000     9.6225   111.1794     8.0789   -72.5023  -999.2500
  445.0000     9.4416   115.6857     7.8586   -72.5298  -999.2500
  445.5000     9.3007   122.4388     7.7137   -72.5586  -999.2500
