~VERSION INFORMATION
 VERS.                2.0:   CWLS LOG ASCII STANDARD - VERSION 2.0
 WRAP.                 NO:   ONE LINE PER DEPTH STEP
~WELL INFORMATION
#MNEM.UNIT      DATA TYPE    INFORMATION
#----------   ------------   ------------------------------
 STRT.F           34.5000:   START DEPTH
 STOP.F          756.0000:   STOP DEPTH
 STEP.F            0.5000:   STEP LENGTH
 NULL.          -999.2500:   NO VALUE
 COMP. FENIX & SCISSON INC:   COMPANY
 WELL.    36 SX 11 #36-11:   WELL
 FLD .        TEAPOT DOME:   FIELD
 LOC .      S11 T38N R78W:   LOCATION
 CNTY.            NATRONA:   COUNTY
 STAT.            WYOMING:   STATE
 CTRY. UNITED STATES OF AMERICA:   COUNTRY
 SRVC.           BIRDWELL:   SERVICE COMPANY
 DATE.        21-FEB-1978:   LOGDATE
 API .       490251059700:   API NUMBER
~CURVE INFORMATION
#MNEM.UNIT       API CODE    CURVE DESCRIPTION
#----------   ------------   ------------------------------
 DEPT.F                  :   
 SPR .MV     05 010 01 00:   SPONTANEOUS POTENTIAL FROM RES.
 SN  .OHMM   05 040 16 00:   SHORT NORMAL 16"
 ILD .OHMM   05 120 46 00:   INDUCTION LOG DEEP
 RHOB.G/C3   45 350 01 00:   BULK DENSITY
 DPHI.DEC    45 890 12 00:   DENSITY POROSITY SANDSTONE
 GRD .GAPI   45 310 01 00:   GAMMA RAY FROM DENSITY LOG
 CALD.IN     45 280 60 00:   CALIPER
 CORR.G/C3   45 356 01 00:   DENSITY CORRECTION
~PARAMETER INFORMATION
#MNEM.UNIT          VALUE    DESCRIPTION
#----------   ------------   ------------------------------
 PD  .                 GL:   PERMANENT DATUM
 EPD .F              5175:   ELEVATION PERMANENT DATUM
 LMF .                 KB:   LOG MEASURED FROM
 DAPD.F                 4:   FEET ABOVE PERMANENT DATUM
 DMF .                 KB:   DRILLING MEASURED FROM
 EKB .F              5179:   KELLING BUSHING
 EGL .F              5175:   GROUND LEVEL
 DATE.          2-21-1978:   RUN DATE
 RUN .                  1:   RUN NUMBER
 DD  .F               765:   DEPTH DRILLER
 DL  .F               760:   DEPTH LOGGER
 BLI .F               754:   BOTTOM LOG INTERVAL
 TLI .F                40:   TOP LOG INTERVAL
 CS  .IN            8.625:   CASING SIZE
 CBD .F                39:   CASING BOTTOM DRILLER
 CBL .F                40:   CASING BOTTOM LOGGER
 BS  .IN            7.875:   BIT SIZE
 BSD .F               765:   BIT SIZE AT DEPTH
 DFT .         LIGNO/SULF:   DRILLING FLUID TYPE
 DFD .                8.6:   DRILLING FLUID DENSITY
 DFV .                 33:   DRILLING FLUID VISCOSITY
 DFPH.               10.5:   DRILLING FLUID PH
 DFL .                 84:   DRILLING FLUID LOSS
 MSS .          FLOW LINE:   MUD SAMPLE SOURCE
 RMS .OHMM            1.8:   RESISTIVITY MUD SAMPLE
 MST .F                56:   MUD SAMPLE TEMPERATURE
 RMF .OHMM            1.8:   RESISTIVITY MUD FILTRATE SAMPLE
 MFST.F                58:   MUD FILTRATE SAMPLE TEMPERATURE
 RMC .OHMM              4:   RESISTIVITY MUD CAKE
 MCST.F                62:   MUD CAKE SAMPLE TEMPERATURE
 MFSS.               MEAS:   MUD FILTRATE SAMPLE SOURCE
 RMB .OHMM           1.48:   RESISTIVITY MUD AT BHT
 BHT .F                68:   BOTTOM HOLE TEMPERATURE
 TCS .HRS               5:   TIME CURCULATED STOPPED
 MRT .F                68:   MAXIMUM RECORDED TEMPERATURE
 LUN .               2958:   LOGGING UNIT NUMBER
 LUL .               CASP:   LOGGING UNIT LOCATION
 ENGI.            POINTER:   RECORDING ENGINEER
 WITN.           MCGINLEY:   WITNESSED BY
 CLNT.            A2DTECH:   CLIENT CODE
 ORIG.       2", 5" PRINT:   ORIGIN OF DATA
 UWI .       490251059700:   UNIQUE WELL ID
 DICO. A2D Technologies, Inc.:   DIGITIZING COMPANY
~OTHER INFORMATION
~A   DEPT      SPR         SN        ILD       RHOB       DPHI         GRD      CALD       CORR   
# ...
  318.0000   -25.9126     9.2178     8.1726     2.4888     0.0966   110.2678     7.9738     0.0191
  318.5000   -26.1242     9.3262     8.1536     2.5006     0.0922   109.0525     7.9738     0.0201
  319.0000   -26.3463     9.2366     8.1347     2.5128     0.0961   105.3939     7.9738     0.0210
  319.5000   -26.5675     9.1573     8.1158     2.5129     0.1035   103.7367     7.9738     0.0174
  320.0000   -26.7873     9.0788     8.0969     2.4997     0.1110   105.0760     7.9738     0.0136
  320.5000   -26.9165     9.0009     8.0781     2.4885     0.1158   106.0401     7.9738     0.0117
  321.0000   -26.9152     8.9048     8.0593     2.4769     0.1138   106.4179     7.9738     0.0173
  321.5000   -26.9154     8.9156     8.0406     2.4728     0.1145   108.9572     7.9738     0.0228
  322.0000   -26.9154     8.9299     8.0219     2.4705     0.1166   109.9574     7.9738     0.0225
  322.5000   -26.9163     8.9442     8.0033     2.4696     0.1192   106.4765     7.9738     0.0216
  323.0000   -26.9217     8.9586     7.9847     2.4705     0.1189   103.2569     7.9738     0.0209
  323.5000   -26.6953     8.9730     7.9695     2.4679     0.1203   100.0175     7.9738     0.0201
  324.0000   -26.4411     8.9874     8.0007     2.4633     0.1214    96.7673     7.9738     0.0193
  324.5000   -26.1841     9.0018     8.0327     2.4624     0.1194    93.5830     7.9738     0.0220
  325.0000   -25.9203     9.0162     8.0648     2.4709     0.1154    90.3728     7.9738     0.0393
  325.5000   -25.9042     9.0307     8.0970     2.4812     0.1114    87.6534     7.9738     0.0542
  326.0000   -25.9411     9.0453     8.1294     2.4884     0.1091    85.3530     7.9738     0.0591
  326.5000   -26.2365     9.0596     8.1619     2.4818     0.1098    85.2169     7.9738     0.0590
  327.0000   -26.5342     9.0705     8.1937     2.4853     0.1086    88.6127     7.9738     0.0589
  327.5000   -26.8310     9.0139     8.2809     2.4891     0.1067    91.9143     7.9738     0.0573
  328.0000   -27.1239     8.9875     8.3669     2.4929     0.1049    90.7410     7.9738     0.0556
  328.5000   -27.2982     9.2740     8.4538     2.4966     0.1038    89.0332     7.9738     0.0550
  329.0000   -27.2262     9.4792     8.5614     2.4972     0.1046    90.2563     7.9738     0.0564
  329.5000   -27.1590     9.6776     8.6951     2.4857     0.1095    92.0981     7.9738     0.0581
  330.0000   -27.1236     9.7570     8.8310     2.4765     0.1148    95.9756     7.9738     0.0612
  330.5000   -27.3070     9.8329     8.9690     2.4784     0.1198   100.7873     7.9738     0.0556
  331.0000   -27.1761     9.9095     9.1091     2.4731     0.1218   102.2740     7.9738     0.0474
  331.5000   -27.0304    10.0124     9.2403     2.4607     0.1218   100.2611     7.9738     0.0390
  332.0000   -26.9505    10.2418     9.4635     2.4622     0.1190    96.3026     7.9738     0.0344
  332.5000   -27.1605    10.4766     9.6755     2.4677     0.1159    92.4901     7.9738     0.0283
  333.0000   -27.3646    10.7167     9.8922     2.4793     0.1118    88.6713     7.9738     0.0332
  333.5000   -27.5685    10.9623    10.1356     2.4931     0.1070    84.8776     7.9738     0.0262
  334.0000   -27.7706    11.2136    10.2272     2.5045     0.1038    81.8967     7.9738     0.0184
  334.5000   -27.8993    11.4706    10.3296     2.4956     0.1098    82.6386     7.9738     0.0128
  335.0000   -27.7649    11.7335    10.4331     2.4842     0.1086    85.1596     7.9738     0.0141
  335.5000   -27.6371    11.8692    10.5377     2.4832     0.1068    85.5640     7.9738     0.0153
  336.0000   -27.5215    11.8943    10.6441     2.4987     0.1050    83.8982     7.9738     0.0166
  336.5000   -27.5201    11.9194    10.7133     2.5091     0.1066    81.4377     7.9739     0.0178
  337.0000   -27.5229    11.9447    10.6954     2.4940     0.1088    79.9536     7.9742     0.0190
  337.5000   -27.5039    11.9712    10.6816     2.4870     0.1108    79.1298     7.9745     0.0202
  338.0000   -27.1810    11.7961    10.6678     2.4822     0.1136    80.7264     7.9748     0.0210
  338.5000   -26.7554    11.6146    10.6540     2.4774     0.1146    81.2017     7.9751     0.0210
  339.0000   -26.8861    11.4303    10.6403     2.4818     0.1146    80.7095     7.9754     0.0210
  339.5000   -27.2283    11.4303    10.6269     2.4796     0.1146    82.7427     7.9757     0.0210
  340.0000   -27.5130    11.4303    10.6150     2.4728     0.1152    86.7218     7.9759     0.0206
  340.5000   -27.3933    11.3312    10.5192     2.4782     0.1208    90.7436     7.9763     0.0184
  341.0000   -27.3169    11.1632    10.4215     2.4830     0.1246    88.8250     7.9765     0.0161
  341.5000   -27.3804    10.9974    10.3250     2.4629     0.1276    86.3519     7.9768     0.0139
  342.0000   -27.7908    10.8340    10.2294     2.4546     0.1308    85.3808     7.9771     0.0130
  342.5000   -28.1978    10.6728    10.1347     2.4511     0.1340    84.5248     7.9774     0.0130
  343.0000   -28.5369    10.5166    10.0408     2.4464     0.1343    83.2882     7.9777     0.0131
  343.5000   -28.5294    10.5428     9.9477     2.4400     0.1326    80.4861     7.9780     0.0128
  344.0000   -28.5294    10.5750     9.8555     2.4695     0.1310    77.7451     7.9783     0.0060
  344.5000   -28.5332    10.6068     9.7675     2.4606     0.1293    76.3658     7.9786    -0.0010
  345.0000   -28.4860    10.6387     9.8541     2.4471     0.1342    78.6052     7.9789    -0.0079
  345.5000   -28.0441    10.6707     9.9589     2.4353     0.1402    80.0387     7.9792    -0.0109
  346.0000   -27.6856    10.7006    10.0647     2.4324     0.1394    80.4997     7.9795    -0.0046
  346.5000   -27.3336    10.9234    10.1717     2.4312     0.1118    80.9926     7.9798     0.0016
  347.0000   -26.9823    10.9026    10.4096     2.4405     0.1083    80.8941     7.9801     0.0052
  347.5000   -26.6292    11.7297    10.8106     2.4671     0.0981    77.7761     7.9804     0.0103
  348.0000   -26.6515    12.3359    11.2269     2.4885     0.0858    74.6465     7.9807     0.0134
  348.5000   -26.9503    12.5377    11.5365     2.5001     0.0707    73.4917     7.9810     0.0314
  349.0000   -27.2490    12.2817    11.6437     2.5555     0.0814    76.6518     7.9812     0.0470
  349.5000   -27.5201    12.0378    11.5365     2.5392     0.0977    83.4893     7.9816     0.0444
  350.0000   -27.5595    11.5352    10.8574     2.5091     0.1138    85.7131     7.9818     0.0235
  350.5000   -27.5937    10.9230    10.1395     2.4773     0.1302    82.9363     7.9821     0.0169
  351.0000   -27.6285    10.3485     9.7193     2.4633     0.1316    78.9919     7.9824     0.0194
  351.5000   -27.6635     9.7675     9.3967     2.4526     0.1322    75.7968     7.9827     0.0223
  352.0000   -27.6984     9.6214     9.0890     2.4424     0.1318    79.5844     7.9830     0.0230
  352.5000   -27.7360     9.5171     8.7908     2.4435     0.1292    87.3612     7.9833     0.0222
  353.0000   -27.7783     9.4140     8.5814     2.4527     0.1267    89.3130     7.9836     0.0213
  353.5000   -27.8208     9.3120     8.5084     2.4620     0.1260    86.5488     7.9839     0.0203
  354.0000   -27.8636     9.2111     8.4331     2.4576     0.1318    85.5944     7.9842     0.0194
  354.5000   -27.9055     9.1112     8.3584     2.4522     0.1304    86.5774     7.9845     0.0185
  355.0000   -27.8823     9.0705     8.2838     2.4471     0.1308    87.6726     7.9848     0.0176
  355.5000   -27.6205     9.0709     8.2662     2.4481     0.1340    87.8519     7.9851     0.0172
  356.0000   -27.8282     9.0594     8.2599     2.4476     0.1366    87.5955     7.9854     0.0181
  356.5000   -28.3121     9.0040     8.2539     2.4406     0.1384    85.8740     7.9857     0.0190
  357.0000   -28.3278     8.9493     8.2478     2.4339     0.1383    84.9334     7.9860     0.0199
  357.5000   -28.3298     8.8950     8.2416     2.4418     0.1305    86.3157     7.9863     0.0207
  358.0000   -28.1563     8.8409     8.2355     2.4517     0.1366    86.1525     7.9866     0.0216
