~VERSION INFORMATION
 VERS.                2.0:   CWLS LOG ASCII STANDARD - VERSION 2.0
 WRAP.                 NO:   ONE LINE PER DEPTH STEP
~WELL INFORMATION
#MNEM.UNIT      DATA TYPE    INFORMATION
#----------   ------------   ------------------------------
 STRT.F           10.0000:   START DEPTH
 STOP.F         2599.5000:   STOP DEPTH
 STEP.F            0.5000:   STEP LENGTH
 NULL.          -999.2500:   NO VALUE
 COMP. FENIX & SCISSON INC:   COMPANY
 WELL.   34-SHX-33 #34-33:   WELL
 FLD .             TEAPOT:   FIELD
 LOC .      S33 T39N R78W:   LOCATION
 CNTY.            NATRONA:   COUNTY
 STAT.            WYOMING:   STATE
 CTRY. UNITED STATES OF AMERICA:   COUNTRY
 SRVC.           BIRDWELL:   SERVICE COMPANY
 DATE.        20-FEB-1978:   LOGDATE
 API .       490251058400:   API NUMBER
~CURVE INFORMATION
#MNEM.UNIT       API CODE    CURVE DESCRIPTION
#----------   ------------   ------------------------------
 DEPT.F                  :   
 GR  .GAPI   30 310 01 00:   GAMMA RAY
 CALI.IN     70 280 01 00:   CALIPER
~PARAMETER INFORMATION
#MNEM.UNIT          VALUE    DESCRIPTION
#----------   ------------   ------------------------------
 PD  .                 GL:   PERMANENT DATUM
 EPD .F              5174:   ELEVATION PERMANENT DATUM
 LMF .                 KB:   LOG MEASURED FROM
 DAPD.F                10:   FEET ABOVE PERMANENT DATUM
 DMF .                 KB:   DRILLING MEASURED FROM
 EKB .F              5184:   KELLING BUSHING
 EGL .F              5174:   GROUND LEVEL
 DATE.            2-20-78:   RUN DATE
 RUN .                  1:   RUN NUMBER
 DD  .F              2590:   DEPTH DRILLER
 DL  .F              2600:   DEPTH LOGGER
 BLI .F              2600:   BOTTOM LOG INTERVAL
 CS  .IN            8.625:   CASING SIZE
 CBD .F               737:   CASING BOTTOM DRILLER
 BS  .IN            8.625:   BIT SIZE
 BSD .F              2590:   BIT SIZE AT DEPTH
 TCS .HRS               2:   TIME CURCULATED STOPPED
 LUL .             CASPER:   LOGGING UNIT LOCATION
 ENGI.             MILLER:   RECORDING ENGINEER
 WITN.           MCGINLEY:   WITNESSED BY
 CLNT.            A2DTECH:   CLIENT CODE
 ORIG.           5" PRINT:   ORIGIN OF DATA
 UWI .       490251058400:   UNIQUE WELL ID
 DICO. A2D Technologies, Inc.:   DIGITIZING COMPANY
~OTHER INFORMATION
~A   DEPT        GR      CALI   
# ...
  617.5000    60.5960  -999.2500
  618.0000    61.5205  -999.2500
  618.5000    64.2461  -999.2500
  619.0000    65.9207  -999.2500
  619.5000    65.2150  -999.2500
  620.0000    64.0664  -999.2500
  620.5000    64.2936  -999.2500
  621.0000    66.2622  -999.2500
  621.5000    68.2322  -999.2500
  622.0000    69.1834  -999.2500
  622.5000    66.0872  -999.2500
  623.0000    62.0939  -999.2500
  623.5000    58.0683  -999.2500
  624.0000    54.0504  -999.2500
  624.5000    51.6553  -999.2500
  625.0000    51.9163  -999.2500
  625.5000    54.5302  -999.2500
  626.0000    57.4741  -999.2500
  626.5000    59.6037  -999.2500
  627.0000    58.2028  -999.2500
  627.5000    56.8725  -999.2500
  628.0000    55.6763  -999.2500
  628.5000    56.2200  -999.2500
  629.0000    58.8650  -999.2500
  629.5000    61.4480  -999.2500
  630.0000    63.9963  -999.2500
  630.5000    66.0201  -999.2500
  631.0000    67.0521  -999.2500
  631.5000    66.8170  -999.2500
  632.0000    62.8475  -999.2500
  632.5000    60.5739  -999.2500
  633.0000    61.8492  -999.2500
  633.5000    61.9313  -999.2500
  634.0000    60.6212  -999.2500
  634.5000    62.0379  -999.2500
  635.0000    64.2245  -999.2500
  635.5000    64.2075  -999.2500
  636.0000    63.2484  -999.2500
  636.5000    62.7429  -999.2500
  637.0000    64.2768  -999.2500
  637.5000    66.3516  -999.2500
  638.0000    68.4110  -999.2500
  638.5000    69.4670  -999.2500
  639.0000    67.5696  -999.2500
  639.5000    65.6872  -999.2500
  640.0000    65.0176  -999.2500
  640.5000    64.7802  -999.2500
  641.0000    64.5647  -999.2500
  641.5000    64.3523  -999.2500
  642.0000    64.9343  -999.2500
  642.5000    65.8420  -999.2500
  643.0000    66.7124  -999.2500
  643.5000    66.6684  -999.2500
  644.0000    66.5790  -999.2500
  644.5000    66.4914  -999.2500
  645.0000    66.4083  -999.2500
  645.5000    66.4157  -999.2500
  646.0000    66.9117  -999.2500
  646.5000    67.4140  -999.2500
  647.0000    67.4919  -999.2500
  647.5000    67.4410  -999.2500
  648.0000    67.3859  -999.2500
  648.5000    67.3310  -999.2500
  649.0000    67.2757  -999.2500
  649.5000    67.2200  -999.2500
  650.0000    67.1721  -999.2500
  650.5000    67.3176  -999.2500
  651.0000    68.0571  -999.2500
  651.5000    68.6851  -999.2500
  652.0000    68.1942  -999.2500
  652.5000    67.6837  -999.2500
  653.0000    67.5748  -999.2500
  653.5000    68.9493  -999.2500
  654.0000    70.2814  -999.2500
  654.5000    69.8012  -999.2500
  655.0000    69.1877  -999.2500
  655.5000    68.5683  -999.2500
  656.0000    68.3170  -999.2500
  656.5000    68.3980  -999.2500
  657.0000    68.4992  -999.2500
  657.5000    68.6043  -999.2500
  658.0000    68.7214  -999.2500
  658.5000    68.2509  -999.2500
  659.0000    67.6303  -999.2500
  659.5000    67.0027  -999.2500
  660.0000    66.3740  -999.2500
  660.5000    65.9784  -999.2500
  661.0000    67.1663  -999.2500
  661.5000    68.7245  -999.2500
  662.0000    70.5029  -999.2500
  662.5000    72.2591  -999.2500
  663.0000    74.0338  -999.2500
  663.5000    75.2204  -999.2500
  664.0000    69.7528  -999.2500
  664.5000    63.7135  -999.2500
  665.0000    62.4503  -999.2500
  665.5000    61.3858  -999.2500
  666.0000    60.2900  -999.2500
  666.5000    59.3093  -999.2500
  667.0000    62.2980  -999.2500
  667.5000    66.7410  -999.2500
  668.0000    72.9716  -999.2500
  668.5000    74.9853  -999.2500
  669.0000    75.1313  -999.2500
  669.5000    72.0372  -999.2500
  670.0000    68.3733  -999.2500
  670.5000    68.6539  -999.2500
  671.0000    70.5155  -999.2500
  671.5000    73.1184  -999.2500
  672.0000    75.8550  -999.2500
  672.5000    76.5219  -999.2500
  673.0000    74.0643  -999.2500
  673.5000    71.5670  -999.2500
  674.0000    69.0984  -999.2500
  674.5000    66.6582  -999.2500
  675.0000    65.1750  -999.2500
  675.5000    66.5518  -999.2500
  676.0000    70.1730  -999.2500
  676.5000    73.8067  -999.2500
  677.0000    76.6235  -999.2500
  677.5000    79.9787  -999.2500
  678.0000    82.9624  -999.2500
  678.5000    81.9148  -999.2500
  679.0000    79.9554  -999.2500
  679.5000    78.0004  -999.2500
  680.0000    76.0360  -999.2500
  680.5000    74.0854  -999.2500
  681.0000    72.6444  -999.2500
  681.5000    72.9371  -999.2500
  682.0000    74.0159  -999.2500
  682.5000    75.0384  -999.2500
  683.0000    75.5638  -999.2500
  683.5000    74.3129  -999.2500
  684.0000    73.0862  -999.2500
  684.5000    71.8842  -999.2500
  685.0000    72.8714  -999.2500
  685.5000    73.8588  -999.2500
  686.0000    72.6316  -999.2500
  686.5000    71.3655  -999.2500
  687.0000    70.3520  -999.2500
  687.5000    71.3601  -999.2500
  688.0000    72.4887  -999.2500
  688.5000    73.6085  -999.2500
  689.0000    74.7572  -999.2500
  689.5000    74.3346  -999.2500
  690.0000    72.9896  -999.2500
  690.5000    71.6480  -999.2500
  691.0000    71.9062  -999.2500
  691.5000    72.8084  -999.2500
  692.0000    72.8592  -999.2500
  692.5000    72.4298  -999.2500
  693.0000    72.2595  -999.2500
  693.5000    73.8568  -999.2500
  694.0000    76.2760  -999.2500
  694.5000    78.1015  -999.2500
  695.0000    76.9571  -999.2500
  695.5000    73.2378  -999.2500
  696.0000    69.4211  -999.2500
  696.5000    65.6044  -999.2500
  697.0000    63.5694  -999.2500
  697.5000    63.7769  -999.2500
  698.0000    63.9397  -999.2500
  698.5000    63.1051  -999.2500
  699.0000    62.1785  -999.2500
  699.5000    61.2068  -999.2500
  700.0000    62.1436  -999.2500
  700.5000    63.4797  -999.2500
  701.0000    64.8206  -999.2500
  701.5000    64.2324  -999.2500
  702.0000    61.5393  -999.2500
  702.5000    61.9132  -999.2500
  703.0000    61.8219  -999.2500
  703.5000    57.6075  -999.2500
  704.0000    54.4026  -999.2500
  704.5000    55.8250  -999.2500
  705.0000    57.1720  -999.2500
  705.5000    58.5026  -999.2500
  706.0000    59.8354  -999.2500
  706.5000    61.1679  -999.2500
  707.0000    62.3218  -999.2500
  707.5000    63.1309  -999.2500
  708.0000    62.6966  -999.2500
  708.5000    62.1974  -999.2500
  709.0000    61.6782  -999.2500
  709.5000    62.1693  -999.2500
  710.0000    62.9297  -999.2500
  710.5000    63.7006  -999.2500
  711.0000    64.4641  -999.2500
  711.5000    65.1611  -999.2500
  712.0000    66.5491  -999.2500
  712.5000    68.0813  -999.2500
  713.0000    69.5797  -999.2500
  713.5000    70.0735  -999.2500
  714.0000    67.4763  -999.2500
  714.5000    65.1083  -999.2500
  715.0000    64.9096  -999.2500
  715.5000    65.5570  -999.2500
  716.0000    64.8231  -999.2500
  716.5000    62.3353  -999.2500
  717.0000    59.8637  -999.2500
  717.5000    58.5403  -999.2500
  718.0000    61.7227  -999.2500
  718.5000    64.1732  -999.2500
  719.0000    62.7246  -999.2500
  719.5000    61.3491  -999.2500
  720.0000    61.0784  -999.2500
  720.5000    61.5370  -999.2500
  721.0000    62.0017  -999.2500
  721.5000    62.4582  -999.2500
  722.0000    62.5317  -999.2500
  722.5000    61.7147  -999.2500
  723.0000    61.2985  -999.2500
  723.5000    62.1384  -999.2500
  724.0000    61.3899  -999.2500
  724.5000    57.7985  -999.2500
  725.0000    54.2242  -999.2500
  725.5000    54.5575  -999.2500
  726.0000    57.8576  -999.2500
  726.5000    61.6628  -999.2500
  727.0000    65.4314  -999.2500
  727.5000    66.1128  -999.2500
  728.0000    66.3138  -999.2500
  728.5000    66.5056  -999.2500
  729.0000    66.7014  -999.2500
  729.5000    66.8954  -999.2500
  730.0000    67.0879  -999.2500
  730.5000    66.4138  -999.2500
  731.0000    64.6348  -999.2500
  731.5000    63.6926  -999.2500
  732.0000    62.5651  -999.2500
  732.5000    60.9679  -999.2500
  733.0000    59.5767  -999.2500
  733.5000    61.6245  -999.2500
  734.0000    65.0415  -999.2500
  734.5000    65.4314  -999.2500
  735.0000    64.8109  -999.2500
  735.5000    63.4813  -999.2500
  736.0000    63.0638  -999.2500
  736.5000    65.6049  -999.2500
  737.0000    68.1419  -999.2500
  737.5000    67.5417  -999.2500
  738.0000    66.9005  -999.2500
  738.5000    66.7372  -999.2500
