~VERSION INFORMATION
 VERS.                2.0:   CWLS LOG ASCII STANDARD - VERSION 2.0
 WRAP.                 NO:   ONE LINE PER DEPTH STEP
~WELL INFORMATION
#MNEM.UNIT      DATA TYPE    INFORMATION
#----------   ------------   ------------------------------
 STRT.F           28.0000:   START DEPTH
 STOP.F          463.0000:   STOP DEPTH
 STEP.F            0.5000:   STEP LENGTH
 NULL.          -999.2500:   NO VALUE
 COMP.    FENIX & SCISSON:   COMPANY
 WELL.  NPR-3 #74 S 10-10:   WELL
 FLD .        TEAPOT DOME:   FIELD
 LOC .      S10 T38N R78W:   LOCATION
 CNTY.            NATRONA:   COUNTY
 STAT.            WYOMING:   STATE
 CTRY. UNITED STATES OF AMERICA:   COUNTRY
 SRVC.           BIRDWELL:   SERVICE COMPANY
 DATE.        12-FEB-1978:   LOGDATE
 API .       490251057000:   API NUMBER
~CURVE INFORMATION
#MNEM.UNIT       API CODE    CURVE DESCRIPTION
#----------   ------------   ------------------------------
 DEPT.F                  :   
 ILD .OHMM   05 120 46 00:   INDUCTION LOG DEEP
 SN  .OHMM   05 040 16 00:   SHORT NORMAL 16"
 SPR .MV     05 010 01 00:   SPONTANEOUS POTENTIAL FROM RES.
 CALD.IN     45 280 60 00:   CALIPER FROM DENSITY LOG
 CORR.G/C3   45 356 01 00:   DENSITY CORRECTION
 DPHI.DEC    45 890 12 00:   DENSITY POROSITY SANDSTONE
 GRD .GAPI   45 310 01 00:   GAMMA RAY FROM DENSITY LOG
 RHOB.G/C3   45 350 01 00:   BULK DENSITY
~PARAMETER INFORMATION
#MNEM.UNIT          VALUE    DESCRIPTION
#----------   ------------   ------------------------------
 PD  .                 GL:   PERMANENT DATUM
 EPD .F              5183:   ELEVATION PERMANENT DATUM
 LMF .                 KB:   LOG MEASURED FROM
 DAPD.F                 4:   FEET ABOVE PERMANENT DATUM
 DMF .                 KB:   DRILLING MEASURED FROM
 EKB .F              5187:   KELLING BUSHING
 EGL .F              5183:   GROUND LEVEL
 DATE.        12-FEB-1978:   RUN DATE
 RUN .                  1:   RUN NUMBER
 DD  .F               465:   DEPTH DRILLER
 DL  .F               465:   DEPTH LOGGER
 BLI .F               463:   BOTTOM LOG INTERVAL
 TLI .F                40:   TOP LOG INTERVAL
 CS  .IN            8.625:   CASING SIZE
 CBD .F                39:   CASING BOTTOM DRILLER
 BS  .IN            7.875:   BIT SIZE
 BSD .F               465:   BIT SIZE AT DEPTH
 DFT .         LIGNO-SULF:   DRILLING FLUID TYPE
 DFD .                8.8:   DRILLING FLUID DENSITY
 DFV .                 34:   DRILLING FLUID VISCOSITY
 DFPH.                 10:   DRILLING FLUID PH
 DFL .                4.0:   DRILLING FLUID LOSS
 MSS .                PIT:   MUD SAMPLE SOURCE
 RMS .OHMM            1.3:   RESISTIVITY MUD SAMPLE
 MST .F                62:   MUD SAMPLE TEMPERATURE
 RMF .OHMM            1.4:   RESISTIVITY MUD FILTRATE SAMPLE
 MFST.F                62:   MUD FILTRATE SAMPLE TEMPERATURE
 MCST.F                62:   MUD CAKE SAMPLE TEMPERATURE
 MFSS.               MEAS:   MUD FILTRATE SAMPLE SOURCE
 RMB .OHMM            1.3:   RESISTIVITY MUD AT BHT
 BHT .F                62:   BOTTOM HOLE TEMPERATURE
 TCS .HRS               2:   TIME CURCULATED STOPPED
 MRT .F                70:   MAXIMUM RECORDED TEMPERATURE
 LUN .               2953:   LOGGING UNIT NUMBER
 LUL .             CASPER:   LOGGING UNIT LOCATION
 ENGI.            POINTER:   RECORDING ENGINEER
 WITN.          MC GINLEY:   WITNESSED BY
 CLNT.            A2DTECH:   CLIENT CODE
 ORIG.           5" PRINT:   ORIGIN OF DATA
 UWI .       490251057000:   UNIQUE WELL ID
 DICO. A2D Technologies, Inc.:   DIGITIZING COMPANY
~OTHER INFORMATION
~A   DEPT      ILD         SN        SPR       CALD       CORR       DPHI         GRD      RHOB   
# ...
  271.0000    33.8880    39.6080   -37.8441     7.9643     0.0885     0.1354    52.2834     2.4143
  271.5000    34.8456    39.9001   -37.8382     7.9494     0.0658     0.1741    49.7329     2.3757
  272.0000    36.0788    40.1943   -37.8324     7.9496     0.0598     0.2212    49.2877     2.3447
  272.5000    37.0982    40.2109   -37.8265     7.9497     0.0678     0.2179    49.1417     2.3267
  273.0000    38.1464    40.2276   -37.8206     7.9649     0.0921     0.2170    49.4498     2.2925
  273.5000    38.4190    40.2443   -37.8148     7.9650     0.1155     0.2113    49.4557     2.3016
  274.0000    38.1620    38.5951   -37.9592     7.9652     0.1335     0.2065    49.7624     2.3114
  274.5000    37.9069    37.8066   -37.9518     7.9503     0.1546     0.2101    50.7517     2.3175
  275.0000    37.3940    37.5940   -37.9459     7.9505     0.1787     0.2173    57.1429     2.3167
  275.5000    36.8880    37.6134   -37.9401     7.9356     0.2164     0.2326    59.8568     2.3061
  276.0000    36.6413    37.3650   -37.7854     7.9207     0.2692     0.2347    61.0657     2.2759
  276.5000    36.6491    37.1259   -37.7795     7.9209     0.3129     0.2178    61.2219     2.2751
  277.0000    37.1671    37.1412   -37.4760     7.9060     0.3189     0.2017    60.9271     2.2978
  277.5000    37.9556    37.1565   -37.1725     7.8911     0.3173     0.1886    58.9781     2.3265
  278.0000    37.9634    37.1718   -37.0178     7.8609     0.2992     0.1897    55.2246     2.3462
  278.5000    38.2327    37.4460   -36.7143     7.8451     0.2916     0.2014    53.1253     2.3545
  279.0000    37.9771    37.7221   -36.5595     7.8015     0.2916     0.2035    52.9793     2.3386
  279.5000    38.2504    37.7357   -36.5536     7.7866     0.2901     0.1984    53.4378     2.3273
  280.0000    39.8789    38.0160   -36.5464     7.7418     0.2885     0.1813    54.3460     2.3326
  280.5000    41.5767    38.2964   -36.6908     7.7119     0.2825     0.1732    55.4045     2.3621
  281.0000    43.3468    38.3122   -37.1314     7.6820     0.2704     0.1840    55.5609     2.3773
  281.5000    43.6543    38.0591   -37.5705     7.6822     0.2387     0.1963    54.6187     2.3683
  282.0000    42.4744    37.8117   -37.7149     7.6672     0.2160     0.2101    50.7620     2.3254
  282.5000    41.6109    37.3062   -37.5587     7.6674     0.1843     0.2209    50.6161     2.3084
  283.0000    41.3327    36.8075   -37.1064     7.6676     0.1677     0.2071    53.0295     2.2993
  283.5000    41.0542    36.8265   -36.8029     7.6677     0.1224     0.1887    54.6895     2.2986
  284.0000    39.9445    36.3341   -36.4995     7.6979     0.0862     0.1867    56.4999     2.3326
  284.5000    38.3290    35.6006   -36.4936     7.7431     0.0831     0.1534    55.6036     2.3681
  285.0000    35.7756    33.9276   -36.4877     7.8634     0.0768     0.1324    54.2561     2.4248
  285.5000    34.3288    33.0127   -36.4818     7.9086     0.0680     0.1290    55.4650     2.4399
  286.0000    32.9404    33.0265   -36.1783     7.8637     0.0634     0.1678    57.8769     2.4142
  286.5000    32.0483    33.2701   -36.0237     7.8488     0.0604     0.1897    58.6347     2.3946
  287.0000    31.6147    33.0537   -35.8690     7.9122     0.0589     0.1957    58.3378     2.3522
  287.5000    31.6212    32.5934   -35.8631     7.9717     0.0588     0.2001    58.0450     2.3439
  288.0000    32.0682    31.2700   -35.8571     7.9994     0.0618     0.2028    59.1278     2.3326
  288.5000    31.8537    29.7930   -35.8512     7.9996     0.0723     0.1884    60.9154     2.3265
  289.0000    31.1805    28.8231   -35.8452     7.9997     0.0844     0.1719    62.8762     2.3273
  289.5000    30.2946    28.0460   -35.8381     8.0149     0.0874     0.1740    64.5362     2.3282
  290.0000    28.3400    26.9140   -35.6834     8.0150     0.0828     0.1560    64.9918     2.3610
  290.5000    28.3458    26.0074   -35.2311     8.0152     0.0702     0.1497    63.9465     2.4089
  291.0000    27.9622    25.6571   -35.2253     8.0153     0.0476     0.1458    61.6968     2.4263
  291.5000    26.8314    25.1391   -35.0706     8.0155     0.0344     0.1506    62.0035     2.4293
  292.0000    26.4683    25.1521   -34.9159     8.0156     0.0344     0.1545    62.9116     2.4112
  292.5000    26.1088    24.9860   -34.6124     8.0308     0.0344     0.1548    64.5716     2.4082
  293.0000    25.7555    25.1729   -34.6065     8.0309     0.0328     0.1560    65.7806     2.4067
  293.5000    25.5833    25.1832   -34.6007     8.0311     0.0298     0.1614    65.7865     2.4051
  294.0000    25.5898    25.1936   -34.5948     8.0312     0.0313     0.1632    64.2526     2.3991
  294.5000    25.5951    25.2040   -34.5889     8.0314     0.0328     0.1608    62.9178     2.3968
  295.0000    25.7780    25.3899   -34.5830     8.0315     0.0357     0.1515    62.7966     2.3991
  295.5000    25.9622    25.5771   -34.7260     8.0317     0.0387     0.1500    62.8040     2.4082
  296.0000    26.1477    26.3075   -34.7201     8.0318     0.0402     0.1488    62.6581     2.4157
  296.5000    27.6406    27.2470   -34.7142     8.0320     0.0418     0.1314    62.0640     2.4203
  297.0000    29.2186    29.0139   -34.5595     8.0472     0.0462     0.1257    61.1676     2.4392
  297.5000    30.8868    30.8954   -34.2460     8.0473     0.0492     0.1137    59.0682     2.4593
  298.0000    32.4253    33.8243   -33.9345     8.0475     0.0507     0.0549    57.1193     2.5327
  298.5000    33.5728    35.2761   -33.3512     8.0476     0.0536     0.0515    55.7718     2.5658
  299.0000    34.5214    35.7836   -33.0465     8.0478     0.0642     0.0632    55.0256     2.5820
  299.5000    34.7681    35.0612   -32.7430     8.0479     0.0868     0.0638    55.0317     2.5692
  300.0000    33.8266    33.6468   -32.7371     8.0030     0.1380     0.0650    56.3912     2.5608
  300.5000    32.4468    32.0611   -32.7312     8.0334     0.1380     0.0827    60.1521     2.5578
  301.0000    30.2894    29.5089   -32.5780     8.0487     0.1366     0.1007    63.6122     2.5231
  301.5000    28.4431    26.7858   -32.8697     8.0490     0.1351     0.1169    69.1776     2.4906
  302.0000    26.6961    25.7011   -32.8623     8.0342     0.1351     0.1481    70.2314     2.4588
  302.5000    24.9333    24.6603   -32.7076     8.0195     0.1367     0.1550    67.0754     2.4248
  303.0000    23.3360    23.9922   -32.9993     8.0048     0.1412     0.1631    65.8738     2.4044
  303.5000    22.8628    23.5045   -33.4413     8.0201     0.1474     0.1649    64.6723     2.3952
  304.0000    22.8725    23.1871   -33.8804     8.0204     0.1582     0.1676    64.5230     2.3915
  304.5000    22.8804    23.0333   -34.0248     8.0358     0.1720     0.1634    64.9760     2.3908
  305.0000    22.7286    22.8804   -34.0174     8.0511     0.1911     0.1574    67.6843     2.3976
  305.5000    22.2715    22.7285   -34.0115     8.0514     0.2092     0.1620    69.9414     2.4051
  306.0000    21.9731    22.5776   -33.8568     8.0667     0.2228     0.1682    71.2963     2.3923
  306.5000    21.8273    22.4124   -33.8509     8.0670     0.2349     0.1702    69.0421     2.3893
  307.0000    21.9882    22.1249   -33.5474     8.0522     0.2470     0.1714    68.2917     2.3862
  307.5000    22.1483    22.1058   -33.6903     8.0375     0.2561     0.1687    70.1178     2.3832
  308.0000    22.3097    21.9841   -33.6844     8.0529     0.2607     0.1468    72.8301     2.3893
  308.5000    22.3173    21.6887   -33.8274     8.0532     0.2486     0.1510    73.1083     2.4165
  309.0000    22.3249    21.5432   -33.6726     8.0535     0.2426     0.1513    72.2536     2.4203
  309.5000    22.3326    21.4002   -33.5134     8.0688     0.2366     0.1495    67.2469     2.4135
  310.0000    22.3402    21.2582   -33.2043     8.0691     0.2276     0.1537    65.4435     2.4210
  310.5000    22.3479    21.1171   -33.0595     8.0694     0.1990     0.1528    66.4980     2.4135
  311.0000    22.0485    21.1243   -33.2026     8.0546     0.1839     0.1492    68.9055     2.4142
