~VERSION INFORMATION
 VERS.                2.0:   CWLS LOG ASCII STANDARD - VERSION 2.0
 WRAP.                 NO:   ONE LINE PER DEPTH STEP
~WELL INFORMATION
#MNEM.UNIT      DATA TYPE    INFORMATION
#----------   ------------   ------------------------------
 STRT.F            0.0000:   START DEPTH
 STOP.F          553.0000:   STOP DEPTH
 STEP.F            0.5000:   STEP LENGTH
 NULL.          -999.2500:   NO VALUE
 COMP.   FLUOR DANIEL INC:   COMPANY
 WELL. NAVAL PETROLEUM RESERVE 3 SX-3 #1-3:   WELL
 FLD .             TEAPOT:   FIELD
 LOC .       S3 T38N R78W:   LOCATION
 CNTY.            NATRONA:   COUNTY
 STAT.            WYOMING:   STATE
 CTRY. UNITED STATES OF AMERICA:   COUNTRY
 SRVC.      Western Atlas:   SERVICE COMPANY
 DATE.        28-DEC-1994:   LOGDATE
 API .       490252267700:   API NUMBER
~CURVE INFORMATION
#MNEM.UNIT       API CODE    CURVE DESCRIPTION
#----------   ------------   ------------------------------
 DEPT.F                  :   
 GRR .GAPI   07 310 01 00:   GAMMA RAY FROM RES. LOG.
 RILD.OHMM   07 120 46 00:   INDUCTION LOG DEEP RESISTIVITY
 RILM.OHMM   07 120 44 00:   INDUCTION LOG MEDIUM RESISTIVITY
~PARAMETER INFORMATION
#MNEM.UNIT          VALUE    DESCRIPTION
#----------   ------------   ------------------------------
 PD  .                 GL:   PERMANENT DATUM
 EPD .F              5174:   ELEVATION PERMANENT DATUM
 LMF .                 KB:   LOG MEASURED FROM
 DAPD.F                10:   FEET ABOVE PERMANENT DATUM
 DMF .                 KB:   DRILLING MEASURED FROM
 EKB .F              5184:   KELLING BUSHING
 EDF .F              5183:   DRILLING FLOOR
 EGL .F              5174:   GROUND LEVEL
 DATE.        28-DEC-1994:   RUN DATE
 RUN .                  1:   RUN NUMBER
 DD  .F               561:   DEPTH DRILLER
 DL  .F               562:   DEPTH LOGGER
 BLI .F               553:   BOTTOM LOG INTERVAL
 CS  .IN            9.625:   CASING SIZE
 CBD .F                54:   CASING BOTTOM DRILLER
 CBL .F                54:   CASING BOTTOM LOGGER
 BS  .IN             8.75:   BIT SIZE
 BSD .F               561:   BIT SIZE AT DEPTH
 DFT .                AIR:   DRILLING FLUID TYPE
 MRT .F                89:   MAXIMUM RECORDED TEMPERATURE
 LUN .            HL 6530:   LOGGING UNIT NUMBER
 LUL .             CASPER:   LOGGING UNIT LOCATION
 ENGI.      PAT RASMUSSEN:   RECORDING ENGINEER
 WITN.        STEVE HARDY:   WITNESSED BY
 CLNT.            A2DTECH:   CLIENT CODE
 ORIG.           5" PRINT:   ORIGIN OF DATA
 UWI .       490252267700:   UNIQUE WELL ID
 DICO. A2D Technologies, Inc.:   DIGITIZING COMPANY
~OTHER INFORMATION
~A    DEPT      GRR      RILD       RILM   
# ...
  455.0000    82.1911    17.8209    17.5943
  455.5000    82.2037    17.3627    16.8762
  456.0000    85.1133    16.7552    16.1874
  456.5000    87.9717    16.1690    15.5267
  457.0000    90.9028    15.6022    14.8930
  457.5000    94.3823    15.0649    14.2851
  458.0000    97.9683    14.3093    13.7382
  458.5000   100.7820    13.3599    13.5908
  459.0000   100.9395    13.2292    13.4448
  459.5000   100.4196    13.0997    13.3005
  460.0000    99.9017    12.9715    13.1577
  460.5000    99.1248    12.8446    13.0165
  461.0000    98.3091    12.7189    12.8767
  461.5000    97.4846    12.5946    12.7387
  462.0000    96.2465    12.4725    12.6032
  462.5000    94.3088    12.3432    12.4604
  463.0000    92.5809    12.1798    12.2910
  463.5000    94.1559    12.0342    12.0953
  464.0000    97.1790    11.8904    11.9109
  464.5000    98.2159    11.7484    11.7283
  465.0000    96.2466    11.6080    11.5485
  465.5000    94.1788    11.4693    11.3714
  466.0000    96.3618    11.3380    11.3096
  466.5000    99.3400    11.3357    11.2745
  467.0000   101.3424    11.3380    11.2396
  467.5000   100.8013    11.3380    11.2048
  468.0000   100.0831    11.3380    11.1700
  468.5000    99.8683    11.3380    11.1312
  469.0000   102.1233    11.3380    11.1508
  469.5000   104.4670    11.3380    11.1741
  470.0000   106.8177    11.3380    11.1974
  470.5000   107.4093    11.3380    11.2207
  471.0000   106.0386    11.3380    11.2344
  471.5000   103.5782    11.3380    11.1657
  472.0000   101.1345    11.3380    11.1310
  472.5000   102.2800    11.3382    11.2438
  473.0000   103.1864    11.3383    11.3297
  473.5000   101.7960    11.3361    11.4160
  474.0000   100.7435    11.3440    11.4431
  474.5000   102.0485    11.0214    11.0859
  475.0000   102.1318    10.8146    10.8534
  475.5000   101.3359    10.6117    10.6254
  476.0000   100.6215    10.4126    10.4022
  476.5000   100.8801    10.2172    10.1825
  477.0000   101.7477    10.0537     9.9616
  477.5000   102.9754    10.0490     9.9588
  478.0000   102.6951    10.3358    10.3518
  478.5000   102.2952    10.7619    11.0182
  479.0000   102.4581    11.2109    11.7598
  479.5000   100.8000    11.6785    12.7738
  480.0000    96.1189    12.4652    13.9413
  480.5000    91.3261    13.5348    15.2173
  481.0000    88.1124    14.8139    16.6101
  481.5000    85.2618    16.3210    18.1304
  482.0000    82.4082    17.9662    19.2414
  482.5000    80.6173    19.4393    19.9822
  483.0000    82.5951    20.5198    20.7516
  483.5000    84.6098    20.9997    21.1944
  484.0000    83.7867    21.5106    21.7101
  484.5000    82.3364    21.9423    22.0351
  485.0000    80.8927    22.2328    21.8730
  485.5000    82.2287    22.5261    21.7564
  486.0000    86.0852    22.8222    21.6321
  486.5000    89.3497    23.0782    21.7965
  487.0000    87.6984    23.0780    22.0223
  487.5000    85.2611    22.8249    22.2374
  488.0000    82.8034    22.6698    21.8194
  488.5000    80.5367    21.9489    21.4207
  489.0000    83.3106    21.1884    21.0318
  489.5000    87.4856    20.4668    20.6566
  490.0000    90.2085    20.4001    20.5892
  490.5000    88.9778    20.2497    20.4375
  491.0000    87.7416    20.0750    20.2788
  491.5000    87.1359    19.8296    19.9079
  492.0000    86.4132    19.1877    19.8220
  492.5000    85.5750    18.4686    19.2794
  493.0000    84.4253    17.8761    18.6063
  493.5000    82.0541    17.5166    17.9566
  494.0000    80.4706    17.1640    17.3297
  494.5000    82.8392    16.8191    16.8609
  495.0000    85.7048    16.4771    16.9113
  495.5000    84.0470    16.2073    17.1000
  496.0000    81.3552    15.8185    17.3343
  496.5000    76.8625    15.4427    17.0019
  497.0000    77.8330    15.0932    16.4453
  497.5000    80.6038    15.0302    15.9522
  498.0000    83.3373    14.9701    15.9217
  498.5000    86.0650    14.8035    15.6819
  499.0000    88.8032    14.6023    15.4458
  499.5000    91.2994    14.4039    15.2137
  500.0000    90.7114    14.2082    15.0934
  500.5000    90.0353    14.0139    14.9547
  501.0000    89.8278    13.8348    14.8173
  501.5000    93.6458    13.7227    14.4127
  502.0000    97.8593    13.6554    14.2803
  502.5000    98.0306    13.5874    14.1753
  503.0000    97.1117    13.5197    14.0082
  503.5000    96.5739    13.4524    13.8430
  504.0000    96.2951    13.3854    13.6798
  504.5000    95.1069    13.3187    13.5216
  505.0000    93.2647    13.2640    13.3828
  505.5000    89.7855    12.8935    12.9074
  506.0000    87.2857    12.5840    12.4613
  506.5000    91.1935    12.2819    12.0332
  507.0000    97.5126    11.9872    11.6563
  507.5000   102.1979    11.6994    11.3323
  508.0000   101.5541    11.4186    11.0429
  508.5000   100.3658    11.1445    10.7608
  509.0000    99.1845    10.8770    10.4908
  509.5000    98.3324    10.7547    10.3453
  510.0000   100.3529    10.6663    10.2479
  510.5000   103.4093    10.5787    10.2152
  511.0000   104.5872    10.4918    10.1959
  511.5000   103.8084    10.4343    10.1767
  512.0000   106.5903    10.4794    10.1574
  512.5000   111.7502    10.4343    10.1382
  513.0000   117.0375    10.3894    10.1190
  513.5000   117.9929    10.3447    10.0998
  514.0000   116.2429    10.3001    10.0806
  514.5000   115.8726    10.2429    10.0570
  515.0000   115.8211    10.2886    10.0889
  515.5000   114.7251    10.3752    10.1346
  516.0000   113.5850    10.4624    10.1806
  516.5000   114.0991    10.5311    10.2269
  517.0000   115.0361    10.4249    10.2435
  517.5000   116.0983    10.3385    10.1748
  518.0000   118.1643    10.2528    10.1097
  518.5000   120.7033    10.1678    10.0451
  519.0000   118.9433    10.0836     9.9810
  519.5000   118.5279    10.0000     9.9172
  520.0000   119.7417     9.9171     9.8538
  520.5000   118.9864     9.8349     9.7908
  521.0000   118.3154     9.7534     9.6559
  521.5000   121.0191     9.6733     9.5104
  522.0000   126.3713     9.6027     9.3671
  522.5000   129.1127     9.4741     9.2260
  523.0000   126.2745     9.3383     9.0854
  523.5000   123.3318     9.2044     9.0624
  524.0000   122.3327     9.0719     9.0241
  524.5000   126.6061     8.9896     8.9859
  525.0000   129.8215     8.9408     8.9480
  525.5000   128.7363     8.8927     8.9101
  526.0000   127.4053     8.8449     8.8725
  526.5000   126.2514     8.7974     8.8350
  527.0000   127.2420     8.7501     8.7977
  527.5000   128.4529     8.7030     8.7605
  528.0000   129.6620     8.6562     8.7234
  528.5000   130.3251     8.6130     8.6866
  529.0000   130.3342     8.5199     8.5865
  529.5000   129.6500     8.4307     8.5086
  530.0000   128.6961     8.3539     8.4313
  530.5000   127.7455     8.2780     8.3547
  531.0000   126.2611     8.2028     8.2797
  531.5000   122.7605     8.1330     8.2074
  532.0000   119.1190     7.9488     8.0233
  532.5000   118.0519     7.7792     7.8514
  533.0000   118.8054     7.6133     7.6839
  533.5000   119.4908     7.4509     7.5200
  534.0000   119.7606     7.4090     7.4777
  534.5000   120.1490     7.3739     7.4423
  535.0000   120.5408     7.3478     7.4160
  535.5000   120.9356     6.9881     7.0640
  536.0000  -999.2500     6.6644     6.7475
  536.5000  -999.2500     6.3551     6.4468
  537.0000  -999.2500     6.0596     6.1601
  537.5000  -999.2500     5.6746     5.8858
  538.0000  -999.2500     5.7699     5.8339
  538.5000  -999.2500     5.9664     5.9977
  539.0000  -999.2500     6.1695     6.2281
  539.5000  -999.2500     6.3979     6.5947
  540.0000  -999.2500     6.6202     6.9623
  540.5000  -999.2500     6.9418     7.3478
  541.0000  -999.2500     7.2744     7.7548
  541.5000  -999.2500     7.8000     8.2084
  542.0000  -999.2500     8.3635     8.6461
  542.5000  -999.2500     8.9191     8.8537
  543.0000  -999.2500     8.9994     9.0661
  543.5000  -999.2500     9.0871     9.4313
  544.0000  -999.2500     9.1771     9.4236
  544.5000  -999.2500     9.2682     9.5185
  545.0000  -999.2500     9.4271     9.5145
  545.5000  -999.2500     9.4555     9.4568
