~VERSION INFORMATION
 VERS.                2.0:   CWLS LOG ASCII STANDARD - VERSION 2.0
 WRAP.                 NO:   ONE LINE PER DEPTH STEP
~WELL INFORMATION
#MNEM.UNIT      DATA TYPE    INFORMATION
#----------   ------------   ------------------------------
 STRT.F            0.0000:   START DEPTH
 STOP.F         4112.0000:   STOP DEPTH
 STEP.F            0.5000:   STEP LENGTH
 NULL.          -999.2500:   NO VALUE
 COMP. LAWRENCE-ALLISON &AS:   COMPANY
 WELL. N P R 3-76-1-SX #3-3:   WELL
 FLD .          N.P.R. #3:   FIELD
 LOC .       S3 T38N R78W:   LOCATION
 CNTY.            NATRONA:   COUNTY
 STAT.            WYOMING:   STATE
 CTRY. UNITED STATES OF AMERICA:   COUNTRY
 SRVC.      Dresser Atlas:   SERVICE COMPANY
 DATE.        04-SEP-1983:   LOGDATE
 API .       490251093100:   API NUMBER
~CURVE INFORMATION
#MNEM.UNIT       API CODE    CURVE DESCRIPTION
#----------   ------------   ------------------------------
 DEPT.F                  :   
 DEN .G/C3   45 350 01 00:   COMPENSATED BULK DENSTIY
 CORR.G/C3   45 356 01 00:   DENSITY CORRECTION
 PORD.DEC    45 890 12 00:   POROSITY DENSITY SANDSTONE
 CNC .DEC    42 890 03 00:   NEUTRON POROSITY SANDSTONE
 SPR .MV     07 010 01 00:   SPONTANEOUS POTENTIAL
 GRR .GAPI   07 310 01 00:   GAMMA RAY FROM RES. LOG.
 RFOC.OHMM   07 220 04 00:   RESISTIVITY FOCUSED LOG
 CALD.IN     45 280 60 00:   CALIPER
 AC  .US/F   60 520 00 00:   ACOUSTIC SONIC
 RILD.OHMM   07 120 46 00:   INDUCTION LOG DEEP RESISTIVITY
 RILM.OHMM   07 120 44 00:   INDUCTION LOG MEDIUM RESISTIVITY
~PARAMETER INFORMATION
#MNEM.UNIT          VALUE    DESCRIPTION
#----------   ------------   ------------------------------
 PD  .                 GL:   PERMANENT DATUM
 EPD .F              5147:   ELEVATION PERMANENT DATUM
 LMF .                 KB:   LOG MEASURED FROM
 DAPD.F                10:   FEET ABOVE PERMANENT DATUM
 DMF .                 KB:   DRILLING MEASURED FROM
 EKB .F              5157:   KELLING BUSHING
 EGL .F              5147:   GROUND LEVEL
 DATE.             9-4-83:   RUN DATE
 RUN .                  1:   RUN NUMBER
 DD  .F              4119:   DEPTH DRILLER
 DL  .F              4115:   DEPTH LOGGER
 BLI .F              4112:   BOTTOM LOG INTERVAL
 CS  .IN            9.625:   CASING SIZE
 CBD .F               491:   CASING BOTTOM DRILLER
 CBL .F               494:   CASING BOTTOM LOGGER
 BS  .IN             8.75:   BIT SIZE
 BSD .F              4119:   BIT SIZE AT DEPTH
 DFT .            KCL GEL:   DRILLING FLUID TYPE
 DFD .                8.9:   DRILLING FLUID DENSITY
 DFV .                 46:   DRILLING FLUID VISCOSITY
 DFPH.                  9:   DRILLING FLUID PH
 DFL .               13.6:   DRILLING FLUID LOSS
 MSS .            MUDTANK:   MUD SAMPLE SOURCE
 RMS .OHMM           .315:   RESISTIVITY MUD SAMPLE
 MST .F                92:   MUD SAMPLE TEMPERATURE
 RMF .OHMM            .25:   RESISTIVITY MUD FILTRATE SAMPLE
 MFST.F                84:   MUD FILTRATE SAMPLE TEMPERATURE
 RMC .OHMM             .4:   RESISTIVITY MUD CAKE
 MCST.F                92:   MUD CAKE SAMPLE TEMPERATURE
 MFSS.                  M:   MUD FILTRATE SAMPLE SOURCE
 MCSS.                  C:   MUD CAKE SAMPLE SOURCE
 RMB .OHMM            .22:   RESISTIVITY MUD AT BHT
 BHT .F               132:   BOTTOM HOLE TEMPERATURE
 TCS .HRS               4:   TIME CURCULATED STOPPED
 MRT .F               132:   MAXIMUM RECORDED TEMPERATURE
 LUN .               6274:   LOGGING UNIT NUMBER
 LUL .               GLTE:   LOGGING UNIT LOCATION
 ENGI.             RAUTIO:   RECORDING ENGINEER
 WITN.             STRONG:   WITNESSED BY
 CLNT.            A2DTECH:   CLIENT CODE
 ORIG. 1", 2", 2.5", 5" PRINT:   ORIGIN OF DATA
 UWI .       490251093100:   UNIQUE WELL ID
 DICO. A2D Technologies, Inc.:   DIGITIZING COMPANY
~OTHER INFORMATION
~A    DEPT     DEN       CORR       PORD        CNC        SPR          GRR     RFOC       CALD         AC       RILD       RILM   
# ...
  976.0000     2.5204     0.0616     0.0767     0.2345   -46.4006    86.3717     9.3153     9.2329  -999.2500     9.2770     9.0759
  976.5000     2.5191     0.0649     0.0767     0.2361   -46.3435    92.9064     9.2534     9.2329  -999.2500     9.2447     9.0268
  977.0000     2.5178     0.0508     0.0781     0.2483   -46.2923    99.2906     9.1917     9.2329  -999.2500     9.2125     8.9780
  977.5000     2.5163     0.0368     0.0795     0.2610   -46.2370   102.8483     9.1307     9.2329  -999.2500     9.1804     8.9294
  978.0000     2.5189     0.0223     0.0811     0.2643   -46.3485   100.3528     9.0701     9.2329  -999.2500     9.1484     8.8811
  978.5000     2.5213     0.0084     0.0795     0.2519   -46.4716    98.0353     9.0099     9.2329  -999.2500     9.1165     8.8330
  979.0000     2.5210    -0.0068     0.0777     0.2377   -46.6007    99.5421     8.9500     9.2329  -999.2500     9.0847     8.7851
  979.5000     2.5167    -0.0026     0.0787     0.2418   -46.7274   105.0974     8.9357     9.2329  -999.2500     9.0530     8.7565
  980.0000     2.5105     0.0126     0.0820     0.2503   -46.8542   101.8777     8.9357     9.2329  -999.2500     9.0213     8.7340
  980.5000     2.5048     0.0038     0.0853     0.2600   -46.9813    93.7740     8.9358     9.2329  -999.2500     8.9898     8.7116
  981.0000     2.4980    -0.0091     0.0885     0.2697   -47.1070    85.1869     8.9361     9.2329  -999.2500     8.9585     8.6892
  981.5000     2.4979    -0.0212     0.0916     0.2776   -47.2370    87.2253     8.9363     9.2329  -999.2500     8.9356     8.6665
  982.0000     2.5045    -0.0346     0.0909     0.2745   -47.3628    91.9622     8.9364     9.2329  -999.2500     8.9357     8.6438
  982.5000     2.5106    -0.0204     0.0864     0.2684   -47.4143    96.9101     8.9626     9.2329  -999.2500     8.9357     8.6158
  983.0000     2.5096    -0.0010     0.0819     0.2624   -47.2243   100.4618     8.9855     9.2329  -999.2500     8.9357     8.6391
  983.5000     2.5064     0.0192     0.0837     0.2540   -47.0646    98.7812     9.0084     9.2329  -999.2500     8.9357     8.6798
  984.0000     2.5032     0.0223     0.0868     0.2442   -46.8968    97.7785     9.0313     9.2329  -999.2500     8.9357     8.7207
  984.5000     2.5002     0.0057     0.0883     0.2345   -46.7286    92.9957     9.0549     9.2329  -999.2500     8.9356     8.7617
  985.0000     2.4999    -0.0131     0.0900     0.2290   -46.5615    92.2035     9.0769     9.2329  -999.2500     8.9357     8.8026
  985.5000     2.5016     0.0029     0.0877     0.2290   -46.3970    94.3204     9.0988     9.2329  -999.2500     8.9357     8.8435
  986.0000     2.5071     0.0243     0.0851     0.2354   -46.2346    96.2047     9.0702     9.2329  -999.2500     8.9373     8.8847
  986.5000     2.5140     0.0333     0.0824     0.2402   -46.1753    93.4914     9.0429     9.2329  -999.2500     8.9186     8.9261
  987.0000     2.5128     0.0272     0.0819     0.2456   -46.1167    93.5285     9.0145     9.2329  -999.2500     8.8814     8.8941
  987.5000     2.5100     0.0322     0.0825     0.2526   -46.0630    94.9482     8.9858     9.2329  -999.2500     8.8459     8.8414
  988.0000     2.5072     0.0480     0.0843     0.2586   -46.0071    94.1449     8.9576     9.2329  -999.2500     8.8110     8.7889
  988.5000     2.5043     0.0636     0.0862     0.2515   -45.9497    95.4821     8.9295     9.2329  -999.2500     8.7757     8.7366
  989.0000     2.5012     0.0470     0.0883     0.2410   -45.8987    98.8861     8.9014     9.2329  -999.2500     8.7408     8.6847
  989.5000     2.5016     0.0302     0.0887     0.2402   -45.8390   100.6626     8.8733     9.2329  -999.2500     8.7059     8.6331
  990.0000     2.5056     0.0124     0.0892     0.2417   -45.9253    98.4280     8.8454     9.2329  -999.2500     8.6712     8.5818
  990.5000     2.5099     0.0006     0.0866     0.2463   -46.0281    97.1796     8.8175     9.2329  -999.2500     8.6367     8.5307
  991.0000     2.5186    -0.0052     0.0824     0.2506   -46.1359   100.4243     8.7897     9.2329  -999.2500     8.6023     8.4800
  991.5000     2.5292     0.0167     0.0760     0.2570   -46.2420    98.6280     8.7548     9.2329  -999.2500     8.5680     8.4296
  992.0000     2.5378     0.0402     0.0697     0.2682   -46.3455    95.1893     8.7098     9.2329  -999.2500     8.5339     8.3795
  992.5000     2.5318     0.0534     0.0691     0.2755   -46.4527    91.2018     8.6652     9.2329  -999.2500     8.4999     8.3297
  993.0000     2.5225     0.0522     0.0737     0.2721   -46.5650    93.0384     8.6207     9.2329  -999.2500     8.4662     8.2802
  993.5000     2.5143     0.0316     0.0782     0.2688   -46.6331    95.3773     8.5763     9.2330  -999.2500     8.4327     8.2302
  994.0000     2.5160     0.0252     0.0804     0.2654   -46.6265    95.2530     8.5322     9.2326  -999.2500     8.3994     8.1547
  994.5000     2.5185     0.0417     0.0786     0.2621   -46.6266    94.9603     8.4674     9.2319  -999.2500     8.3663     8.1748
  995.0000     2.5213     0.0568     0.0779     0.2593   -46.6279    98.7599     8.4785     9.2311  -999.2500     8.3332     8.2267
  995.5000     2.5239     0.0605     0.0763     0.2539   -46.6270   105.5721     8.5479     9.2304  -999.2500     8.3059     8.2790
  996.0000     2.5265     0.0577     0.0739     0.2482   -46.6270   104.5532     8.6181     9.2296  -999.2500     8.4151     8.3316
  996.5000     2.5293     0.0549     0.0715     0.2558   -46.6271   101.4205     8.6886     9.2289  -999.2500     8.5089     8.3845
  997.0000     2.5294     0.0544     0.0727     0.2652   -46.6269    97.8956     8.7597     9.2281  -999.2500     8.6035     8.4376
  997.5000     2.5279     0.0584     0.0738     0.2704   -46.6269    97.7087     8.8313     9.2274  -999.2500     8.6992     8.4910
  998.0000     2.5266     0.0627     0.0750     0.2627   -46.6270   101.4445     8.9357     9.2266  -999.2500     8.7959     8.5446
  998.5000     2.5252     0.0677     0.0763     0.2506   -46.6269   105.0532     8.8696     9.2258  -999.2500     8.8938     8.5985
  999.0000     2.5238     0.0633     0.0778     0.2506   -46.6265   106.8388     8.7524     9.2251  -999.2500     8.9929     8.6527
  999.5000     2.5182     0.0492     0.0796     0.2575   -46.6341   106.6603     8.6367     9.2243  -999.2500     9.0998     8.7073
 1000.0000     2.5165     0.0264     0.0808     0.2627   -46.6576   104.4530     8.4581     9.2236  -999.2500     9.0866     8.7727
 1000.5000     2.5145     0.0292     0.0816     0.2634   -46.6807   102.1245     8.5060     9.2228  -999.2500     9.0727     8.7201
 1001.0000     2.5140     0.0383     0.0817     0.2616   -46.7038   100.4072     8.6184     9.2221  -999.2500     9.0590     8.6560
 1001.5000     2.5141     0.0479     0.0814     0.2598   -46.7271   101.2517     8.7324     9.2213  -999.2500     9.0453     8.5927
 1002.0000     2.5139     0.0533     0.0811     0.2599   -46.7503   102.1473     8.8478     9.2206  -999.2500     9.0313     8.5293
 1002.5000     2.5133     0.0465     0.0833     0.2621   -46.7736   101.8592     8.9164     9.2198  -999.2500     9.0173     8.4663
 1003.0000     2.5128     0.0400     0.0841     0.2651   -46.7968    98.2374     8.8387     9.2191  -999.2500     9.0033     8.4038
 1003.5000     2.5124     0.0335     0.0835     0.2619   -46.8200    94.6686     8.7616     9.2183  -999.2500     8.9893     8.3418
 1004.0000     2.5098     0.0268     0.0842     0.2566   -46.8432    91.0769     8.6852     9.2175  -999.2500     8.9748     8.2802
 1004.5000     2.5050     0.0202     0.0868     0.2538   -46.8665    87.7515     8.6144     9.2168  -999.2500     8.9598     8.2191
 1005.0000     2.5001     0.0136     0.0895     0.2548   -46.8897    89.4765     8.6144     9.2160  -999.2500     8.9473     8.1585
 1005.5000     2.4993     0.0074     0.0913     0.2556   -46.9130    95.4310     8.6144     9.2153  -999.2500     8.9357     8.0983
 1006.0000     2.5031     0.0142     0.0896     0.2564   -46.9362   103.1930     8.6144     9.2145  -999.2500     8.8114     8.0385
