~VERSION INFORMATION
 VERS.                2.0:   CWLS LOG ASCII STANDARD - VERSION 2.0
 WRAP.                 NO:   ONE LINE PER DEPTH STEP
~WELL INFORMATION
#MNEM.UNIT      DATA TYPE    INFORMATION
#----------   ------------   ------------------------------
 STRT.F          748.0000:   START DEPTH
 STOP.F         2238.0000:   STOP DEPTH
 STEP.F            0.5000:   STEP LENGTH
 NULL.          -999.2500:   NO VALUE
 COMP. LAWRENCE/ALLISON INC:   COMPANY
 WELL. NPR 3 #36-2-SHX-10:   WELL
 FLD .             TEAPOT:   FIELD
 LOC .      S10 T38N R78W:   LOCATION
 CNTY.            NATRONA:   COUNTY
 STAT.            WYOMING:   STATE
 CTRY. UNITED STATES OF AMERICA:   COUNTRY
 SRVC.            Unknown:   SERVICE COMPANY
 DATE.        02-JUN-1984:   LOGDATE
 API .       490256012900:   API NUMBER
~CURVE INFORMATION
#MNEM.UNIT       API CODE    CURVE DESCRIPTION
#----------   ------------   ------------------------------
 DEPT.F                  :   
 ROP .MIN/FT 91 810 01 00:   RATE OF DRILLING PENETRATION
 TGAS.UNITS  91 830 01 00:   TOTAL GAS FROM HOTWIRE
~PARAMETER INFORMATION
#MNEM.UNIT          VALUE    DESCRIPTION
#----------   ------------   ------------------------------
 EKB .F              5223:   KELLING BUSHING
 EGL .F              5213:   GROUND LEVEL
 DATE.             6-2-84:   RUN DATE
 DD  .F              2238:   DEPTH DRILLER
 BLI .F              2238:   BOTTOM LOG INTERVAL
 TLI .F               740:   TOP LOG INTERVAL
 CS  .IN            8.625:   CASING SIZE
 CBD .F               717:   CASING BOTTOM DRILLER
 LUN .               T-83:   LOGGING UNIT NUMBER
 ENGI.            JOHNSON:   RECORDING ENGINEER
 WITN.           SCHERGER:   WITNESSED BY
 CLNT.            A2DTECH:   CLIENT CODE
 ORIG.           5" PRINT:   ORIGIN OF DATA
 UWI .       490256012900:   UNIQUE WELL ID
 DICO. A2D Technologies, Inc.:   DIGITIZING COMPANY
~OTHER INFORMATION
~A   DEPT        ROP     TGAS   
# ...
  869.5000     0.5566     0.0171
  870.0000     0.5565     0.0186
  870.5000     0.5564     0.0202
  871.0000     0.5563     0.0217
  871.5000     0.5562     0.0232
  872.0000     0.5560     0.0248
  872.5000     0.5559     0.0263
  873.0000     0.5558     0.0279
  873.5000     0.5557     0.0294
  874.0000     0.5556     0.0309
  874.5000     0.5555     0.0325
  875.0000     0.5554     0.0340
  875.5000     0.5552     0.0355
  876.0000     0.5551     0.0371
  876.5000     0.5550     0.0386
  877.0000     0.5549     0.0401
  877.5000     0.5548     0.0417
  878.0000     0.5547     0.0432
  878.5000     0.5546     0.0447
  879.0000     0.5544     0.0463
  879.5000     0.5543     0.0478
  880.0000     0.5542     0.0493
  880.5000     0.5541     0.0509
  881.0000     0.5540     0.0524
  881.5000     0.5539     0.0539
  882.0000     0.5538     0.0555
  882.5000     0.5536     0.0570
  883.0000     0.5535     0.0586
  883.5000     0.5534     0.0601
  884.0000     0.5533     0.0616
  884.5000     0.5532     0.0632
  885.0000     0.5531     0.0647
  885.5000     0.5530     0.0662
  886.0000     0.5528     0.0678
  886.5000     0.5527     0.0693
  887.0000     0.5526    12.4300
  887.5000     0.5525    31.2715
  888.0000     0.5524    46.9666
  888.5000     0.5523    30.2776
  889.0000     0.5522    15.9767
  889.5000     0.5521     0.0000
  890.0000     0.5519     0.0000
  890.5000     0.5518     0.0000
  891.0000     0.5517     0.0000
  891.5000     0.5516     0.0000
  892.0000     0.5515     0.0000
  892.5000     0.5514     0.0000
  893.0000     0.5513     0.0000
  893.5000     0.5511     0.0000
  894.0000     0.5510     0.0000
  894.5000     0.5509     0.0000
  895.0000     0.5508     0.0000
  895.5000     0.5507     0.0000
  896.0000     0.5506     0.0000
  896.5000     0.5505     0.0000
  897.0000     0.5503     0.0000
  897.5000     0.5502     0.0000
  898.0000     0.5501     0.0000
  898.5000     0.5500     0.0000
  899.0000     0.5499     0.0000
  899.5000     0.5498     0.0000
  900.0000     0.5497     0.0000
  900.5000     0.5495     0.0052
  901.0000     0.5466     0.0105
  901.5000     0.5373     0.0157
  902.0000     0.5280     0.0209
  902.5000     0.5188     0.0262
  903.0000     0.5095     0.0314
  903.5000     0.5002     0.0366
  904.0000     0.4910     0.0419
  904.5000     0.5346     0.0471
  905.0000     0.6152     0.0523
  905.5000     0.6959     0.0576
  906.0000     0.7724     0.0628
  906.5000     0.7715     0.0680
  907.0000     0.7706     0.0733
  907.5000     0.7698     0.0785
  908.0000     0.7689     0.0837
  908.5000     0.7681     0.0890
  909.0000     0.7672     0.0942
  909.5000     0.7664     0.0994
  910.0000     0.7655     0.1047
  910.5000     0.7647     0.1099
  911.0000     0.7638     0.1151
  911.5000     0.7630     0.1203
  912.0000     0.7621     0.1256
  912.5000     0.7613     0.1308
  913.0000     0.7604     0.1360
  913.5000     0.7596     0.1413
  914.0000     0.7587     0.1465
  914.5000     0.7579     0.1517
  915.0000     0.7570     0.1570
  915.5000     0.7562     0.1622
  916.0000     0.7553     0.1674
  916.5000     0.7545     0.1727
  917.0000     0.7536     0.1779
  917.5000     0.7528    18.0225
  918.0000     0.7519    55.5285
  918.5000     0.7511    70.1087
  919.0000     0.7502    48.5741
  919.5000     0.7494    27.0395
  920.0000     0.7485     5.5050
  920.5000     0.7477    80.0858
  921.0000     0.7468    20.2892
  921.5000     0.7460     0.3577
  922.0000     0.7451     0.3623
  922.5000     0.7443     0.3668
  923.0000     0.7434     0.3714
  923.5000     0.7426     0.3759
  924.0000     0.7417     0.3805
  924.5000     0.7409     0.3851
  925.0000     0.7400     0.3896
  925.5000     0.7392     0.3942
  926.0000     0.7384     0.3987
  926.5000     0.7375     0.4033
  927.0000     0.7367     0.4079
  927.5000     0.7358     0.4124
  928.0000     0.7350     0.4170
  928.5000     0.7341     0.4215
  929.0000     0.7333     0.4261
  929.5000     0.7324     0.4306
  930.0000     0.7317     0.4352
  930.5000     0.8333     0.4398
  931.0000     0.9146     0.4443
  931.5000     0.9756     0.4489
  932.0000     0.9959     0.4534
  932.5000     0.9959     0.4580
  933.0000     0.9553     0.4626
  933.5000     0.8130     0.4671
  934.0000     0.7317     0.4717
  934.5000     0.7520     0.4762
  935.0000     0.8740     0.4808
  935.5000     1.0366     0.4853
  936.0000     1.1992     0.4899
  936.5000     1.2805     0.4945
  937.0000     1.3008     0.4990
  937.5000     1.2398     0.5036
  938.0000     1.2398     0.5081
  938.5000     1.3008     0.5127
  939.0000     1.3618     0.5173
  939.5000     1.4634     0.5218
  940.0000     1.5244     0.5264
  940.5000     1.5447     0.5309
  941.0000     1.5447     0.5355
  941.5000     1.4634     0.5400
  942.0000     1.3821     0.5446
  942.5000     1.1992     0.5492
  943.0000     0.9959     0.5537
  943.5000     0.8333     0.5583
  944.0000     0.7317     0.5628
  944.5000     0.7317     0.5674
  945.0000     0.7317     0.5720
  945.5000     0.7317     0.5765
  946.0000     0.7317     0.5811
  946.5000     0.7317     0.5856
  947.0000     0.7317     0.5902
  947.5000     0.7317     0.5947
  948.0000     0.7317     0.5993
  948.5000     0.7317     0.6039
  949.0000     0.7317    11.3747
  949.5000     0.7317    26.3329
  950.0000     0.7317    42.4890
  950.5000     0.7317    21.4633
  951.0000     0.7317     0.4347
  951.5000     0.7317     0.4357
  952.0000     0.7317     0.4366
  952.5000     0.7317     0.4376
  953.0000     0.7317     0.4385
  953.5000     0.7317     0.4395
  954.0000     0.7317     0.4404
  954.5000     0.7317     0.4413
  955.0000     0.7317     0.4423
  955.5000     0.7317     0.4432
  956.0000     0.7317     0.4441
  956.5000     0.7317     0.4451
  957.0000     0.7317     0.4460
  957.5000     0.7317     0.4470
  958.0000     0.7317     0.4479
  958.5000     0.7317     0.4488
  959.0000     0.7317     0.4498
  959.5000     0.7317     0.4507
  960.0000     0.7317     0.4517
  960.5000     0.7317     0.4526
  961.0000     0.7317     0.4535
  961.5000     0.7317     0.4545
  962.0000     0.7317     0.4554
  962.5000     0.7317     0.4564
  963.0000     0.7317     0.4573
  963.5000     0.7317     0.4582
  964.0000     0.7317     0.4592
  964.5000     0.7317     0.4601
  965.0000     0.7317     0.4611
  965.5000     0.7317     0.4620
  966.0000     0.7317     0.4629
  966.5000     0.7317     0.4639
  967.0000     0.7317     0.4648
  967.5000     0.7317     0.4658
  968.0000     0.7317     0.4667
  968.5000     0.7317     0.4676
  969.0000     0.7317     0.4686
  969.5000     0.7317     0.4695
  970.0000     0.7317     0.4705
  970.5000     0.7317     0.4714
  971.0000     0.7317     0.4723
  971.5000     0.7317     0.4733
  972.0000     0.7317     0.4742
  972.5000     0.7317     0.4752
  973.0000     0.7317     0.4761
  973.5000     0.7317     0.4770
  974.0000     0.7317     0.4780
  974.5000     0.7317     0.4789
  975.0000     0.7317     0.4798
  975.5000     0.7317     0.4808
  976.0000     0.7317     0.4817
  976.5000     0.7317     0.4827
  977.0000     0.7317     0.4836
  977.5000     0.7317     0.4845
  978.0000     0.7317     0.4855
  978.5000     0.7317     0.4864
  979.0000     0.7317     0.4874
  979.5000     0.7317     6.8381
  980.0000     0.7317    15.2860
  980.5000     0.7317    24.7903
  981.0000     0.7317    35.0546
  981.5000     0.7317    17.7937
  982.0000     0.7317     0.5344
  982.5000     0.7317     0.5251
  983.0000     0.7317     0.5157
  983.5000     0.7317     0.5064
  984.0000     0.7317     0.4971
  984.5000     0.7317     0.4878
  985.0000     0.7317     0.4784
  985.5000     0.7317     0.4691
  986.0000     0.7317     0.4598
  986.5000     0.7317     0.4504
  987.0000     0.7317     0.4411
  987.5000     0.7317     0.4318
  988.0000     0.7317     0.4224
  988.5000     0.7317     0.4131
  989.0000     0.7317     0.4038
  989.5000     0.7317     0.3945
  990.0000     0.7317     0.3851
  990.5000     0.7317     0.3758
