~VERSION INFORMATION
 VERS.                2.0:   CWLS LOG ASCII STANDARD - VERSION 2.0
 WRAP.                 NO:   ONE LINE PER DEPTH STEP
~WELL INFORMATION
#MNEM.UNIT      DATA TYPE    INFORMATION
#----------   ------------   ------------------------------
 STRT.F           32.0000:   START DEPTH
 STOP.F          707.0000:   STOP DEPTH
 STEP.F            0.5000:   STEP LENGTH
 NULL.          -999.2500:   NO VALUE
 COMP. FENIX & SCISSON INC:   COMPANY
 WELL.     NPR 3 #28SX-11:   WELL
 FLD .             TEAPOT:   FIELD
 LOC .      S11 T38N R78W:   LOCATION
 CNTY.            NATRONA:   COUNTY
 STAT.            WYOMING:   STATE
 CTRY. UNITED STATES OF AMERICA:   COUNTRY
 SRVC.              Welex:   SERVICE COMPANY
 DATE.        26-APR-1977:   LOGDATE
 API .       490251034400:   API NUMBER
~CURVE INFORMATION
#MNEM.UNIT       API CODE    CURVE DESCRIPTION
#----------   ------------   ------------------------------
 DEPT.F                  :   
 CALD.IN     45 280 60 00:   CALIPER FROM DENSITY LOG
 GRD .GAPI   45 310 01 00:   GAMMA RAY FROM DENSITY LOG
 CORR.G/C3   45 356 01 00:   DENSITY CORRECTION
 DPHI.DEC    45 890 12 00:   DENSITY POROSITY SANDSTONE
 RHOB.G/C3   45 350 01 00:   BULK DENSITY
~PARAMETER INFORMATION
#MNEM.UNIT          VALUE    DESCRIPTION
#----------   ------------   ------------------------------
 PD  .                 GL:   PERMANENT DATUM
 EPD .F              5203:   ELEVATION PERMANENT DATUM
 LMF .                 GL:   LOG MEASURED FROM
 DMF .                 GL:   DRILLING MEASURED FROM
 EGL .F              5203:   GROUND LEVEL
 DATE.        26-APR-1977:   RUN DATE
 RUN .                  1:   RUN NUMBER
 DD  .F               714:   DEPTH DRILLER
 DL  .F               709:   DEPTH LOGGER
 BLI .F               707:   BOTTOM LOG INTERVAL
 TLI .F                32:   TOP LOG INTERVAL
 CS  .IN            8.625:   CASING SIZE
 BS  .IN               12:   BIT SIZE
 BSD .F               714:   BIT SIZE AT DEPTH
 DFT .            KCL MUD:   DRILLING FLUID TYPE
 DFD .                8.7:   DRILLING FLUID DENSITY
 TCS .HRS            0100:   TIME CURCULATED STOPPED
 MRT .F                74:   MAXIMUM RECORDED TEMPERATURE
 ENGI.            C. DOAK:   RECORDING ENGINEER
 WITN.           ROB LYON:   WITNESSED BY
 CLNT.            A2DTECH:   CLIENT CODE
 ORIG.           5" PRINT:   ORIGIN OF DATA
 UWI .       490251034400:   UNIQUE WELL ID
 DICO. A2D Technologies, Inc.:   DIGITIZING COMPANY
~OTHER INFORMATION
~A   DEPT       CALD      GRD        CORR      DPHI       RHOB   
# ...
  215.0000     7.9820   119.9060     0.0285     0.1242     2.4780
  215.5000     7.9825   122.5813     0.0302     0.1206     2.4878
  216.0000     7.9831   123.4814     0.0319     0.1143     2.4901
  216.5000     7.9837   123.3429     0.0336     0.1148     2.4850
  217.0000     7.9842   123.5065     0.0368     0.1148     2.4835
  217.5000     7.9835   124.8504     0.0385     0.1124     2.4851
  218.0000     7.9828   126.3422     0.0417     0.1064     2.4889
  218.5000     7.9821   127.5382     0.0434     0.0992     2.4994
  219.0000     7.9815   128.4383     0.0466     0.0976     2.5047
  219.5000     7.9808   129.6343     0.0483     0.1036     2.4914
  220.0000     7.9801   131.5699     0.0485     0.1044     2.4884
  220.5000     7.9794   133.2097     0.0502     0.1023     2.4960
  221.0000     7.9788   134.1098     0.0489     0.1016     2.4983
  221.5000     7.9781   135.1579     0.0475     0.1031     2.4723
  222.0000     7.9774   135.7621     0.0432     0.1120     2.4813
  222.5000     7.9767   135.9226     0.0404     0.1153     2.4873
  223.0000     7.9760   135.3434     0.0391     0.1152     2.4904
  223.5000     7.9754   132.9891     0.0408     0.1125     2.4912
  224.0000     7.9747   131.0786     0.0425     0.1104     2.4928
  224.5000     7.9740   128.8722     0.0458     0.1085     2.4951
  225.0000     7.9733   125.7782     0.0490     0.1070     2.5011
  225.5000     7.9726   123.1249     0.0507     0.1058     2.5064
  226.0000     7.9720   125.9512     0.0509     0.1069     2.5080
  226.5000     7.9713   125.3720     0.0495     0.1090     2.4954
  227.0000     7.9706   123.3136     0.0467     0.1116     2.4888
  227.5000     7.9699   121.5510     0.0454     0.1131     2.4866
  228.0000     7.9693   119.4925     0.0426     0.1116     2.4964
  228.5000     7.9686   119.2061     0.0398     0.1082     2.5009
  229.0000     7.9679   119.3665     0.0370     0.1052     2.5032
  229.5000     7.9672   117.7550     0.0326     0.1040     2.4981
  230.0000     7.9665   115.9924     0.0268     0.1039     2.4885
  230.5000     7.9659   115.4101     0.0240     0.1123     2.4811
  231.0000     7.9652   117.9405     0.0197     0.1224     2.4722
  231.5000     7.9645   119.7282     0.0169     0.1280     2.4626
  232.0000     7.9638   119.4449     0.0155     0.1315     2.4549
  232.5000     7.9632   117.2385     0.0142     0.1357     2.4446
  233.0000     7.9625   115.9197     0.0129     0.1416     2.4388
  233.5000     7.9618   114.6009     0.0116     0.1428     2.4422
  234.0000     7.9611   113.4300     0.0103     0.1388     2.4459
  234.5000     7.9604   112.8477     0.0090     0.1388     2.4456
  235.0000     7.9598   113.4551     0.0077     0.1415     2.4376
  235.5000     7.9591   115.0948     0.0079     0.1465     2.4331
  236.0000     7.9584   116.7346     0.0081     0.1476     2.4319
  236.5000     7.9577   118.5223     0.0098     0.1434     2.4358
  237.0000     7.9570   120.1621     0.0115     0.1332     2.4444
  237.5000     7.9564   121.3580     0.0162     0.1260     2.4595
  238.0000     7.9557   122.5540     0.0224     0.1176     2.4737
  238.5000     7.9550   123.4541     0.0271     0.1128     2.4841
  239.0000     7.9543   124.3542     0.0318     0.1119     2.4931
  239.5000     7.9537   125.1064     0.0351     0.1122     2.4973
  240.0000     7.9530   126.1545     0.0367     0.1109     2.4967
  240.5000     7.9523   126.6108     0.0354     0.1070     2.4952
  241.0000     7.9516   123.9606     0.0341     0.1031     2.4953
  241.5000     7.9509   120.8667     0.0343     0.1007     2.4984
  242.0000     7.9503   117.7727     0.0330     0.0988     2.5096
  242.5000     7.9496   113.9391     0.0332     0.0979     2.5149
  243.0000     7.9489   112.1765     0.0334     0.0982     2.5113
  243.5000     7.9482   114.8517     0.0336     0.1020     2.5039
  244.0000     7.9476   115.7519     0.0353     0.1046     2.5010
  244.5000     7.9469   112.5100     0.0358     0.1025     2.5048
  245.0000     7.9462   110.7474     0.0387     0.1004     2.5071
  245.5000     7.9455   110.9078     0.0389     0.0997     2.5094
  246.0000     7.9448   114.7665     0.0376     0.0997     2.4961
  246.5000     7.9442   117.4418     0.0333     0.1003     2.4879
  247.0000     7.9435   119.6733     0.0260     0.1080     2.4776
  247.5000     7.9428   120.1368     0.0216     0.1235     2.4597
  248.0000     7.9421   115.7043     0.0188     0.1291     2.4650
  248.5000     7.9414   115.1025     0.0250     0.1216     2.4741
  249.0000     7.9408   118.9838     0.0283     0.1192     2.4779
  249.5000     7.9401   121.8070     0.0285     0.1203     2.4787
  250.0000     7.9394   123.5947     0.0281     0.1243     2.4633
  250.5000     7.9387   125.2390     0.0227     0.1266     2.4567
  251.0000     7.9381   126.4364     0.0199     0.1289     2.4513
  251.5000     7.9374   127.9355     0.0201     0.1298     2.4588
  252.0000     7.9367   129.4202     0.0203     0.1262     2.4656
  252.5000     7.9360   130.3217     0.0220     0.1228     2.4731
  253.0000     7.9353   130.2913     0.0222     0.1198     2.4784
  253.5000     7.9347   127.7628     0.0239     0.1165     2.4844
  254.0000     7.9340   124.2158     0.0255     0.1186     2.4741
  254.5000     7.9333   121.2878     0.0272     0.1230     2.4689
  255.0000     7.9325   120.0219     0.0319     0.1212     2.4764
  255.5000     7.9325   120.7744     0.0366     0.1158     2.4855
  256.0000     7.9326   120.9345     0.0398     0.1080     2.4952
  256.5000     7.9326   120.1886     0.0415     0.1038     2.5020
  257.0000     7.9327   118.7646     0.0417     0.1020     2.5073
  257.5000     7.9327   115.8765     0.0389     0.1020     2.5118
  258.0000     7.9328   114.3047     0.0360     0.1088     2.4977
  258.5000     7.9328   114.4667     0.0347     0.1133     2.4911
  259.0000     7.9329   116.4511     0.0319     0.1100     2.4889
  259.5000     7.9329   115.0495     0.0305     0.1117     2.4875
  260.0000     7.9329   114.9698     0.0292     0.1159     2.4861
  260.5000     7.9330   116.6127     0.0294     0.1173     2.4861
  261.0000     7.9330   118.2524     0.0311     0.1149     2.4929
  261.5000     7.9331   119.4484     0.0358     0.1048     2.5042
  262.0000     7.9331   120.3485     0.0435     0.1008     2.5109
  262.5000     7.9332   121.2486     0.0437     0.1023     2.5117
  263.0000     7.9332   122.0008     0.0363     0.1086     2.4894
  263.5000     7.9333   123.0489     0.0335     0.1190     2.4806
  264.0000     7.9333   123.9490     0.0307     0.1154     2.4791
  264.5000     7.9333   124.7012     0.0339     0.1097     2.4852
  265.0000     7.9334   125.1575     0.0340     0.1061     2.4919
  265.5000     7.9334   124.2825     0.0357     0.1036     2.4995
  266.0000     7.9335   121.4844     0.0344     0.1024     2.5040
  266.5000     7.9335   119.7218     0.0316     0.1036     2.5011
  267.0000     7.9336   118.4030     0.0302     0.1107     2.4959
  267.5000     7.9336   116.7883     0.0259     0.1158     2.4847
  268.0000     7.9337   115.6174     0.0201     0.1244     2.4685
  268.5000     7.9337   114.4465     0.0187     0.1226     2.4663
  269.0000     7.9337   113.5715     0.0189     0.1193     2.4718
  269.5000     7.9338   112.8444     0.0206     0.1157     2.4822
  270.0000     7.9338   112.2652     0.0208     0.1165     2.4867
  270.5000     7.9339   113.3132     0.0225     0.1201     2.4792
  271.0000     7.9339   116.1364     0.0242     0.1225     2.4755
  271.5000     7.9340   119.5513     0.0258     0.1230     2.4726
  272.0000     7.9340   121.4870     0.0260     0.1215     2.4698
  272.5000     7.9341   123.1267     0.0262     0.1203     2.4683
  273.0000     7.9341   122.1038     0.0249     0.1200     2.4701
  273.5000     7.9342   119.8974     0.0266     0.1193     2.4762
  274.0000     7.9342   116.9513     0.0252     0.1196     2.4822
  274.5000     7.9342   115.6294     0.0224     0.1205     2.4843
  275.0000     7.9343   116.6806     0.0166     0.1228     2.4688
  275.5000     7.9343   118.1724     0.0107     0.1303     2.4563
