~VERSION INFORMATION
 VERS.                2.0:   CWLS LOG ASCII STANDARD - VERSION 2.0
 WRAP.                 NO:   ONE LINE PER DEPTH STEP
~WELL INFORMATION
#MNEM.UNIT      DATA TYPE    INFORMATION
#----------   ------------   ------------------------------
 STRT.F           38.0000:   START DEPTH
 STOP.F          637.0000:   STOP DEPTH
 STEP.F            0.5000:   STEP LENGTH
 NULL.          -999.2500:   NO VALUE
 COMP. FENIX & SCISSON INC:   COMPANY
 WELL.    NPR ##3 57-S-34:   WELL
 FLD .             TEAPOT:   FIELD
 LOC .      S34 T39N R78W:   LOCATION
 CNTY.            NATRONA:   COUNTY
 STAT.            WYOMING:   STATE
 CTRY. UNITED STATES OF AMERICA:   COUNTRY
 SRVC.              Welex:   SERVICE COMPANY
 DATE.        12-MAR-1977:   LOGDATE
 API .       490251030600:   API NUMBER
~CURVE INFORMATION
#MNEM.UNIT       API CODE    CURVE DESCRIPTION
#----------   ------------   ------------------------------
 DEPT.F                  :   
 SPR .MV     07 010 01 00:   SPONTANEOUS POTENTIAL
 ILM .OHMM   07 120 44 00:   INDUCTION LOG MEDIUM
 ILD .OHMM   07 120 46 00:   INDUCTION LOG DEEP
 SGRD.OHMM   07 221 05 00:   SHALLOW SHORT GUARD RESISTIVITY
 CALD.IN     45 280 60 00:   CALIPER FROM DENSITY LOG
 GRD .GAPI   45 310 01 00:   GAMMA RAY FROM DENSITY LOG
 CORR.G/C3   45 356 01 00:   DENSITY CORRECTION
 DPHI.DEC    45 890 12 00:   DENSITY POROSITY SANDSTONE
 RHOB.G/C3   45 350 01 00:   BULK DENSITY
~PARAMETER INFORMATION
#MNEM.UNIT          VALUE    DESCRIPTION
#----------   ------------   ------------------------------
 PD  .                 GL:   PERMANENT DATUM
 EPD .F              5107:   ELEVATION PERMANENT DATUM
 LMF .                 GL:   LOG MEASURED FROM
 DMF .                 GL:   DRILLING MEASURED FROM
 EGL .F              5107:   GROUND LEVEL
 DATE.          3-12-1977:   RUN DATE
 RUN .                  1:   RUN NUMBER
 DD  .F               650:   DEPTH DRILLER
 DL  .F               637:   DEPTH LOGGER
 BLI .F               636:   BOTTOM LOG INTERVAL
 TLI .F                46:   TOP LOG INTERVAL
 CS  .IN            8.625:   CASING SIZE
 CBD .F                45:   CASING BOTTOM DRILLER
 CBL .F                46:   CASING BOTTOM LOGGER
 BS  .IN            7.875:   BIT SIZE
 BSD .F               650:   BIT SIZE AT DEPTH
 DFT .            KCL MUD:   DRILLING FLUID TYPE
 DFD .                8.9:   DRILLING FLUID DENSITY
 DFV .                 35:   DRILLING FLUID VISCOSITY
 MSS .            MUD PIT:   MUD SAMPLE SOURCE
 RMS .OHMM            .53:   RESISTIVITY MUD SAMPLE
 MST .F                68:   MUD SAMPLE TEMPERATURE
 RMF .OHMM            .41:   RESISTIVITY MUD FILTRATE SAMPLE
 MFST.F                69:   MUD FILTRATE SAMPLE TEMPERATURE
 RMC .OHMM            .62:   RESISTIVITY MUD CAKE
 MCST.F                65:   MUD CAKE SAMPLE TEMPERATURE
 MFSS.           MEASURED:   MUD FILTRATE SAMPLE SOURCE
 MCSS.           MEASURED:   MUD CAKE SAMPLE SOURCE
 RMB .OHMM            .60:   RESISTIVITY MUD AT BHT
 BHT .F                60:   BOTTOM HOLE TEMPERATURE
 TCS .HRS               1:   TIME CURCULATED STOPPED
 MRT .F                60:   MAXIMUM RECORDED TEMPERATURE
 LUN .               0716:   LOGGING UNIT NUMBER
 LUL .             VERNAL:   LOGGING UNIT LOCATION
 ENGI.        E. CALLAHAN:   RECORDING ENGINEER
 WITN.         STUEBUNGER:   WITNESSED BY
 CLNT.            A2DTECH:   CLIENT CODE
 ORIG.           5" PRINT:   ORIGIN OF DATA
 UWI .       490251030600:   UNIQUE WELL ID
 DICO. A2D Technologies, Inc.:   DIGITIZING COMPANY
~OTHER INFORMATION
~A   DEPT      SPR        ILM        ILD       SGRD       CALD        GRD       CORR       DPHI       RHOB   
# ...
  403.0000   -32.3589     6.1897     5.6817     7.9015     8.3511   130.7862     0.0585     0.1008     2.4785
  403.5000   -32.3707     6.0194     5.5243     7.3712     8.3353   132.9503     0.0554     0.1046     2.4739
  404.0000   -31.6373     5.9352     5.2976     7.0693     8.3350   136.6625     0.0507     0.1089     2.4677
  404.5000   -32.3962     5.8928     5.1121     7.0182     8.3346   143.4706     0.0476     0.1148     2.4615
  405.0000   -33.0056     5.8503     5.0078     7.2621     8.3343   141.8886     0.0475     0.1142     2.4584
  405.5000   -33.0171     5.9301     5.0410     7.4118     8.3340   140.1703     0.0568     0.1118     2.4554
  406.0000   -32.8792     5.9700     5.0385     7.5132     8.3337   139.5907     0.0474     0.1133     2.4554
  406.5000   -32.2571     6.0098     5.0017     7.5100     8.3334   137.4205     0.0427     0.1130     2.4570
  407.0000   -31.1113     6.0495     4.9653     7.4558     8.3331   134.6311     0.0411     0.1137     2.4562
  407.5000   -31.5712     6.0062     4.8278     7.3003     8.3328   135.7116     0.0303     0.1211     2.4555
  408.0000   -32.3301     5.8003     4.7267     7.1916     8.3325   135.7086     0.0240     0.1270     2.4377
  408.5000   -32.4911     5.2641     4.6594     6.0108     8.3321   136.6344     0.0240     0.1369     2.4222
  409.0000   -33.1005     4.8440     4.5935     4.6203     8.3474   136.9417     0.0287     0.1394     2.4184
  409.5000   -33.7160     4.5823     4.5917     4.4009     8.3315   137.0927     0.0303     0.1401     2.4161
  410.0000   -35.3685     4.7094     4.6222     5.6816     8.3312   137.7096     0.0331     0.1407     2.4153
  410.5000   -37.4727     5.0838     4.7169     6.9409     8.3309   135.2290     0.0424     0.1357     2.4161
  411.0000   -38.5305     5.5941     4.8499     7.2847     8.3306   135.2260     0.0361     0.1330     2.4177
  411.5000   -38.2431     5.8697     5.0154     7.4329     8.3303   132.8978     0.0330     0.1231     2.4232
  412.0000   -37.5072     6.1166     5.1541     7.3277     8.3300   131.7853     0.0407     0.1144     2.4506
  412.5000   -36.7713     6.2430     5.2966     7.2247     8.3297   130.8824     0.0453     0.1122     2.4643
  413.0000   -36.1375     6.3721     5.4431     7.2724     8.3449   130.8787     0.0437     0.1144     2.4673
  413.5000   -34.8540     6.4590     5.4792     7.2700     8.3446   131.3400     0.0436     0.1148     2.4673
  414.0000   -33.5202     6.5021     5.4012     7.4199     8.3598   131.3370     0.0436     0.1138     2.4651
  414.5000   -31.8874     6.4552     5.3207     7.6313     8.3594   130.8696     0.0451     0.1151     2.4635
  415.0000   -31.0021     6.3649     5.1769     8.0003     8.3591   130.5569     0.0481     0.1200     2.4519
  415.5000   -31.0136     6.1471     4.9989     8.1653     8.3588   131.1731     0.0483     0.1173     2.4496
  416.0000   -31.9402     5.8553     4.8269     8.0504     8.3585   131.9448     0.0419     0.1216     2.4551
  416.5000   -32.5342     5.5008     4.7259     5.9779     8.3582   130.8574     0.0356     0.1319     2.4373
  417.0000   -32.8447     5.0123     4.5950     4.4083     8.3578   132.2475     0.0356     0.1343     2.4249
  417.5000   -32.1088     4.7223     4.5604     3.9453     8.3576   132.2445     0.0437     0.1269     2.4242
  418.0000   -31.5224     4.9209     4.4656     6.5330     8.3572   132.5511     0.0574     0.1238     2.4320
  418.5000   -30.9357     5.1991     4.5890     5.7666     8.3570   132.7028     0.0509     0.1223     2.4389
  419.0000   -30.3495     5.5312     4.7160     7.3940     8.3567   128.5820     0.0400     0.1195     2.4444
  419.5000   -30.3639     5.8846     4.9480     7.5465     8.3563   123.5629     0.0384     0.1093     2.4622
  420.0000   -30.5249     6.3534     5.2276     7.7555     8.3560   122.6310     0.0446     0.1025     2.4862
  420.5000   -30.6859     6.7061     5.5229     8.0257     8.3557   122.0088     0.0337     0.0954     2.4878
  421.0000   -31.1458     6.8452     5.7990     8.2540     8.3554   121.3866     0.0306     0.1016     2.4839
  421.5000   -31.7552     6.9381     5.9957     8.4174     8.3550   120.4547     0.0290     0.1069     2.4778
  422.0000   -32.3647     7.0820     6.1191     8.5325     8.3381   120.1428     0.0274     0.1084     2.4716
  422.5000   -32.0800     7.2281     6.2449     8.4702     8.3235   120.6042     0.0289     0.1059     2.4678
  423.0000   -28.9525     7.4814     6.3734     8.4090     8.3077   119.5168     0.0474     0.0973     2.4879
  423.5000   -26.2734     7.6347     6.5045     8.4062     8.3074   119.0494     0.0520     0.0964     2.4957
  424.0000   -25.6841     7.7389     6.6843     8.4034     8.2916   117.6531     0.0473     0.0995     2.4779
  424.5000   -32.2755     7.6830     6.7748     8.4589     8.2603   115.9473     0.0519     0.0974     2.4764
  425.0000   -34.0807     7.6281     6.8658     8.5147     8.2600   115.7895     0.0534     0.0995     2.4826
  425.5000   -34.7623     7.5736     6.8630     8.5702     8.2442   118.1424     0.0534     0.0943     2.4842
  426.0000   -35.9003     7.5194     6.8603     8.6874     8.2439   120.1858     0.0552     0.0890     2.4997
  426.5000   -36.3602     7.4655     6.8575     8.7448     8.2592   121.9715     0.0641     0.0878     2.5035
  427.0000   -34.8770     7.4118     6.8548     8.7412     8.2588   121.8137     0.0594     0.0943     2.4974
  427.5000   -32.7958     7.4098     6.8473     8.7381     8.2585   119.6435     0.0594     0.0919     2.4935
  428.0000   -29.9672     7.4078     6.8014     8.5553     8.2582   119.0212     0.0640     0.0906     2.4920
  428.5000   -27.8684     7.4059     6.7987     8.4935     8.2579   121.6498     0.0670     0.0913     2.4928
  429.0000   -27.6015     7.4552     6.7491     8.4907     8.2576   121.3372     0.0716     0.0897     2.4975
  429.5000   -25.0719     7.5049     6.6537     8.4878     8.2573   119.9409     0.0654     0.0885     2.5029
  430.0000   -26.4287     7.5550     6.6051     8.5440     8.2569   119.0091     0.0591     0.1003     2.4937
  430.5000   -28.5328     7.6053     6.5108     8.7213     8.2722   118.2320     0.0529     0.1022     2.4782
  431.0000   -29.4412     7.6028     6.4190     9.0231     8.2873   117.7646     0.0467     0.1040     2.4774
  431.5000   -31.0194     7.6008     6.2846     9.2099     8.3025   117.6068     0.0482     0.1028     2.4790
  432.0000   -34.2474     7.5464     6.0685     9.3343     8.3021   116.9804     0.0543     0.1001     2.4860
  432.5000   -32.3186     7.3862     5.7792     9.3967     8.3018   116.9969     0.0635     0.0963     2.4868
  433.0000   -30.6859     6.9899     5.5420     9.3281     8.3015   119.0237     0.0589     0.0988     2.4833
  433.5000   -31.2953     6.3878     5.3514     8.4646     8.3012   124.4050     0.0573     0.1100     2.4701
  434.0000   -30.1110     5.7177     5.1673     4.8191     8.3009   125.1759     0.0621     0.1153     2.4590
  434.5000   -27.5635     5.2978     5.1291     3.8454     8.3006   129.5073     0.0696     0.1261     2.4567
  435.0000   -27.8947     5.4826     5.1632     4.7961     8.3003   130.5886     0.0633     0.1373     2.4250
  435.5000   -29.5504     6.0842     5.2689     8.1653     8.2845   129.9656     0.0679     0.1441     2.4072
  436.0000   -29.7114     6.8352     5.5282     9.3733     8.2687   127.3310     0.0740     0.1519     2.3980
  436.5000   -31.3671     7.3222     5.8002     9.9031     8.2512   119.4332     0.0709     0.1342     2.3972
  437.0000   -33.0229     7.8439     6.0862    10.1774     8.2372   110.9162     0.0585     0.1088     2.4530
  437.5000   -31.8386     8.3450     6.3998    10.2446     8.2213   108.5912     0.0522     0.1017     2.4878
  438.0000   -35.8744     8.8780     6.7920    10.3123     8.2210   105.9566     0.0506     0.0955     2.4956
  438.5000   -42.7762     9.2514     7.1263    10.3080     8.2207   105.9474     0.0506     0.0980     2.4848
  439.0000   -43.9807     9.5836     7.4254    10.3045     8.2049   107.6533     0.0506     0.1024     2.4801
