~VERSION INFORMATION
 VERS.                2.0:   CWLS LOG ASCII STANDARD - VERSION 2.0
 WRAP.                 NO:   ONE LINE PER DEPTH STEP
~WELL INFORMATION
#MNEM.UNIT      DATA TYPE    INFORMATION
#----------   ------------   ------------------------------
 STRT.F           14.0000:   START DEPTH
 STOP.F          632.0000:   STOP DEPTH
 STEP.F            0.5000:   STEP LENGTH
 NULL.          -999.2500:   NO VALUE
 COMP. LAWRENCE/ALLISON INC:   COMPANY
 WELL.    17-61 SX #11-11:   WELL
 FLD .             TEAPOT:   FIELD
 LOC .      S11 T38N R78W:   LOCATION
 CNTY.            NATRONA:   COUNTY
 STAT.            WYOMING:   STATE
 CTRY. UNITED STATES OF AMERICA:   COUNTRY
 SRVC.           Gearhart:   SERVICE COMPANY
 DATE.        12-JUN-1986:   LOGDATE
 API .       490251109800:   API NUMBER
~CURVE INFORMATION
#MNEM.UNIT       API CODE    CURVE DESCRIPTION
#----------   ------------   ------------------------------
 DEPT.F                  :   
 GRR .GAPI   07 310 01 00:   GAMMA RAY FROM RES. LOG.
 ILM .OHMM   07 120 44 00:   INDUCTION LOG MEDIUM
 ILD .OHMM   07 120 46 00:   INDUCTION LOG DEEP
~PARAMETER INFORMATION
#MNEM.UNIT          VALUE    DESCRIPTION
#----------   ------------   ------------------------------
 PD  .                 GL:   PERMANENT DATUM
 EPD .F              5193:   ELEVATION PERMANENT DATUM
 LMF .                 KB:   LOG MEASURED FROM
 DAPD.F                 5:   FEET ABOVE PERMANENT DATUM
 DMF .                 KB:   DRILLING MEASURED FROM
 EKB .F              5198:   KELLING BUSHING
 EGL .F              5193:   GROUND LEVEL
 DATE.            6-12-86:   RUN DATE
 RUN .                  1:   RUN NUMBER
 DD  .F               648:   DEPTH DRILLER
 DL  .F               639:   DEPTH LOGGER
 BLI .F               632:   BOTTOM LOG INTERVAL
 TLI .F                15:   TOP LOG INTERVAL
 CS  .IN            8.625:   CASING SIZE
 CBD .F                42:   CASING BOTTOM DRILLER
 CBL .F                42:   CASING BOTTOM LOGGER
 BS  .IN             7.87:   BIT SIZE
 BSD .F               648:   BIT SIZE AT DEPTH
 DFT .               FOAM:   DRILLING FLUID TYPE
 MSS .               TANK:   MUD SAMPLE SOURCE
 RMS .OHMM           2.02:   RESISTIVITY MUD SAMPLE
 MST .F                65:   MUD SAMPLE TEMPERATURE
 RMB .OHMM           1.84:   RESISTIVITY MUD AT BHT
 BHT .F                72:   BOTTOM HOLE TEMPERATURE
 TCS .HRS            0830:   TIME CURCULATED STOPPED
 TLAB.HRS            1000:   TIME LOGGER AT BOTTOM
 MRT .F                72:   MAXIMUM RECORDED TEMPERATURE
 LUN .               7609:   LOGGING UNIT NUMBER
 LUL .           GILLETTE:   LOGGING UNIT LOCATION
 ENGI.              BAUER:   RECORDING ENGINEER
 WITN.             STRONG:   WITNESSED BY
 CLNT.            A2DTECH:   CLIENT CODE
 ORIG.       2", 5" PRINT:   ORIGIN OF DATA
 UWI .       490251109800:   UNIQUE WELL ID
 DICO. A2D Technologies, Inc.:   DIGITIZING COMPANY
~OTHER INFORMATION
~A   DEPT       GRR       ILM        ILD   
# ...
  378.0000   130.8711     7.2432     7.3954
  378.5000   132.3960     7.2359     7.3836
  379.0000   132.3049     7.2286     7.3680
  379.5000   130.7164     7.2214     7.3524
  380.0000   127.4077     7.2141     7.3369
  380.5000   124.6225     7.2068     7.3214
  381.0000   124.3593     7.1996     7.3059
  381.5000   125.2583     7.1928     7.2905
  382.0000   126.4014     7.1511     7.2750
  382.5000   126.5129     7.1048     7.2597
  383.0000   126.1372     7.0586     7.2443
  383.5000   125.7471     7.0128     7.2290
  384.0000   125.0863     6.9672     7.2137
  384.5000   124.1190     6.9196     7.1985
  385.0000   124.8045     6.8563     7.1521
  385.5000   125.9024     6.7935     7.0365
  386.0000   125.1653     6.7314     6.9227
  386.5000   124.3122     6.6698     6.8108
  387.0000   123.5790     6.6088     6.7007
  387.5000   125.0085     6.5483     6.5924
  388.0000   128.2029     6.4891     6.4450
  388.5000   131.3181     6.4303     6.2751
  389.0000   134.0742     6.3360     6.1097
  389.5000   132.8574     6.2431     5.9487
  390.0000   128.5274     6.1137     5.8010
  390.5000   126.1146     5.9427     5.7009
  391.0000   130.0572     5.7766     5.6078
  391.5000   133.8524     5.6150     5.5161
  392.0000   136.6138     5.4576     5.4269
  392.5000   134.5520     5.3054     5.3822
  393.0000   132.1588     5.2346     5.4436
  393.5000   131.2395     5.3811     5.4852
  394.0000   132.1599     5.5670     5.7079
  394.5000   133.0391     5.7594     5.9552
  395.0000   132.9081     5.9584     6.2101
  395.5000   128.6045     6.1643     6.4288
  396.0000   122.8017     6.3773     6.3690
  396.5000   118.9089     6.5500     6.4288
  397.0000   117.4965     6.5215     6.2381
  397.5000   116.8351     6.4935     6.0127
  398.0000   118.3781     6.2911     5.7954
  398.5000   122.1369     5.9876     5.5859
  399.0000   127.3416     5.6987     5.3841
  399.5000   132.0052     5.4238     5.1895
  400.0000   131.2146     5.1377     5.0017
  400.5000   127.5388     5.0899     4.9004
  401.0000   125.6489     5.1118     4.8993
  401.5000   124.9157     5.2381     5.2351
  402.0000   126.2797     5.3648     5.4814
  402.5000   128.8481     5.5841     5.7392
  403.0000   131.4666     5.8207     6.0091
  403.5000   133.1063     6.0688     6.2918
  404.0000   134.5232     6.3273     6.5877
  404.5000   135.9503     6.5969     6.8976
  405.0000   135.7120     6.8779     7.1190
  405.5000   131.7170     7.1405     7.2424
  406.0000   127.1395     7.2442     7.3678
  406.5000   120.5452     7.3494     7.4909
  407.0000   119.8471     7.4562     7.6011
  407.5000   122.1388     7.5645     7.7129
  408.0000   125.4424     7.6773     7.8270
  408.5000   128.7012     7.6710     7.8962
  409.0000   128.3606     7.6628     7.8528
  409.5000   125.9713     7.6547     7.8172
  410.0000   123.1930     7.6466     7.7817
  410.5000   119.9539     7.6386     7.7466
  411.0000   116.7345     7.6305     7.7116
  411.5000   114.1327     7.6225     7.6767
  412.0000   114.5077     7.6144     7.6418
  412.5000   116.0079     7.6059     7.6061
  413.0000   117.4602     7.6462     7.6258
  413.5000   119.0630     7.6995     7.6473
  414.0000   121.3721     7.7533     7.6686
  414.5000   123.5126     7.8074     7.6900
  415.0000   123.4542     7.8618     7.7118
  415.5000   121.7208     7.8955     7.7349
  416.0000   121.1329     7.7530     7.7532
  416.5000   120.5430     7.6847     7.3329
  417.0000   119.9846     7.6059     6.9444
  417.5000   118.7660     7.1578     6.5639
  418.0000   117.5251     6.6771     6.2042
  418.5000   119.2855     6.2287     5.8643
  419.0000   121.3000     5.8103     5.6923
  419.5000   122.9636     5.4630     5.7502
  420.0000   119.7906     5.3833     5.9304
  420.5000   116.6235     5.5694     6.0789
  421.0000   115.5581     5.9590     6.4642
  421.5000   121.8340     6.4005     6.8856
  422.0000   127.9709     6.8748     7.3343
  422.5000   130.2174     7.3842     7.8119
  423.0000   127.1261     7.9313     8.3207
  423.5000   123.8145     8.5190     8.6007
  424.0000   118.6157     8.8320     8.7458
  424.5000   110.4981     8.8320     8.8933
  425.0000   105.0419     8.8320     9.0433
  425.5000   101.5575     8.8320     9.1959
  426.0000   103.3212     8.8320     9.3490
  426.5000   106.3205     8.8320     9.6160
  427.0000   109.3503     8.9650     9.9978
  427.5000   109.7257     9.2822    10.8502
  428.0000   108.2010    10.3891    12.1386
  428.5000   108.2589    11.8247    13.5800
  429.0000   108.4205    13.4647    15.1925
  429.5000   107.7074    15.3311    16.9965
  430.0000   103.2825    17.4557    19.0147
  430.5000    96.1699    19.8746    21.2726
  431.0000    87.9389    22.9009    22.6917
  431.5000    79.7039    23.8475    23.9959
  432.0000    71.4694    24.9355    23.9301
  432.5000    63.2488    25.3757    23.8139
  433.0000    54.8486    25.3943    23.4949
  433.5000    47.6907    25.0540    22.8930
  434.0000    45.1032    24.1293    22.3064
  434.5000    51.7675    23.2516    21.7349
  435.0000    59.5875    22.4052    21.1780
  435.5000    64.1851    21.6527    20.6354
  436.0000    65.4161    21.2963    20.3647
  436.5000    64.5994    20.9014    20.2104
  437.0000    64.3959    20.5439    20.0573
  437.5000    64.6034    20.2385    19.9053
  438.0000    64.6964    19.9377    19.7546
  438.5000    65.8028    19.6414    19.6049
  439.0000    67.7439    19.3495    19.4564
  439.5000    69.5657    19.1144    19.3090
  440.0000    68.1360    18.9600    19.1627
  440.5000    66.0746    18.8069    19.0176
  441.0000    65.2583    18.6549    18.8735
  441.5000    66.8683    18.5042    18.7305
  442.0000    68.3758    18.3547    18.6063
  442.5000    68.2886    18.2065    18.5081
  443.0000    66.6678    18.0594    18.4105
  443.5000    65.8370    17.9083    18.3134
  444.0000    65.1842    17.7485    18.2167
  444.5000    64.9607    17.5901    18.1206
  445.0000    66.5764    17.4331    18.0251
  445.5000    71.8017    17.2775    17.9303
  446.0000    76.8842    17.1233    17.8353
  446.5000    80.6906    16.9704    17.6455
  447.0000    83.7468    16.8259    17.3897
  447.5000    86.8592    16.4870    17.1377
  448.0000    87.0867    16.1693    16.8893
  448.5000    85.8602    15.8577    16.6446
  449.0000    85.7957    15.5522    16.4034
  449.5000    86.4354    15.2526    16.1676
  450.0000    86.9866    14.9587    15.9088
  450.5000    86.4388    14.7383    15.6517
  451.0000    86.2524    14.5494    15.4427
  451.5000    88.2450    14.3629    15.2366
  452.0000    89.0824    14.1963    15.0331
  452.5000    87.2693    14.0883    14.8324
  453.0000    86.4564    13.9810    14.6344
  453.5000    86.2342    13.8746    14.4390
  454.0000    87.4195    13.7690    14.2463
  454.5000    88.2585    13.6642    14.0561
  455.0000    86.7551    13.5602    13.8684
  455.5000    84.4248    13.4570    13.7003
  456.0000    82.0551    13.4197    13.7003
  456.5000    81.4074    13.3816    13.7003
  457.0000    82.2534    13.3435    13.7003
  457.5000    83.1127    13.3013    13.7004
  458.0000    83.3532    13.2539    13.7004
  458.5000    81.1826    13.2065    13.7025
  459.0000    79.3370    13.1592    13.5974
  459.5000    78.4106    13.1121    13.4558
  460.0000    78.1891    13.0430    13.3157
  460.5000    77.9517    12.8930    13.1771
  461.0000    77.7046    12.7447    13.0399
  461.5000    78.2096    12.5981    12.9042
  462.0000    78.8281    12.4531    12.7699
  462.5000    79.4428    12.3099    12.5742
  463.0000    80.7867    12.1682    12.4641
  463.5000    82.6892    12.0283    12.3549
  464.0000    83.7237    11.8887    12.2461
  464.5000    82.8637    11.7958    12.1326
  465.0000    81.9240    11.7709    12.1341
  465.5000    81.8225    11.7476    12.1336
  466.0000    86.1086    11.7239    12.1336
  466.5000    90.7384    11.7003    12.1336
  467.0000    91.3052    11.5800    12.1336
  467.5000    88.3831    11.6451    12.1336
  468.0000    85.5174    11.6949    12.1336
  468.5000    85.2676    11.7449    12.1336
