~VERSION INFORMATION
 VERS.                2.0:   CWLS LOG ASCII STANDARD - VERSION 2.0
 WRAP.                 NO:   ONE LINE PER DEPTH STEP
~WELL INFORMATION
#MNEM.UNIT      DATA TYPE    INFORMATION
#----------   ------------   ------------------------------
 STRT.F            0.0000:   START DEPTH
 STOP.F          539.0000:   STOP DEPTH
 STEP.F            0.5000:   STEP LENGTH
 NULL.          -999.2500:   NO VALUE
 COMP. FENIX & SCISSON INC:   COMPANY
 WELL.     NPR 3 SX #23-3:   WELL
 FLD .             TEAPOT:   FIELD
 LOC .       S3 T38N R78W:   LOCATION
 CNTY.            NATRONA:   COUNTY
 STAT.            WYOMING:   STATE
 CTRY. UNITED STATES OF AMERICA:   COUNTRY
 SRVC.           BIRDWELL:   SERVICE COMPANY
 DATE.        27-JUL-1978:   LOGDATE
 API .       490251067500:   API NUMBER
~CURVE INFORMATION
#MNEM.UNIT       API CODE    CURVE DESCRIPTION
#----------   ------------   ------------------------------
 DEPT.F                  :   
 ILD .OHMM   05 120 40 00:   INDUCTION LOG DEEP
 SPR .MV     05 010 01 00:   SPONTANEOUS POTENTIAL
 SN  .OHMM   05 040 16 00:   SHORT NORMAL 16"
 CALD.IN     45 280 60 00:   CALIPER FROM DENSITY LOG
 CORR.G/C3   45 356 01 00:   DENSITY CORRECTION
 DPHI.DEC    45 890 12 00:   DENSITY POROSITY SANDSTONE
 GRD .GAPI   45 310 01 00:   GAMMA RAY FROM DENSITY LOG
 RHOB.G/C3   45 350 01 00:   BULK DENSITY
~PARAMETER INFORMATION
#MNEM.UNIT          VALUE    DESCRIPTION
#----------   ------------   ------------------------------
 PD  .                 GL:   PERMANENT DATUM
 EPD .F              5787:   ELEVATION PERMANENT DATUM
 LMF .                 KB:   LOG MEASURED FROM
 DAPD.F                 4:   FEET ABOVE PERMANENT DATUM
 DMF .                 KB:   DRILLING MEASURED FROM
 EKB .F              5191:   KELLING BUSHING
 EGL .F              5187:   GROUND LEVEL
 DATE.         7-JUL-1978:   RUN DATE
 RUN .                  1:   RUN NUMBER
 DD  .F               540:   DEPTH DRILLER
 DL  .F               540:   DEPTH LOGGER
 BLI .F               539:   BOTTOM LOG INTERVAL
 CS  .IN            8.625:   CASING SIZE
 CBD .F                40:   CASING BOTTOM DRILLER
 BS  .IN            7.875:   BIT SIZE
 BSD .F               540:   BIT SIZE AT DEPTH
 DFT .                KCL:   DRILLING FLUID TYPE
 DFD .                8.6:   DRILLING FLUID DENSITY
 DFV .                 30:   DRILLING FLUID VISCOSITY
 DFPH.                  9:   DRILLING FLUID PH
 MSS .           FLOWLINE:   MUD SAMPLE SOURCE
 MRT .F                74:   MAXIMUM RECORDED TEMPERATURE
 LUN .               2958:   LOGGING UNIT NUMBER
 LUL .               CASP:   LOGGING UNIT LOCATION
 ENGI.            POINTER:   RECORDING ENGINEER
 WITN.              AMEND:   WITNESSED BY
 CLNT.            A2DTECH:   CLIENT CODE
 ORIG.           5" PRINT:   ORIGIN OF DATA
 UWI .       490251067500:   UNIQUE WELL ID
 DICO. A2D Technologies, Inc.:   DIGITIZING COMPANY
~OTHER INFORMATION
~A    DEPT     ILD        SPR         SN         CALD     CORR       DPHI         GRD      RHOB   
# ...
  283.5000     7.1616   -29.7082     7.5773     8.5432     0.0419     0.1191    83.9098     2.4663
  284.0000     7.1663   -29.5453     7.5830     8.5688     0.0387     0.1290    83.9098     2.4631
  284.5000     7.1700   -29.6829     7.5887     8.5826     0.0356     0.1305    84.3609     2.4512
  285.0000     7.1738   -29.9692     7.5954     8.5816     0.0355     0.1257    84.5113     2.4452
  285.5000     7.1775   -30.1071     7.6008     8.5956     0.0351     0.1236    83.9098     2.4437
  286.0000     7.1813   -30.3931     7.6062     8.5946     0.0337     0.1270    83.1579     2.4444
  286.5000     7.1859   -29.7838     7.5596     8.5934     0.0306     0.1285    83.3083     2.4451
  287.0000     7.1897   -28.8796     7.5664     8.5924     0.0289     0.1291    83.3083     2.4451
  287.5000     7.1433   -29.4664     7.5710     8.5914     0.0288     0.1294    83.7594     2.4466
  288.0000     7.0383   -30.0476     7.5772     8.5903     0.0269     0.1290    83.7594     2.4473
  288.5000     6.9492   -29.1406     7.4283     8.5893     0.0225     0.1282    83.7805     2.4480
  289.0000     6.7987   -28.0877     7.3829     8.5882     0.0224     0.1276    83.9098     2.4480
  289.5000     6.6386   -27.6299     7.3895     8.5871     0.0208     0.1249    83.9098     2.4480
  290.0000     6.3749   -27.6187     7.1948     8.5860     0.0192     0.1234    84.3609     2.4480
  290.5000     6.0375   -27.6071     7.1508     8.5850     0.0205     0.1286    84.5113     2.4479
  291.0000     5.4879   -27.5933     6.9148     8.5840     0.0219     0.1360    84.5393     2.4389
  291.5000     5.3782   -27.5820     6.6422     8.5828     0.0337     0.1655    84.5113     2.3849
  292.0000     5.4937   -28.0172     6.4661     8.5817     0.0456     0.1667    87.5188     2.3699
  292.5000     5.6488   -28.1548     6.2957     8.5656     0.0334     0.1628    89.9248     2.3759
  293.0000     5.2056   -28.7387     5.8840     8.5646     0.0198     0.1483    90.5263     2.4061
  293.5000     5.1727   -29.3198     5.2049     8.5485     0.0092     0.1343    91.1278     2.4298
  294.0000     5.2117   -29.3085     6.0572     8.5472     0.0045     0.1295    88.1203     2.4373
  294.5000     5.3595   -29.5952     6.1452     8.5616     0.0030     0.1305    84.5113     2.4410
  295.0000     5.4739   -29.7324     6.1496     8.5603     0.0043     0.1353    84.8120     2.4418
  295.5000     5.4768   -29.2719     6.1540     8.5744     0.0087     0.1500    84.9624     2.4402
  296.0000     5.4056   -28.6682     5.9929     8.5734     0.0265     0.1548    84.6617     2.4019
  296.5000     5.3707   -29.2522     5.8340     8.5724     0.0339     0.1560    84.9624     2.3930
  297.0000     5.3742   -29.6845     5.7983     8.5711     0.0321     0.1524    84.5113     2.3907
  297.5000     5.3770   -29.8220     5.8434     8.6607     0.0216     0.1440    83.9098     2.3937
  298.0000     5.3799   -29.8079     5.9327     8.9014     0.0195     0.1311    84.5113     2.4176
  298.5000     5.3833   -29.3502     6.0984     8.9913     0.0139     0.1234    84.3609     2.4536
  299.0000     5.5361   -29.1902     6.3590     8.7483     0.0137     0.1189    84.4078     2.4618
  299.5000     5.8516   -29.1786     6.6762     8.6869     0.0136     0.1189    84.5113     2.4655
  300.0000     6.4451   -29.1648     6.8197     8.7007     0.0120     0.1195    84.6617     2.4655
  300.5000     6.9074   -29.4540     6.9200     8.6695     0.0116     0.1210    85.7143     2.4655
  301.0000     6.9110   -29.7375     6.9250     8.6232     0.0072     0.1222    86.4662     2.4655
  301.5000     6.9146   -29.5774     6.9299     8.6071     0.0071     0.1225    87.3684     2.4654
  302.0000     6.9182   -29.4145     6.9349     8.6212     0.0069     0.1237    87.5188     2.4654
  302.5000     6.8244   -29.7328     6.9400     8.5746     0.0068     0.1275    87.5188     2.4620
  303.0000     6.7379   -29.7258     6.9460     8.5585     0.0067     0.1343    88.1203     2.4556
  303.5000     6.5146   -29.7202     6.9023     8.5563     0.0065     0.1430    89.9248     2.4474
  304.0000     5.8783   -30.0107     6.4068     8.5552     0.0064     0.1586    90.5263     2.4324
  304.5000     5.3820   -30.3041     6.0678     8.5540     0.0063     0.1643    90.5263     2.4098
  305.0000     5.1322   -30.8923     5.5952     8.5529     0.0106     0.1622    90.4962     2.3693
  305.5000     5.0302   -30.8867     5.4468     8.5517     0.0150     0.1548    89.3233     2.3714
  306.0000     4.9983   -30.8393     5.4517     8.6711     0.0223     0.1415    88.5714     2.3963
  306.5000     4.9647   -29.3860     5.4556     8.9724     0.0297     0.1312    88.1203     2.4195
  307.0000     4.9354   -26.7018     5.4596     8.6235     0.0355     0.1246    88.1203     2.4367
  307.5000     4.9727   -27.2914     5.4644     8.4713     0.0369     0.1216    86.9173     2.4509
  308.0000     5.0095   -28.4762     5.7764     8.6089     0.0353     0.1198    86.7669     2.4622
  308.5000     5.3682   -27.2787     6.4723     8.6351     0.0351     0.1217    86.3158     2.4681
  309.0000     6.2662   -27.2731     6.8876     8.6035     0.0350     0.1232    85.2632     2.4666
  309.5000     6.9759   -27.8641     7.1805     8.6023     0.0349     0.1229    83.9098     2.4591
  310.0000     7.2730   -27.8570     7.5443     8.6012     0.0407     0.1205    83.1579     2.4553
  310.5000     7.4281   -26.9572     7.8051     8.6000     0.0466     0.1181    83.7659     2.4560
  311.0000     7.5866   -26.0587     7.8091     8.5986     0.0524     0.1185    84.5113     2.4608
  311.5000     7.6965   -25.6080     7.8132     8.6128     0.0583     0.1206    85.4135     2.4697
  312.0000     7.7536   -26.0476     7.8173     8.6314     0.0634     0.1203    86.6165     2.4727
  312.5000     7.7045   -26.1906     7.8224     8.6558     0.0707     0.1185    86.3158     2.4696
  313.0000     7.7086   -26.6300     7.8265     8.6544     0.0810     0.1170    85.1128     2.4673
  313.5000     7.6598   -26.6244     7.8305     8.6529     0.0884     0.1147    84.6617     2.4696
  314.0000     7.6648   -27.2140     7.8346     8.6971     0.0882     0.1135    84.8120     2.4725
  314.5000     7.6164   -27.3576     7.8387     8.7114     0.0865     0.1144    84.5113     2.4725
  315.0000     7.6203   -27.7979     7.8438     8.7099     0.0924     0.1231    82.7068     2.4694
  315.5000     7.6243   -28.3876     7.8479     8.7390     0.1042     0.1243    81.0526     2.4634
  316.0000     7.6284   -28.0829     7.8520     8.7224     0.1040     0.1220    80.3008     2.4573
  316.5000     7.5811   -27.7797     7.8561     8.7063     0.0933     0.1196    80.3499     2.4588
  317.0000     7.4816   -27.4762     7.8602     8.7050     0.0797     0.1183    81.2030     2.4602
  317.5000     7.4340   -27.3206     7.8653     8.6888     0.0795     0.1160    81.2030     2.4624
  318.0000     7.4382   -27.3149     7.8694     8.6677     0.0854     0.1137    81.3534     2.4632
  318.5000     7.4422   -27.1605     7.8735     8.6411     0.1002     0.1125    81.5038     2.4661
  319.0000     7.4469   -26.9841     7.8776     8.6397     0.1150     0.1137    81.9619     2.4691
  319.5000     7.4508   -25.9574     7.8818     8.6579     0.1208     0.1152    83.0075     2.4870
  320.0000     7.6622   -24.4650     7.8869     8.6827     0.1206     0.1173    83.6090     2.4914
  320.5000     7.8796   -26.6901     7.8910     8.6967     0.1175     0.1195    83.7594     2.4907
  321.0000     8.1033   -27.1310     7.9494     8.6955     0.1083     0.1249    83.9098     2.4854
  321.5000     8.1084   -26.6775     8.1187     8.6941     0.1007     0.1294    82.7068     2.4748
  322.0000     8.1126   -26.6719     8.1231     8.6929     0.0901     0.1366    82.7068     2.4568
  322.5000     7.8960   -26.6662     7.6946     8.6767     0.0837     0.1490    83.3083     2.4349
  323.0000     7.6346   -26.8775     7.1887     8.6755     0.0777     0.1669    85.1128     2.3907
  323.5000     6.9875   -27.1012     6.8556     8.6592     0.0895     0.2020    86.9173     2.3599
