~VERSION INFORMATION
 VERS.                2.0:   CWLS LOG ASCII STANDARD - VERSION 2.0
 WRAP.                 NO:   ONE LINE PER DEPTH STEP
~WELL INFORMATION
#MNEM.UNIT      DATA TYPE    INFORMATION
#----------   ------------   ------------------------------
 STRT.F           10.0000:   START DEPTH
 STOP.F          481.0000:   STOP DEPTH
 STEP.F            0.5000:   STEP LENGTH
 NULL.          -999.2500:   NO VALUE
 COMP. BROWN JOHN E&C INC:   COMPANY
 WELL.         SX 67 #1-3:   WELL
 FLD .        TEAPOT DOME:   FIELD
 LOC .       S3 T38N R78W:   LOCATION
 CNTY.            NATRONA:   COUNTY
 STAT.            WYOMING:   STATE
 CTRY. UNITED STATES OF AMERICA:   COUNTRY
 SRVC.       Schlumberger:   SERVICE COMPANY
 DATE.        12-OCT-1990:   LOGDATE
 API .       490251132900:   API NUMBER
~CURVE INFORMATION
#MNEM.UNIT       API CODE    CURVE DESCRIPTION
#----------   ------------   ------------------------------
 DEPT.F                  :   
 CALD.IN     45 280 60 00:   CALIPER FROM DENSITY LOG
 DRHO.G/C3   45 356 01 00:   DENSITY CORRECTION
 GRD .GAPI   45 310 01 00:   GAMMA RAY FROM DENSITY LOG
 RHOB.G/C3   45 350 01 00:   BULK DENSITY
 DPHI.DEC    45 890 12 00:   DENSITY POROSITY SANDSTONE
~PARAMETER INFORMATION
#MNEM.UNIT          VALUE    DESCRIPTION
#----------   ------------   ------------------------------
 PD  .                 GL:   PERMANENT DATUM
 EPD .F              5174:   ELEVATION PERMANENT DATUM
 LMF .                 KB:   LOG MEASURED FROM
 DAPD.F                10:   FEET ABOVE PERMANENT DATUM
 DMF .                 KB:   DRILLING MEASURED FROM
 EKB .F              5184:   KELLING BUSHING
 EGL .F              5174:   GROUND LEVEL
 DATE.           10-12-90:   RUN DATE
 RUN .                  1:   RUN NUMBER
 DD  .F               486:   DEPTH DRILLER
 DL  .F               486:   DEPTH LOGGER
 BLI .F               483:   BOTTOM LOG INTERVAL
 TLI .F                10:   TOP LOG INTERVAL
 CS  .IN            8.625:   CASING SIZE
 CBD .F                50:   CASING BOTTOM DRILLER
 CBL .F                50:   CASING BOTTOM LOGGER
 BS  .IN            7.875:   BIT SIZE
 BSD .F               486:   BIT SIZE AT DEPTH
 DFT .      DISPERSED GEL:   DRILLING FLUID TYPE
 DFD .                 15:   DRILLING FLUID DENSITY
 DFV .                 44:   DRILLING FLUID VISCOSITY
 DFPH.                  8:   DRILLING FLUID PH
 DFL .                7.2:   DRILLING FLUID LOSS
 MSS .           FLOWLINE:   MUD SAMPLE SOURCE
 RMS .OHMM              1:   RESISTIVITY MUD SAMPLE
 MST .F                60:   MUD SAMPLE TEMPERATURE
 RMF .OHMM             .7:   RESISTIVITY MUD FILTRATE SAMPLE
 MFST.F                60:   MUD FILTRATE SAMPLE TEMPERATURE
 RMC .OHMM            1.5:   RESISTIVITY MUD CAKE
 MCST.F                60:   MUD CAKE SAMPLE TEMPERATURE
 MFSS.               MEAS:   MUD FILTRATE SAMPLE SOURCE
 MCSS.               CALC:   MUD CAKE SAMPLE SOURCE
 RMB .OHMM           .753:   RESISTIVITY MUD AT BHT
 BHT .F                82:   BOTTOM HOLE TEMPERATURE
 TCS .HRS            1230:   TIME CURCULATED STOPPED
 MRT .F                82:   MAXIMUM RECORDED TEMPERATURE
 LUN .               8116:   LOGGING UNIT NUMBER
 LUL .             CASPER:   LOGGING UNIT LOCATION
 ENGI.            S. PEEL:   RECORDING ENGINEER
 WITN.        GARY STRONG:   WITNESSED BY
 CLNT.            A2DTECH:   CLIENT CODE
 ORIG.           5" PRINT:   ORIGIN OF DATA
 UWI .       490251132900:   UNIQUE WELL ID
 DICO. A2D Technologies, Inc.:   DIGITIZING COMPANY
~OTHER INFORMATION
~A   DEPT     CALD       DRHO         GRD      RHOB       DPHI   
# ...
  376.0000     7.2131     0.0007    66.1920     2.3530     0.1807
  376.5000     7.0433     0.0050    67.3212     2.3453     0.1836
  377.0000     7.0211     0.0094    67.2486     2.3464     0.1834
  377.5000     7.0119     0.0128    66.9540     2.3515     0.1810
  378.0000     7.1352     0.0162    66.2309     2.3619     0.1732
  378.5000     7.2565     0.0195    63.8188     2.3941     0.1518
  379.0000     7.3772     0.0229    58.4378     2.4452     0.1250
  379.5000     7.3861     0.0259    52.6816     2.5006     0.0961
  380.0000     7.3774     0.0264    49.7549     2.5253     0.0756
  380.5000     7.3557     0.0177    53.2744     2.5011     0.0934
  381.0000     7.2217     0.0090    59.2932     2.4528     0.1205
  381.5000     7.1685     0.0080    65.0948     2.4028     0.1477
  382.0000     7.1554     0.0091    69.5182     2.3805     0.1635
  382.5000     7.2235     0.0111    70.6526     2.3674     0.1723
  383.0000     7.1715     0.0120    69.7849     2.3542     0.1795
  383.5000     6.9322     0.0126    68.5383     2.3408     0.1866
  384.0000     6.6648     0.0114    67.5828     2.3347     0.1915
  384.5000     6.4679     0.0102    68.2261     2.3301     0.1943
  385.0000     6.5781     0.0096    68.8773     2.3353     0.1904
  385.5000     6.9345     0.0096    66.9525     2.3464     0.1842
  386.0000     7.2799     0.0096    65.1389     2.3575     0.1780
  386.5000     7.4456     0.0081    65.4992     2.3682     0.1720
  387.0000     7.3845     0.0057    67.8215     2.3697     0.1699
  387.5000     7.0920     0.0032    70.4207     2.3708     0.1695
  388.0000     6.8839     0.0007    70.6309     2.3720     0.1689
  388.5000     7.1997    -0.0015    68.2375     2.3732     0.1680
  389.0000     7.5694    -0.0008    65.9852     2.3744     0.1673
  389.5000     7.6461     0.0000    65.3825     2.3721     0.1686
  390.0000     7.6949     0.0008    64.8027     2.3697     0.1700
  390.5000     7.6989     0.0016    64.2843     2.3750     0.1678
  391.0000     7.7034     0.0024    64.6329     2.3811     0.1643
  391.5000     7.7081     0.0019    65.6692     2.3835     0.1617
  392.0000     7.7129     0.0007    67.3902     2.3809     0.1629
  392.5000     7.7176    -0.0004    69.0293     2.3771     0.1657
  393.0000     7.7224    -0.0016    68.8414     2.3777     0.1658
  393.5000     7.7271    -0.0027    68.0478     2.3795     0.1643
  394.0000     7.7320    -0.0038    66.4709     2.3799     0.1638
  394.5000     7.7290    -0.0050    64.6889     2.3786     0.1644
  395.0000     7.7226    -0.0041    64.1816     2.3872     0.1601
  395.5000     7.7161    -0.0012    64.7866     2.4004     0.1510
  396.0000     7.7095     0.0017    66.8674     2.4140     0.1425
  396.5000     7.7030     0.0031    67.9385     2.4235     0.1379
  397.0000     7.6965     0.0019    67.9743     2.4249     0.1370
  397.5000     7.6900     0.0008    67.6389     2.4264     0.1361
  398.0000     7.6834    -0.0004    67.2621     2.4260     0.1366
  398.5000     7.6770    -0.0015    66.6384     2.4238     0.1382
  399.0000     7.6788    -0.0004    65.8003     2.4221     0.1387
  399.5000     7.6911     0.0009    64.7069     2.4273     0.1363
  400.0000     7.7034     0.0015    63.3392     2.4327     0.1338
  400.5000     7.7156     0.0015    64.3147     2.4349     0.1314
  401.0000     7.7279     0.0015    67.5734     2.4370     0.1294
  401.5000     7.7307     0.0016    69.0619     2.4449     0.1251
  402.0000     7.7258     0.0064    66.6963     2.4577     0.1181
  402.5000     7.7208     0.0115    63.7692     2.4704     0.1094
  403.0000     7.7158     0.0158    62.9594     2.4784     0.1049
  403.5000     7.7107     0.0137    64.4987     2.4764     0.1059
  404.0000     7.7057     0.0106    65.2345     2.4717     0.1086
  404.5000     7.7007     0.0107    65.7912     2.4669     0.1113
  405.0000     7.6957     0.0141    66.7361     2.4677     0.1109
  405.5000     7.6907     0.0172    67.6661     2.4710     0.1087
  406.0000     7.6857     0.0202    68.0102     2.4742     0.1067
  406.5000     7.6807     0.0196    68.2638     2.4701     0.1091
  407.0000     7.6757     0.0153    67.9972     2.4653     0.1121
  407.5000     7.6792     0.0111    67.4737     2.4616     0.1144
  408.0000     7.6900     0.0078    67.9840     2.4653     0.1120
  408.5000     7.7010     0.0105    69.7531     2.4690     0.1097
  409.0000     7.7119     0.0131    72.1674     2.4708     0.1083
  409.5000     7.7229     0.0157    74.2960     2.4695     0.1092
  410.0000     7.7331     0.0165    74.5167     2.4682     0.1103
  410.5000     7.7300     0.0142    74.6496     2.4669     0.1115
  411.0000     7.7265     0.0118    75.1350     2.4682     0.1101
  411.5000     7.7231     0.0096    75.6362     2.4774     0.1056
  412.0000     7.7196     0.0101    74.2554     2.4863     0.0986
  412.5000     7.7161     0.0104    70.9322     2.4832     0.1020
  413.0000     7.7127     0.0085    70.7636     2.4745     0.1070
  413.5000     7.7092     0.0065    73.5234     2.4659     0.1123
  414.0000     7.7058     0.0046    77.4504     2.4602     0.1150
  414.5000     7.7024     0.0041    81.4641     2.4677     0.1116
  415.0000     7.6989     0.0034    83.2096     2.4748     0.1082
  415.5000     7.6954     0.0026    83.7436     2.4760     0.1057
  416.0000     7.6834     0.0049    82.8375     2.4735     0.1075
  416.5000     7.6545     0.0072    81.4061     2.4711     0.1091
  417.0000     7.5467     0.0094    79.9729     2.4715     0.1097
  417.5000     7.1226     0.0117    78.3015     2.4766     0.1068
  418.0000     6.7361     0.0140    76.2901     2.4817     0.1020
  418.5000     6.7437     0.0155    74.2929     2.4869     0.0986
  419.0000     7.0936     0.0150    72.3669     2.4890     0.0986
  419.5000     7.3774     0.0145    73.4585     2.4881     0.0988
  420.0000     7.6617     0.0139    75.3144     2.4869     0.1002
  420.5000     7.7151     0.0130    77.1360     2.4836     0.1017
  421.0000     7.7102     0.0111    77.9618     2.4803     0.1032
  421.5000     7.7075     0.0092    75.3090     2.4769     0.1046
  422.0000     7.7049     0.0074    73.3174     2.4753     0.1060
  422.5000     7.7024     0.0056    72.3334     2.4757     0.1059
  423.0000     7.6998     0.0052    73.8458     2.4761     0.1055
  423.5000     7.6973     0.0049    75.3575     2.4756     0.1058
  424.0000     7.6947     0.0046    75.4044     2.4745     0.1062
  424.5000     7.6922     0.0045    74.3727     2.4781     0.1059
  425.0000     7.6896     0.0060    73.8504     2.4811     0.1054
  425.5000     7.6871     0.0077    74.3074     2.4784     0.1051
  426.0000     7.6845     0.0095    74.7845     2.4756     0.1061
  426.5000     7.6820     0.0112    74.8782     2.4733     0.1070
  427.0000     7.6795     0.0129    74.6631     2.4740     0.1063
  427.5000     7.6769     0.0146    74.4426     2.4794     0.1042
  428.0000     7.6743     0.0163    74.3861     2.4860     0.0995
  428.5000     7.6750     0.0180    75.4957     2.4926     0.0947
  429.0000     7.6776     0.0182    77.2888     2.4984     0.0921
  429.5000     7.6803     0.0172    79.0987     2.5028     0.0894
  430.0000     7.6830     0.0162    80.9042     2.5084     0.0859
  430.5000     7.6857     0.0153    82.2415     2.5111     0.0859
  431.0000     7.6884     0.0143    81.7484     2.5039     0.0898
  431.5000     7.6911     0.0133    79.6846     2.4969     0.0936
  432.0000     7.6935     0.0114    78.5116     2.4896     0.0975
  432.5000     7.6934     0.0073    78.6350     2.4874     0.0998
  433.0000     7.6934     0.0060    81.3046     2.4875     0.1001
  433.5000     7.6934     0.0074    84.5957     2.4896     0.1005
  434.0000     7.6934     0.0087    88.7495     2.4912     0.1046
  434.5000     7.6934     0.0101    93.0093     2.4810     0.1126
  435.0000     7.6934     0.0103    95.9077     2.4510     0.1264
  435.5000     7.6934     0.0097    97.7197     2.4212     0.1403
  436.0000     7.6934     0.0090    96.3832     2.4074     0.1478
  436.5000     7.6934     0.0088    88.7839     2.4445     0.1273
