~VERSION INFORMATION
 VERS.                2.0:   CWLS LOG ASCII STANDARD - VERSION 2.0
 WRAP.                 NO:   ONE LINE PER DEPTH STEP
~WELL INFORMATION
#MNEM.UNIT      DATA TYPE    INFORMATION
#----------   ------------   ------------------------------
 STRT.F           27.0000:   START DEPTH
 STOP.F          566.0000:   STOP DEPTH
 STEP.F            0.5000:   STEP LENGTH
 NULL.          -999.2500:   NO VALUE
 COMP.    FENIX & SCISSON:   COMPANY
 WELL. S-3 NPR #3 #86-S-3:   WELL
 FLD .             TEAPOT:   FIELD
 LOC .       S3 T38N R78W:   LOCATION
 CNTY.            NATRONA:   COUNTY
 STAT.            WYOMING:   STATE
 CTRY. UNITED STATES OF AMERICA:   COUNTRY
 SRVC.       Schlumberger:   SERVICE COMPANY
 DATE.        08-APR-1977:   LOGDATE
 API .       490251032900:   API NUMBER
~CURVE INFORMATION
#MNEM.UNIT       API CODE    CURVE DESCRIPTION
#----------   ------------   ------------------------------
 DEPT.F                  :   
 CALD.IN     45 280 60 00:   CALIPER FROM DENSITY LOG
 GRD .GAPI   45 310 01 00:   GAMMA RAY FROM DENSITY LOG
 CORR.G/C3   45 356 01 00:   DENSITY CORRECTION
 RHOB.G/C3   45 350 01 00:   BULK DENSITY
 DPHI.DEC    45 890 12 00:   DENSITY POROSITY SANDSTONE
 SPR .MV     07 010 01 00:   SPONTANEOUS POTENTIAL
 ILD .OHMM   07 120 46 00:   INDUCTION LOG DEEP
 ILM .OHMM   07 120 44 00:   INDUCTION LOG MEDIUM
 LL8 .OHMM   07 220 08 00:   LATEROLOG-8 RES.
~PARAMETER INFORMATION
#MNEM.UNIT          VALUE    DESCRIPTION
#----------   ------------   ------------------------------
 PD  .                 GL:   PERMANENT DATUM
 EPD .F              5147:   ELEVATION PERMANENT DATUM
 LMF .                 KB:   LOG MEASURED FROM
 DMF .                 KB:   DRILLING MEASURED FROM
 EGL .F              5147:   GROUND LEVEL
 DATE.        08-APR-1977:   RUN DATE
 RUN .                  1:   RUN NUMBER
 DD  .F               570:   DEPTH DRILLER
 DL  .F               567:   DEPTH LOGGER
 BLI .F               566:   BOTTOM LOG INTERVAL
 TLI .F                27:   TOP LOG INTERVAL
 CS  .IN            8.625:   CASING SIZE
 CBD .F                40:   CASING BOTTOM DRILLER
 CBL .F                33:   CASING BOTTOM LOGGER
 BS  .IN            7.875:   BIT SIZE
 BSD .F               570:   BIT SIZE AT DEPTH
 DFT .                KCL:   DRILLING FLUID TYPE
 DFD .                8.6:   DRILLING FLUID DENSITY
 DFV .                 31:   DRILLING FLUID VISCOSITY
 DFPH.                9.5:   DRILLING FLUID PH
 DFL .                8.6:   DRILLING FLUID LOSS
 MSS .           FLOWLINE:   MUD SAMPLE SOURCE
 RMS .OHMM          0.306:   RESISTIVITY MUD SAMPLE
 MST .F                78:   MUD SAMPLE TEMPERATURE
 RMF .OHMM          0.230:   RESISTIVITY MUD FILTRATE SAMPLE
 MFST.F                78:   MUD FILTRATE SAMPLE TEMPERATURE
 MFSS.               MEAS:   MUD FILTRATE SAMPLE SOURCE
 RMB .OHMM          0.341:   RESISTIVITY MUD AT BHT
 BHT .F                70:   BOTTOM HOLE TEMPERATURE
 TCS .HRS              20:   TIME CURCULATED STOPPED
 MRT .F                70:   MAXIMUM RECORDED TEMPERATURE
 LUN .               5642:   LOGGING UNIT NUMBER
 LUL .               CSPR:   LOGGING UNIT LOCATION
 ENGI.             MARTIN:   RECORDING ENGINEER
 WITN.               LYON:   WITNESSED BY
 CLNT.            A2DTECH:   CLIENT CODE
 ORIG.       2", 5" PRINT:   ORIGIN OF DATA
 UWI .       490251032900:   UNIQUE WELL ID
 DICO. A2D Technologies, Inc.:   DIGITIZING COMPANY
~OTHER INFORMATION
~A   DEPT     CALD         GRD      CORR       RHOB       DPHI        SPR        ILD        ILM        LL8   
# ...
  392.0000     8.1276    84.4148     0.0255     2.3390     0.1832   -60.8471    22.0373    22.1682    24.1991
  392.5000     8.1301    87.1166     0.0256     2.3339     0.1927   -60.8411    22.5054    22.4794    24.1991
  393.0000     8.1470    87.2905     0.0226     2.3362     0.1921   -60.8351    22.6663    22.9536    24.3674
  393.5000     8.1491    84.3235     0.0193     2.3378     0.1898   -60.8291    23.3073    23.1149    24.7075
  394.0000     8.1358    81.5111     0.0130     2.3198     0.1971   -60.8231    23.8011    23.7668    24.8793
  394.5000     8.0936    82.1447     0.0296     2.3297     0.2019   -60.8172    24.1378    24.2682    25.4020
  395.0000     7.9914    83.6463     0.0583     2.3388     0.1907   -60.8112    24.6492    24.4388    25.5963
  395.5000     7.8891    84.8758     0.0274     2.3058     0.1925   -60.8052    24.9978    24.6105    26.2976
  396.0000     7.8460    85.6119     0.0177     2.3089     0.2093   -60.9511    25.1766    24.7835    27.0368
  396.5000     7.9827    83.8428     0.0164     2.3315     0.1990   -61.0955    25.1818    24.8013    27.0368
  397.0000     7.9997    84.0119     0.0288     2.3316     0.1906   -61.3888    25.1870    24.2766    26.8501
  397.5000     8.0017    84.0351     0.0301     2.3339     0.1930   -62.1347    24.6733    23.7783    26.2976
  398.0000     8.0038    84.6505     0.0219     2.3505     0.1875   -62.5798    24.3405    23.1293    26.2976
  398.5000     8.0208    85.8620     0.0348     2.3626     0.1737   -62.8761    23.8453    22.4980    26.1160
  399.0000     8.0229    85.4342     0.0333     2.3500     0.1748   -63.1694    22.8803    21.8840    25.7565
  399.5000     8.0398    85.1505     0.0266     2.3350     0.1838   -63.3138    21.9543    20.8484    25.4020
  400.0000     8.0576    85.0142     0.0297     2.3306     0.2024   -63.3085    21.3582    19.5882    24.8036
  400.5000     8.0653    84.9346     0.0320     2.3216     0.1967   -63.4549    21.0654    18.5340    23.8901
  401.0000     8.0729    83.7258     0.0314     2.3593     0.1783   -63.4492    20.9201    18.4078    22.8940
  401.5000     8.0765    81.9581     0.0239     2.3626     0.1732   -63.4447    21.3590    18.4110    22.2680
  402.0000     8.0782    82.7239     0.0180     2.3661     0.1723   -63.5917    21.3590    18.5417    21.9615
  402.5000     8.0947    83.6388     0.0150     2.3556     0.1753   -63.5860    21.3590    18.9342    21.5096
  403.0000     8.1112    82.1691     0.0129     2.3399     0.1851   -63.5815    21.3590    19.4695    21.2135
  403.5000     8.1277    80.4014     0.0092     2.3241     0.1995   -63.4266    21.3590    20.0200    21.0670
  404.0000     8.1442    82.9556     0.0025     2.3249     0.2007   -63.4220    21.3590    20.3024    21.0670
  404.5000     8.1608    84.4614     0.0056     2.3355     0.1986   -63.2671    21.3590    20.5889    21.0670
  405.0000     8.1625    82.3956     0.0132     2.3566     0.1841   -63.2626    21.3442    20.7344    21.0670
  405.5000     8.1641    83.4647     0.0209     2.3626     0.1760   -63.2581    20.9201    20.7373    21.0670
  406.0000     8.1660    86.3169     0.0176     2.3664     0.1754   -63.2535    20.7759    20.7402    20.9215
  406.5000     8.1677    88.1259     0.0239     2.3695     0.1733   -63.2490    20.3490    20.4346    20.4911
  407.0000     8.1693    87.6995     0.0217     2.3583     0.1731   -63.3960    20.3490    20.1782    20.0694
  407.5000     8.1709    86.6769     0.0158     2.3628     0.1795   -63.5418    20.2087    20.1625    19.9308
  408.0000     8.1725    85.6544     0.0144     2.3659     0.1741   -63.6877    20.0693    19.8893    19.5207
  408.5000     8.1741    84.7771     0.0144     2.3667     0.1732   -63.6820    19.7935    19.6343    19.3859
  409.0000     8.1604    83.2797     0.0175     2.3697     0.1710   -63.8290    19.6570    19.4889    19.2520
  409.5000     8.1625    83.0338     0.0206     2.3705     0.1746   -63.9737    19.2531    19.1024    18.8559
  410.0000     8.1488    84.5455     0.0207     2.3721     0.1719   -63.9692    19.2531    19.1051    18.8559
  410.5000     8.1210    83.7181     0.0155     2.3751     0.1695   -63.9646    19.1203    18.9687    18.7257
  411.0000     8.1226    81.4616     0.0253     2.3663     0.1682   -63.9601    18.7275    18.5876    18.4679
  411.5000     8.1242    79.5448     0.0208     2.3445     0.1736   -63.9556    18.5984    18.5901    18.3404
  412.0000     8.1408    78.9694     0.0134     2.3362     0.1928   -63.9510    18.2163    18.3349    18.2137
  412.5000     8.1424    78.6868     0.0112     2.3400     0.1895   -63.9465    18.0906    18.0865    17.8389
  413.0000     8.1440    78.5584     0.0073     2.3490     0.1838   -64.0935    17.7189    17.9640    17.7157
  413.5000     8.1456    78.5843     0.0039     2.3761     0.1786   -64.0878    17.3549    17.5966    17.4719
  414.0000     8.1473    79.3501     0.0155     2.3814     0.1630   -64.0842    17.1164    17.4774    17.3512
  414.5000     8.1191    81.3081     0.0131     2.3665     0.1684   -64.2303    16.7647    17.4798    17.3512
  415.0000     8.1048    84.9055     0.0066     2.3642     0.1713   -64.2256    16.7647    17.1223    17.2314
  415.5000     8.0611    86.5655     0.0197     2.3838     0.1692   -64.2436    16.6491    17.1246    17.1124
  416.0000     7.9875    85.8410     0.0381     2.4026     0.1515   -64.3671    16.3070    17.1270    16.8768
  416.5000     7.9616    82.2850     0.0194     2.3809     0.1614   -64.5129    16.3070    17.0109    16.8768
  417.0000     7.9934    83.0508     0.0285     2.3764     0.1652   -64.6699    16.3070    16.7790    16.8768
  417.5000     8.0249    83.2153     0.0421     2.3945     0.1544   -64.8171    16.3070    17.0158    16.7603
  418.0000     8.0563    82.0489     0.0257     2.3840     0.1655   -65.1008    16.3070    17.1366    16.7603
  418.5000     8.0579    82.2186     0.0167     2.3600     0.1745   -65.2542    16.3070    17.2582    16.7805
  419.0000     8.0595    83.8785     0.0123     2.3638     0.1742   -65.5429    16.3070    17.5017    16.8768
  419.5000     8.0612    84.3463     0.0078     2.3909     0.1687   -65.8391    16.6491    17.5042    16.9942
  420.0000     8.0628    84.6650     0.0214     2.3992     0.1528   -65.9850    16.7647    17.1460    16.9942
  420.5000     8.0644    84.2386     0.0418     2.3943     0.1537   -66.2812    16.7647    16.7954    16.8768
  421.0000     8.0507    83.8121     0.0501     2.3821     0.1603   -66.2766    16.6491    16.5663    16.7603
  421.5000     8.0527    84.1391     0.0269     2.3862     0.1629   -66.4226    15.8618    16.2269    16.4154
  422.0000     8.0391    84.7621     0.0187     2.3957     0.1593   -66.4180    15.4288    16.1170    16.0687
  422.5000     8.0411    85.3850     0.0113     2.4047     0.1545   -66.4134    15.3224    15.7873    15.8417
  423.0000     8.0427    86.7298     0.0234     2.4273     0.1352   -66.5594    15.0076    15.6804    15.5244
  423.5000     8.0443    87.9427     0.0400     2.4304     0.1328   -66.5547    14.9041    15.3596    15.1055
  424.0000     8.0459    90.0498     0.0296     2.4184     0.1402   -66.5502    14.5979    15.0460    14.9955
  424.5000     8.0476    92.6040     0.0199     2.4102     0.1442   -66.6963    14.4782    14.8408    14.6925
  425.0000     8.0492    93.5189     0.0139     2.4140     0.1434   -66.6915    14.1994    14.4367    14.4902
  425.5000     8.0657    93.3853     0.0110     2.4291     0.1399   -66.9880    13.9904    14.1409    14.2908
  426.0000     8.0673    92.2189     0.0148     2.4434     0.1315   -67.2840    13.8117    13.7559    13.9001
  426.5000     8.0839    88.8118     0.0172     2.4442     0.1273   -67.4310    13.6129    13.4750    13.7087
  427.0000     8.0856    89.8757     0.0180     2.4292     0.1281   -67.5768    13.5280    13.3833    13.5200
  427.5000     8.0875    92.2809     0.0218     2.4112     0.1360   -67.5711    13.7165    13.5726    13.5200
  428.0000     8.0738    92.3150     0.0241     2.4015     0.1446   -67.5666    13.7190    13.6689    13.8041
