~VERSION INFORMATION
 VERS.                2.0:   CWLS LOG ASCII STANDARD - VERSION 2.0
 WRAP.                 NO:   ONE LINE PER DEPTH STEP
~WELL INFORMATION
#MNEM.UNIT      DATA TYPE    INFORMATION
#----------   ------------   ------------------------------
 STRT.F           85.5000:   START DEPTH
 STOP.F         1080.5000:   STOP DEPTH
 STEP.F            0.5000:   STEP LENGTH
 NULL.          -999.2500:   NO VALUE
 COMP.         U.S.  NAVY:   COMPANY
 WELL.  N.P.R. #3 #67-S-2:   WELL
 FLD .             TEAPOT:   FIELD
 LOC .       S2 T38N R78W:   LOCATION
 CNTY.            NATRONA:   COUNTY
 STAT.            WYOMING:   STATE
 CTRY. UNITED STATES OF AMERICA:   COUNTRY
 SRVC.       Schlumberger:   SERVICE COMPANY
 DATE.        20-JUL-1964:   LOGDATE
 API .       490250639700:   API NUMBER
~CURVE INFORMATION
#MNEM.UNIT       API CODE    CURVE DESCRIPTION
#----------   ------------   ------------------------------
 DEPT.F                  :   
 GR  .GAPI   30 310 01 00:   GAMMA RAY
 DT  .US/F   60 520 33 00:   INTERVAL TRANSIT TIME
 SPR .MV     06 010 01 00:   SPONTANEOUS POTENTIAL
 CILD.MMHO   06 110 46 00:   CONDUCTIVITY INDUCTION LOG DEEP
 ASN .OHMM   06 041 16 00:   AMPLIFIED SHORT NORMAL 16"
 ILD .OHMM   06 120 46 00:   INDUCTION LOG DEEP
~PARAMETER INFORMATION
#MNEM.UNIT          VALUE    DESCRIPTION
#----------   ------------   ------------------------------
 PD  .                 GL:   PERMANENT DATUM
 EPD .F              5207:   ELEVATION PERMANENT DATUM
 LMF .                 KB:   LOG MEASURED FROM
 DAPD.F                 5:   FEET ABOVE PERMANENT DATUM
 DMF .                 KB:   DRILLING MEASURED FROM
 EKB .F              5212:   KELLING BUSHING
 EGL .F              5207:   GROUND LEVEL
 DATE.          7-20-1964:   RUN DATE
 RUN .                  1:   RUN NUMBER
 DD  .F              1080:   DEPTH DRILLER
 DL  .F              1081:   DEPTH LOGGER
 BLI .F              1080:   BOTTOM LOG INTERVAL
 TLI .F                86:   TOP LOG INTERVAL
 CS  .IN            8.625:   CASING SIZE
 CBD .F                10:   CASING BOTTOM DRILLER
 BS  .IN             6.75:   BIT SIZE
 BSD .F              1080:   BIT SIZE AT DEPTH
 DFT .            GEL-OIL:   DRILLING FLUID TYPE
 DFD .                9.5:   DRILLING FLUID DENSITY
 DFV .                 43:   DRILLING FLUID VISCOSITY
 MSS .           FLOWLINE:   MUD SAMPLE SOURCE
 RMS .OHMM           1.85:   RESISTIVITY MUD SAMPLE
 MST .F                83:   MUD SAMPLE TEMPERATURE
 RMF .OHMM           1.29:   RESISTIVITY MUD FILTRATE SAMPLE
 MFST.F                83:   MUD FILTRATE SAMPLE TEMPERATURE
 RMC .OHMM           2.49:   RESISTIVITY MUD CAKE
 MCST.F                83:   MUD CAKE SAMPLE TEMPERATURE
 MFSS.                 FP:   MUD FILTRATE SAMPLE SOURCE
 MCSS.                 FP:   MUD CAKE SAMPLE SOURCE
 TCS .HRS               2:   TIME CURCULATED STOPPED
 LUN .               4507:   LOGGING UNIT NUMBER
 LUL .               CSPR:   LOGGING UNIT LOCATION
 ENGI.             DANNER:   RECORDING ENGINEER
 WITN.          JORGENSEN:   WITNESSED BY
 CLNT.            A2DTECH:   CLIENT CODE
 ORIG.           2" PRINT:   ORIGIN OF DATA
 UWI .       490250639700:   UNIQUE WELL ID
 DICO. A2D Technologies, Inc.:   DIGITIZING COMPANY
~OTHER INFORMATION
~A   DEPT       GR         DT        SPR       CILD        ASN        ILD   
# ...
  709.5000    63.7555    99.7886   -21.7635   138.7061     8.4772     7.2992
  710.0000    59.7973   101.3013   -21.6806   139.3123     8.4353     7.2818
  710.5000    57.5355   100.2745   -21.5977   139.9186     8.3934     7.2646
  711.0000    59.2741    99.4004   -21.5146   140.5249     8.3514     7.2472
  711.5000    63.1030    98.1171   -21.4318   141.1311     8.3096     7.2300
  712.0000    66.7762    96.8078   -21.3486   141.7374     8.2571     7.2126
  712.5000    62.7881    96.3964   -21.2659   142.3437     8.2722     7.1954
  713.0000    59.3620    97.6457   -21.1826   142.9499     8.2969     7.1779
  713.5000    56.9623    98.6446   -21.1000   143.5562     8.2015     7.1607
  714.0000    64.9800    99.6436   -21.0166   144.1625     8.0739     7.1433
  714.5000    70.1338   100.6006   -20.9608   144.9203     7.9785     7.1217
  715.0000    72.9678    99.8649   -21.0305   143.5757     8.0281     7.1739
  715.5000    72.2031    99.1992   -21.1163   141.7829     8.0681     7.2436
  716.0000    75.3361   100.4004   -21.2011   139.9900     8.1176     7.3133
  716.5000    61.7579   139.8398   -21.2869   138.1972     8.2224     7.3829
  717.0000    60.3011   129.9299   -21.3717   135.9562     8.3615     7.4527
  717.5000    59.7244   138.1381   -21.4575   135.4965     8.5360     7.5222
  718.0000    62.0839   113.7364   -21.5560   134.8835     8.6074     7.5921
  718.5000    64.9948   101.5905   -21.5230   134.2706     8.7032     7.6615
  719.0000    66.0637   121.1541   -21.4827   133.6577     8.7985     7.7314
  719.5000    57.6423   144.3796   -21.4433   133.0447     8.8943     7.8183
  720.0000    59.3194   149.6540   -21.4031   132.4318     9.0134     7.7737
  720.5000    56.9213   126.1469   -21.3636   131.9721     9.0138     7.7137
  721.0000    58.7165    99.2495   -21.3234   132.5946     9.0134     7.6542
  721.5000    58.9321    98.6186   -21.2840   133.0926     8.9086     7.5943
  722.0000    62.7536   119.8198   -21.2438   133.5906     8.8242     7.5347
  722.5000    64.4054   110.2536   -21.2043   133.9641     8.7405     7.4749
  723.0000    60.7298   101.1085   -21.1642   136.0148     8.6350     7.4152
  723.5000    56.9772   101.3714   -21.1247   137.6553     8.6405     7.3555
  724.0000    60.0768   101.6365   -21.0846   139.2958     8.6467     7.2957
  724.5000    62.1159   101.8938   -21.0451   140.9362     8.6555     7.2213
  725.0000    60.8065   101.9081   -21.0050   142.5768     8.6551     7.1650
  725.5000    64.6212   101.7521   -20.9606   144.2173     8.5276     7.0907
  726.0000    73.5027   101.5960   -21.0220   145.8578     8.4247     7.0157
  726.5000    79.9339   101.6705   -21.0926   147.9084     8.3228     6.9415
  727.0000    66.8382   102.1021   -21.1625   148.5487     8.2199     6.8664
  727.5000    59.6186   102.2673   -21.2330   149.4024     8.1181     6.7922
  728.0000    55.8180   102.4338   -21.3031   150.2561     8.0151     6.7171
  728.5000    59.7866   102.6026   -21.3736   150.8964     7.9390     6.6242
  729.0000    57.0899   103.0247   -21.4436   149.6514     7.9134     6.6803
  729.5000    55.6062   102.8634   -21.5140   148.6554     7.8991     6.7563
  730.0000    53.1408   102.0587   -21.5508   147.6594     8.0158     6.8314
  730.5000    50.3333   100.8932   -21.5377   146.6633     8.1103     6.9073
  731.0000    56.2077    99.6997   -21.5243   145.6673     8.2035     6.9824
  731.5000    57.2577    98.7247   -21.5111   144.9203     8.2980     7.0583
  732.0000    65.7249    97.6977   -21.4978   141.8769     8.3913     7.1335
  732.5000    73.4939    92.4745   -21.4846   139.4422     8.4857     7.2093
  733.0000    78.2943    96.7968   -21.4713   137.0075     8.5556     7.2845
  733.5000    80.5242    92.6927   -21.4580   133.9641     8.5642     7.3603
  734.0000    69.4417   100.3003   -21.4448   133.5373     8.5705     7.4356
  734.5000    65.5673    98.4697   -21.4315   132.9681     8.5757     7.5113
  735.0000    69.4423    97.3749   -21.4183   132.3990     8.6917     7.5866
  735.5000    63.1780    96.7552   -21.4051   131.9721     8.7847     7.6623
  736.0000    60.1413    96.4923   -21.3918   132.8021     8.8776     7.7188
  736.5000    68.2963    96.2294   -21.3785   133.4661     8.9937     7.6950
  737.0000    66.9902    95.9665   -21.3653   134.1302     8.9938     7.6630
  737.5000    65.7479    95.8308   -21.3834   134.7942     8.9937     7.6314
  738.0000    64.4338    96.0410   -21.4419   135.4582     8.9397     7.5994
  738.5000    65.7563    96.4573   -21.5005   136.1222     8.8671     7.5679
  739.0000    67.3969    96.8735   -21.5590   136.9522     8.7950     7.5357
  739.5000    63.0334    97.2890   -21.6176   137.3791     8.7223     7.5043
  740.0000    58.9245    97.8345   -21.6761   137.9482     8.6503     7.4721
  740.5000    59.6900    98.4253   -21.7347   138.5174     8.5957     7.4407
  741.0000    58.4354    99.0157   -21.7932   138.9442     8.5712     7.4084
  741.5000    66.0044    99.6061   -21.8518   138.9442     8.5508     7.3772
  742.0000    68.4278   100.0475   -21.9104   138.9442     8.5316     7.3447
  742.5000    71.3091   100.2002   -21.9690   138.9442     8.5161     7.3216
  743.0000    68.0615   100.9227   -22.0276   136.9522     8.5348     7.3520
  743.5000    63.0279   101.5764   -22.0861   135.3586     8.5580     7.3777
  744.0000    64.6215   101.3428   -22.1447   133.7649     8.5768     7.4019
  744.5000    65.7137   100.8710   -22.2032   132.1713     8.7619     7.4214
  745.0000    57.5013   100.3993   -22.2619   130.9761     8.9117     7.6544
  745.5000    63.1813    99.9275   -22.3203   127.8635     9.0596     7.8422
  746.0000    57.2674    99.4906   -22.3364   125.3723     9.2091     8.0286
  746.5000    50.9494    99.0863   -22.3056   122.8834     9.3573     8.2162
  747.0000    55.1475    98.6819   -22.2752   120.3928     9.5068     8.4028
  747.5000    52.0697    98.2776   -22.2443   117.9037     9.6549     8.5901
  748.0000    58.6969    97.9760   -22.2140   115.4133     9.8044     8.7770
  748.5000    60.7529    97.8979   -22.1830   112.9240     9.9898     8.9641
  749.0000    63.9899    97.3326   -22.1526   110.4338    10.0103     9.1512
  749.5000    65.4544    96.7086   -22.2565   107.9442    10.4578     9.3380
  750.0000    57.0916    96.0846   -22.3617   105.4544    10.9064     9.5254
  750.5000    52.5534    95.4606   -22.4661   102.9644    11.0202     9.7120
  751.0000    55.0665    95.0291   -22.5712   101.0972    11.1729     9.8996
  751.5000    56.3467    94.6207   -22.6758    99.4368    11.3248    10.0860
  752.0000    60.2133    94.1127   -22.7808    98.1095    11.4775    10.2738
  752.5000    57.7659    93.5596   -22.8854    96.7809    11.6294    10.5069
  753.0000    54.6953    93.1313   -22.9904    95.1217    11.7820    10.4778
  753.5000    57.0380    92.7195   -23.0950    95.5754    11.9341    10.4373
  754.0000    58.2982    92.3077   -23.1347    96.1805    12.0864    10.3982
  754.5000    54.2442    91.8959   -23.1137    96.7868    12.2002    10.3577
  755.0000    49.8833    91.6928   -23.0927    97.3930    12.1177    10.3185
  755.5000    45.5249    92.0805   -23.0718    97.9993    12.0509    10.2781
  756.0000    42.5295    92.3256   -23.0508    98.6056    11.9850    10.2388
  756.5000    51.5110    92.3989   -23.0299    99.2119    11.9181    10.1986
  757.0000    51.5541    92.4722   -23.0089    99.8181    11.8522    10.1592
  757.5000    55.8535    92.5456   -22.9881   100.4244    11.7855    10.1191
  758.0000    46.5515    92.6189   -22.9670   101.0307    11.7196    10.0795
  758.5000    35.9089    92.6924   -22.9470   101.6369    11.6528    10.0395
  759.0000    39.2662    92.7654   -22.9766   102.0916    11.5869     9.9999
  759.5000    46.2524    92.7147   -23.0051   103.0876    11.5201     9.9599
  760.0000    57.1429    92.5901   -23.0335   103.8845    11.4541     9.9103
  760.5000    45.3596    92.5697   -23.0619   104.6813    11.4040     9.8577
  761.0000    43.8562    92.9258   -23.0904   105.4781    11.3019     9.7878
