~VERSION INFORMATION
 VERS.                2.0:   CWLS LOG ASCII STANDARD - VERSION 2.0
 WRAP.                 NO:   ONE LINE PER DEPTH STEP
~WELL INFORMATION
#MNEM.UNIT      DATA TYPE    INFORMATION
#----------   ------------   ------------------------------
 STRT.F           34.0000:   START DEPTH
 STOP.F          496.0000:   STOP DEPTH
 STEP.F            0.5000:   STEP LENGTH
 NULL.          -999.2500:   NO VALUE
 COMP. LAWRENCE/ALLISON INC:   COMPANY
 WELL.   55-55 SX FI #3-3:   WELL
 FLD .             TEAPOT:   FIELD
 LOC .       S3 T38N R78W:   LOCATION
 CNTY.            NATRONA:   COUNTY
 STAT.            WYOMING:   STATE
 CTRY. UNITED STATES OF AMERICA:   COUNTRY
 SRVC.       Schlumberger:   SERVICE COMPANY
 DATE.        18-JUL-1982:   LOGDATE
 API .       490251089500:   API NUMBER
~CURVE INFORMATION
#MNEM.UNIT       API CODE    CURVE DESCRIPTION
#----------   ------------   ------------------------------
 DEPT.F                  :   
 CALD.IN     45 280 60 00:   CALIPER FROM DENSITY LOG
 GRD .GAPI   45 310 01 00:   GAMMA RAY FROM DENSITY LOG
 CORR.G/C3   45 356 01 00:   DENSITY CORRECTION
 RHOB.G/C3   45 350 01 00:   BULK DENSITY
 DPHI.DEC    45 890 12 00:   DENSITY POROSITY SANDSTONE
 SPR .MV     07 010 01 00:   SPONTANEOUS POTENTIAL
 ILD .OHMM   07 120 46 00:   INDUCTION LOG DEEP
 ILM .OHMM   07 120 44 00:   INDUCTION LOG MEDIUM
 SFL .OHMM   07 220 01 00:   SHALLOW FOCUSED LOG RESISTIVITY
~PARAMETER INFORMATION
#MNEM.UNIT          VALUE    DESCRIPTION
#----------   ------------   ------------------------------
 PD  .                 GL:   PERMANENT DATUM
 EPD .F              5167:   ELEVATION PERMANENT DATUM
 LMF .                 KB:   LOG MEASURED FROM
 DAPD.F                 9:   FEET ABOVE PERMANENT DATUM
 DMF .                 KB:   DRILLING MEASURED FROM
 EKB .F              5176:   KELLING BUSHING
 EDF .F                  :   DRILLING FLOOR
 EGL .F              5167:   GROUND LEVEL
 DATE.        18-JUL-1982:   RUN DATE
 RUN .                  1:   RUN NUMBER
 DD  .F               500:   DEPTH DRILLER
 DL  .F               499:   DEPTH LOGGER
 BLI .F               436:   BOTTOM LOG INTERVAL
 TLI .F                50:   TOP LOG INTERVAL
 CS  .IN           13.375:   CASING SIZE
 CBD .F                50:   CASING BOTTOM DRILLER
 CBL .F                50:   CASING BOTTOM LOGGER
 BS  .IN            12.25:   BIT SIZE
 BSD .F               500:   BIT SIZE AT DEPTH
 DFT .         KCL FILLED:   DRILLING FLUID TYPE
 DFD .                   :   DRILLING FLUID DENSITY
 DFV .                   :   DRILLING FLUID VISCOSITY
 DFPH.                   :   DRILLING FLUID PH
 DFL .                   :   DRILLING FLUID LOSS
 MSS .           WELLHEAD:   MUD SAMPLE SOURCE
 RMS .OHMM           2.82:   RESISTIVITY MUD SAMPLE
 MST .F                80:   MUD SAMPLE TEMPERATURE
 RMF .OHMM               :   RESISTIVITY MUD FILTRATE SAMPLE
 MFST.F                  :   MUD FILTRATE SAMPLE TEMPERATURE
 RMC .OHMM               :   RESISTIVITY MUD CAKE
 MCST.F                  :   MUD CAKE SAMPLE TEMPERATURE
 MFSS.                   :   MUD FILTRATE SAMPLE SOURCE
 MCSS.                   :   MUD CAKE SAMPLE SOURCE
 RMB .OHMM           2.62:   RESISTIVITY MUD AT BHT
 BHT .F                86:   BOTTOM HOLE TEMPERATURE
 TCS .HRS            1530:   TIME CURCULATED STOPPED
 TLAB.HRS            1800:   TIME LOGGER AT BOTTOM
 MRT .F                86:   MAXIMUM RECORDED TEMPERATURE
 LUN .               8035:   LOGGING UNIT NUMBER
 LUL .             CASPER:   LOGGING UNIT LOCATION
 ENGI.              PENNY:   RECORDING ENGINEER
 WITN.             TAYLOR:   WITNESSED BY
 CLNT.            A2DTECH:   CLIENT CODE
 ORIG.           5" PRINT:   ORIGIN OF DATA
 UWI .       490251089500:   UNIQUE WELL ID
 DICO. A2D Technologies, Inc.:   DIGITIZING COMPANY
 OS  .                   :   OTHER SERVICES
 PWI .                   :   PRIMARY WELL IDENTIFIER
 R1  . POROSITY WITH SANDSTONE:   REMARKS 1
 R2  .                   :   REMARKS 2
 LSRV.                   :   LOG MNEMONIC
~OTHER INFORMATION
~A   DEPT     CALD         GRD      CORR       RHOB       DPHI        SPR        ILD        ILM        SFL   
# ...
  180.0000    12.5835    80.8421     0.0039     2.4463     0.1401   -54.2687     6.2821     6.2667     7.1166
  180.5000    12.5672    81.3023     0.0046     2.4455     0.1404   -54.1356     6.6345     6.5723     7.1102
  181.0000    12.5662    81.5143     0.0045     2.4446     0.1395   -54.3015     6.9102     6.8452     7.1038
  181.5000    12.5501    81.1851     0.0067     2.4469     0.1386   -54.3234     7.0022     6.9350     7.0974
  182.0000    12.5490    77.2236     0.0082     2.4498     0.1368   -54.4836     7.0939     7.0744     7.0910
  182.5000    12.5480    76.9964     0.0103     2.4513     0.1365   -54.4999     7.1869     7.1178     7.1833
  183.0000    12.5470    79.2492     0.0126     2.4511     0.1360   -54.2169     7.2308     7.2108     7.2283
  183.5000    12.5459    82.4049     0.0146     2.4534     0.1345   -53.9358     7.3240     7.3052     7.3225
  184.0000    12.5449    84.8839     0.0160     2.4579     0.1321   -53.6538     7.3703     7.3500     7.4178
  184.5000    12.5288    83.9794     0.0182     2.4616     0.1299   -53.5209     7.4153     7.4978     7.5144
  185.0000    12.4977    82.1727     0.0189     2.4584     0.1297   -53.5375     7.4707     7.5436     7.6123
  185.5000    12.4816    80.5915     0.0188     2.4458     0.1373   -53.5539     7.5584     7.5899     7.6582
  186.0000    12.4806    80.5892     0.0096     2.4346     0.1428   -53.5704     7.6575     7.6890     7.7580
  186.5000    12.4795    79.9103    -0.0011     2.4362     0.1456   -53.7361     7.7578     7.6826     7.8142
  187.0000    12.4785    79.4570     0.0003     2.4422     0.1420   -53.7525     7.7513     7.7298     7.9065
  187.5000    12.4774    79.6809     0.0055     2.4512     0.1362   -53.7690     7.8075     7.7770     8.0094
  188.0000    12.4762    80.5803     0.0099     2.4611     0.1323   -53.7855     7.9009     7.8245     8.0664
  188.5000    12.4752    81.2549     0.0151     2.4633     0.1296   -53.8019     7.9492     7.8723     8.1627
  189.0000    12.4894    81.4782     0.0173     2.4548     0.1287   -53.6687     7.9423     7.8655     8.2201
  189.5000    12.4731    82.1526     0.0089     2.4304     0.1384   -53.6856     7.9357     7.8589     8.3189
  190.0000    12.4570    81.4737     0.0020     2.4296     0.1495   -53.7020     7.9291     7.8524     8.3112
  190.5000    12.4409    80.5692     0.0026     2.4394     0.1473   -53.7185     7.9225     7.8459     8.3616
  191.0000    12.4399    79.6422     0.0057     2.4576     0.1373   -53.7350     7.9712     7.8393     8.2962
  191.5000    12.4542    80.1473     0.0117     2.4689     0.1286   -53.7514     7.9643     7.7252     8.2316
  192.0000    12.4682    81.0131     0.0167     2.4536     0.1264   -53.7679     7.9519     7.6655     8.1675
  192.5000    12.4669    81.9131     0.0075     2.4436     0.1368   -53.7843     7.8963     7.6063     8.0425
  193.0000    12.4658    81.2342     0.0014     2.4451     0.1423   -53.8008     7.8897     7.5476     7.9251
  193.5000    12.4648    80.1041    -0.0010     2.4511     0.1387   -53.8173     7.8241     7.4377     7.7557
  194.0000    12.4637    79.4252    -0.0003     2.4571     0.1357   -53.8337     7.7146     7.3802     7.6426
  194.5000    12.4477    79.4230     0.0049     2.4601     0.1320   -53.7009     7.6512     7.2727     7.5349
  195.0000    12.4456    79.4208     0.0108     2.4609     0.1302   -53.7174     7.4914     7.2166     7.5281
  195.5000    12.4286    78.7419     0.0198     2.4630     0.1296   -53.5805     7.3792     7.1115     7.4695
  196.0000    12.4295    78.2885     0.0227     2.4621     0.1290   -53.3025     7.2218     6.9596     7.4628
  196.5000    12.4435    78.5118     0.0204     2.4567     0.1303   -53.0205     7.0677     6.8109     7.4561
  197.0000    12.4422    79.4119     0.0127     2.4429     0.1355   -52.7384     6.8712     6.6654     7.4494
  197.5000    12.4412    80.0863     0.0065     2.4109     0.1499   -52.7549     6.7227     6.5231     7.2362
  198.0000    12.4402    80.5358     0.0019     2.3979     0.1633   -52.6180     6.4889     6.2526     6.7469
  198.5000    12.4542    81.2098    -0.0012     2.3978     0.1710   -52.6386     6.2190     5.9520     6.3336
  199.0000    12.4531    79.8541    -0.0006     2.3985     0.1692   -52.6550     5.7981     5.6267     5.8654
  199.5000    12.4521    78.9496     0.0016     2.4007     0.1661   -52.6715     5.3318     5.2462     5.4309
  200.0000    12.4059    77.8186     0.0038     2.3884     0.1735   -52.5346     4.7039     4.8435     4.9599
  200.5000    12.4199    78.7096     0.0113     2.3678     0.1881   -52.6995     4.3571     4.1119     4.2575
  201.0000    12.4189    79.8261     0.0181     2.3464     0.2062   -52.1145     3.9256     3.7302     3.8896
  201.5000    12.4028    81.1710     0.0263     2.3121     0.2269   -51.5295     3.2547     3.1577     3.3053
  202.0000    12.4017    77.9989     0.0361     2.2823     0.2465   -51.0907     2.7552     2.7480     2.7688
  202.5000    12.4007    74.6042     0.0284     2.2220     0.2712   -50.8042     2.5521     2.4248     2.4605
  203.0000    12.3996    72.5628     0.0154     2.2182     0.2749   -50.6669     2.5334     2.3089     2.1565
  203.5000    12.3985    73.4538    -0.0028     2.2341     0.2588   -50.6819     2.5323     2.4221     2.0254
  204.0000    12.3975    76.3748    -0.0027     2.2851     0.2143   -50.6939     2.5844     2.6487     2.1847
  204.5000    12.3814    80.6492     0.0063     2.3429     0.1917   -50.8551     2.7495     3.0401     2.6143
  205.0000    12.3956    84.0213     0.0092     2.3679     0.1820   -51.1656     3.1132     3.3667     3.0640
  205.5000    12.3943    85.5918     0.0068     2.3846     0.1671   -51.6253     3.5495     3.7574     3.5173
  206.0000    12.4083    81.9686     0.0029     2.4089     0.1522   -52.0851     4.1606     4.2571     4.2089
  206.5000    12.4072    82.1857    -0.0001     2.4309     0.1437   -52.3955     4.6141     4.8393     5.1421
  207.0000    12.4215    83.2994    -0.0003     2.4400     0.1410   -52.5568     5.0118     5.2123     6.2389
  207.5000    12.4355    84.1932    -0.0003     2.4430     0.1425   -52.7180     5.3690     5.4998     6.6370
  208.0000    12.4342    82.8257     0.0028     2.4437     0.1410   -52.7300     5.5944     5.7293     6.5885
  208.5000    12.4481    81.2354     0.0080     2.4482     0.1395   -52.7420     5.8293     5.9272     6.4505
  209.0000    12.4471    81.2241     0.0140     2.4519     0.1374   -52.7540     6.0322     6.0476     6.3592
  209.5000    12.4460    82.5662     0.0170     2.4526     0.1332   -52.7659     6.1563     6.1246     6.2692
  210.0000    12.4600    84.8105     0.0144     2.4465     0.1415   -52.6257     6.2402     6.1637     6.2234
  210.5000    12.4439    85.7043     0.0082     2.4395     0.1436   -52.4884     6.2809     6.1602     6.1779
  211.0000    12.4278    85.6902     0.0012     2.4372     0.1440   -52.3511     6.1913     6.1143     6.2188
  211.5000    12.4268    86.5811    -0.0038     2.4379     0.1434   -51.9183     6.0196     5.9441     6.3022
  212.0000    12.4107    87.4749    -0.0039     2.4363     0.1459   -51.6318     5.7722     5.7377     6.4317
  212.5000    12.4096    89.2653    -0.0008     2.4088     0.1642   -51.3453     5.5734     5.4644     6.6095
  213.0000    12.4239    90.1562     0.0053     2.3851     0.1816   -51.2080     5.2709     5.2031     6.7461
  213.5000    12.3925    91.0500     0.0048     2.3592     0.1932   -51.2200     5.0194     4.9888     6.0778
  214.0000    12.3914    91.0359     0.0010     2.3515     0.1960   -51.2320     4.7469     4.8164     4.9706
  214.5000    12.3904    90.1223    -0.0012     2.3567     0.1914   -51.2439     4.5834     4.6501     4.3264
  215.0000    12.3893    88.7576    -0.0013     2.3688     0.1854   -51.4052     4.5504     4.5520     4.1775
  215.5000    12.3883    84.9117     0.0017     2.3833     0.1738   -51.4172     4.6119     4.4869     4.3228
  216.0000    12.3872    76.5545     0.0039     2.4022     0.1635   -51.7276     4.6738     4.5156     4.5042
