~VERSION INFORMATION
 VERS.                2.0:   CWLS LOG ASCII STANDARD - VERSION 2.0
 WRAP.                 NO:   ONE LINE PER DEPTH STEP
~WELL INFORMATION
#MNEM.UNIT      DATA TYPE    INFORMATION
#----------   ------------   ------------------------------
 STRT.F           36.0000:   START DEPTH
 STOP.F          493.0000:   STOP DEPTH
 STEP.F            0.5000:   STEP LENGTH
 NULL.          -999.2500:   NO VALUE
 COMP.    FENIX & SCISSON:   COMPANY
 WELL.       NPR #68-S-10:   WELL
 FLD .             TEAPOT:   FIELD
 LOC .      S10 T38N R78W:   LOCATION
 CNTY.            NATRONA:   COUNTY
 STAT.            WYOMING:   STATE
 CTRY. UNITED STATES OF AMERICA:   COUNTRY
 SRVC.              Welex:   SERVICE COMPANY
 DATE.        18-APR-1977:   LOGDATE
 API .       490251033500:   API NUMBER
~CURVE INFORMATION
#MNEM.UNIT       API CODE    CURVE DESCRIPTION
#----------   ------------   ------------------------------
 DEPT.F                  :   
 SPR .MV     07 010 01 00:   SPONTANEOUS POTENTIAL
 ILD .OHMM   07 120 46 00:   INDUCTION LOG DEEP
 ILM .OHMM   07 120 44 00:   INDUCTION LOG MEDIUM
 SGRD.OHMM   07 221 05 00:   SHALLOW SHORT GUARD RESISTIVITY
 CALD.IN     45 280 60 00:   CALIPER FROM DENSITY LOG
 GRD .GAPI   45 310 01 00:   GAMMA RAY FROM DENSITY LOG
 CORR.G/C3   45 356 01 00:   DENSITY CORRECTION
 RHOB.G/C3   45 350 01 00:   BULK DENSITY
 DPHI.DEC    45 890 12 00:   DENSITY POROSITY SANDSTONE
~PARAMETER INFORMATION
#MNEM.UNIT          VALUE    DESCRIPTION
#----------   ------------   ------------------------------
 PD  .                 GL:   PERMANENT DATUM
 EPD .F              5198:   ELEVATION PERMANENT DATUM
 LMF .                 GL:   LOG MEASURED FROM
 DMF .                 GL:   DRILLING MEASURED FROM
 EGL .F              5198:   GROUND LEVEL
 DATE.        18-APR-1977:   RUN DATE
 RUN .                  1:   RUN NUMBER
 DD  .F               505:   DEPTH DRILLER
 DL  .F               492:   DEPTH LOGGER
 BLI .F               490:   BOTTOM LOG INTERVAL
 TLI .F                32:   TOP LOG INTERVAL
 CS  .IN            8.625:   CASING SIZE
 CBD .F                40:   CASING BOTTOM DRILLER
 CBL .F                42:   CASING BOTTOM LOGGER
 BS  .IN            7.875:   BIT SIZE
 BSD .F               505:   BIT SIZE AT DEPTH
 DFT .            KCL MUD:   DRILLING FLUID TYPE
 DFV .                 36:   DRILLING FLUID VISCOSITY
 MSS .           FLOWLINE:   MUD SAMPLE SOURCE
 RMS .OHMM           2.46:   RESISTIVITY MUD SAMPLE
 MST .F                52:   MUD SAMPLE TEMPERATURE
 RMF .OHMM           2.30:   RESISTIVITY MUD FILTRATE SAMPLE
 MFST.F                52:   MUD FILTRATE SAMPLE TEMPERATURE
 RMC .OHMM           2.66:   RESISTIVITY MUD CAKE
 MCST.F                52:   MUD CAKE SAMPLE TEMPERATURE
 MFSS.               MEAS:   MUD FILTRATE SAMPLE SOURCE
 MCSS.               MEAS:   MUD CAKE SAMPLE SOURCE
 RMB .OHMM           1.97:   RESISTIVITY MUD AT BHT
 BHT .F                65:   BOTTOM HOLE TEMPERATURE
 TCS .HRS            0400:   TIME CURCULATED STOPPED
 MRT .F                65:   MAXIMUM RECORDED TEMPERATURE
 LUN .               8611:   LOGGING UNIT NUMBER
 LUL .             CASPER:   LOGGING UNIT LOCATION
 ENGI.               DOAK:   RECORDING ENGINEER
 WITN.            R. LYON:   WITNESSED BY
 CLNT.            A2DTECH:   CLIENT CODE
 ORIG.           5" PRINT:   ORIGIN OF DATA
 UWI .       490251033500:   UNIQUE WELL ID
 DICO. A2D Technologies, Inc.:   DIGITIZING COMPANY
~OTHER INFORMATION
~A   DEPT      SPR        ILD        ILM       SGRD         CALD       GRD      CORR       RHOB       DPHI   
# ...
  182.0000   -53.5523     8.1512     8.4961    12.5423     7.9772   112.2077     0.0127     2.4456     0.1202
  182.5000   -53.6762     7.9347     8.5608    12.2937     7.9790   111.4799     0.0128     2.4412     0.1229
  183.0000   -53.5118     7.5660     8.7459    12.2155     7.9810   111.0498     0.0145     2.4397     0.1237
  183.5000   -53.4955     7.2642     8.8125    12.9204     7.9827   110.7684     0.0161     2.4473     0.1217
  184.0000   -53.4792     6.9745     8.6380    12.3193     7.9845   112.1240     0.0162     2.4511     0.1182
  184.5000   -53.4628     6.7427     8.1798    11.5055     7.9714   111.3962     0.0165     2.4295     0.1269
  185.0000   -53.5944     6.3851     7.6927    11.1228     7.9583   109.1803     0.0134     2.4138     0.1326
  185.5000   -54.0218     6.0048     7.1354    11.2852     7.9452   106.3692     0.0119     2.4072     0.1362
  186.0000   -54.4497     5.7643     6.5730    11.3693     7.9469   107.5760     0.0136     2.4005     0.1388
  186.5000   -54.8772     5.6123     6.2243     9.3144     7.9489   108.6339     0.0137     2.3953     0.1430
  187.0000   -55.0089     5.5766     6.0175     7.5682     7.9507   106.8645     0.0138     2.3902     0.1519
  187.5000   -54.9919     5.5421     6.0216     5.4425     7.9525   105.0226     0.0108     2.3813     0.1576
  188.0000   -54.9756     5.6629     6.6828     6.5901     7.9542   105.8573     0.0063     2.3724     0.1636
  188.5000   -54.5154     5.9064     7.1158    11.7286     7.9560   108.7010     0.0021     2.3694     0.1647
  189.0000   -54.2032     6.1179     7.3706    11.8267     7.9578   108.0477     0.0022     2.3785     0.1587
  189.5000   -53.8910     6.3809     7.7407    11.9906     7.9596   106.5759     0.0038     2.4002     0.1506
  190.0000   -53.7267     6.6552     8.1293    12.1770     7.9613   104.2856     0.0069     2.4085     0.1431
  190.5000   -53.5624     7.0378     8.4787    12.6058     7.9631   103.7066     0.0085     2.4064     0.1421
  191.0000   -53.3982     7.4423     8.7220    13.0582     7.9649   105.1366     0.0086     2.4049     0.1436
  191.5000   -53.0859     8.0346     9.0969    13.5212     7.9667   106.7174     0.0087     2.4035     0.1451
  192.0000   -52.9217     8.2652     9.6198    13.4375     7.9684   108.2218     0.0088     2.4013     0.1471
  192.5000   -52.9053     8.3282    10.2431    12.3776     7.9702   107.9404     0.0089     2.3983     0.1486
  193.0000   -52.7410     8.3917    10.4646    12.9995     7.9720   106.3198     0.0091     2.3946     0.1504
  193.5000   -52.7247     8.3975    10.5443    14.2301     7.9738   105.5920     0.0092     2.3918     0.1521
  194.0000   -52.5604     8.5791    10.9219    13.4748     7.9756   105.9059     0.0093     2.4006     0.1530
  194.5000   -52.5440     8.8253    11.0813    13.8618     7.9773   107.7079     0.0109     2.4129     0.1470
  195.0000   -52.5277     9.0161    10.7872    14.3586     7.9791   109.6587     0.0140     2.4219     0.1385
  195.5000   -52.5113     9.0223    10.8694    14.5683     7.9809   110.7166     0.0171     2.4295     0.1316
  196.0000   -52.4950     9.0286    11.5737    14.5785     7.9827   111.0305     0.0202     2.4393     0.1259
  196.5000   -52.3307     9.0336    11.6598    14.5886     7.9695   111.0468     0.0233     2.4513     0.1191
  197.0000   -52.3143     9.0398    11.1197    14.5987     7.9713   111.2119     0.0249     2.4626     0.1143
  197.5000   -52.2980     9.0461    11.9222    14.7101     7.9582   111.3770     0.0280     2.4694     0.1084
  198.0000   -52.2816     9.0590    11.7670    14.7203     7.9600   111.5420     0.0326     2.4717     0.1048
  198.5000   -52.2653     9.1263    11.5319    14.7305     7.9617   111.4095     0.0372     2.4725     0.1029
  199.0000   -52.2489     9.2578    12.1130    14.8428     7.9635   111.1282     0.0403     2.4733     0.1019
  199.5000   -52.2326     9.3249    12.4584    15.0597     7.9802   110.8468     0.0404     2.4726     0.1023
  200.0000   -52.3248     9.3313    11.5552    15.1743     7.9820   110.2679     0.0405     2.4675     0.1085
  200.5000   -52.3531     9.4032    11.8086    14.7691     7.9716   109.9867     0.0377     2.4645     0.1094
  201.0000   -52.6282     9.3457    12.3170    15.6164     7.9613   110.5985     0.0408     2.4743     0.1079
  201.5000   -52.6116     9.4178    12.1574    16.1737     7.9509   111.2102     0.0484     2.5021     0.0926
  202.0000   -52.7471     9.3601    11.9151    16.4053     7.9427   110.0362     0.0545     2.5208     0.0794
  202.5000   -52.7264     9.3676    11.6821    14.9037     7.9441   108.1182     0.0606     2.5358     0.0671
  203.0000   -52.8619     9.3746    11.5307    14.8093     7.9454   106.9442     0.0637     2.5426     0.0604
  203.5000   -53.1412     9.2532    11.6193    14.8177     7.9468   106.9607     0.0608     2.5389     0.0628
  204.0000   -53.2725     9.2622    11.3116    14.4220     7.9481   108.9117     0.0594     2.5353     0.0655
  204.5000   -53.2518     9.2038    11.1629    14.3305     7.9643   110.8627     0.0565     2.5293     0.0687
  205.0000   -53.3839     9.2127    11.3287    14.3385     7.9656   109.8375     0.0521     2.5189     0.0765
  205.5000   -53.6631     9.0309    11.3373    14.3464     7.9670   109.4076     0.0447     2.5055     0.0879
  206.0000   -53.6459     8.9740    11.1903    14.1510     7.9683   109.1265     0.0373     2.4854     0.0974
  206.5000   -53.7778     8.7969    10.9694    13.7792     7.9697   109.4406     0.0359     2.4884     0.0905
  207.0000   -53.7607     8.5657    10.6789    14.0756     7.9710   110.1246     0.0405     2.5042     0.0818
  207.5000   -53.5962     8.3390    10.2536    14.0512     7.9724   110.6620     0.0436     2.5132     0.0761
  208.0000   -53.5796     8.1183     9.7776    12.9721     7.9737   110.6785     0.0482     2.5208     0.0760
  208.5000   -53.5630     7.6883     9.3882    12.2818     7.9751   110.4717     0.0499     2.5149     0.0811
  209.0000   -53.6945     7.2310     8.9523    11.7087     7.9764   109.5210     0.0515     2.5052     0.0910
  209.5000   -54.1216     6.7077     8.5367    11.3176     7.9629   108.2726     0.0516     2.4866     0.1008
  210.0000   -54.5488     6.1370     8.1967    10.7153     7.9642   108.1403     0.0532     2.4747     0.1080
  210.5000   -54.9784     5.5763     7.8162    10.1451     7.9656   109.7172     0.0533     2.4657     0.1131
  211.0000   -55.4032     5.1018     7.3512     9.4083     7.9669   111.6682     0.0519     2.4531     0.1181
  211.5000   -55.6897     4.4477     6.8663     8.7250     7.9683   112.8752     0.0505     2.4352     0.1224
  212.0000   -55.9618     3.9585     6.3693     7.7630     7.9696   114.5286     0.0506     2.4203     0.1285
  212.5000   -56.4010     3.5721     5.6297     6.9549     7.9710   116.1820     0.0507     2.4024     0.1363
  213.0000   -56.6683     3.2682     4.8741     5.9369     7.9723   115.1568     0.0492     2.3905     0.1465
  213.5000   -56.9643     3.0108     4.3380     4.5379     7.9588   112.0483     0.0448     2.3749     0.1570
  214.0000   -57.0982     2.9310     4.0518     4.0656     7.9601   110.2791     0.0420     2.3555     0.1701
  214.5000   -57.3582     2.9132     3.9444     4.1817     7.9615   109.2539     0.0391     2.3443     0.1803
  215.0000   -57.1930     2.9357     3.9749     4.7050     7.9629   109.2704     0.0362     2.3388     0.1850
  215.5000   -57.0285     3.0201     4.6298     5.7116     7.9493   109.7333     0.0333     2.3298     0.1919
  216.0000   -56.4168     3.1720     4.8292     8.1820     7.9505   110.9403     0.0304     2.3228     0.1958
  216.5000   -56.2523     3.4485     4.9000     4.5844     7.9518   112.8913     0.0260     2.3238     0.1933
  217.0000   -55.7919     3.7749     4.9037     5.2661     7.9383   108.1459     0.0201     2.3314     0.1882
  217.5000   -55.3316     4.1640     5.9122     9.4755     7.9396   104.5910     0.0142     2.3403     0.1825
  218.0000   -54.8712     4.6857     6.6072    11.7434     7.9410   109.6670     0.0113     2.3493     0.1774
