~VERSION INFORMATION
 VERS.                2.0:   CWLS LOG ASCII STANDARD - VERSION 2.0
 WRAP.                 NO:   ONE LINE PER DEPTH STEP
~WELL INFORMATION
#MNEM.UNIT      DATA TYPE    INFORMATION
#----------   ------------   ------------------------------
 STRT.F            0.0000:   START DEPTH
 STOP.F         3024.5000:   STOP DEPTH
 STEP.F            0.5000:   STEP LENGTH
 NULL.          -999.2500:   NO VALUE
 COMP. LAWRENCE/ALLISON INC:   COMPANY
 WELL.   NPR 3 77X #77-28:   WELL
 FLD .           N.P.R. 3:   FIELD
 LOC .      S28 T39N R78W:   LOCATION
 CNTY.            NATRONA:   COUNTY
 STAT.            WYOMING:   STATE
 CTRY. UNITED STATES OF AMERICA:   COUNTRY
 SRVC.      Dresser Atlas:   SERVICE COMPANY
 DATE.        19-OCT-1986:   LOGDATE
 API .       490251110400:   API NUMBER
~CURVE INFORMATION
#MNEM.UNIT       API CODE    CURVE DESCRIPTION
#----------   ------------   ------------------------------
 DEPT.F                  :   
 PORD.DEC    45 890 12 00:   DENSITY POROSITY SANDSTONE
 CNC .DEC    42 890 03 00:   NEUTRON POROSITY SANDSTONE
 DEN .G/C3   45 350 01 00:   COMPENSATED BULK DENSTIY
 CORR.G/C3   45 356 01 00:   DENSITY CORRECTION
 CALD.IN     45 280 60 00:   CALIPER FROM DENSITY LOG
 GRR .GAPI   07 310 01 00:   GAMMA RAY FROM RES. LOG.
 RFOC.OHMM   07 220 04 00:   RESISTIVITY FOCUSED LOG
 RILD.OHMM   07 120 46 00:   INDUCTION LOG DEEP RESISTIVITY
 RILM.OHMM   07 120 44 00:   INDUCTION LOG MEDIUM RESISTIVITY
 SPR .MV     07 010 01 00:   SPONTANEOUS POTENTIAL
~PARAMETER INFORMATION
#MNEM.UNIT          VALUE    DESCRIPTION
#----------   ------------   ------------------------------
 PD  .                 GL:   PERMANENT DATUM
 EPD .F              5074:   ELEVATION PERMANENT DATUM
 LMF .                 KB:   LOG MEASURED FROM
 DAPD.F                12:   FEET ABOVE PERMANENT DATUM
 DMF .                 KB:   DRILLING MEASURED FROM
 EKB .F              5086:   KELLING BUSHING
 EGL .F              5074:   GROUND LEVEL
 DATE.           10-19-86:   RUN DATE
 RUN .                  1:   RUN NUMBER
 DD  .F              3021:   DEPTH DRILLER
 DL  .F              3025:   DEPTH LOGGER
 BLI .F              3023:   BOTTOM LOG INTERVAL
 CS  .IN            8.625:   CASING SIZE
 CBD .F               620:   CASING BOTTOM DRILLER
 CBL .F               615:   CASING BOTTOM LOGGER
 BS  .IN            7.875:   BIT SIZE
 BSD .F              3021:   BIT SIZE AT DEPTH
 DFT .        KCL POLYMER:   DRILLING FLUID TYPE
 DFD .                8.9:   DRILLING FLUID DENSITY
 DFV .                 38:   DRILLING FLUID VISCOSITY
 DFPH.                9.5:   DRILLING FLUID PH
 DFL .               11.2:   DRILLING FLUID LOSS
 MSS .           FLOWLINE:   MUD SAMPLE SOURCE
 RMS .OHMM            .25:   RESISTIVITY MUD SAMPLE
 MST .F                65:   MUD SAMPLE TEMPERATURE
 RMF .OHMM           .203:   RESISTIVITY MUD FILTRATE SAMPLE
 MFST.F                65:   MUD FILTRATE SAMPLE TEMPERATURE
 RMC .OHMM            .31:   RESISTIVITY MUD CAKE
 MCST.F                65:   MUD CAKE SAMPLE TEMPERATURE
 MFSS.               MEAS:   MUD FILTRATE SAMPLE SOURCE
 MCSS.               CALC:   MUD CAKE SAMPLE SOURCE
 RMB .OHMM           .136:   RESISTIVITY MUD AT BHT
 BHT .F               119:   BOTTOM HOLE TEMPERATURE
 TCS .HRS               5:   TIME CURCULATED STOPPED
 MRT .F               119:   MAXIMUM RECORDED TEMPERATURE
 LUN .               6274:   LOGGING UNIT NUMBER
 LUL .               GLTE:   LOGGING UNIT LOCATION
 ENGI.             RAUTIO:   RECORDING ENGINEER
 WITN.             STRONG:   WITNESSED BY
 CLNT.            A2DTECH:   CLIENT CODE
 ORIG.       2", 5" PRINT:   ORIGIN OF DATA
 UWI .       490251110400:   UNIQUE WELL ID
 DICO. A2D Technologies, Inc.:   DIGITIZING COMPANY
~OTHER INFORMATION
~A    DEPT    PORD        CNC        DEN       CORR       CALD        GRR       RFOC       RILD       RILM        SPR   
# ...
 1574.5000  -999.2500  -999.2500  -999.2500  -999.2500  -999.2500   114.0969     7.1607     6.0445     5.9164   -82.3701
 1575.0000  -999.2500  -999.2500  -999.2500  -999.2500  -999.2500   112.4027     6.8146     6.0451     5.9080   -82.5194
 1575.5000  -999.2500  -999.2500  -999.2500  -999.2500  -999.2500   111.0117     6.8700     6.0472     5.8996   -82.6689
 1576.0000  -999.2500  -999.2500  -999.2500  -999.2500  -999.2500   114.3774     7.1036     6.0472     5.8913   -82.8019
 1576.5000  -999.2500  -999.2500  -999.2500  -999.2500  -999.2500   118.2668     7.4039     6.0424     5.8829   -82.8057
 1577.0000  -999.2500  -999.2500  -999.2500  -999.2500  -999.2500   117.7352     7.3249     6.0358     5.8745   -82.8197
 1577.5000  -999.2500  -999.2500  -999.2500  -999.2500  -999.2500   114.1018     7.1885     6.0291     5.8662   -82.6974
 1578.0000  -999.2500  -999.2500  -999.2500  -999.2500  -999.2500   110.4575     7.0548     6.0225     5.8579   -82.8920
 1578.5000  -999.2500  -999.2500  -999.2500  -999.2500  -999.2500   108.3123     6.9421     6.0159     5.8495   -83.0917
 1579.0000  -999.2500  -999.2500  -999.2500  -999.2500  -999.2500   109.1637     6.9421     6.0093     5.8412   -83.2934
 1579.5000  -999.2500  -999.2500  -999.2500  -999.2500  -999.2500   112.8925     7.2472     6.0027     5.8329   -83.4896
 1580.0000  -999.2500  -999.2500  -999.2500  -999.2500  -999.2500   116.6792     7.6863     5.9961     5.8223   -83.4071
 1580.5000  -999.2500  -999.2500  -999.2500  -999.2500  -999.2500   120.0443     7.3999     5.9821     5.7986   -83.0024
 1581.0000  -999.2500  -999.2500  -999.2500  -999.2500  -999.2500   116.8531     7.0192     5.9533     5.7752   -82.6168
 1581.5000  -999.2500  -999.2500  -999.2500  -999.2500  -999.2500   112.8175     6.8765     5.9290     5.7520   -82.6388
 1582.0000  -999.2500  -999.2500  -999.2500  -999.2500  -999.2500   111.6071     6.8785     5.9108     5.7289   -82.6785
 1582.5000  -999.2500  -999.2500  -999.2500  -999.2500  -999.2500   113.4124     6.8914     5.8926     5.7059   -82.7163
 1583.0000  -999.2500  -999.2500  -999.2500  -999.2500  -999.2500   114.2995     6.9829     5.8744     5.6830   -82.7534
 1583.5000  -999.2500  -999.2500  -999.2500  -999.2500  -999.2500   114.3477     7.0710     5.8563     5.6602   -82.7916
 1584.0000  -999.2500  -999.2500  -999.2500  -999.2500  -999.2500   113.2293     6.9911     5.8383     5.6374   -82.7737
 1584.5000  -999.2500  -999.2500  -999.2500  -999.2500  -999.2500   111.9731     6.8729     5.8203     5.6148   -82.7309
 1585.0000  -999.2500  -999.2500  -999.2500  -999.2500  -999.2500   112.5369     6.7567     5.8024     5.5922   -82.6870
 1585.5000  -999.2500  -999.2500  -999.2500  -999.2500  -999.2500   116.1407     6.6912     5.7845     5.5697   -82.6421
 1586.0000  -999.2500  -999.2500  -999.2500  -999.2500  -999.2500   118.7311     6.6912     5.7753     5.5474   -82.6060
 1586.5000  -999.2500  -999.2500  -999.2500  -999.2500  -999.2500   118.6837     6.6912     5.7752     5.5253   -82.9073
 1587.0000  -999.2500  -999.2500  -999.2500  -999.2500  -999.2500   119.1409     6.6912     5.7752     5.5153   -83.2451
 1587.5000  -999.2500  -999.2500  -999.2500  -999.2500  -999.2500   121.8212     6.6912     5.7774     5.5156   -83.5823
 1588.0000  -999.2500  -999.2500  -999.2500  -999.2500  -999.2500   124.5081     6.6911     5.7881     5.5156   -83.9196
 1588.5000  -999.2500  -999.2500  -999.2500  -999.2500  -999.2500   123.2749     6.6904     5.7984     5.5808   -84.2577
 1589.0000  -999.2500  -999.2500  -999.2500  -999.2500  -999.2500   118.8637     6.6887     5.8088     5.6410   -84.5857
 1589.5000  -999.2500  -999.2500  -999.2500  -999.2500  -999.2500   114.5313     6.7622     5.8192     5.7223   -84.3770
 1590.0000  -999.2500  -999.2500  -999.2500  -999.2500  -999.2500   113.1005     6.8785     5.8282     5.6961   -84.0302
 1590.5000  -999.2500  -999.2500  -999.2500  -999.2500  -999.2500   112.1643     6.9968     5.8169     5.6569   -83.6815
 1591.0000  -999.2500  -999.2500  -999.2500  -999.2500  -999.2500   111.2249     7.0710     5.8064     5.6180   -83.3330
 1591.5000  -999.2500  -999.2500  -999.2500  -999.2500  -999.2500   110.3504     6.9535     5.7958     5.5794   -82.9841
 1592.0000  -999.2500  -999.2500  -999.2500  -999.2500  -999.2500   110.2823     6.8110     5.7853     5.5410   -82.6412
 1592.5000  -999.2500  -999.2500  -999.2500  -999.2500  -999.2500   112.8611     6.6715     5.7747     5.5029   -82.4518
 1593.0000  -999.2500  -999.2500  -999.2500  -999.2500  -999.2500   116.3667     6.5348     5.7642     5.4650   -82.6107
 1593.5000  -999.2500  -999.2500  -999.2500  -999.2500  -999.2500   119.9499     6.5090     5.7537     5.4650   -82.7633
 1594.0000  -999.2500  -999.2500  -999.2500  -999.2500  -999.2500   120.0527     6.6223     5.7432     5.4650   -82.9172
 1594.5000  -999.2500  -999.2500  -999.2500  -999.2500  -999.2500   118.5775     6.7028     5.7327     5.4987   -83.0708
 1595.0000  -999.2500  -999.2500  -999.2500  -999.2500  -999.2500   117.1406     6.7842     5.7219     5.5461   -83.2246
 1595.5000  -999.2500  -999.2500  -999.2500  -999.2500  -999.2500   118.0032     6.8666     5.7752     5.5939   -83.3788
 1596.0000  -999.2500  -999.2500  -999.2500  -999.2500  -999.2500   122.5417     6.9421     5.8412     5.6422   -83.4001
 1596.5000  -999.2500  -999.2500  -999.2500  -999.2500  -999.2500   123.8210     6.9421     5.9080     5.6908   -83.3999
 1597.0000  -999.2500  -999.2500  -999.2500  -999.2500  -999.2500   121.3820     7.0710     5.9756     5.7399   -83.3996
 1597.5000  -999.2500  -999.2500  -999.2500  -999.2500  -999.2500   118.9239     7.2439     6.0439     5.7895   -83.3996
 1598.0000  -999.2500  -999.2500  -999.2500  -999.2500  -999.2500   116.5976     7.3361     6.1129     5.8392   -83.3998
 1598.5000  -999.2500  -999.2500  -999.2500  -999.2500  -999.2500   116.3552     7.2504     6.1594     5.8830   -83.4014
 1599.0000  -999.2500  -999.2500  -999.2500  -999.2500  -999.2500   119.3544     7.2023     6.1484     5.8715   -83.3922
 1599.5000  -999.2500  -999.2500  -999.2500  -999.2500  -999.2500   122.6014     7.2023     6.1292     5.8601   -83.1282
 1600.0000  -999.2500  -999.2500  -999.2500  -999.2500  -999.2500   122.2194     7.2023     6.1100     5.8487   -82.8531
 1600.5000  -999.2500  -999.2500  -999.2500  -999.2500  -999.2500   120.6352     7.1027     6.0909     5.8373   -82.5829
 1601.0000  -999.2500  -999.2500  -999.2500  -999.2500  -999.2500   120.6225     7.0130     6.0718     5.8259   -82.4178
 1601.5000  -999.2500  -999.2500  -999.2500  -999.2500  -999.2500   122.8681     6.9421     6.0528     5.8145   -82.4619
 1602.0000  -999.2500  -999.2500  -999.2500  -999.2500  -999.2500   125.6973     6.9421     6.0339     5.8031   -82.5025
 1602.5000  -999.2500  -999.2500  -999.2500  -999.2500  -999.2500   126.1899     6.9421     6.0150     5.7918   -82.5439
 1603.0000  -999.2500  -999.2500  -999.2500  -999.2500  -999.2500   124.2355     6.9421     5.9962     5.7807   -82.5856
 1603.5000  -999.2500  -999.2500  -999.2500  -999.2500  -999.2500   122.3578     6.9421     5.9774     5.7752   -82.6026
 1604.0000  -999.2500  -999.2500  -999.2500  -999.2500  -999.2500   122.1828     6.9421     5.9587     5.7750   -82.5195
 1604.5000  -999.2500  -999.2500  -999.2500  -999.2500  -999.2500   119.5103     6.9420     5.9399     5.7930   -82.4293
 1605.0000  -999.2500  -999.2500  -999.2500  -999.2500  -999.2500   116.7128     6.9420     5.9373     5.8155   -82.3399
 1605.5000  -999.2500  -999.2500  -999.2500  -999.2500  -999.2500   114.6689     6.9421     5.9364     5.8380   -82.2502
 1606.0000  -999.2500  -999.2500  -999.2500  -999.2500  -999.2500   116.4071     7.0140     5.9774     5.8606   -82.3336
 1606.5000  -999.2500  -999.2500  -999.2500  -999.2500  -999.2500   119.6964     7.0946     6.0092     5.8833   -82.5777
 1607.0000  -999.2500  -999.2500  -999.2500  -999.2500  -999.2500   123.0114     7.1762     6.0411     5.9060   -82.8231
 1607.5000  -999.2500  -999.2500  -999.2500  -999.2500  -999.2500   124.2643     7.2588     6.1030     5.9289   -83.0677
