~VERSION INFORMATION
 VERS.                2.0:   CWLS LOG ASCII STANDARD - VERSION 2.0
 WRAP.                 NO:   ONE LINE PER DEPTH STEP
~WELL INFORMATION
#MNEM.UNIT      DATA TYPE    INFORMATION
#----------   ------------   ------------------------------
 STRT.F           66.0000:   START DEPTH
 STOP.F          892.0000:   STOP DEPTH
 STEP.F            0.5000:   STEP LENGTH
 NULL.          -999.2500:   NO VALUE
 COMP. LAWRENCE/ALLISON INC:   COMPANY
 WELL. NPR #3 #31-11 SX 2:   WELL
 FLD .             TEAPOT:   FIELD
 LOC .       S2 T38N R78W:   LOCATION
 CNTY.            NATRONA:   COUNTY
 STAT.            WYOMING:   STATE
 CTRY. UNITED STATES OF AMERICA:   COUNTRY
 SRVC.      Dresser Atlas:   SERVICE COMPANY
 DATE.        10-AUG-1985:   LOGDATE
 API .       490251103900:   API NUMBER
~CURVE INFORMATION
#MNEM.UNIT       API CODE    CURVE DESCRIPTION
#----------   ------------   ------------------------------
 DEPT.F                  :   
 PORD.DEC    45 890 12 00:   POROSITY DENSITY SANDSTONE
 CNC .DEC    42 890 03 00:   NEUTRON POROSITY SANDSTONE
 CORR.G/C3   45 356 01 00:   DENSITY CORRECTION
 DEN .G/C3   45 350 01 00:   COMPENSATED BULK DENSTIY
 CALD.IN     45 280 60 00:   CALIPER FROM DENSITY LOG
 SPR .MV     07 010 01 00:   SPONTANEOUS POTENTIAL
 RILD.OHMM   07 120 46 00:   INDUCTION LOG DEEP RESISTIVITY
 RILM.OHMM   07 120 44 00:   INDUCTION LOG MEDIUM RESISTIVITY
 RFOC.OHMM   07 220 04 00:   RESISTIVITY FOCUSED LOG
~PARAMETER INFORMATION
#MNEM.UNIT          VALUE    DESCRIPTION
#----------   ------------   ------------------------------
 PD  .                 GL:   PERMANENT DATUM
 EPD .F              5110:   ELEVATION PERMANENT DATUM
 LMF .                 GL:   LOG MEASURED FROM
 DMF .                 GL:   DRILLING MEASURED FROM
 EKB .F              5115:   KELLING BUSHING
 EGL .F              5110:   GROUND LEVEL
 DATE.        10-AUG-1985:   RUN DATE
 RUN .                  1:   RUN NUMBER
 DD  .F               899:   DEPTH DRILLER
 DL  .F               895:   DEPTH LOGGER
 BLI .F               892:   BOTTOM LOG INTERVAL
 CS  .IN            8.625:   CASING SIZE
 CBD .F                75:   CASING BOTTOM DRILLER
 CBL .F                78:   CASING BOTTOM LOGGER
 BS  .IN            7.875:   BIT SIZE
 BSD .F               899:   BIT SIZE AT DEPTH
 DFT .                KCL:   DRILLING FLUID TYPE
 MSS .           FLOWLINE:   MUD SAMPLE SOURCE
 RMS .OHMM            .21:   RESISTIVITY MUD SAMPLE
 MST .F                75:   MUD SAMPLE TEMPERATURE
 TCS .HRS            0200:   TIME CURCULATED STOPPED
 MRT .F               100:   MAXIMUM RECORDED TEMPERATURE
 LUN .               6274:   LOGGING UNIT NUMBER
 LUL .               GLTE:   LOGGING UNIT LOCATION
 ENGI.             RAUTIO:   RECORDING ENGINEER
 WITN.        LINDA FIVAS:   WITNESSED BY
 CLNT.            A2DTECH:   CLIENT CODE
 ORIG.           5" PRINT:   ORIGIN OF DATA
 UWI .       490251103900:   UNIQUE WELL ID
 DICO. A2D Technologies, Inc.:   DIGITIZING COMPANY
~OTHER INFORMATION
~A   DEPT     PORD        CNC       CORR        DEN       CALD        SPR       RILD       RILM       RFOC   
# ...
  102.5000     0.1910     0.3247     0.0291     2.3573     8.0679   -45.1057     5.2256     5.1424     5.0571
  103.0000     0.1928     0.3235     0.0306     2.3565     8.0676   -44.3548     5.1533     5.1416     4.9872
  103.5000     0.1925     0.3231     0.0441     2.3625     8.0674   -44.2068     5.0758     5.1021     4.9872
  104.0000     0.1891     0.3208     0.0531     2.3708     8.0671   -44.2123     5.1175     5.1435     5.0220
  104.5000     0.1830     0.3186     0.0394     2.3888     8.0516   -44.2167     5.4110     5.4010     5.3841
  105.0000     0.1716     0.3205     0.0258     2.3978     8.0513   -44.2211     5.7614     5.8316     5.7723
  105.5000     0.1683     0.3280     0.0122     2.4001     8.0510   -44.3768     6.0496     6.2093     5.9767
  106.0000     0.1665     0.3449     0.0046     2.3969     8.0507   -44.3813     6.3522     6.5201     6.2317
  106.5000     0.1686     0.3482     0.0029     2.3962     8.0504   -44.5371     6.6235     6.7048     6.5429
  107.0000     0.1692     0.3379    -0.0016     2.3970     8.0502   -44.9963     6.8115     6.8948     6.7746
  107.5000     0.1688     0.3265    -0.0032     2.3954     8.0498   -45.1520     6.9679     7.0984     7.0187
  108.0000     0.1685     0.3189    -0.0047     2.3841     8.0495   -45.3077     7.2519     7.3420     7.2631
  108.5000     0.1734     0.3153     0.0103     2.3705     8.0492   -46.0686     7.5092     7.2916     7.1627
  109.0000     0.1818     0.3153     0.0525     2.3698     8.0503   -46.6782     7.0525     7.0916     6.8696
  109.5000     0.1854     0.3174     0.0615     2.3765     8.0637   -47.2877     6.7635     6.8018     6.5886
  110.0000     0.1821     0.3258     0.0463     2.3871     8.0634   -47.8973     6.4414     6.4335     6.3632
  110.5000     0.1781     0.3403     0.0357     2.3825     8.0631   -48.5068     6.1345     6.1277     6.0185
  111.0000     0.1736     0.3590     0.0296     2.3697     8.0628   -48.5113     5.8832     5.8772     5.8126
  111.5000     0.1778     0.3605     0.0250     2.3682     8.0625   -48.5168     5.7177     5.7154     5.6530
  112.0000     0.1854     0.3608     0.0249     2.3794     8.0774   -48.2175     5.5640     5.5542     5.5310
  112.5000     0.1848     0.3617     0.0324     2.3967     8.0770   -47.9205     5.4870     5.4070     5.3841
  113.0000     0.1796     0.3734     0.0233     2.4185     8.0767   -47.9249     5.4489     5.3697     5.4596
  113.5000     0.1702     0.3575     0.0112     2.4268     8.0764   -47.7769     5.4870     5.4077     5.7723
  114.0000     0.1557     0.3294     0.0036     2.4199     8.0761   -47.6300     5.5254     5.4840     6.1455
  114.5000     0.1515     0.3185     0.0201     2.4117     8.0758   -47.4841     5.6816     5.6002     6.5429
  115.0000     0.1575     0.3294     0.0698     2.4064     8.0755   -47.3374     5.8017     5.7991     6.4975
  115.5000     0.1615     0.3580     0.0773     2.4064     8.0752   -47.3419     5.8854     5.8400     6.0185
  116.0000     0.1627     0.3723     0.0742     2.4071     8.0598   -47.3473     5.7948     5.7170     5.7270
  116.5000     0.1626     0.3668     0.0636     2.4071     8.0595   -47.5030     5.4870     5.5243     5.4217
  117.0000     0.1620     0.3496     0.0440     2.4047     8.0592   -47.9613     5.4110     5.3355     5.3467
  117.5000     0.1611     0.3435     0.0240     2.3980     8.0589   -48.2683     5.6422     5.5637     5.5748
  118.0000     0.1641     0.3444     0.0031     2.3882     8.0435   -47.3650     5.6030     5.6815     5.8941
  118.5000     0.1686     0.3462     0.0046     2.3822     8.0432   -46.7632     5.2622     5.2996     5.7723
  119.0000     0.1741     0.3471     0.0090     2.3776     8.0428   -47.3738     4.9421     4.9089     5.5361
  119.5000     0.1774     0.3471     0.0210     2.3791     8.0275   -47.9834     4.9078     4.8413     5.3467
  120.0000     0.1804     0.3468     0.0330     2.3858     8.0121   -47.9879     4.9421     4.9096     5.2362
  120.5000     0.1783     0.3465     0.0345     2.3964     8.0118   -47.9657     5.0466     4.9829     5.1999
  121.0000     0.1736     0.3788     0.0254     2.4016     8.0115   -47.5428     5.1893     5.1557     5.4977
  121.5000     0.1683     0.4117     0.0132     2.3941     8.0112   -47.3959     5.2622     5.2284     5.7336
  122.0000     0.1668     0.4153     0.0102     2.3903     8.0108   -47.4015     5.1175     5.0851     5.8996
  122.5000     0.1719     0.4002     0.0207     2.3888     8.0126   -47.4059     4.9767     4.9456     5.9353
  123.0000     0.1728     0.3963     0.0283     2.3955     8.0254   -47.2579     4.9078     4.8775     5.8532
  123.5000     0.1716     0.3944     0.0371     2.4038     8.0251   -47.1120     5.0466     5.0861     5.6925
  124.0000     0.1679     0.3878     0.0446     2.4203     8.0248   -47.1166     5.1893     5.1939     5.4596
  124.5000     0.1562     0.3926     0.0491     2.4240     8.0244   -47.2723     5.2256     5.2671     5.2728
  125.0000     0.1522     0.3995     0.0370     2.4165     8.0393   -47.4281     5.2622     5.2675     5.1638
  125.5000     0.1552     0.3965     0.0248     2.4059     8.0390   -47.5848     5.1533     5.2313     5.0571
  126.0000     0.1610     0.3295     0.0142     2.3984     8.0387   -48.3456     5.0115     5.1593     5.0220
  126.5000     0.1673     0.3069     0.0156     2.3953     8.0383   -49.2577     4.8737     4.9484     5.2728
  127.0000     0.1685     0.3223     0.0171     2.3938     8.0380   -49.5647     5.0466     4.9834     5.4596
  127.5000     0.1688     0.3374     0.0155     2.3960     8.0377   -49.1153     5.1893     5.1604     5.6530
  128.0000     0.1697     0.3624     0.0064     2.3898     8.0374   -48.5146     5.1893     5.2380     5.7322
  128.5000     0.1736     0.3733    -0.0061     2.3794     8.0371   -48.2164     5.1113     5.1611     5.8126
  129.0000     0.1805     0.3693    -0.0148     2.3711     8.0368   -48.2208     5.0115     5.0900     5.8532
  129.5000     0.1893     0.3705     0.0077     2.3606     8.0365   -48.0740     4.9078     4.9504     5.6925
  130.0000     0.1965     0.3787     0.0198     2.3493     8.0363   -48.0795     4.8062     4.7814     5.4596
  130.5000     0.1959     0.4046     0.0016     2.3493     8.0359   -47.9326     4.7067     4.6828     5.1555
  131.0000     0.1920     0.4077    -0.0090     2.3509     8.0356   -47.9370     4.5773     4.5862     4.7500
  131.5000     0.1886     0.3877    -0.0046     2.3552     8.0353   -47.7891     4.5139     4.4917     4.5875
  132.0000     0.1898     0.3319     0.0014     2.3612     8.0502   -47.7946     4.4200     4.4298     4.6843
  132.5000     0.1919     0.3304     0.0029     2.3605     8.0498   -47.6466     4.3552     4.4301     4.7170
  133.0000     0.1925     0.3322    -0.0002     2.3589     8.0495   -47.8034     4.2690     4.3681     4.7832
  133.5000     0.1919     0.3340     0.0012     2.3567     8.0492   -47.8079     4.2393     4.2493     4.9182
  134.0000     0.1891     0.3328     0.0076     2.3574     8.0489   -47.8124     4.2690     4.4311     4.9182
  134.5000     0.1844     0.3306     0.0192     2.3626     8.0486   -47.8178     4.3897     4.5885     4.9182
  135.0000     0.1783     0.3273     0.0252     2.3716     8.0635   -47.6698     4.4514     4.7515     4.8166
  135.5000     0.1723     0.3309     0.0297     2.3836     8.0631   -47.6753     4.4514     4.8522     4.8841
  136.0000     0.1695     0.3340     0.0311     2.3927     8.0780   -47.5273     4.4514     4.7853     4.9872
  136.5000     0.1686     0.3309     0.0218     2.3980     8.0776   -47.6841     4.4514     4.6218     5.0924
  137.0000     0.1701     0.3267    -0.0082     2.3971     8.0773   -47.6886     4.4514     4.4951     5.1638
  137.5000     0.1729     0.3225    -0.0008     2.3948     8.0770   -47.8443     4.5455     4.4954     5.1280
  138.0000     0.1725     0.3247     0.0128     2.3933     8.0767   -47.8487     4.5455     4.4645     5.0571
  138.5000     0.1728     0.3391     0.0157     2.3925     8.0764   -47.8533     4.5773     4.5275     5.0220
