~VERSION INFORMATION
 VERS.                2.0:   CWLS LOG ASCII STANDARD - VERSION 2.0
 WRAP.                 NO:   ONE LINE PER DEPTH STEP
~WELL INFORMATION
#MNEM.UNIT      DATA TYPE    INFORMATION
#----------   ------------   ------------------------------
 STRT.F           34.0000:   START DEPTH
 STOP.F          496.0000:   STOP DEPTH
 STEP.F            0.5000:   STEP LENGTH
 NULL.          -999.2500:   NO VALUE
 COMP. LAWRENCE/ALLISON INC:   COMPANY
 WELL.   55-55 SX FI #3-3:   WELL
 FLD .             TEAPOT:   FIELD
 LOC .       S3 T38N R78W:   LOCATION
 CNTY.            NATRONA:   COUNTY
 STAT.            WYOMING:   STATE
 CTRY. UNITED STATES OF AMERICA:   COUNTRY
 SRVC.       Schlumberger:   SERVICE COMPANY
 DATE.        18-JUL-1982:   LOGDATE
 API .       490251089500:   API NUMBER
~CURVE INFORMATION
#MNEM.UNIT       API CODE    CURVE DESCRIPTION
#----------   ------------   ------------------------------
 DEPT.F                  :   
 CALD.IN     45 280 60 00:   CALIPER FROM DENSITY LOG
 GRD .GAPI   45 310 01 00:   GAMMA RAY FROM DENSITY LOG
 CORR.G/C3   45 356 01 00:   DENSITY CORRECTION
 RHOB.G/C3   45 350 01 00:   BULK DENSITY
 DPHI.DEC    45 890 12 00:   DENSITY POROSITY SANDSTONE
 SPR .MV     07 010 01 00:   SPONTANEOUS POTENTIAL
 ILD .OHMM   07 120 46 00:   INDUCTION LOG DEEP
 ILM .OHMM   07 120 44 00:   INDUCTION LOG MEDIUM
 SFL .OHMM   07 220 01 00:   SHALLOW FOCUSED LOG RESISTIVITY
~PARAMETER INFORMATION
#MNEM.UNIT          VALUE    DESCRIPTION
#----------   ------------   ------------------------------
 PD  .                 GL:   PERMANENT DATUM
 EPD .F              5167:   ELEVATION PERMANENT DATUM
 LMF .                 KB:   LOG MEASURED FROM
 DAPD.F                 9:   FEET ABOVE PERMANENT DATUM
 DMF .                 KB:   DRILLING MEASURED FROM
 EKB .F              5176:   KELLING BUSHING
 EDF .F                  :   DRILLING FLOOR
 EGL .F              5167:   GROUND LEVEL
 DATE.        18-JUL-1982:   RUN DATE
 RUN .                  1:   RUN NUMBER
 DD  .F               500:   DEPTH DRILLER
 DL  .F               499:   DEPTH LOGGER
 BLI .F               436:   BOTTOM LOG INTERVAL
 TLI .F                50:   TOP LOG INTERVAL
 CS  .IN           13.375:   CASING SIZE
 CBD .F                50:   CASING BOTTOM DRILLER
 CBL .F                50:   CASING BOTTOM LOGGER
 BS  .IN            12.25:   BIT SIZE
 BSD .F               500:   BIT SIZE AT DEPTH
 DFT .         KCL FILLED:   DRILLING FLUID TYPE
 DFD .                   :   DRILLING FLUID DENSITY
 DFV .                   :   DRILLING FLUID VISCOSITY
 DFPH.                   :   DRILLING FLUID PH
 DFL .                   :   DRILLING FLUID LOSS
 MSS .           WELLHEAD:   MUD SAMPLE SOURCE
 RMS .OHMM           2.82:   RESISTIVITY MUD SAMPLE
 MST .F                80:   MUD SAMPLE TEMPERATURE
 RMF .OHMM               :   RESISTIVITY MUD FILTRATE SAMPLE
 MFST.F                  :   MUD FILTRATE SAMPLE TEMPERATURE
 RMC .OHMM               :   RESISTIVITY MUD CAKE
 MCST.F                  :   MUD CAKE SAMPLE TEMPERATURE
 MFSS.                   :   MUD FILTRATE SAMPLE SOURCE
 MCSS.                   :   MUD CAKE SAMPLE SOURCE
 RMB .OHMM           2.62:   RESISTIVITY MUD AT BHT
 BHT .F                86:   BOTTOM HOLE TEMPERATURE
 TCS .HRS            1530:   TIME CURCULATED STOPPED
 TLAB.HRS            1800:   TIME LOGGER AT BOTTOM
 MRT .F                86:   MAXIMUM RECORDED TEMPERATURE
 LUN .               8035:   LOGGING UNIT NUMBER
 LUL .             CASPER:   LOGGING UNIT LOCATION
 ENGI.              PENNY:   RECORDING ENGINEER
 WITN.             TAYLOR:   WITNESSED BY
 CLNT.            A2DTECH:   CLIENT CODE
 ORIG.           5" PRINT:   ORIGIN OF DATA
 UWI .       490251089500:   UNIQUE WELL ID
 DICO. A2D Technologies, Inc.:   DIGITIZING COMPANY
 OS  .                   :   OTHER SERVICES
 PWI .                   :   PRIMARY WELL IDENTIFIER
 R1  . POROSITY WITH SANDSTONE:   REMARKS 1
 R2  .                   :   REMARKS 2
 LSRV.                   :   LOG MNEMONIC
~OTHER INFORMATION
~A   DEPT     CALD         GRD      CORR       RHOB       DPHI        SPR        ILD        ILM        SFL   
# ...
  216.5000    12.3861    77.4455     0.0053     2.4227     0.1553   -51.8889     4.7699     4.5760     4.6287
  217.0000    12.4004    79.4643     0.0015     2.4295     0.1486   -52.0501     4.8349     4.6372     4.7896
  217.5000    12.3991    81.9342    -0.0047     2.4218     0.1523   -52.2090     4.9681     4.7647     5.0953
  218.0000    12.4133    86.6597    -0.0078     2.4103     0.1606   -52.3702     5.1055     4.9639     5.5726
  218.5000    12.4120    90.0318    -0.0071     2.4125     0.1557   -52.3821     5.3199     5.2074     5.8468
  219.0000    12.4109    92.0506    -0.0026     2.4254     0.1463   -52.3940     5.5818     5.5007     5.9669
  219.5000    12.4099    91.8137     0.0011     2.4429     0.1387   -52.4060     5.8566     5.8106     6.1744
  220.0000    12.3938    91.1257     0.0071     2.4596     0.1314   -52.4179     6.1450     6.0535     6.5684
  220.5000    12.3927    90.6633     0.0070     2.4595     0.1305   -52.4299     6.3149     6.2632     6.9876
  221.0000    12.3766    89.7497     0.0039     2.4556     0.1336   -52.1430     6.4896     6.4801     7.2808
  221.5000    12.3455    89.0618     0.0008     2.4540     0.1339   -52.0057     6.6691     6.6582     7.5340
  222.0000    12.3445    88.8249    -0.0015     2.4555     0.1337   -51.8684     6.7133     6.7017     7.4790
  222.5000    12.3434    89.0420    -0.0023     2.4531     0.1349   -51.8806     6.7098     6.6970     7.4758
  223.0000    12.3423    89.7074     0.0007     2.4439     0.1416   -52.0497     6.7070     6.6933     7.3700
  223.5000    12.3265    88.8417     0.0051     2.4256     0.1502   -52.2030     6.6579     6.6896     7.2657
  224.0000    12.2953    86.2165     0.0088     2.4141     0.1588   -52.3642     6.6557     6.6859     7.0644
  224.5000    12.2792    84.6707     0.0111     2.4163     0.1564   -52.3761     6.5615     6.5903     6.7743
  225.0000    12.2782    84.2481     0.0110     2.4208     0.1527   -52.2388     6.5135     6.4961     6.5412
  225.5000    12.2771    84.2369     0.0101     2.4261     0.1503   -52.1015     6.4658     6.4033     6.3600
  226.0000    12.2611    84.7429     0.0109     2.4306     0.1482   -51.9642     6.3244     6.2250     6.2267
  226.5000    12.2600    86.0496     0.0123     2.4328     0.1470   -51.6777     6.1498     6.0517     6.0963
  227.0000    12.2270    88.1234     0.0152     2.4319     0.1483   -51.6897     5.9346     5.8427     5.9685
  227.5000    12.2110    90.5601     0.0212     2.4258     0.1517   -51.7017     5.6528     5.6408     5.8032
  228.0000    12.2118    94.0002     0.0333     2.4173     0.1569   -51.7137     5.3471     5.4460     5.5265
  228.5000    12.2107    94.5454     0.0453     2.4036     0.1639   -51.7257     5.0214     5.1498     5.1906
  229.0000    12.2096    88.0430     0.0529     2.3883     0.1731   -51.7376     4.6872     4.9036     4.7421
  229.5000    12.2398    83.1753     0.0543     2.3684     0.1859   -51.7496     4.5583     4.7342     4.4232
  230.0000    12.2526    81.2032     0.0217     2.3493     0.1970   -51.9108     4.5564     4.7644     4.1833
  230.5000    12.2666    82.1195     0.0004     2.3576     0.1906   -52.0721     4.6180     4.8617     4.1531
  231.0000    12.2656    83.9185    -0.0004     2.3895     0.1708   -52.2333     4.7458     4.9954     4.4177
  231.5000    12.2946    87.0586     0.0108     2.4153     0.1559   -52.2453     5.0140     5.1683     5.0364
  232.0000    12.3090    89.5156     0.0191     2.4252     0.1486   -52.2573     5.3342     5.4595     5.8621
  232.5000    12.3376    92.6617     0.0236     2.4289     0.1492   -52.1194     5.6357     5.8071     6.5006
  233.0000    12.3666    95.5742     0.0288     2.4273     0.1499   -51.9827     5.9957     6.2197     7.0118
  233.5000    12.3806    98.7180     0.0257     2.4265     0.1508   -51.8425     6.2908     6.5248     7.2056
  234.0000    12.3795    97.8045     0.0211     2.4241     0.1509   -51.7052     6.7259     6.7976     7.3030
  234.5000    12.3635    93.5075     0.0173     2.4218     0.1512   -51.5679     7.0711     7.0330     7.4017
  235.0000    12.3323    90.5638     0.0134     2.4209     0.1540   -51.5829     7.1668     7.2264     7.3986
  235.5000    12.3162    91.4548     0.0103     2.4209     0.1534   -51.7441     7.2637     7.3230     7.3955
  236.0000    12.3001    91.8946     0.0201     2.4383     0.1437   -51.7561     7.3619     7.3708     7.3924
  236.5000    12.2540    92.7855     0.0321     2.4542     0.1330   -51.9173     7.4615     7.3657     7.4415
  237.0000    12.2529    94.1276     0.0442     2.4641     0.1285   -51.9293     7.5102     7.4137     7.4900
  237.5000    12.2519    95.0188     0.0472     2.4572     0.1331   -52.0905     7.5070     7.4086     7.5912
  238.0000    12.2658    95.0497     0.0387     2.4449     0.1450   -52.1025     7.4521     7.4045     7.6400
  238.5000    12.2799    93.4170     0.0288     2.4327     0.1456   -52.1145     7.3976     7.4004     7.6368
  239.0000    12.2938    92.7290     0.0227     2.4372     0.1438   -52.1265     7.3435     7.3452     7.5810
  239.5000    12.3078    93.1688     0.0257     2.4455     0.1378   -52.1385     7.3396     7.2403     7.5778
  240.0000    12.3368    94.7365     0.0233     2.4561     0.1329   -52.2997     7.2365     7.2362     7.5225
  240.5000    12.3508    94.7904     0.0172     2.4674     0.1281   -52.3117     7.1339     7.1824     7.4675
  241.0000    12.3648    90.8793     0.0133     2.4597     0.1287   -52.3237     7.0329     7.0797     7.5162
  241.5000    12.3487    89.0634     0.0133     2.4490     0.1352   -52.4849     6.9333     6.9785     7.5653
  242.0000    12.3627    88.7880     0.0170     2.4390     0.1428   -52.4969     6.8350     6.8788     7.5621
  242.5000    12.3616    89.2669     0.0253     2.4390     0.1429   -52.5089     6.7382     6.7812     7.6123
  243.0000    12.3606    90.1573     0.0366     2.4412     0.1423   -52.5208     6.6428     6.6757     7.5558
  243.5000    12.3595    91.0483     0.0577     2.4434     0.1411   -52.6821     6.5487     6.5809     7.2958
  244.0000    12.3584    92.3904     0.0758     2.4349     0.1478   -52.6941     6.4559     6.4499     6.9001
  244.5000    12.3123    94.6347     0.0712     2.4014     0.1649   -52.5538     6.4087     6.4018     6.3917
  245.0000    12.2511    94.3978     0.0363     2.3982     0.1678   -52.1210     6.3618     6.3542     6.0869
  245.5000    12.2049    93.0331     0.0612     2.4233     0.1519   -51.6852     6.4034     6.3506     6.2120
  246.0000    12.2189    92.7963     0.1195     2.4507     0.1324   -51.2464     6.4006     6.3034     6.4280
  246.5000    12.2331    93.9128     0.1505     2.4559     0.1379   -50.9599     6.3980     6.2999     6.6978
  247.0000    12.2920    94.5782     0.1519     2.4376     0.1538   -51.1241     6.3512     6.2964     6.9314
  247.5000    12.3661    94.7953     0.1276     2.3819     0.1739   -51.2854     6.3485     6.2466     6.6002
  248.0000    12.4553    92.7511     0.0919     2.3582     0.1920   -51.4436     6.2586     6.1579     6.1991
  248.5000    12.6347    87.3262     0.0593     2.3627     0.1871   -51.3063     6.1274     6.0286     5.6635
  249.0000    12.7091    84.1570     0.0539     2.3749     0.1771   -51.1691     5.9164     5.8199     5.3193
  249.5000    12.7077    81.2134     0.0470     2.3915     0.1689   -51.1840     5.6732     5.5816     5.4663
  250.0000    12.6465    80.0771     0.0242     2.3877     0.1738   -51.0438     5.3400     5.3152     5.7650
  250.5000    12.5241    87.4995     0.0090     2.3502     0.1976   -50.9074     4.9339     4.9414     6.4483
  251.0000    12.4016    91.7673    -0.0010     2.3403     0.2007   -50.4716     4.8291     4.8184     5.4197
  251.5000    12.3226    93.5540    -0.0056     2.3478     0.1931   -50.1850     4.8258     4.9152     4.8153
  252.0000    12.2791    95.5662    -0.0012     2.4056     0.1636   -50.0476     4.9579     5.0497     4.5854
  252.5000    12.2774    96.0263     0.0025     2.4215     0.1524   -50.0597     5.2367     5.2239     5.0132
