~VERSION INFORMATION
 VERS.                2.0:   CWLS LOG ASCII STANDARD - VERSION 2.0
 WRAP.                 NO:   ONE LINE PER DEPTH STEP
~WELL INFORMATION
#MNEM.UNIT      DATA TYPE    INFORMATION
#----------   ------------   ------------------------------
 STRT.F           16.0000:   START DEPTH
 STOP.F          661.0000:   STOP DEPTH
 STEP.F            0.5000:   STEP LENGTH
 NULL.          -999.2500:   NO VALUE
 COMP. FENIX & SCISSON INC:   COMPANY
 WELL.  26-66 SX 11 #I-11:   WELL
 FLD .             TEAPOT:   FIELD
 LOC .      S11 T38N R78W:   LOCATION
 CNTY.            NATRONA:   COUNTY
 STAT.            WYOMING:   STATE
 CTRY. UNITED STATES OF AMERICA:   COUNTRY
 SRVC.      Dresser Atlas:   SERVICE COMPANY
 DATE.        22-JUL-1980:   LOGDATE
 API .       490251083200:   API NUMBER
~CURVE INFORMATION
#MNEM.UNIT       API CODE    CURVE DESCRIPTION
#----------   ------------   ------------------------------
 DEPT.F                  :   
 SFL .OHMM   07 220 01 00:   SHALLOW FOCUSED LOG RESISTIVITY
 ILD .OHMM   07 120 46 00:   INDUCTION LOG DEEP
 ILM .OHMM   07 120 44 00:   INDUCTION LOG MEDIUM
 SPR .MV     07 010 01 00:   SPONTANEOUS POTENTIAL
 CALD.IN     45 280 60 00:   CALIPER
 GRD .GAPI   45 310 01 00:   GAMMA RAY FROM DENSITY LOG
 RHOB.G/C3   45 350 01 00:   BULK DENSITY
 CORR.G/C3   45 356 01 00:   DENSITY CORRECTION
 DPHI.DEC    45 890 12 00:   DENSITY POROSITY SANDSTONE
 NPHI.DEC    42 890 03 00:   NEUTRON POROSITY SANDSTONE
~PARAMETER INFORMATION
#MNEM.UNIT          VALUE    DESCRIPTION
#----------   ------------   ------------------------------
 PD  .                 GL:   PERMANENT DATUM
 EPD .F              5193:   ELEVATION PERMANENT DATUM
 LMF .                 KB:   LOG MEASURED FROM
 DAPD.F                 5:   FEET ABOVE PERMANENT DATUM
 DMF .                 KB:   DRILLING MEASURED FROM
 EKB .F              5198:   KELLING BUSHING
 EDF .F              5196:   DRILLING FLOOR
 EGL .F              5193:   GROUND LEVEL
 DATE.            7-22-80:   RUN DATE
 RUN .                  1:   RUN NUMBER
 DD  .F               655:   DEPTH DRILLER
 DL  .F               655:   DEPTH LOGGER
 BLI .F               653:   BOTTOM LOG INTERVAL
 TLI .F                20:   TOP LOG INTERVAL
 BS  .IN            7.875:   BIT SIZE
 BSD .F               655:   BIT SIZE AT DEPTH
 DFT .                KCL:   DRILLING FLUID TYPE
 DFD .                9.1:   DRILLING FLUID DENSITY
 DFV .                 46:   DRILLING FLUID VISCOSITY
 DFPH.                 11:   DRILLING FLUID PH
 DFL .                  6:   DRILLING FLUID LOSS
 MSS .           FLOWLINE:   MUD SAMPLE SOURCE
 RMS .OHMM            .17:   RESISTIVITY MUD SAMPLE
 MST .F                75:   MUD SAMPLE TEMPERATURE
 RMF .OHMM            .13:   RESISTIVITY MUD FILTRATE SAMPLE
 MFST.F                75:   MUD FILTRATE SAMPLE TEMPERATURE
 RMC .OHMM            .26:   RESISTIVITY MUD CAKE
 MCST.F                75:   MUD CAKE SAMPLE TEMPERATURE
 MFSS.                  C:   MUD FILTRATE SAMPLE SOURCE
 MCSS.                  C:   MUD CAKE SAMPLE SOURCE
 TCS .HRS               1:   TIME CURCULATED STOPPED
 LUN .               6240:   LOGGING UNIT NUMBER
 LUL .               RVTN:   LOGGING UNIT LOCATION
 ENGI.   K. RALL/J. GETTY:   RECORDING ENGINEER
 WITN.            RHOADES:   WITNESSED BY
 CLNT.            A2DTECH:   CLIENT CODE
 ORIG.        2" 5" PRINT:   ORIGIN OF DATA
 UWI .       490251083200:   UNIQUE WELL ID
 DICO. A2D Technologies, Inc.:   DIGITIZING COMPANY
~OTHER INFORMATION
~A   DEPT      SFL        ILD        ILM        SPR       CALD        GRD       RHOB       CORR         DPHI     NPHI   
# ...
  451.5000     5.4296     5.0937     4.6455   -54.8950     8.0722   127.0308     2.4351     0.0158     0.1481     0.3297
  452.0000     4.5189     5.1118     4.7454   -54.7083     8.0778   129.1727     2.4105     0.0316     0.1584     0.3354
  452.5000     4.9243     5.1685     4.8566   -54.5209     8.0674   129.7472     2.4047     0.0472     0.1633     0.3182
  453.0000     5.6961     5.2258     4.9704   -54.3337     8.0620   129.9766     2.4455     0.0608     0.1392     0.3053
  453.5000     6.8486     5.2838     5.0869   -54.1466     8.0623   130.2238     2.4821     0.0515     0.1207     0.3145
  454.0000     6.8460     5.3831     5.2364   -53.9596     8.0624   129.3442     2.4766     0.0400     0.1233     0.3352
  454.5000     6.5344     5.7189     5.9235   -53.7727     8.0624   125.1574     2.4692     0.0304     0.1255     0.3435
  455.0000     6.8666     6.1732     6.6444   -53.5335     8.0624   120.2828     2.4692     0.0300     0.1259     0.3342
  455.5000     7.3365     6.6649     6.9844   -53.2209     8.0624   115.5749     2.4700     0.0267     0.1255     0.3134
  456.0000     7.8529     7.1870     7.3411   -52.6242     8.0624   115.9925     2.4754     0.0233     0.1218     0.2891
  456.5000     7.8529     7.5776     7.5719   -52.0304     8.0624   122.6467     2.4785     0.0228     0.1187     0.2887
  457.0000     7.8529     7.5760     7.5687   -51.4579     8.0610   124.4060     2.4716     0.0170     0.1240     0.2866
  457.5000     7.8915     7.6805     7.6037   -50.9252     8.0580   121.7706     2.4649     0.0087     0.1271     0.2841
  458.0000     7.9918     7.7520     7.6332   -50.7364     8.0550   114.8879     2.4714     0.0235     0.1159     0.2817
  458.5000     8.0729     7.8527     7.6389   -50.5351     8.0520   108.3206     2.5177     0.0410     0.0977     0.2948
  459.0000     8.0616     7.8434     7.7103   -50.5314     8.0490   108.4680     2.5227     0.0448     0.0944     0.3203
  459.5000     8.0430     7.8265     7.7809   -50.5949     8.0460   108.6584     2.5144     0.0383     0.0989     0.3383
  460.0000     8.0242     7.8099     7.7565   -50.6590     8.0429   109.9319     2.4964     0.0318     0.1117     0.3283
  460.5000     8.0060     7.7933     7.7266   -50.7377     8.0423   111.2480     2.4834     0.0287     0.1160     0.3066
  461.0000     7.9981     7.7804     7.7096   -50.8771     8.0422   111.3435     2.4873     0.0352     0.1065     0.2991
  461.5000     8.1048     7.8295     7.6990   -51.0127     8.0422   111.2724     2.5080     0.0480     0.0944     0.3044
  462.0000     8.1919     7.9082     7.6755   -51.1486     8.0422   113.1970     2.5297     0.0608     0.0822     0.3080
  462.5000     8.2230     7.9871     7.6518   -51.2850     8.0422   114.8397     2.5444     0.0737     0.0778     0.3044
  463.0000     8.1045     7.9989     7.6282   -51.4114     8.0422   114.5155     2.5474     0.0682     0.0813     0.3007
  463.5000     8.0446     7.8863     7.6047   -51.3603     8.0422   113.3402     2.5344     0.0569     0.0929     0.3043
  464.0000     7.9825     7.8098     7.5813   -51.3978     8.0422   111.9027     2.5155     0.0457     0.1045     0.3051
  464.5000     7.9207     7.7073     7.5688   -51.5275     8.0422   109.4491     2.4962     0.0362     0.1112     0.3006
  465.0000     7.8545     7.7044     7.5915   -51.6560     8.0422   109.2746     2.4945     0.0388     0.1088     0.2939
  465.5000     7.8445     7.8298     7.6294   -51.7846     8.0422   111.2032     2.4990     0.0435     0.1063     0.2915
  466.0000     8.2579     8.0297     7.8144   -51.9075     8.0422   113.2665     2.5038     0.0444     0.1036     0.2950
  466.5000     8.6495     8.2266     8.0840   -51.7713     8.0422   116.2502     2.5163     0.0422     0.0951     0.2971
  467.0000     8.7970     8.4296     8.3577   -51.6174     8.0422   119.4897     2.5291     0.0446     0.0868     0.2817
  467.5000     9.0141     8.5316     8.6179   -51.4636     8.0459   121.3628     2.5410     0.0446     0.0829     0.2841
  468.0000     9.2366     7.7903     7.7355   -51.3144     8.0510   119.3080     2.5234     0.0405     0.0980     0.2960
  468.5000     9.5286     6.7100     6.6543   -51.3459     8.0561   111.6638     2.5017     0.0327     0.1080     0.3014
  469.0000     9.2453     6.0678     5.7241   -51.3932     8.0613   109.7436     2.4943     0.0302     0.1126     0.3094
  469.5000     8.8722     5.8662     5.1334   -51.4397     8.0624   111.4251     2.4728     0.0242     0.1372     0.3058
  470.0000     7.4307     5.6988     5.1383   -51.4821     8.0624   116.4862     2.4249     0.0099     0.1643     0.2973
  470.5000     4.8281     5.5361     5.0872   -51.3106     8.0624   115.0780     2.3764     0.0219     0.1896     0.3141
  471.0000     3.9722     5.4329     5.3893   -50.8256     8.0624   113.0916     2.3649     0.0465     0.1845     0.3371
  471.5000     5.0879     5.5339     5.8735   -50.3457     8.0624   115.6400     2.3804     0.0538     0.1666     0.3489
  472.0000     6.5983     5.9942     6.4012   -49.8584     8.0624   120.5334     2.4224     0.0477     0.1372     0.3572
  472.5000     8.5572     6.5155     7.0030   -49.6712     8.0624   123.8583     2.4973     0.0530     0.1079     0.3418
  473.0000    10.0700     7.0963     7.5322   -49.5371     8.0624   121.5020     2.5367     0.0612     0.0809     0.3213
  473.5000     9.9909     7.7386     8.1061   -49.4100     8.0624   114.1160     2.5483     0.0669     0.0799     0.3057
  474.0000     9.8557     8.6117     8.7227   -49.2967     8.0624   110.1251     2.5447     0.0600     0.0841     0.2777
  474.5000     9.7224     9.5835     9.3866   -49.3018     8.0624   109.2591     2.5293     0.0493     0.0906     0.2585
  475.0000     9.5908     9.8862     9.5286   -49.0256     8.0624   113.3782     2.5214     0.0384     0.0949     0.2620
  475.5000     9.4610     9.8339     9.4413   -48.7235     8.0624   116.7800     2.5175     0.0351     0.0981     0.2740
  476.0000     9.3329     9.7691     9.4413   -48.4205     8.0624   116.5159     2.5227     0.0388     0.0977     0.2791
  476.5000     9.2066     9.7046     9.4413   -48.1184     8.0624   115.9899     2.5409     0.0600     0.0862     0.2892
  477.0000     9.1840     9.6406     9.4418   -47.8166     8.0624   114.5848     2.5471     0.0683     0.0808     0.3005
  477.5000     9.1840     9.6168     9.4353   -47.5143     8.0621   112.4522     2.5164     0.0426     0.0929     0.3137
  478.0000     9.1840    10.0416     9.6115   -47.2143     8.0503   110.2982     2.4876     0.0220     0.1124     0.3125
  478.5000     9.3547    10.5921    10.2774   -46.6022     8.0385   109.5492     2.4605     0.0033     0.1260     0.2989
  479.0000    10.0976    11.0415    10.9583   -45.7428     8.0283   109.8033     2.4398     0.0002     0.1396     0.2797
  479.5000    10.8661    12.9807    11.5619   -44.8827     8.0108   110.2632     2.4306    -0.0040     0.1475     0.2724
  480.0000    12.6611    14.9634    13.2145   -44.0224     7.9486   109.8483     2.4433     0.0057     0.1406     0.2556
  480.5000    15.3806    17.8640    15.0009   -43.1666     7.8934   105.1519     2.4116     0.0206     0.1605     0.2303
  481.0000    18.6843    20.3509    17.0287   -42.4926     7.8597    93.4266     2.3675     0.0355     0.1873     0.2207
  481.5000    19.9189    20.6552    19.0259   -42.1270     7.8401    81.6028     2.3354     0.0256     0.2047     0.2278
  482.0000    19.4363    20.4659    18.7998   -41.7425     7.8367    69.9603     2.3719     0.0126     0.1877     0.2410
  482.5000    18.7391    22.8576    18.3738   -41.2881     7.8331    64.4450     2.4323     0.0034     0.1571     0.2745
  483.0000    18.0756    22.8576    17.9462   -40.8354     7.8296    65.7163     2.3953     0.0024     0.1482     0.2841
  483.5000    17.3392    22.2211    17.4997   -40.3751     7.8261    67.6492     2.3563    -0.0007     0.1856     0.2717
  484.0000    17.3392    21.8384    17.6616   -40.2537     7.8226    68.0380     2.3406     0.0113     0.2031     0.2621
  484.5000    17.1803    21.4304    17.9086   -40.9934     7.8210    68.3946     2.3659     0.0293     0.1870     0.2785
