~VERSION INFORMATION
 VERS.                2.0:   CWLS LOG ASCII STANDARD - VERSION 2.0
 WRAP.                 NO:   ONE LINE PER DEPTH STEP
~WELL INFORMATION
#MNEM.UNIT      DATA TYPE    INFORMATION
#----------   ------------   ------------------------------
 STRT.F           97.0000:   START DEPTH
 STOP.F          756.0000:   STOP DEPTH
 STEP.F            0.5000:   STEP LENGTH
 NULL.          -999.2500:   NO VALUE
 COMP.   FLUOR DANIEL INC:   COMPANY
 WELL. NAVAL PETROLEUM RESERVE 3 61-1 #1-34:   WELL
 FLD .             TEAPOT:   FIELD
 LOC .      S34 T39N R78W:   LOCATION
 CNTY.            NATRONA:   COUNTY
 STAT.            WYOMING:   STATE
 CTRY. UNITED STATES OF AMERICA:   COUNTRY
 SRVC.            Unknown:   SERVICE COMPANY
 DATE.        25-OCT-1994:   LOGDATE
 API .       490252266500:   API NUMBER
~CURVE INFORMATION
#MNEM.UNIT       API CODE    CURVE DESCRIPTION
#----------   ------------   ------------------------------
 DEPT.F                  :   
 GR  .GAPI   35 310 01 00:   GAMMA RAY
 NEUT.NAPI   35 330 01 00:   NEUTRON
~PARAMETER INFORMATION
#MNEM.UNIT          VALUE    DESCRIPTION
#----------   ------------   ------------------------------
 PD  .                 GL:   PERMANENT DATUM
 EPD .F              5031:   ELEVATION PERMANENT DATUM
 LMF .                 KB:   LOG MEASURED FROM
 DAPD.F                10:   FEET ABOVE PERMANENT DATUM
 DMF .                 KB:   DRILLING MEASURED FROM
 EKB .F              5041:   KELLING BUSHING
 EGL .F              5031:   GROUND LEVEL
 DATE.           10-25-94:   RUN DATE
 RUN .                  1:   RUN NUMBER
 DD  .F              2440:   DEPTH DRILLER
 DL  .F               764:   DEPTH LOGGER
 BLI .F               756:   BOTTOM LOG INTERVAL
 DFT .              WATER:   DRILLING FLUID TYPE
 TCS .HRS            1000:   TIME CURCULATED STOPPED
 TLAB.HRS            1030:   TIME LOGGER AT BOTTOM
 LUN .                509:   LOGGING UNIT NUMBER
 LUL .           GILLETTE:   LOGGING UNIT LOCATION
 ENGI.            T. FINK:   RECORDING ENGINEER
 WITN.           S. HARDY:   WITNESSED BY
 CLNT.            A2DTECH:   CLIENT CODE
 ORIG.           5" PRINT:   ORIGIN OF DATA
 UWI .       490252266500:   UNIQUE WELL ID
 DICO. A2D Technologies, Inc.:   DIGITIZING COMPANY
~OTHER INFORMATION
~A   DEPT        GR       NEUT  
   97.0000   122.5273   217.4899
   97.5000   125.5273   215.1759
   98.0000   128.6000   213.3049
   98.5000   130.2492   211.3036
   99.0000   130.3165   208.0015
   99.5000   129.0508   207.9620
  100.0000   127.8218   210.1842
  100.5000   126.5995   206.3261
  101.0000   125.3691   196.0473
  101.5000   125.2961   187.6964
  102.0000   125.8735   183.9608
  102.5000   125.3530   181.1962
  103.0000   123.5819   190.8105
  103.5000   124.2846   200.3602
  104.0000   123.3493   209.8692
  104.5000   122.1746   212.4874
  105.0000   129.1631   208.1535
  105.5000   129.5673   206.1102
  106.0000   124.9146   211.1641
  106.5000   131.8553   214.8508
  107.0000   126.0779   215.2713
  107.5000   122.8708   213.6266
  108.0000   125.2123   212.0312
  108.5000   127.7310   212.7142
  109.0000   126.5706   220.9463
  109.5000   121.7408   214.2489
  110.0000   122.6905   203.6022
  110.5000   125.4074   206.0786
  111.0000   123.1675   209.4173
  111.5000   119.9765   209.8037
  112.0000   117.3165   205.8377
  112.5000   119.1789   201.7462
  113.0000   122.1049   197.6635
  113.5000   125.0482   193.1290
  114.0000   128.0168   188.5023
  114.5000   126.7734   184.5433
  115.0000   121.8871   184.2446
  115.5000   117.2307   185.7955
  116.0000   119.1139   190.6454
  116.5000   121.3533   195.7080
  117.0000   118.4166   195.1045
  117.5000   113.8336   187.3301
  118.0000   111.4375   179.4094
  118.5000   113.1903   175.1371
  119.0000   118.3685   173.6696
  119.5000   122.2861   175.5175
  120.0000   121.1108   174.0623
  120.5000   119.1361   172.3435
  121.0000   117.1259   170.6261
  121.5000   119.1850   168.8870
  122.0000   124.7055   167.1973
  122.5000   122.7215   170.5455
  123.0000   121.8261   177.0547
  123.5000   124.2412   190.0507
  124.0000   123.9429   196.7411
  124.5000   124.0687   194.7444
  125.0000   125.8695   190.6639
  125.5000   128.2435   187.9919
  126.0000   131.0763   189.2436
  126.5000   134.3180   190.4768
  127.0000   131.4547   187.8459
  127.5000   128.5265   183.7368
  128.0000   135.0933   184.2498
  128.5000   133.2924   186.1756
  129.0000   130.9553   185.4612
  129.5000   129.1084   186.1998
  130.0000   127.3256   187.6514
  130.5000   133.5002   184.6662
  131.0000   136.5454   181.0390
  131.5000   128.7570   175.5028
  132.0000   130.7356   169.9737
  132.5000   129.7846   168.0254
  133.0000   128.3683   171.4178
  133.5000   126.9041   175.4407
  134.0000   124.5506   181.6875
  134.5000   118.4403   191.1477
  135.0000   114.6171   200.5442
  135.5000   118.2027   209.8951
  136.0000   122.6043   215.1939
  136.5000   127.0061   214.6498
  137.0000   129.1702   215.7897
  137.5000   130.3163   215.3551
  138.0000   130.5514   212.4620
  138.5000   130.8107   209.5643
  139.0000   130.9529   209.4264
  139.5000   129.0441   211.0308
  140.0000   127.0494   215.0143
  140.5000   124.1316   219.6183
  141.0000   120.5471   222.3701
  141.5000   120.1888   219.0522
  142.0000   125.6523   218.8069
  142.5000   122.5761   221.0722
  143.0000   122.8514   218.8469
  143.5000   124.1999   212.7842
  144.0000   125.5541   211.7149
  144.5000   126.4577   214.0082
  145.0000   125.3623   216.1976
  145.5000   125.6407   214.3891
  146.0000   128.8351   211.4238
  146.5000   130.5064   208.4610
  147.0000   126.2591   206.4921
  147.5000   124.4209   212.1219
  148.0000   126.5025   215.6151
  148.5000   127.6630   219.9832
  149.0000   129.4308   222.0126
  149.5000   130.9378   223.0617
  150.0000   125.8390   223.0123
  150.5000   126.2270   222.9201
  151.0000   128.2870   228.7453
  151.5000   128.7149   226.6790
  152.0000   124.0682   227.7902
  152.5000   118.8873   226.3899
  153.0000   118.2780   222.3822
  153.5000   120.4700   222.9914
  154.0000   120.6067   225.1032
  154.5000   119.9394   227.4254
  155.0000   117.2107   228.5458
  155.5000   114.5995   227.8085
  156.0000   111.9924   224.6518
  156.5000   109.2491   226.3739
  157.0000   109.6813   228.5770
  157.5000   111.0545   228.3959
  158.0000   110.2825   225.5488
  158.5000   112.2215   222.2488
  159.0000   114.8166   217.1443
  159.5000   117.6652   212.2123
  160.0000   123.4784   207.3450
  160.5000   129.0085   202.2899
  161.0000   133.2374   190.2122
  161.5000   134.2279   159.6525
  162.0000   141.7805   159.2280
  162.5000   141.0677   162.0080
  163.0000   142.5905   160.9823
  163.5000   142.5973   164.1323
  164.0000   136.4887   169.4786
  164.5000   129.8351   181.0423
  165.0000   128.6183   192.6315
  165.5000   129.2238   212.4291
  166.0000   121.0428   231.4565
  166.5000   111.0758   251.1130
  167.0000   113.1182   257.8619
  167.5000   115.1652   256.5151
  168.0000   110.0963   251.4545
  168.5000   114.2358   246.5694
  169.0000   111.6039   240.5387
  169.5000   108.3543   257.3634
  170.0000   109.0378   257.0894
  170.5000   108.9449   251.5088
  171.0000   105.6971   246.4493
  171.5000   105.7003   245.9259
  172.0000   108.6074   244.2037
  172.5000   111.7395   239.7300
  173.0000   114.8834   240.3289
  173.5000   117.9987   223.5431
  174.0000   120.7135   221.6476
  174.5000   117.0126   232.5390
  175.0000   113.0261   244.7623
  175.5000   108.9859   249.3296
  176.0000   106.5180   244.3762
  176.5000   106.5535   238.4519
  177.0000   108.1034   237.4476
  177.5000   105.7868   249.5617
  178.0000   101.8589   239.9728
  178.5000    99.1296   232.4603
  179.0000   104.6105   232.2288
  179.5000   109.0875   235.5073
  180.0000   111.0888   233.7947
  180.5000   107.3988   231.6236
  181.0000   105.7482   230.7309
  181.5000   112.1176   233.6325
  182.0000   108.4079   236.1458
  182.5000   110.2229   234.7223
  183.0000   113.8332   231.4208
  183.5000   111.6086   225.7901
  184.0000   107.9977   228.0305
  184.5000   111.1101   230.4182
  185.0000   105.7683   229.4963
  185.5000   103.2991   233.7113
  186.0000   106.4378   238.3453
  186.5000   110.0849   239.8947
  187.0000   113.4186   242.5047
  187.5000   110.7182   246.5606
  188.0000   106.0295   245.5365
  188.5000   101.2430   242.1874
  189.0000   101.7980   238.9138
  189.5000   102.7935   235.6693
  190.0000   103.2827   232.4394
  190.5000   104.6065   229.1921
  191.0000   108.1023   227.2082
  191.5000   112.3998   229.1444
  192.0000   114.3044   229.4294
  192.5000   111.9649   227.0878
  193.0000   111.2330   226.8396
  193.5000   109.1087   231.6584
  194.0000   108.7211   235.9987
  194.5000   112.5203   230.2297
  195.0000   113.4857   230.6747
  195.5000   110.3404   229.6380
  196.0000   109.0468   225.8637
  196.5000   110.6088   230.3356
  197.0000   111.2106   231.8640
  197.5000   108.7425   228.6358
  198.0000   106.3414   234.9005
  198.5000   103.7794   241.7993
  199.0000   108.8536   232.7793
  199.5000   114.5530   239.6067
  200.0000   117.6791   242.9673
  200.5000   115.9738   245.7246
  201.0000   114.2158   240.2689
  201.5000   116.3822   231.6505
  202.0000   119.3550   229.5613
  202.5000   115.3806   230.3775
  203.0000   111.4460   226.9053
  203.5000   107.5109   220.8900
  204.0000   109.4355   220.6530
  204.5000   112.1665   221.0988
  205.0000   114.9018   221.4711
  205.5000   117.6031   219.9067
  206.0000   119.6420   218.2018
  206.5000   118.8122   216.5291
  207.0000   125.2230   218.4351
  207.5000   120.2156   222.3717
  208.0000   115.4761   221.6319
  208.5000   123.1399   222.6721
  209.0000   125.5917   222.6761
  209.5000   120.6619   222.1408
  210.0000   124.1472   223.5519
  210.5000   128.3429   228.7288
  211.0000   129.8602   233.6934
  211.5000   127.6143   231.8004
  212.0000   135.5517   228.9378
  212.5000   128.8621   226.0315
  213.0000   129.9799   224.4645
  213.5000   132.0220   223.5728
  214.0000   134.9857   222.7892
  214.5000   138.9681   216.8642
  215.0000   132.8250   211.1995
  215.5000   129.6290   213.7211
  216.0000   136.0872   217.2305
  216.5000   126.1275   220.9789
  217.0000   130.4612   221.4066
  217.5000   136.2635   221.5534
  218.0000   136.2036   220.2826
