~VERSION INFORMATION
 VERS.                2.0:   CWLS LOG ASCII STANDARD - VERSION 2.0
 WRAP.                 NO:   ONE LINE PER DEPTH STEP
~WELL INFORMATION
#MNEM.UNIT      DATA TYPE    INFORMATION
#----------   ------------   ------------------------------
 STRT.F           36.0000:   START DEPTH
 STOP.F          686.0000:   STOP DEPTH
 STEP.F            0.5000:   STEP LENGTH
 NULL.          -999.2500:   NO VALUE
 COMP.    FENIX & SCISSON:   COMPANY
 WELL.        NPR #15-S-2:   WELL
 FLD .             TEAPOT:   FIELD
 LOC .       S2 T38N R78W:   LOCATION
 CNTY.            NATRONA:   COUNTY
 STAT.            WYOMING:   STATE
 CTRY. UNITED STATES OF AMERICA:   COUNTRY
 SRVC.       Schlumberger:   SERVICE COMPANY
 DATE.        16-MAR-1977:   LOGDATE
 API .       490251029900:   API NUMBER
~CURVE INFORMATION
#MNEM.UNIT       API CODE    CURVE DESCRIPTION
#----------   ------------   ------------------------------
 DEPT.F                  :   
 SPR .MV     07 010 01 00:   SPONTANEOUS POTENTIAL FROM RES.
 ILD .OHMM   07 120 46 00:   INDUCTION LOG DEEP
 ILM .OHMM   07 120 44 00:   INDUCTION LOG MEDIUM
 LL8 .OHMM   07 220 08 00:   LATEROLOG-8 RES.
 GRD .GAPI   45 310 01 00:   GAMMA RAY FROM DENSITY LOG
 CALD.IN     45 280 60 00:   CALIPER FROM DENSITY LOG
 CORR.G/C3   45 356 01 00:   DENSITY CORRECTION
 RHOB.G/C3   45 350 01 00:   BULK DENSITY
 DPHI.DEC    45 890 12 00:   DENSITY POROSITY SANDSTONE
~PARAMETER INFORMATION
#MNEM.UNIT          VALUE    DESCRIPTION
#----------   ------------   ------------------------------
 PD  .                 GL:   PERMANENT DATUM
 EPD .F              5129:   ELEVATION PERMANENT DATUM
 LMF .                 KB:   LOG MEASURED FROM
 DAPD.F                 4:   FEET ABOVE PERMANENT DATUM
 DMF .                 KB:   DRILLING MEASURED FROM
 EKB .F              5133:   KELLING BUSHING
 EGL .F              5129:   GROUND LEVEL
 DATE.        15-MAR-1977:   RUN DATE
 RUN .                  1:   RUN NUMBER
 DD  .F               680:   DEPTH DRILLER
 DL  .F               680:   DEPTH LOGGER
 BLI .F               683:   BOTTOM LOG INTERVAL
 TLI .F                48:   TOP LOG INTERVAL
 CS  .IN            8.625:   CASING SIZE
 CBD .F                40:   CASING BOTTOM DRILLER
 CBL .F                49:   CASING BOTTOM LOGGER
 BS  .IN            7.875:   BIT SIZE
 BSD .F               680:   BIT SIZE AT DEPTH
 DFT .            KCL MUD:   DRILLING FLUID TYPE
 DFD .                8.8:   DRILLING FLUID DENSITY
 DFV .                 33:   DRILLING FLUID VISCOSITY
 DFPH.                9.6:   DRILLING FLUID PH
 DFL .                9.0:   DRILLING FLUID LOSS
 MSS .                PIT:   MUD SAMPLE SOURCE
 RMS .OHMM           0.22:   RESISTIVITY MUD SAMPLE
 MST .F                50:   MUD SAMPLE TEMPERATURE
 RMF .OHMM           0.21:   RESISTIVITY MUD FILTRATE SAMPLE
 MFST.F                50:   MUD FILTRATE SAMPLE TEMPERATURE
 MFSS.               MEAS:   MUD FILTRATE SAMPLE SOURCE
 TCS .HRS            1800:   TIME CURCULATED STOPPED
 TLAB.HRS            2130:   TIME LOGGER AT BOTTOM
 LUN .               7711:   LOGGING UNIT NUMBER
 LUL .               CSPR:   LOGGING UNIT LOCATION
 ENGI.             TAYLER:   RECORDING ENGINEER
 CLNT.            A2DTECH:   CLIENT CODE
 ORIG.           5" PRINT:   ORIGIN OF DATA
 UWI .       490251029900:   UNIQUE WELL ID
 DICO. A2D Technologies, Inc.:   DIGITIZING COMPANY
~OTHER INFORMATION
~A   DEPT      SPR        ILD        ILM        LL8         GRD      CALD       CORR       RHOB       DPHI   
   36.0000  -999.2500  -999.2500  -999.2500  -999.2500    87.3257  -999.2500  -999.2500  -999.2500  -999.2500
   36.5000  -999.2500  -999.2500  -999.2500  -999.2500    88.2320  -999.2500  -999.2500  -999.2500  -999.2500
   37.0000  -999.2500  -999.2500  -999.2500  -999.2500    88.9897  -999.2500  -999.2500  -999.2500  -999.2500
   37.5000  -999.2500  -999.2500  -999.2500  -999.2500    89.4502  -999.2500  -999.2500  -999.2500  -999.2500
   38.0000  -999.2500  -999.2500  -999.2500  -999.2500    87.0798  -999.2500  -999.2500  -999.2500  -999.2500
   38.5000  -999.2500  -999.2500  -999.2500  -999.2500    85.7415  -999.2500  -999.2500  -999.2500  -999.2500
   39.0000  -999.2500  -999.2500  -999.2500  -999.2500    84.2349  -999.2500  -999.2500  -999.2500  -999.2500
   39.5000  -999.2500  -999.2500  -999.2500  -999.2500    81.8843  -999.2500  -999.2500  -999.2500  -999.2500
   40.0000  -999.2500  -999.2500  -999.2500  -999.2500    81.5003  -999.2500  -999.2500  -999.2500  -999.2500
   40.5000  -999.2500  -999.2500  -999.2500  -999.2500    84.4578  -999.2500  -999.2500  -999.2500  -999.2500
   41.0000  -999.2500  -999.2500  -999.2500  -999.2500    87.1392  -999.2500  -999.2500  -999.2500  -999.2500
   41.5000  -999.2500  -999.2500  -999.2500  -999.2500    89.2748  -999.2500  -999.2500  -999.2500  -999.2500
   42.0000  -999.2500  -999.2500  -999.2500  -999.2500    89.5868  -999.2500  -999.2500  -999.2500  -999.2500
   42.5000  -999.2500  -999.2500  -999.2500  -999.2500    89.6015  -999.2500  -999.2500  -999.2500  -999.2500
   43.0000  -999.2500  -999.2500  -999.2500  -999.2500    88.4276  -999.2500  -999.2500  -999.2500  -999.2500
   43.5000  -999.2500  -999.2500  -999.2500  -999.2500    86.3621  -999.2500  -999.2500  -999.2500  -999.2500
   44.0000  -999.2500  -999.2500  -999.2500  -999.2500    84.2966  -999.2500  -999.2500  -999.2500  -999.2500
   44.5000  -999.2500  -999.2500  -999.2500  -999.2500    83.1190  -999.2500  -999.2500  -999.2500  -999.2500
   45.0000  -999.2500  -999.2500  -999.2500  -999.2500    82.9852  -999.2500  -999.2500  -999.2500  -999.2500
   45.5000  -999.2500  -999.2500  -999.2500  -999.2500    83.4494  -999.2500  -999.2500  -999.2500  -999.2500
   46.0000  -999.2500  -999.2500  -999.2500  -999.2500    83.9099     8.2409    -0.1245     2.2649     0.2356
   46.5000  -999.2500  -999.2500  -999.2500  -999.2500    84.9648     8.2242    -0.0125     2.2673     0.2200
   47.0000  -999.2500  -999.2500  -999.2500  -999.2500    86.7626     8.1851     0.0056     2.3207     0.1900
   47.5000  -999.2500  -999.2500  -999.2500  -999.2500    88.4118     8.2517     0.0026     2.3606     0.1592
   48.0000  -999.2500  -999.2500  -999.2500  -999.2500    90.2096     8.3078     0.0012     2.3922     0.1534
   48.5000  -999.2500  -999.2500  -999.2500  -999.2500    92.4532     8.2943     0.0035     2.3878     0.1609
   49.0000    -9.4523     1.9635  -999.2500    23.2660    94.8454     8.3113     0.0014     2.3608     0.1744
   49.5000   -13.4548     2.4016  -999.2500    15.8856    96.6432     8.3131     0.0082     2.3511     0.1801
   50.0000   -15.3731     0.2000  -999.2500    15.3521    97.5458     8.2996     0.0060     2.3466     0.1813
   50.5000   -17.6334    13.5638  -999.2500    16.4750    96.2270     8.3018     0.0083     2.3519     0.1795
   51.0000   -19.3633    16.1740  -999.2500    21.0340    95.6474     8.2883     0.0108     2.3573     0.1764
   51.5000   -21.5830    16.2820  -999.2500    31.0787    95.3613     8.2905     0.0040     2.3543     0.1803
   52.0000   -23.8028    16.0649    16.1768    35.7665    97.0142     8.2922     0.0018     2.3371     0.1911
   52.5000   -25.8931    15.7458    16.1901    21.2331    97.6233     8.2940     0.0049     2.3319     0.1905
   53.0000   -27.8418    15.5359    16.2034    16.8864    97.1923     8.2805     0.0073     2.3462     0.1848
   53.5000   -29.4970    15.3309    14.9180    18.8761    95.7212     8.2674     0.0089     2.3531     0.1796
   54.0000   -31.1845    15.2335    13.2650    26.0382    94.6954     8.2696     0.0105     2.3569     0.1721
   54.5000   -32.5087    15.1368    12.6449    37.9564    94.5478     8.2714     0.0135     2.3697     0.1639
   55.0000   -33.6837    14.9390    15.8107    27.2036    95.9141     8.2732     0.0113     2.3818     0.1591
   55.5000   -34.8587    14.7419    16.6099    19.0944    98.4548     8.2749     0.0098     2.3856     0.1573
   56.0000   -36.1829    14.5473    15.1893    15.5106   103.9674     8.2767     0.0084     2.3902     0.1579
   56.5000   -37.2086    13.9637    13.4127    13.4135   106.5122     8.2785    -0.0028     2.3835     0.1605
   57.0000   -38.3836    12.8588    12.0936    14.2918   107.5751     8.2802    -0.0019     2.3768     0.1596
   57.5000   -39.5586    11.9235    10.8286    13.8146   108.4894     8.2820     0.0041     2.3852     0.1545
   58.0000   -41.0321    11.2778    10.0726    13.1689   109.6870     8.2838     0.0147     2.4033     0.1475
   58.5000   -42.5056    10.5705     9.4390    12.2940   111.5423     8.2855     0.0118     2.4094     0.1382
   59.0000   -44.2775     9.8385     8.9977    11.1623   116.9875     8.2873     0.0134     2.4261     0.1298
   59.5000   -46.5330     9.0333     8.4586    10.2055   120.0475     8.2742     0.0157     2.4307     0.1264
   60.0000   -49.2439     8.1868     8.0073     9.4615   121.9197     8.2760     0.0112     2.4462     0.1222
   60.5000   -51.5291     7.3735     7.5801     8.7717   123.2718     8.2778     0.0188     2.4524     0.1191
   61.0000   -52.5548     6.9805     7.3782     8.3549   123.8809     8.2795     0.0129     2.4389     0.1264
   61.5000   -53.4312     6.6543     7.3316     8.0265   124.0443     8.2662     0.0101     2.4240     0.1293
   62.0000   -54.1585     6.4316     7.3391     7.9674   120.3443     8.2526     0.0033     2.4172     0.1320
   62.5000   -54.5872     6.4351     7.3964     7.9856   116.3472     8.2403     0.0072     2.4278     0.1314
   63.0000   -55.1651     6.4833     7.6114     8.0479   113.8359     8.2273     0.0102     2.4377     0.1269
   63.5000   -55.4493     6.5318     7.7244     8.2818   111.1761     8.2142     0.0035     2.4295     0.1278
   64.0000   -56.0225     6.6724     7.7307     8.5820   110.8900     8.2011     0.0013     2.4355     0.1280
   64.5000   -56.4560     6.7690     7.6834     8.7094   110.7599     8.2033    -0.0010     2.4190     0.1304
   65.0000   -56.8800     6.7727     7.6364     8.5348   110.6224     8.1898     0.0029     2.4364     0.1298
   65.5000   -57.1594     6.8235     7.5897     8.2515   110.4885     8.2069     0.0089     2.4387     0.1268
   66.0000   -57.5881     6.8272     7.5433     7.9759   110.5070     8.2086     0.0030     2.4350     0.1313
   66.5000   -57.5691     6.8317     7.4972     7.6562   110.8189     8.2104     0.0022     2.4321     0.1351
   67.0000   -57.6993     6.8354     7.5573     7.4005   111.4280     8.2122     0.0098     2.4276     0.1298
   67.5000   -57.9787     6.8392     7.6695     7.2535   112.7801     8.2288     0.0106     2.4382     0.1248
   68.0000   -58.1089     6.8904     7.8377     7.8369   115.0237     8.2305     0.0092     2.4480     0.1219
   68.5000   -58.0851     6.8941     7.9540     8.2354   117.2673     8.2471     0.0077     2.4518     0.1200
   69.0000   -58.0661     6.9457     8.0721     8.4742   119.3623     8.2336     0.0055     2.4316     0.1272
   69.5000   -57.5992     7.0952     7.9671     8.3639   118.3369     8.2358     0.0033     2.4377     0.1211
   70.0000   -57.4309     7.0990     7.9168     8.1427   114.6369     8.2376     0.0078     2.4558     0.1172
   70.5000   -57.4119     7.0054     7.8154     7.9258   113.9051     8.2394     0.0139     2.4619     0.1148
   71.0000   -57.6913     6.9599     7.7674     7.8227   114.8150     8.2411     0.0155     2.4664     0.1142
   71.5000   -58.1200     6.9166     7.7200     7.8838   115.2756     8.2577     0.0193     2.4612     0.1159
   72.0000   -58.8473     6.8726     7.6197     7.9453   115.4389     8.2743     0.0178     2.4515     0.1189
