~VERSION INFORMATION
 VERS.                2.0:   CWLS LOG ASCII STANDARD - VERSION 2.0
 WRAP.                 NO:   ONE LINE PER DEPTH STEP
~WELL INFORMATION
#MNEM.UNIT      DATA TYPE    INFORMATION
#----------   ------------   ------------------------------
 STRT.F           36.0000:   START DEPTH
 STOP.F          592.0000:   STOP DEPTH
 STEP.F            0.5000:   STEP LENGTH
 NULL.          -999.2500:   NO VALUE
 COMP. FENIX & SCISSON INC:   COMPANY
 WELL.           S #35-10:   WELL
 FLD .              NPR-3:   FIELD
 LOC .      S10 T38N R78W:   LOCATION
 CNTY.            NATRONA:   COUNTY
 STAT.            WYOMING:   STATE
 CTRY. UNITED STATES OF AMERICA:   COUNTRY
 SRVC.              Welex:   SERVICE COMPANY
 DATE.        07-MAR-1977:   LOGDATE
 API .       490251029000:   API NUMBER
~CURVE INFORMATION
#MNEM.UNIT       API CODE    CURVE DESCRIPTION
#----------   ------------   ------------------------------
 DEPT.F                  :   
 SPR .MV     07 010 01 00:   SPONTANEOUS POTENTIAL
 ILM .OHMM   07 120 44 00:   INDUCTION LOG MEDIUM
 ILD .OHMM   07 120 46 00:   INDUCTION LOG DEEP
 SGRD.OHMM   07 220 05 00:   SHALLOW GUARD RESISTIVITY
 CALD.IN     45 280 60 00:   CALIPER FROM DENSITY LOG
 RHOB.G/C3   45 350 01 00:   BULK DENSITY
 CORR.G/C3   45 356 01 00:   DENSITY CORRECTION
 DPHI.DEC    45 890 12 00:   DENSITY POROSITY SANDSTONE
 GRD .GAPI   45 310 01 00:   GAMMA RAY FROM DENSITY LOG
~PARAMETER INFORMATION
#MNEM.UNIT          VALUE    DESCRIPTION
#----------   ------------   ------------------------------
 PD  .                 GL:   PERMANENT DATUM
 EPD .F              5234:   ELEVATION PERMANENT DATUM
 LMF .                 GL:   LOG MEASURED FROM
 DMF .                 GL:   DRILLING MEASURED FROM
 EGL .F              5234:   GROUND LEVEL
 DATE.             3-7-77:   RUN DATE
 RUN .                  1:   RUN NUMBER
 DD  .F               600:   DEPTH DRILLER
 DL  .F               593:   DEPTH LOGGER
 BLI .F               591:   BOTTOM LOG INTERVAL
 TLI .F                35:   TOP LOG INTERVAL
 CS  .IN            8.625:   CASING SIZE
 CBD .F                42:   CASING BOTTOM DRILLER
 CBL .F                42:   CASING BOTTOM LOGGER
 BS  .IN            7.875:   BIT SIZE
 BSD .F               600:   BIT SIZE AT DEPTH
 DFT .            KCL MUD:   DRILLING FLUID TYPE
 MSS .          FLOW LINE:   MUD SAMPLE SOURCE
 RMS .OHMM            .40:   RESISTIVITY MUD SAMPLE
 MST .F                58:   MUD SAMPLE TEMPERATURE
 RMF .OHMM            .33:   RESISTIVITY MUD FILTRATE SAMPLE
 MFST.F                58:   MUD FILTRATE SAMPLE TEMPERATURE
 RMC .OHMM            .44:   RESISTIVITY MUD CAKE
 MCST.F                58:   MUD CAKE SAMPLE TEMPERATURE
 MFSS.           FANN KIT:   MUD FILTRATE SAMPLE SOURCE
 MCSS.           FANN KIT:   MUD CAKE SAMPLE SOURCE
 RMB .OHMM            .31:   RESISTIVITY MUD AT BHT
 BHT .F                62:   BOTTOM HOLE TEMPERATURE
 TCS .HRS               3:   TIME CURCULATED STOPPED
 MRT .F                62:   MAXIMUM RECORDED TEMPERATURE
 LUN .               8611:   LOGGING UNIT NUMBER
 LUL .           GILLETTE:   LOGGING UNIT LOCATION
 ENGI.            C. DOAK:   RECORDING ENGINEER
 WITN.      L. STUEBINGER:   WITNESSED BY
 CLNT.            A2DTECH:   CLIENT CODE
 ORIG.        2" 5" PRINT:   ORIGIN OF DATA
 UWI .       490251029000:   UNIQUE WELL ID
 DICO. A2D Technologies, Inc.:   DIGITIZING COMPANY
~OTHER INFORMATION
~A   DEPT      SPR        ILM        ILD       SGRD         CALD       RHOB      CORR        DPHI       GRD  
# ...
  547.0000   -53.0908     8.4525     6.3626    11.1697     7.7622     2.4663     0.0450     0.1081   141.9214
  547.5000   -53.4233     7.7157     5.9827    10.2246     7.7419     2.4617     0.0471     0.1104   142.2998
  548.0000   -53.7236     7.0431     5.6641     9.0508     7.7873     2.4569     0.0492     0.1127   134.1445
  548.5000   -53.4826     6.4292     5.3619     6.0266     7.8178     2.4501     0.0479     0.1176   125.1936
  549.0000   -53.0972     6.0967     5.4030     4.0719     7.8050     2.4372     0.0454     0.1235   118.6886
  549.5000   -52.7083     6.7455     5.5490     6.4876     7.7928     2.4175     0.0430     0.1294   113.9198
  550.0000   -52.3935     7.5283     5.8674    11.3140     7.7806     2.4004     0.0404     0.1348   112.4018
  550.5000   -52.1150     8.3994     6.2029    14.1784     7.7785     2.4314     0.0406     0.1205   115.0595
  551.0000   -51.8349     9.3115     6.6040    12.8175     7.7716     2.4666     0.0417     0.1047   114.1908
  551.5000   -51.5548     9.9022     7.2808    13.0088     7.7647     2.4816     0.0428     0.0990   116.5849
  552.0000   -51.2747    10.5382     8.0274    13.3451     7.7578     2.4768     0.0437     0.1024   119.2133
  552.5000   -50.9946    11.1697     8.8503    13.6676     7.7509     2.4720     0.0394     0.1037   121.8225
  553.0000   -50.7143    11.1279     9.0554    13.4396     7.7440     2.4787     0.0364     0.1012   123.9069
  553.5000   -50.4342    11.0800     9.1645    13.1751     7.7395     2.4795     0.0406     0.0998   123.7220
  554.0000   -50.1541    11.0677     9.2701    13.2681     7.7395     2.4745     0.0424     0.1008   121.5612
  554.5000   -49.9467    11.5872     9.5800    13.3945     7.7395     2.4724     0.0360     0.1016   118.9929
  555.0000   -49.8299    12.1501     9.9254    13.7935     7.7399     2.4759     0.0381     0.1022   114.7940
  555.5000   -49.7126    12.7391    10.2845    14.2127     7.7555     2.4792     0.0384     0.0998   113.6243
  556.0000   -49.5955    13.1715    10.6173    14.6446     7.7796     2.4795     0.0327     0.0997   115.4987
  556.5000   -49.4782    12.7004    10.9174    15.1240     7.7793     2.4704     0.0277     0.1052   117.7779
  557.0000   -49.3609    12.9984    11.2261    14.9777     7.7794     2.4617     0.0289     0.1105   120.0329
  557.5000   -49.2437    13.5221    11.4814    14.5815     7.7794     2.4572     0.0289     0.1159   121.9228
  558.0000   -49.1264    14.0489    11.7258    15.1468     7.7758     2.4632     0.0221     0.1197   120.7603
  558.5000   -49.0091    13.9686    11.9105    15.8769     7.7716     2.4702     0.0152     0.1119   117.8759
  559.0000   -48.8919    13.8450    11.8605    16.1215     7.7674     2.4771     0.0184     0.1018   115.6389
  559.5000   -48.7746    13.7225    11.8010    15.9742     7.7631     2.4840     0.0259     0.0978   111.7713
  560.0000   -48.6572    13.5428    11.8317    15.8284     7.7608     2.4909     0.0335     0.0939    88.7897
  560.5000   -48.5393    13.7705    11.9157    16.0569     7.7736     2.4977     0.0412     0.0900  -999.2500
  561.0000   -48.4196    14.0099    12.0008    16.2965     7.7866     2.4985     0.0420     0.0895  -999.2500
  561.5000   -48.5127    14.2535    12.0866    16.5713     7.7996     2.4919     0.0396     0.0929  -999.2500
  562.0000   -48.6309    14.5013    12.1803    16.3167     7.8126     2.4854     0.0368     0.0953  -999.2500
  562.5000   -48.7491    14.7257    12.3512    16.0293     7.8261     2.4795     0.0370     0.0974  -999.2500
  563.0000   -48.8667    14.9420    12.5246    15.6838     7.8337     2.4835     0.0384     0.0966  -999.2500
  563.5000   -48.9843    15.1188    12.7004    15.9742     7.8177     2.4877     0.0398     0.0955  -999.2500
  564.0000   -49.1020    14.7792    12.6559    16.3573     7.8117     2.4878     0.0412     0.0950  -999.2500
  564.5000   -49.2198    14.5804    12.6116    16.7561     7.8066     2.4827     0.0400     0.0972  -999.2500
  565.0000   -49.3364    14.2001    12.5674    17.0820     7.8014     2.4761     0.0369     0.1004  -999.2500
  565.5000   -49.3828    14.4262    12.5233    17.1834     7.7880     2.4671     0.0338     0.1075  -999.2500
  566.0000   -49.3327    14.6560    12.4792    16.5376     7.7695     2.4581     0.0307     0.1146  -999.2500
  566.5000   -49.2836    14.8439    12.4539    16.0232     7.7641     2.4634     0.0278     0.1181  -999.2500
  567.0000   -49.2341    14.5740    12.4334    15.6838     7.7849     2.4707     0.0315     0.1077  -999.2500
  567.5000   -49.1848    13.4602    12.4131    15.7841     7.8152     2.4680     0.0332     0.1059  -999.2500
  568.0000   -49.1354    13.0548    12.3928    16.0790     7.8192     2.4657     0.0305     0.1080  -999.2500
  568.5000   -49.0859    14.2436    12.3731    16.4303     7.8189     2.4673     0.0280     0.1077  -999.2500
  569.0000   -49.0373    14.8643    12.3300    16.8782     7.8071     2.4727     0.0302     0.1042  -999.2500
  569.5000   -49.0180    15.2581    12.1716    16.5106     7.7819     2.4780     0.0329     0.1006  -999.2500
  570.0000   -49.0524    15.1428    12.0153    16.0477     7.7572     2.4832     0.0356     0.0970  -999.2500
  570.5000   -49.0860    15.0602    11.8610    15.9309     7.7383     2.4842     0.0372     0.0958  -999.2500
  571.0000   -49.1198    14.9781    11.7086    15.8615     7.7354     2.4774     0.0334     0.1027  -999.2500
  571.5000   -49.1535    14.8964    11.4837    15.7314     7.7321     2.4708     0.0299     0.1070  -999.2500
  572.0000   -49.1872    14.8439    11.3395    15.5466     7.7288     2.4649     0.0315     0.1090  -999.2500
  572.5000   -49.2209    14.9807    11.1971    15.3987     7.7256     2.4729     0.0336     0.1050  -999.2500
  573.0000   -49.2546    14.5434    10.9941    15.3987     7.7224     2.4818     0.0358     0.0977  -999.2500
  573.5000   -49.2883    14.1871    10.7135    14.6634     7.7203     2.4905     0.0379     0.0943  -999.2500
  574.0000   -49.3221    13.9206    10.3952    13.9846     7.7248     2.4933     0.0397     0.0927  -999.2500
  574.5000   -49.3558    13.6592    10.0401    13.2966     7.7291     2.4930     0.0398     0.0911  -999.2500
  575.0000   -49.3896    13.4027     9.6971    13.2966     7.7334     2.4879     0.0398     0.0940  -999.2500
  575.5000   -49.4034    13.2528     9.3611    14.7084     7.7384     2.4827     0.0395     0.0969  -999.2500
  576.0000   -49.4041    13.1811     9.0347    14.1691     7.7694     2.4831     0.0378     0.0962  -999.2500
  576.5000   -49.4030    13.1087     8.7189    13.5428     7.8378     2.4806     0.0361     0.0984  -999.2500
  577.0000   -49.4090    13.0367     8.4146    13.6586     7.8410     2.4755     0.0346     0.1006  -999.2500
  577.5000   -49.0674    12.9651     8.1021    13.7935     7.8029     2.4776     0.0321     0.1005  -999.2500
  578.0000   -48.5791    12.8938     8.1378    13.5958     7.7764     2.4754     0.0341     0.1003  -999.2500
  578.5000   -47.4541    12.8230     8.1875    13.2424     7.7502     2.4810     0.0360     0.1002  -999.2500
  579.0000   -46.0951    12.7525     8.2432    13.1751     7.7242     2.4875     0.0378     0.0980  -999.2500
  579.5000   -44.1981    12.7004     8.4738    13.2560     7.6981     2.4905     0.0392     0.0953  -999.2500
  580.0000   -41.7699    12.7568     9.2019    13.3347     7.6797     2.4920     0.0406     0.0927  -999.2500
  580.5000   -37.0335    12.8105    10.5715    13.4191     7.7249     2.4937     0.0415     0.0913  -999.2500
  581.0000   -28.2155    12.8643    13.6066    13.4937     7.7752     2.4925     0.0395     0.0922  -999.2500
  581.5000   -16.9210    12.9182    17.8661    13.5739     7.8274     2.4933     0.0375     0.0918  -999.2500
  582.0000    -4.8729    12.9723    26.7371    13.6545     7.8391     2.4962     0.0368     0.0888  -999.2500
  582.5000  -999.2500    13.0267   512.0906    13.7357     7.8390     2.5043     0.0439     0.0863  -999.2500
  583.0000  -999.2500    13.0548   103.1763    13.7935     7.8244     2.5144     0.0509     0.0800  -999.2500
