~VERSION INFORMATION
 VERS.                2.0:   CWLS LOG ASCII STANDARD - VERSION 2.0
 WRAP.                 NO:   ONE LINE PER DEPTH STEP
~WELL INFORMATION
#MNEM.UNIT      DATA TYPE    INFORMATION
#----------   ------------   ------------------------------
 STRT.F           28.5000:   START DEPTH
 STOP.F          781.0000:   STOP DEPTH
 STEP.F            0.5000:   STEP LENGTH
 NULL.          -999.2500:   NO VALUE
 COMP. FENIX & SCISSON INC:   COMPANY
 WELL. NPR 3 23 SX 14 #23-14:   WELL
 FLD .        TEAPOT DOME:   FIELD
 LOC .      S14 T38N R78W:   LOCATION
 CNTY.            NATRONA:   COUNTY
 STAT.            WYOMING:   STATE
 CTRY. UNITED STATES OF AMERICA:   COUNTRY
 SRVC.            Unknown:   SERVICE COMPANY
 DATE.        13-MAY-1978:   LOGDATE
 API .       490251063400:   API NUMBER
~CURVE INFORMATION
#MNEM.UNIT       API CODE    CURVE DESCRIPTION
#----------   ------------   ------------------------------
 DEPT.F                  :   
 RHOB.G/C3   45 350 01 00:   BULK DENSITY
 DPHI.DEC    45 890 12 00:   DENSITY POROSITY SANDSTONE
 GRD .GAPI   45 310 01 00:   GAMMA RAY FROM DENSITY LOG
 CALD.IN     45 280 60 00:   CALIPER FROM DENSITY LOG
 CORR.G/C3   45 356 01 00:   DENSITY CORRECTION
 SN  .OHMM   05 040 16 00:   SHORT NORMAL 16"
 SPR .MV     05 010 01 00:   SPONTANEOUS POTENTIAL FROM RES.
 ILD .OHMM   05 120 46 00:   INDUCTION LOG DEEP
~PARAMETER INFORMATION
#MNEM.UNIT          VALUE    DESCRIPTION
#----------   ------------   ------------------------------
 PD  .                 GL:   PERMANENT DATUM
 EPD .F              5202:   ELEVATION PERMANENT DATUM
 LMF .                 KB:   LOG MEASURED FROM
 DMF .                 KB:   DRILLING MEASURED FROM
 EKB .F              5206:   KELLING BUSHING
 EGL .F              5202:   GROUND LEVEL
 DATE.          5-13-1978:   RUN DATE
 RUN .                  1:   RUN NUMBER
 DD  .F               785:   DEPTH DRILLER
 DL  .F               776:   DEPTH LOGGER
 BLI .F               770:   BOTTOM LOG INTERVAL
 TLI .F                50:   TOP LOG INTERVAL
 CS  .IN            8.625:   CASING SIZE
 CBD .F                40:   CASING BOTTOM DRILLER
 CBL .F                40:   CASING BOTTOM LOGGER
 BS  .IN            7.875:   BIT SIZE
 BSD .F               785:   BIT SIZE AT DEPTH
 DFT .                KCL:   DRILLING FLUID TYPE
 DFD .                8.6:   DRILLING FLUID DENSITY
 DFV .                 30:   DRILLING FLUID VISCOSITY
 DFPH.                 10:   DRILLING FLUID PH
 DFL .                 14:   DRILLING FLUID LOSS
 MSS .           FLOWLINE:   MUD SAMPLE SOURCE
 RMS .OHMM             .4:   RESISTIVITY MUD SAMPLE
 MST .F                69:   MUD SAMPLE TEMPERATURE
 RMF .OHMM            .36:   RESISTIVITY MUD FILTRATE SAMPLE
 MFST.F                72:   MUD FILTRATE SAMPLE TEMPERATURE
 RMC .OHMM            .56:   RESISTIVITY MUD CAKE
 MCST.F                73:   MUD CAKE SAMPLE TEMPERATURE
 MFSS.               MEAS:   MUD FILTRATE SAMPLE SOURCE
 RMB .OHMM            .35:   RESISTIVITY MUD AT BHT
 BHT .F                79:   BOTTOM HOLE TEMPERATURE
 TCS .HRS               2:   TIME CURCULATED STOPPED
 MRT .F                79:   MAXIMUM RECORDED TEMPERATURE
 LUN .               3006:   LOGGING UNIT NUMBER
 LUL .              CASP.:   LOGGING UNIT LOCATION
 ENGI.             MILLER:   RECORDING ENGINEER
 WITN.           MCGINLEY:   WITNESSED BY
 CLNT.            A2DTECH:   CLIENT CODE
 ORIG.           5" PRINT:   ORIGIN OF DATA
 UWI .       490251063400:   UNIQUE WELL ID
 DICO. A2D Technologies, Inc.:   DIGITIZING COMPANY
~OTHER INFORMATION
~A   DEPT     RHOB       DPHI         GRD      CALD       CORR         SN        SPR        ILD   
# ...
  433.5000     2.4657     0.1124    75.1888     7.2193     0.0366     8.5119   -64.2818     6.8502
  434.0000     2.4684     0.1100    75.4304     7.2163     0.0386     8.4266   -64.0339     6.8447
  434.5000     2.4711     0.1081    75.6636     7.2133     0.0401     8.3422   -63.7802     6.7705
  435.0000     2.4729     0.1069    75.9747     7.2095     0.0401     8.2587   -63.4748     6.6804
  435.5000     2.4753     0.1035    77.6121     7.2251     0.0401     8.1761   -63.3402     6.5913
  436.0000     2.4790     0.0978    79.2049     7.3151     0.0401     8.0942   -63.9049     6.5035
  436.5000     2.4825     0.0981    80.3004     7.4105     0.0402     8.0132   -64.1856     6.4168
  437.0000     2.4863     0.0989    78.0287     7.5066     0.0412     7.9330   -64.3579     6.3313
  437.5000     2.4858     0.1016    76.9684     7.5508     0.0418     7.8536   -64.5352     6.2428
  438.0000     2.4803     0.1080    77.0228     7.5546     0.0396     7.7750   -64.9885     6.0566
  438.5000     2.4710     0.1145    77.1046     7.5575     0.0373     7.6671   -65.4279     5.9401
  439.0000     2.4617     0.1209    77.1865     7.5603     0.0351     7.4359   -65.8645     5.8225
  439.5000     2.4524     0.1257    77.2754     7.5632     0.0329     7.2117   -66.3002     5.6328
  440.0000     2.4442     0.1299    76.7398     7.5661     0.0336     6.9942   -66.7414     5.4348
  440.5000     2.4361     0.1365    75.8377     7.5688     0.0362     6.7833   -66.9512     5.2439
  441.0000     2.4280     0.1430    75.7179     7.5794     0.0387     6.4181   -67.0819     5.0596
  441.5000     2.4163     0.1494    75.7401     7.5937     0.0413     6.0049   -67.2085     4.7780
  442.0000     2.4048     0.1556    75.7651     7.6082     0.0438     5.6189   -67.3356     4.4156
  442.5000     2.3951     0.1720    75.7884     7.6227     0.0419     5.2578   -67.4673     3.9726
  443.0000     2.3701     0.1875    75.8115     7.6372     0.0393     4.9161   -67.4637     3.5721
  443.5000     2.3428     0.2029    75.8348     7.6517     0.0385     4.4301   -67.4080     3.2126
  444.0000     2.3156     0.2183    75.8603     7.6659     0.0401     3.9876   -67.3524     2.8893
  444.5000     2.2884     0.2337    75.8834     7.7122     0.0465     3.5899   -67.2883     2.5985
  445.0000     2.2613     0.2441    75.7347     7.7505     0.0534     3.2318   -67.0423     2.4638
  445.5000     2.2437     0.2453    74.5985     7.7499     0.0604     3.0808   -66.7942     2.3568
  446.0000     2.2512     0.2196    73.4645     7.7501     0.0673     3.0065   -66.5472     2.2545
  446.5000     2.2946     0.1931    72.3040     7.7500     0.0737     2.9934   -66.3009     2.1702
  447.0000     2.3370     0.1812    72.0526     7.7473     0.0668     3.0210   -66.0534     2.1702
  447.5000     2.3560     0.1659    76.3328     7.7325     0.0591     3.0770   -65.8107     2.2298
  448.0000     2.3716     0.1479    80.2899     7.7180     0.0667     3.2375   -65.2026     2.3849
  448.5000     2.4014     0.1298    81.1964     7.7041     0.0753     3.7663   -64.3564     2.6285
  449.0000     2.4312     0.1117    80.0464     7.6857     0.0602     4.0310   -63.5049     2.8969
  449.5000     2.4616     0.1058    79.7344     7.6010     0.0527     4.2877   -62.7350     3.1929
  450.0000     2.4697     0.1100    80.5828     7.5663     0.0457     4.9368   -62.7866     3.5190
  450.5000     2.4633     0.1139    81.8221     7.5329     0.0388     5.6525   -62.8525     3.8784
  451.0000     2.4567     0.1177    82.9417     7.5170     0.0330     6.0176   -62.9238     4.2746
  451.5000     2.4515     0.1223    82.9927     7.5406     0.0302     6.1292   -63.2775     4.7112
  452.0000     2.4474     0.1283    83.0762     7.5355     0.0307     6.1292   -63.8232     4.9487
  452.5000     2.4355     0.1325    82.4327     7.5110     0.0315     6.1301   -64.6755     4.9616
  453.0000     2.4307     0.1389    81.3257     7.4862     0.0322     6.1308   -65.4848     4.6652
  453.5000     2.4267     0.1473    80.3852     7.4614     0.0329     6.0083   -65.5136     4.4620
  454.0000     2.4083     0.1535    81.7972     7.4366     0.0336     5.8135   -65.5078     4.2674
  454.5000     2.4016     0.1467    84.3057     7.4118     0.0343     5.6263   -65.4259     4.1285
  455.0000     2.4087     0.1403    85.9695     7.3894     0.0350     5.4451   -65.0512     4.0777
  455.5000     2.4155     0.1329    85.3674     7.3900     0.0357     5.3401   -64.6659     4.0195
  456.0000     2.4197     0.1255    82.8048     7.3896     0.0388     5.3401   -63.7101     3.9798
  456.5000     2.4219     0.1180    80.1616     7.3624     0.0439     5.4726   -62.7829     4.0166
  457.0000     2.4464     0.1134    79.9593     7.2876     0.0429     5.6209   -61.8642     4.1309
  457.5000     2.4614     0.1156    80.8348     7.2224     0.0376     5.7731   -60.9328     4.2484
  458.0000     2.4601     0.1182    83.5523     7.1913     0.0320     5.9294   -60.5390     4.4082
  458.5000     2.4605     0.1150    85.7545     7.1604     0.0305     6.1748   -60.9181     4.6400
  459.0000     2.4631     0.1117    86.4531     7.1069     0.0312     6.4533   -61.5516     4.8843
  459.5000     2.4657     0.1090    85.1132     7.0449     0.0318     6.7421   -62.1902     5.1416
  460.0000     2.4683     0.1108    81.8194     6.9824     0.0325     6.9770   -62.8290     5.4121
  460.5000     2.4674     0.1126    81.0489     6.9282     0.0332     7.5128   -63.4634     5.6969
  461.0000     2.4662     0.1128    80.9669     6.9634     0.0338     7.6931   -63.9110     5.9080
  461.5000     2.4655     0.1120    80.8786     7.0219     0.0397     7.8549   -63.8406     6.0176
  462.0000     2.4679     0.1113    80.1648     7.0810     0.0472     7.8549   -63.7822     6.0731
  462.5000     2.4704     0.1105    79.8938     7.0869     0.0547     7.8549   -63.7136     6.1292
  463.0000     2.4724     0.1098    80.5754     7.0830     0.0622     7.7234   -63.3339     6.1857
  463.5000     2.4713     0.1033    81.5277     7.0789     0.0697     7.5527   -62.9254     6.1707
  464.0000     2.4775     0.1014    83.9378     7.0748     0.0773     7.3854   -62.5382     6.0887
  464.5000     2.4807     0.1093    86.2051     7.0697     0.0841     7.2222   -62.6029     6.0079
  465.0000     2.4772     0.1117    85.5150     7.1223     0.0842     7.0998   -62.6865     5.9282
  465.5000     2.4725     0.1142    84.1743     7.1923     0.0842     7.1173   -62.7686     5.8495
  466.0000     2.4647     0.1207    85.0896     7.2632     0.0838     7.1381   -62.8512     5.7719
  466.5000     2.4536     0.1271    85.9124     7.2899     0.0810     7.1632   -62.9109     5.6953
  467.0000     2.4423     0.1302    85.8710     7.3059     0.0783     7.0491   -62.6846     5.5874
  467.5000     2.4345     0.1315    86.5803     7.3426     0.0808     6.8862   -62.4621     5.4106
  468.0000     2.4344     0.1315    88.6717     7.3785     0.0836     6.6744   -62.2425     5.2394
  468.5000     2.4343     0.1317    90.3583     7.4401     0.0860     6.3686   -62.0204     5.0534
  469.0000     2.4312     0.1379    90.6871     7.5139     0.0835     6.0776   -61.9932     4.7755
  469.5000     2.4237     0.1500    91.3572     7.5329     0.0809     5.7999   -62.0915     4.5123
  470.0000     2.4076     0.1625    92.6886     7.5371     0.0783     5.5349   -62.7638     4.2630
  470.5000     2.3813     0.1657    93.7123     7.5408     0.0848     5.2912   -63.5053     4.1270
  471.0000     2.3793     0.1608    94.2323     7.5446     0.0935     5.1003   -63.6102     4.1288
  471.5000     2.3881     0.1465    93.9102     7.5492     0.1026     5.1260   -63.6925     4.1830
  472.0000     2.4097     0.1290    91.8712     7.5145     0.1022     5.2052   -63.7175     4.2053
  472.5000     2.4435     0.1115    87.8375     7.4616     0.0925     5.4466   -63.7179     4.3254
  473.0000     2.4757     0.1046    82.6255     7.4081     0.0731     6.0061   -63.7175     4.4400
  473.5000     2.4776     0.1057    84.3577     7.3542     0.0592     6.6575   -63.7162     4.5546
