~VERSION INFORMATION
 VERS.                2.0:   CWLS LOG ASCII STANDARD - VERSION 2.0
 WRAP.                 NO:   ONE LINE PER DEPTH STEP
~WELL INFORMATION
#MNEM.UNIT      DATA TYPE    INFORMATION
#----------   ------------   ------------------------------
 STRT.F           80.0000:   START DEPTH
 STOP.F          480.0000:   STOP DEPTH
 STEP.F            0.5000:   STEP LENGTH
 NULL.          -999.2500:   NO VALUE
 COMP. BROWN JOHN E&C INC:   COMPANY
 WELL.         SX 57 #2-3:   WELL
 FLD .        TEAPOT DOME:   FIELD
 LOC .       S3 T38N R78W:   LOCATION
 CNTY.            NATRONA:   COUNTY
 STAT.            WYOMING:   STATE
 CTRY. UNITED STATES OF AMERICA:   COUNTRY
 SRVC.       Schlumberger:   SERVICE COMPANY
 DATE.        05-OCT-1990:   LOGDATE
 API .       490251132700:   API NUMBER
~CURVE INFORMATION
#MNEM.UNIT       API CODE    CURVE DESCRIPTION
#----------   ------------   ------------------------------
 DEPT.F                  :   
 GRR .GAPI   07 310 01 00:   GAMMA RAY FROM RES. LOG.
 SFLU.OHMM   07 220 01 00:   SPHERICALLY FOCUSED LOG UNAVERAGED RESISTIVITY
 ILD .OHMM   07 120 46 00:   INDUCTION LOG DEEP
 ILM .OHMM   07 120 44 00:   INDUCTION LOG MEDIUM
 CNC .DEC    42 890 01 00:   NEUTRON POROSITY LIMESTONE
~PARAMETER INFORMATION
#MNEM.UNIT          VALUE    DESCRIPTION
#----------   ------------   ------------------------------
 PD  .                 GL:   PERMANENT DATUM
 EPD .F              5148:   ELEVATION PERMANENT DATUM
 LMF .                 KB:   LOG MEASURED FROM
 DAPD.F                10:   FEET ABOVE PERMANENT DATUM
 DMF .                 KB:   DRILLING MEASURED FROM
 EKB .F              5158:   KELLING BUSHING
 EDF .F              5157:   DRILLING FLOOR
 EGL .F              5148:   GROUND LEVEL
 DATE.            10-5-90:   RUN DATE
 RUN .                  1:   RUN NUMBER
 DD  .F               485:   DEPTH DRILLER
 DL  .F               484:   DEPTH LOGGER
 BLI .F               481:   BOTTOM LOG INTERVAL
 TLI .F                48:   TOP LOG INTERVAL
 CS  .IN            8.625:   CASING SIZE
 CBD .F                53:   CASING BOTTOM DRILLER
 CBL .F                53:   CASING BOTTOM LOGGER
 BS  .IN            7.875:   BIT SIZE
 BSD .F               485:   BIT SIZE AT DEPTH
 DFT .           WTD DISP:   DRILLING FLUID TYPE
 DFD .               14.3:   DRILLING FLUID DENSITY
 DFV .                 67:   DRILLING FLUID VISCOSITY
 DFPH.                9.5:   DRILLING FLUID PH
 DFL .               12.8:   DRILLING FLUID LOSS
 MSS .           FLOWLINE:   MUD SAMPLE SOURCE
 RMS .OHMM            9.3:   RESISTIVITY MUD SAMPLE
 MST .F                74:   MUD SAMPLE TEMPERATURE
 RMF .OHMM            6.9:   RESISTIVITY MUD FILTRATE SAMPLE
 MFST.F                74:   MUD FILTRATE SAMPLE TEMPERATURE
 RMC .OHMM           13.9:   RESISTIVITY MUD CAKE
 MCST.F                74:   MUD CAKE SAMPLE TEMPERATURE
 MFSS.               CALC:   MUD FILTRATE SAMPLE SOURCE
 MCSS.               CALC:   MUD CAKE SAMPLE SOURCE
 RMB .OHMM          6.438:   RESISTIVITY MUD AT BHT
 BHT .F               110:   BOTTOM HOLE TEMPERATURE
 TCS .HRS            1600:   TIME CURCULATED STOPPED
 MRT .F               110:   MAXIMUM RECORDED TEMPERATURE
 LUN .               5887:   LOGGING UNIT NUMBER
 LUL .               CODY:   LOGGING UNIT LOCATION
 ENGI.        MIKE FISHER:   RECORDING ENGINEER
 WITN.        GARY STRONG:   WITNESSED BY
 CLNT.            A2DTECH:   CLIENT CODE
 ORIG.        2" 5" PRINT:   ORIGIN OF DATA
 UWI .       490251132700:   UNIQUE WELL ID
 DICO. A2D Technologies, Inc.:   DIGITIZING COMPANY
~OTHER INFORMATION
~A   DEPT       GRR        SFLU      ILD        ILM        CNC   
# ...
  385.0000    62.2329     3.3570     2.9797     3.0208  -999.2500
  385.5000    63.3783     3.4387     2.9968     3.1076  -999.2500
  386.0000    65.4393     3.5224     2.9822     3.0775  -999.2500
  386.5000    66.8354     3.5945     2.9694     3.0189  -999.2500
  387.0000    66.3931     3.5660     2.9269     2.9608  -999.2500
  387.5000    63.4450     3.4612     2.8378     2.8724  -999.2500
  388.0000    62.1455     3.2419     2.7514     2.7850  -999.2500
  388.5000    62.2148     3.0365     2.6734     2.6871  -999.2500
  389.0000    62.9498     2.8550     2.6157     2.7581  -999.2500
  389.5000    63.7001     2.8206     2.5592     2.8550  -999.2500
  390.0000    62.7055     2.8183     2.4986     2.6826  -999.2500
  390.5000    60.2934     2.9595     2.5142     2.5552  -999.2500
  391.0000    58.4965     2.9762     2.5291     2.5293  -999.2500
  391.5000    57.6284     2.9969     2.5149     2.5626  -999.2500
  392.0000    57.7250     2.9687     2.5025     2.5912  -999.2500
  392.5000    58.6983     2.9322     2.4900     2.5503  -999.2500
  393.0000    59.6248     2.8962     2.4779     2.5209  -999.2500
  393.5000    60.3713     2.8606     2.4685     2.4986  -999.2500
  394.0000    60.8200     2.8254     2.5927     2.6244  -999.2500
  394.5000    60.2263     2.7866     2.6979     2.7308  -999.2500
  395.0000    59.6589     2.8043     2.7520     2.7856  -999.2500
  395.5000    59.0798     2.8243     2.6739     2.7065  -999.2500
  396.0000    58.5626     2.8445     2.6228     2.6548  -999.2500
  396.5000    60.8815     2.8649     2.6646     2.6971  -999.2500
  397.0000    63.4196     2.8854     2.7426     2.7761  -999.2500
  397.5000    64.8651     2.9283     2.8229     2.8574  -999.2500
  398.0000    64.0370     2.9781     2.8766     2.9117  -999.2500
  398.5000    61.2472     3.0287     2.9124     2.9479  -999.2500
  399.0000    59.9857     3.0803     2.9608     2.9967  -999.2500
  399.5000    60.6110     3.1997     2.9322     2.9684  -999.2500
  400.0000    60.6671     3.4039     2.8898     2.9250  -999.2500
  400.5000    60.1534     3.6383     2.8480     2.8823  -999.2500
  401.0000    61.0097     3.7815     2.8206     2.8551  -999.2500
  401.5000    61.9868     4.0082     2.8441     2.8780  -999.2500
  402.0000    62.9687     3.9397     2.9105     2.9461  -999.2500
  402.5000    63.3419     3.8179     3.0615     3.0991  -999.2500
  403.0000    62.5191     3.7015     3.2212     3.2603  -999.2500
  403.5000    60.4252     3.5886     3.3893     3.4297  -999.2500
  404.0000    58.5331     3.4850     3.5538     3.5945  -999.2500
  404.5000    59.1085     3.3997     3.4332     3.5232  -999.2500
  405.0000    61.8375     3.3165     3.2625     3.4213  -999.2500
  405.5000    64.4259     3.2627     3.1026     3.3224  -999.2500
  406.0000    66.2213     3.2625     2.9922     3.2230  -999.2500
  406.5000    66.0985     3.2622     2.9608     3.0704  -999.2500
  407.0000    66.0050     3.2624     2.9611     3.0149  -999.2500
  407.5000    65.9008     3.2624     2.9617     2.9969  -999.2500
  408.0000    65.7711     3.2615     2.8757     2.9111  -999.2500
  408.5000    67.0350     3.2647     2.7779     2.8114  -999.2500
  409.0000    68.5538     3.1244     2.6556     2.6871  -999.2500
  409.5000    70.0571     3.0336     2.6687     2.7009  -999.2500
  410.0000    69.7104     2.9454     2.6878     2.7207  -999.2500
  410.5000    68.7777     2.8550     2.7076     2.7406  -999.2500
  411.0000    67.8475     2.8206     2.7199     2.7531  -999.2500
  411.5000    66.9165     2.8729     2.6065     2.6382  -999.2500
  412.0000    65.9601     2.9633     2.5291     2.5600  -999.2500
  412.5000    66.0593     3.0565     2.5918     2.6234  -999.2500
  413.0000    66.4090     3.0704     2.6543     2.6866  -999.2500
  413.5000    66.7456     3.0704     2.6871     2.7199  -999.2500
  414.0000    66.4170     3.0632     2.6696     2.7021  -999.2500
  414.5000    63.7023     3.0006     2.6578     2.6902  -999.2500
  415.0000    61.8222     2.9393     2.6143     2.6462  -999.2500
  415.5000    62.7799     2.8899     2.5609     2.5921  -999.2500
  416.0000    64.8568     2.8967     2.5085     2.5391  -999.2500
  416.5000    66.9108     2.9024     2.4647     2.4949  -999.2500
  417.0000    68.4885     2.9083     2.4484     2.4783  -999.2500
  417.5000    69.1527     2.9142     2.4321     2.4618  -999.2500
  418.0000    69.1382     2.9200     2.4159     2.4453  -999.2500
  418.5000    69.4395     2.9252     2.3997     2.4290  -999.2500
  419.0000    69.8658     2.8434     2.3837     2.4128  -999.2500
  419.5000    70.2635     2.7717     2.3678     2.3967  -999.2500
  420.0000    69.4513     2.7019     2.3517     2.3804  -999.2500
  420.5000    68.5434     2.6753     2.3104     2.3386  -999.2500
  421.0000    67.5949     2.6603     2.2690     2.2967  -999.2500
  421.5000    68.1057     2.6453     2.2284     2.2556  -999.2500
  422.0000    68.9773     2.6305     2.1885     2.2152  -999.2500
  422.5000    68.0856     2.5927     2.1604     2.1867  -999.2500
  423.0000    66.2874     2.5310     2.1029     2.1286  -999.2500
  423.5000    67.7106     2.4707     2.0581     2.0832  -999.2500
  424.0000    70.0538     2.4088     2.0584     2.0835  -999.2500
  424.5000    72.4086     2.4097     2.0110     2.0355  -999.2500
  425.0000    72.2860     2.3901     1.9296     1.9529  -999.2500
  425.5000    71.8399     2.3762     1.8524     1.8738  -999.2500
  426.0000    71.7874     2.3620     1.7795     1.8012  -999.2500
  426.5000    72.3583     2.3035     1.5322     1.6666  -999.2500
  427.0000    72.5698     2.1271     1.3275     1.4056  -999.2500
  427.5000    73.4407     1.6528     1.1501     1.1854  -999.2500
  428.0000    76.5767     1.2572     1.0355     0.9919  -999.2500
  428.5000    79.8950     0.9945     1.0098     0.8093  -999.2500
  429.0000    82.4628     0.8093     0.9841     0.8192  -999.2500
  429.5000    80.7411     0.8660     0.9590     0.8869  -999.2500
  430.0000    76.8045     1.1109     0.9975     0.9620  -999.2500
  430.5000    72.1511     1.4833     1.0365     1.0434  -999.2500
  431.0000    70.0025     1.8271     1.1596     1.1733  -999.2500
  431.5000    68.5115     2.0426     1.3119     1.3281  -999.2500
  432.0000    68.7694     2.1607     1.4851     1.5032  -999.2500
  432.5000    70.2955     2.0636     1.6810     1.7015  -999.2500
  433.0000    71.8002     2.0099     1.8691     1.9361  -999.2500
  433.5000    72.4570     2.1479     1.9875     2.0584  -999.2500
  434.0000    71.9299     2.2751     2.0043     2.0647  -999.2500
  434.5000    71.8648     2.3804     2.0213     2.0718  -999.2500
  435.0000    71.8328     2.3804     2.0385     2.0771  -999.2500
  435.5000    71.3733     2.3804     2.0558     2.0825  -999.2500
  436.0000    71.6613     2.4954     2.1266     2.1526  -999.2500
  436.5000    73.5882     2.6297     2.2087     2.2355  -999.2500
  437.0000    75.4577     2.7618     2.2939     2.3223  -999.2500
  437.5000    73.7336     2.8324     2.3745     2.4030  -999.2500
  438.0000    70.7547     2.9048     2.4423     2.4721  -999.2500
  438.5000    69.3121     2.9790     2.5120     2.5427  -999.2500
  439.0000    70.2345     3.0550     2.5838     2.6153  -999.2500
  439.5000    71.8694     3.1339     2.6548     2.6871  -999.2500
  440.0000    72.4588     3.1905     2.6977     2.7306  -999.2500
  440.5000    73.0071     3.2630     2.7398     2.7733  -999.2500
  441.0000    73.6641     3.3417     2.7826     2.8165  -999.2500
  441.5000    74.9535     3.3612     2.8260     2.8605  -999.2500
  442.0000    75.3387     3.3880     2.8701     2.9051  -999.2500
  442.5000    75.0767     3.4151     2.9149     2.9505  -999.2500
  443.0000    74.7948     3.4423     2.9607     2.9969  -999.2500
  443.5000    74.9984     3.4697     2.9805     3.0167  -999.2500
  444.0000    75.5038     3.4974     3.0002     3.0368  -999.2500
  444.5000    73.4425     3.5255     3.0202     3.0570  -999.2500
  445.0000    71.0268     3.5510     3.0404     3.0775  -999.2500
  445.5000    69.5697     3.5219     3.0606     3.0979  -999.2500
