~VERSION INFORMATION
 VERS.                2.0:   CWLS LOG ASCII STANDARD - VERSION 2.0
 WRAP.                 NO:   ONE LINE PER DEPTH STEP
~WELL INFORMATION
#MNEM.UNIT      DATA TYPE    INFORMATION
#----------   ------------   ------------------------------
 STRT.F            0.0000:   START DEPTH
 STOP.F         2660.0000:   STOP DEPTH
 STEP.F            0.5000:   STEP LENGTH
 NULL.          -999.2500:   NO VALUE
 COMP. FENIX & SCISSON INC:   COMPANY
 WELL.     101-20 #101-20:   WELL
 FLD .        TEAPOT DOME:   FIELD
 LOC .      S20 T39N R78W:   LOCATION
 CNTY.            NATRONA:   COUNTY
 STAT.            WYOMING:   STATE
 CTRY. UNITED STATES OF AMERICA:   COUNTRY
 SRVC.      NL McCullough:   SERVICE COMPANY
 DATE.        19-SEP-1965:   LOGDATE
 API .       490251022100:   API NUMBER
~CURVE INFORMATION
#MNEM.UNIT       API CODE    CURVE DESCRIPTION
#----------   ------------   ------------------------------
 DEPT.F                  :   
 GR  .GAPI   30 310 01 00:   GAMMA RAY
 CALI.IN     30 280 01 00:   CALIPER
~PARAMETER INFORMATION
#MNEM.UNIT          VALUE    DESCRIPTION
#----------   ------------   ------------------------------
 PD  .                 GL:   PERMANENT DATUM
 LMF .                 GL:   LOG MEASURED FROM
 DMF .                 GL:   DRILLING MEASURED FROM
 DATE.          9-19-1965:   RUN DATE
 RUN .                  1:   RUN NUMBER
 DD  .F              2661:   DEPTH DRILLER
 DL  .F              2659:   DEPTH LOGGER
 BLI .F              2657:   BOTTOM LOG INTERVAL
 TLI .F              2000:   TOP LOG INTERVAL
 CS  .IN              6.5:   CASING SIZE
 CBD .F              2619:   CASING BOTTOM DRILLER
 BSD .F              2661:   BIT SIZE AT DEPTH
 DFT .              WATER:   DRILLING FLUID TYPE
 TCS .HRS               1:   TIME CURCULATED STOPPED
 ENGI.        FITZSIMMONS:   RECORDING ENGINEER
 WITN.          JORGENSEN:   WITNESSED BY
 CLNT.            A2DTECH:   CLIENT CODE
 ORIG.           5" PRINT:   ORIGIN OF DATA
 UWI .       490251022100:   UNIQUE WELL ID
 DICO. A2D Technologies, Inc.:   DIGITIZING COMPANY
~OTHER INFORMATION
~A    DEPT      GR         CALI 
# ...
 2065.5000    61.0360     6.4537
 2066.0000    62.4987     6.4542
 2066.5000    63.8871     6.4546
 2067.0000    65.2048     6.4550
 2067.5000    58.7697     6.4554
 2068.0000    53.0084     6.4559
 2068.5000    53.3761     6.4583
 2069.0000    53.2335     6.4651
 2069.5000    51.7019     6.4718
 2070.0000    45.0007     6.4785
 2070.5000    42.3182     6.4854
 2071.0000    45.2156     6.4837
 2071.5000    49.5660     6.4806
 2072.0000    50.4109     6.4776
 2072.5000    50.7585     6.4762
 2073.0000    50.5723     6.4762
 2073.5000    50.2778     6.4762
 2074.0000    50.0072     6.4762
 2074.5000    53.8925     6.4762
 2075.0000    56.0434     6.4762
 2075.5000    58.1684     6.4762
 2076.0000    67.8288     6.4764
 2076.5000    70.5383     6.4772
 2077.0000    70.9324     6.4780
 2077.5000    70.6911     6.4788
 2078.0000    63.0117     6.4795
 2078.5000    59.3410     6.4803
 2079.0000    56.8629     6.4810
 2079.5000    56.5765     6.4818
 2080.0000    57.4520     6.4826
 2080.5000    57.8209     6.4833
 2081.0000    62.2818     6.4841
 2081.5000    64.0087     6.4848
 2082.0000    68.4726     6.4856
 2082.5000    72.1191     6.4864
 2083.0000    72.7580     6.4871
 2083.5000    70.6649     6.4879
 2084.0000    70.9050     6.4887
 2084.5000    69.7895     6.4894
 2085.0000    72.5705     6.4902
 2085.5000    74.5449     6.4910
 2086.0000    73.5861     6.4917
 2086.5000    74.5243     6.4925
 2087.0000    74.7366     6.4932
 2087.5000    71.9262     6.4940
 2088.0000    70.3222     6.4948
 2088.5000    76.2605     6.4954
 2089.0000    73.4186     6.4973
 2089.5000    72.1521     6.5193
 2090.0000    71.1410     6.5426
 2090.5000    73.3286     6.5077
 2091.0000    78.3622     6.4855
 2091.5000    79.0159     6.4780
 2092.0000    77.3718     6.4711
 2092.5000    70.5324     6.4674
 2093.0000    70.3026     6.4735
 2093.5000    72.3815     6.4716
 2094.0000    78.7738     6.4631
 2094.5000    80.3328     6.4557
 2095.0000    84.5526     6.4653
 2095.5000    77.1937     6.4759
 2096.0000    77.6382     6.4740
 2096.5000    76.2092     6.4718
 2097.0000    74.8405     6.4696
 2097.5000    74.9351     6.4675
 2098.0000    80.0128     6.4661
 2098.5000    81.6582     6.4662
 2099.0000    78.4031     6.4662
 2099.5000    80.0472     6.4662
 2100.0000    82.3039     6.4662
 2100.5000    78.9248     6.4662
 2101.0000    74.7762     6.4662
 2101.5000    70.5293     6.4662
 2102.0000    73.9657     6.4662
 2102.5000    75.9337     6.4662
 2103.0000    82.6347     6.4662
 2103.5000    85.7800     6.4662
 2104.0000    92.9108     6.4662
 2104.5000    82.9778     6.4662
 2105.0000    75.1890     6.4662
 2105.5000    76.5517     6.4662
 2106.0000    74.2074     6.4662
 2106.5000    72.2592     6.4662
 2107.0000    73.9852     6.4662
 2107.5000    73.6236     6.4662
 2108.0000    76.4240     6.4662
 2108.5000    80.2416     6.4662
 2109.0000    77.1203     6.4661
 2109.5000    75.4389     6.4661
 2110.0000    67.4996     6.4676
 2110.5000    69.5790     6.4757
 2111.0000    70.2041     6.4836
 2111.5000    69.5479     6.4912
 2112.0000    69.9567     6.4863
 2112.5000    74.6661     6.4659
 2113.0000    75.9314     6.4676
 2113.5000    72.1787     6.4688
 2114.0000    75.1002     6.4700
 2114.5000    78.2310     6.4712
 2115.0000    82.4220     6.4723
 2115.5000    82.2550     6.4735
 2116.0000    86.0358     6.4747
 2116.5000    87.9674     6.4759
 2117.0000    91.2751     6.4770
 2117.5000    90.8237     6.4782
 2118.0000    77.4616     6.4794
 2118.5000    73.7228     6.4806
 2119.0000    84.0978     6.4818
 2119.5000    82.2967     6.4829
 2120.0000    72.2905     6.4841
 2120.5000    73.2141     6.4853
 2121.0000    74.5889     6.4866
 2121.5000    71.8067     6.4883
 2122.0000    69.0928     6.4900
 2122.5000    74.2030     6.4917
 2123.0000    74.7135     6.4934
 2123.5000    74.1310     6.4950
 2124.0000    77.6244     6.4966
 2124.5000    77.6703     6.4979
 2125.0000    77.4351     6.4992
 2125.5000    77.0608     6.5006
 2126.0000    77.9700     6.5019
 2126.5000    78.7145     6.5032
 2127.0000    76.6644     6.5045
 2127.5000    78.9051     6.5058
 2128.0000    80.7677     6.5092
 2128.5000    79.3888     6.5138
 2129.0000    80.3493     6.5184
 2129.5000    73.1696     6.5229
 2130.0000    73.7215     6.5233
 2130.5000    74.4389     6.5084
 2131.0000    73.2127     6.4960
 2131.5000    76.9208     6.4971
 2132.0000    78.0856     6.4979
 2132.5000    76.2999     6.4987
 2133.0000    78.3497     6.4995
 2133.5000    84.5613     6.5002
 2134.0000    85.9905     6.5010
 2134.5000    78.7226     6.5018
 2135.0000    76.0905     6.5026
 2135.5000    79.4439     6.5033
 2136.0000    82.7861     6.5041
 2136.5000    87.3649     6.5049
 2137.0000    84.4154     6.5057
 2137.5000    84.1471     6.5065
 2138.0000    83.9726     6.5072
 2138.5000    78.9384     6.5080
 2139.0000    76.0444     6.5088
 2139.5000    71.6833     6.5096
 2140.0000    70.5813     6.5103
 2140.5000    71.4816     6.5111
 2141.0000    76.3436     6.5119
 2141.5000    79.8492     6.5127
 2142.0000    80.8541     6.5134
 2142.5000    84.4857     6.5142
 2143.0000    83.7188     6.5150
 2143.5000    86.4577     6.5158
 2144.0000    76.9536     6.5163
 2144.5000    75.2234     6.5163
 2145.0000    75.8721     6.5163
 2145.5000    76.2671     6.5163
 2146.0000    76.3815     6.5163
 2146.5000    80.3084     6.5163
 2147.0000    82.2795     6.5163
 2147.5000    80.2608     6.5163
 2148.0000    84.5472     6.5163
 2148.5000    84.5515     6.5163
 2149.0000    82.2454     6.5163
 2149.5000    83.3627     6.5163
 2150.0000    72.3209     6.5163
 2150.5000    68.6519     6.5163
 2151.0000    67.7925     6.5106
 2151.5000    65.8324     6.5004
 2152.0000    74.9144     6.4900
 2152.5000    74.0160     6.4864
 2153.0000    85.0213     6.4866
 2153.5000    78.1072     6.4869
 2154.0000    73.7336     6.4871
 2154.5000    76.5920     6.4874
 2155.0000    79.8967     6.4877
 2155.5000    92.0323     6.4879
 2156.0000    89.1127     6.4882
 2156.5000    81.4302     6.4885
 2157.0000    82.9142     6.4887
 2157.5000    87.5149     6.4890
 2158.0000    89.7862     6.4893
 2158.5000    90.5174     6.4895
 2159.0000    85.8235     6.4898
 2159.5000    81.6594     6.4901
 2160.0000    79.5630     6.4903
 2160.5000    85.4517     6.4906
 2161.0000    82.8387     6.4909
 2161.5000    82.0970     6.4911
 2162.0000    81.0327     6.4914
 2162.5000    77.6686     6.4917
 2163.0000    77.2171     6.4920
 2163.5000    78.7679     6.4922
 2164.0000    82.4636     6.4925
 2164.5000    83.2596     6.4928
 2165.0000    76.9688     6.4930
 2165.5000    75.2767     6.4933
 2166.0000    74.0689     6.4936
 2166.5000    72.7092     6.4938
 2167.0000    77.1156     6.4941
 2167.5000    82.6429     6.4944
 2168.0000    85.0500     6.4946
 2168.5000    81.2212     6.4949
 2169.0000    79.2181     6.4952
 2169.5000    80.7290     6.4954
 2170.0000    80.5310     6.4957
 2170.5000    77.2815     6.4960
 2171.0000    73.8433     6.4962
 2171.5000    72.1558     6.4962
 2172.0000    71.0826     6.4963
 2172.5000    72.9446     6.4955
 2173.0000    82.4784     6.4944
 2173.5000    86.4995     6.4933
 2174.0000    88.6739     6.4922
 2174.5000    92.0069     6.4911
 2175.0000    91.6178     6.4900
 2175.5000    88.7256     6.4889
 2176.0000    87.2809     6.4878
 2176.5000    83.2011     6.4867
 2177.0000    77.8912     6.4855
 2177.5000    76.4627     6.4844
 2178.0000    76.4576     6.4833
 2178.5000    81.3290     6.4822
 2179.0000    76.9836     6.4811
 2179.5000    76.9947     6.4800
 2180.0000    77.0319     6.4789
 2180.5000    75.5650     6.4778
 2181.0000    75.3137     6.4767
 2181.5000    78.6415     6.4769
 2182.0000    79.7052     6.4780
 2182.5000    82.2102     6.4792
 2183.0000    80.6017     6.4803
 2183.5000    79.5216     6.4815
 2184.0000    81.1197     6.4827
 2184.5000    86.6166     6.4838
 2185.0000    82.7875     6.4850
 2185.5000    76.6950     6.4861
 2186.0000    79.0309     6.4873
 2186.5000    83.3771     6.4885
