~VERSION INFORMATION
 VERS.                2.0:   CWLS LOG ASCII STANDARD - VERSION 2.0
 WRAP.                 NO:   ONE LINE PER DEPTH STEP
~WELL INFORMATION
#MNEM.UNIT      DATA TYPE    INFORMATION
#----------   ------------   ------------------------------
 STRT.F           17.0000:   START DEPTH
 STOP.F         1345.0000:   STOP DEPTH
 STEP.F            0.5000:   STEP LENGTH
 NULL.          -999.2500:   NO VALUE
 COMP. DEPARTMENT OF ENERGY:   COMPANY
 WELL. RES 3 TEAPOT DOME ##86S-11:   WELL
 FLD .             TEAPOT:   FIELD
 LOC .      S11 T38N R78W:   LOCATION
 CNTY.            NATRONA:   COUNTY
 STAT.            WYOMING:   STATE
 CTRY. UNITED STATES OF AMERICA:   COUNTRY
 SRVC.       Schlumberger:   SERVICE COMPANY
 DATE.        13-AUG-1959:   LOGDATE
 API .       490250633200:   API NUMBER
~CURVE INFORMATION
#MNEM.UNIT       API CODE    CURVE DESCRIPTION
#----------   ------------   ------------------------------
 DEPT.F                  :   
 SPR .MV     05 010 01 00:   SPONTANEOUS POTENTIAL FROM RES.
 CILD.MMHO   05 110 46 00:   CONDUCTIVITY INDUCTION LOG DEEP
 ILD .OHMM   05 120 46 00:   INDUCTION LOG DEEP
 ASN .OHMM   05 041 16 00:   AMPLIFIED SHORT NORMAL 16"
~PARAMETER INFORMATION
#MNEM.UNIT          VALUE    DESCRIPTION
#----------   ------------   ------------------------------
 PD  .                 GL:   PERMANENT DATUM
 EPD .F              5295:   ELEVATION PERMANENT DATUM
 LMF .                 KB:   LOG MEASURED FROM
 DAPD.F                 4:   FEET ABOVE PERMANENT DATUM
 DMF .                 KB:   DRILLING MEASURED FROM
 EKB .F              5299:   KELLING BUSHING
 EGL .F              5295:   GROUND LEVEL
 DATE.            8-13-59:   RUN DATE
 RUN .                  1:   RUN NUMBER
 DD  .F              1350:   DEPTH DRILLER
 DL  .F              1350:   DEPTH LOGGER
 BLI .F              1345:   BOTTOM LOG INTERVAL
 TLI .F                17:   TOP LOG INTERVAL
 CBD .F                17:   CASING BOTTOM DRILLER
 CBL .F                17:   CASING BOTTOM LOGGER
 BS  .IN             6.75:   BIT SIZE
 BSD .F              1350:   BIT SIZE AT DEPTH
 DFT .                GEL:   DRILLING FLUID TYPE
 DFD .                9.8:   DRILLING FLUID DENSITY
 DFV .                 65:   DRILLING FLUID VISCOSITY
 DFPH.                9.5:   DRILLING FLUID PH
 DFL .                5.4:   DRILLING FLUID LOSS
 RMS .OHMM           2.84:   RESISTIVITY MUD SAMPLE
 MST .F                69:   MUD SAMPLE TEMPERATURE
 RMF .OHMM            2.5:   RESISTIVITY MUD FILTRATE SAMPLE
 MFST.F                69:   MUD FILTRATE SAMPLE TEMPERATURE
 RMC .OHMM           2.46:   RESISTIVITY MUD CAKE
 MCST.F                69:   MUD CAKE SAMPLE TEMPERATURE
 MFSS.                  M:   MUD FILTRATE SAMPLE SOURCE
 MCSS.                  M:   MUD CAKE SAMPLE SOURCE
 TCS .HRS               1:   TIME CURCULATED STOPPED
 LUN .               2523:   LOGGING UNIT NUMBER
 LUL .               CSPR:   LOGGING UNIT LOCATION
 ENGI.             KNOBEL:   RECORDING ENGINEER
 WITN.             MARTIN:   WITNESSED BY
 CLNT.            A2DTECH:   CLIENT CODE
 ORIG.         2"5" PRINT:   ORIGIN OF DATA
 UWI .       490250633200:   UNIQUE WELL ID
 DICO. A2D Technologies, Inc.:   DIGITIZING COMPANY
~OTHER INFORMATION
~A   DEPT      SPR        CILD         ILD      ASN   
# ...
  528.0000   -15.0720   172.9894     6.3193     6.8028
  528.5000   -14.9649   173.7319     6.2508     6.8776
  529.0000   -14.8561   173.4632     6.1899     6.9293
  529.5000   -14.7486   172.3227     6.1901     7.0078
  530.0000   -14.6390   171.1782     6.2016     6.9290
  530.5000   -14.5334   170.0305     6.2111     6.7208
  531.0000   -14.4207   169.5209     6.2215     6.7382
  531.5000   -14.3203   169.1336     6.2317     6.8112
  532.0000   -14.2007   168.7690     6.2415     6.8803
  532.5000   -14.0701   168.4019     6.2526     6.9472
  533.0000   -14.1840   168.0337     6.2610     7.0213
  533.5000   -14.3004   167.6966     6.2747     7.0366
  534.0000   -14.4227   168.6957     6.2544     6.9081
  534.5000   -14.5419   170.4023     6.2065     6.7827
  535.0000   -14.6622   172.1121     6.1653     6.6532
  535.5000   -14.7829   173.8237     6.1208     6.5430
  536.0000   -14.9019   175.5333     6.0781     6.5207
  536.5000   -15.0247   177.2334     6.0341     6.5116
  537.0000   -15.1374   178.9334     5.9915     6.4851
  537.5000   -15.1562   180.6335     5.9470     6.4490
  538.0000   -15.1129   181.2678     5.9056     6.3761
  538.5000   -15.0200   182.1700     5.8581     6.4079
  539.0000   -14.9316   183.0722     5.8371     6.5119
  539.5000   -14.8406   183.0722     5.9349     6.5966
  540.0000   -14.7511   181.3781     6.0335     6.6915
  540.5000   -14.6605   178.7587     6.1309     6.7785
  541.0000   -14.5709   176.1394     6.2299     6.8733
  541.5000   -14.4799   173.5201     6.3262     6.8983
  542.0000   -14.3915   171.3438     6.4257     6.8302
  542.5000   -14.2986   169.2236     6.4602     6.7725
  543.0000   -14.2139   168.6372     6.4571     6.7188
  543.5000   -14.1127   169.0649     6.4565     6.7966
  544.0000   -14.0996   169.4275     6.4611     6.9661
  544.5000   -14.1817   170.2918     6.4154     6.8864
  545.0000   -14.2487   171.3799     6.3354     6.6818
  545.5000   -14.3235   172.2460     6.2684     6.6117
  546.0000   -14.3940   175.8420     6.1956     6.5803
  546.5000   -14.4669   178.8287     6.1260     6.5524
  547.0000   -14.5386   181.8155     6.0548     6.5278
  547.5000   -14.6111   184.8022     5.9843     6.4915
  548.0000   -14.6829   187.7890     5.9133     6.3843
  548.5000   -14.7556   190.7758     5.8449     6.2846
  549.0000   -14.8267   193.7625     5.8114     6.1910
  549.5000   -14.9010   196.7493     5.7962     6.1450
  550.0000   -14.9648   197.9582     5.7779     6.1107
  550.5000   -14.9750   196.5361     5.7640     6.3640
  551.0000   -14.9526   194.0427     5.7422     6.4607
  551.5000   -14.7428   191.5493     5.7513     6.3053
  552.0000   -14.5119   189.0559     5.8183     6.2000
  552.5000   -14.2799   186.5625     5.8830     6.2960
  553.0000   -14.0578   184.0691     5.9502     6.5731
  553.5000   -13.8123   181.5757     6.0156     6.6856
  554.0000   -13.7174   178.5612     6.0868     6.5783
  554.5000   -13.8874   178.7406     6.0894     6.4815
  555.0000   -14.0505   178.9672     6.0759     6.4879
  555.5000   -14.2224   179.1939     6.0665     6.5705
  556.0000   -14.3875   179.4634     6.0550     6.6442
  556.5000   -14.5595   179.0110     6.0448     6.7217
  557.0000   -14.7220   178.4530     6.0337     6.8038
  557.5000   -14.9010   177.8950     6.0233     6.7982
  558.0000   -14.9769   177.3371     6.0118     6.7498
  558.5000   -14.9728   176.7791     6.0006     6.7020
  559.0000   -14.9336   176.2211     5.9892     6.6587
  559.5000   -14.8471   176.5810     5.9768     6.6175
  560.0000   -14.7668   178.6966     5.9648     6.5392
  560.5000   -14.6939   180.8122     5.9526     6.4398
  561.0000   -14.5822   182.9278     5.9405     6.4317
  561.5000   -14.3304   185.0435     5.9282     6.5576
  562.0000   -14.1545   187.1591     5.9176     6.6676
  562.5000   -13.9703   188.4853     5.9433     6.6364
  563.0000   -13.7946   186.4438     5.9787     6.5709
  563.5000   -13.6082   184.1123     6.0120     6.5086
  564.0000   -13.4386   181.7808     6.0465     6.5585
  564.5000   -13.2391   180.3656     6.0802     6.7466
  565.0000   -13.2507   180.3656     6.1145     6.8289
  565.5000   -13.4375   180.2195     6.1478     6.8013
  566.0000   -13.5882   179.8568     6.1882     6.7857
  566.5000   -13.7568   179.4634     6.2831     6.7683
  567.0000   -13.9152   177.6181     6.3940     6.7434
  567.5000   -14.0804   175.3579     6.5019     6.7890
  568.0000   -14.2395   172.1817     6.6120     6.9324
  568.5000   -14.4066   167.7715     6.7201     7.0564
  569.0000   -14.5604   163.3565     6.8309     7.2687
  569.5000   -14.7372   158.9391     6.9377     7.5931
  570.0000   -14.7329   154.5272     7.0805     7.8902
  570.5000   -14.5872   150.1252     7.2633     8.2350
  571.0000   -14.4720   145.7424     7.4439     8.3835
  571.5000   -14.3422   141.6980     7.5227     8.0852
  572.0000   -14.2204   139.6681     7.3693     7.9809
  572.5000   -14.0943   141.4815     7.1836     7.8460
  573.0000   -13.9701   145.9744     7.0381     7.7406
  573.5000   -13.8448   151.4145     6.8919     7.6340
  574.0000   -13.7203   156.8547     6.7469     7.5276
  574.5000   -13.5952   162.3219     6.5997     7.4215
  575.0000   -13.4714   163.2241     6.4649     7.3145
  575.5000   -13.3449   163.0723     6.4656     7.2227
  576.0000   -13.2249   162.7700     6.6073     7.2189
  576.5000   -13.1602   162.4678     6.7615     7.3711
  577.0000   -13.2884   160.3516     6.9137     7.5350
  577.5000   -13.5067   156.5435     7.0667     7.7004
  578.0000   -13.6997   152.7353     7.2192     7.8525
  578.5000   -13.9039   148.9272     7.3726     7.9852
  579.0000   -14.1021   145.1191     7.5249     8.1312
  579.5000   -14.3036   142.2616     7.6791     8.2726
  580.0000   -14.5029   140.2064     7.8290     8.4158
  580.5000   -14.7045   138.1512     7.9870     8.5583
  581.0000   -14.8996   136.0960     8.1301     8.7005
  581.5000   -14.9907   134.0409     8.3013     8.8415
  582.0000   -14.8513   131.9857     8.2785     8.9725
  582.5000   -14.6267   129.9305     8.0919     8.9103
  583.0000   -14.4280   128.0389     7.9388     8.7521
  583.5000   -14.2183   132.1719     7.7691     8.6319
  584.0000   -14.0144   136.0002     7.6088     8.4213
  584.5000   -13.8072   139.8285     7.4428     8.1496
  585.0000   -13.6018   143.6568     7.2811     7.8951
  585.5000   -13.3956   147.4850     7.1145     7.6360
  586.0000   -13.1901   151.3133     6.9554     7.3946
  586.5000   -12.9831   155.1416     6.7853     7.3236
  587.0000   -12.8157   158.9698     6.7370     7.6192
  587.5000   -12.8999   162.3219     6.7803     7.8235
  588.0000   -13.0571   160.8752     6.8035     7.5643
  588.5000   -13.1905   158.5672     6.8403     7.4871
  589.0000   -13.3346   156.2593     6.8633     7.5800
  589.5000   -13.4720   153.9513     6.9059     7.6899
  590.0000   -13.6152   151.6434     6.8329     7.5865
  590.5000   -13.7516   149.6914     6.6798     7.3353
  591.0000   -13.8985   160.1567     6.5510     7.1334
  591.5000   -14.0224   169.2236     6.4098     6.9560
  592.0000   -14.1227   173.6967     6.2772     6.8472
  592.5000   -14.2683   175.8727     6.1391     6.7537
  593.0000   -14.2303   177.6591     6.0888     6.6641
  593.5000   -14.0780   178.7282     6.0796     6.5653
  594.0000   -13.9275   179.6349     6.0619     6.5552
  594.5000   -13.7817   180.3656     6.0490     6.6976
  595.0000   -13.6333   179.1846     6.0334     6.8365
  595.5000   -13.4866   178.1955     6.0192     6.9231
  596.0000   -13.3379   177.2063     6.0044     6.8310
  596.5000   -13.1923   176.2172     5.9899     6.7443
  597.0000   -13.0417   175.2281     5.9752     6.6569
  597.5000   -12.9004   176.5223     5.9604     6.6135
  598.0000   -12.7408   178.6984     5.9457     6.5649
  598.5000   -12.6639   180.3656     5.9310     6.5670
  599.0000   -12.8430   179.7722     5.9164     6.6565
  599.5000   -13.0043   178.9662     5.9018     6.7281
  600.0000   -13.1709   178.1603     5.8872     6.8170
  600.5000   -13.3326   177.3543     5.8724     6.8719
