~VERSION INFORMATION
 VERS.                2.0:   CWLS LOG ASCII STANDARD - VERSION 2.0
 WRAP.                 NO:   ONE LINE PER DEPTH STEP
~WELL INFORMATION
#MNEM.UNIT      DATA TYPE    INFORMATION
#----------   ------------   ------------------------------
 STRT.F           18.0000:   START DEPTH
 STOP.F          576.0000:   STOP DEPTH
 STEP.F            0.5000:   STEP LENGTH
 NULL.          -999.2500:   NO VALUE
 COMP. LAWRENCE/ALLISON INC:   COMPANY
 WELL.    41-16 SX #10-10:   WELL
 FLD .             TEAPOT:   FIELD
 LOC .      S10 T38N R78W:   LOCATION
 CNTY.            NATRONA:   COUNTY
 STAT.            WYOMING:   STATE
 CTRY. UNITED STATES OF AMERICA:   COUNTRY
 SRVC.           Gearhart:   SERVICE COMPANY
 DATE.        30-JUL-1987:   LOGDATE
 API .       490251115400:   API NUMBER
~CURVE INFORMATION
#MNEM.UNIT       API CODE    CURVE DESCRIPTION
#----------   ------------   ------------------------------
 DEPT.F                  :   
 GRR .GAPI   07 310 01 00:   GAMMA RAY
 ILD .OHMM   07 120 46 00:   INDUCTION LOG DEEP
 ILM .OHMM   07 120 44 00:   INDUCTION LOG MEDIUM
~PARAMETER INFORMATION
#MNEM.UNIT          VALUE    DESCRIPTION
#----------   ------------   ------------------------------
 PD  .                 GL:   PERMANENT DATUM
 EPD .F              5253:   ELEVATION PERMANENT DATUM
 LMF .                 KB:   LOG MEASURED FROM
 DAPD.F                 8:   FEET ABOVE PERMANENT DATUM
 DMF .                 KB:   DRILLING MEASURED FROM
 EKB .F              5261:   KELLING BUSHING
 EGL .F              5253:   GROUND LEVEL
 DATE.        30-JUL-1987:   RUN DATE
 RUN .                  1:   RUN NUMBER
 DD  .F               570:   DEPTH DRILLER
 DL  .F               584:   DEPTH LOGGER
 BLI .F               576:   BOTTOM LOG INTERVAL
 TLI .F                18:   TOP LOG INTERVAL
 CS  .IN            8.625:   CASING SIZE
 CBD .F                48:   CASING BOTTOM DRILLER
 CBL .F                48:   CASING BOTTOM LOGGER
 BS  .IN            7.875:   BIT SIZE
 BSD .F               570:   BIT SIZE AT DEPTH
 TLAB.HRS            0346:   TIME LOGGER AT BOTTOM
 MRT .F                80:   MAXIMUM RECORDED TEMPERATURE
 LUN .               7597:   LOGGING UNIT NUMBER
 LUL .           GILLETTE:   LOGGING UNIT LOCATION
 ENGI. K. HUCHFELDT, R. WEATHERMON:   RECORDING ENGINEER
 WITN.    MR. GARY STRONG:   WITNESSED BY
 CLNT.            A2DTECH:   CLIENT CODE
 ORIG.         2.5" PRINT:   ORIGIN OF DATA
 UWI .       490251115400:   UNIQUE WELL ID
 DICO. A2D Technologies, Inc.:   DIGITIZING COMPANY
~OTHER INFORMATION
~A   DEPT       GRR       ILD        ILM   
   18.0000    90.4669  -999.2500  -999.2500
   18.5000    90.4785  -999.2500  -999.2500
   19.0000    90.4900  -999.2500  -999.2500
   19.5000    90.5034  -999.2500  -999.2500
   20.0000    91.1194  -999.2500  -999.2500
   20.5000    92.9439  -999.2500  -999.2500
   21.0000    95.3726  -999.2500  -999.2500
   21.5000    97.8013  -999.2500  -999.2500
   22.0000    97.8489  -999.2500  -999.2500
   22.5000    96.0121  -999.2500  -999.2500
   23.0000    93.6070  -999.2500  -999.2500
   23.5000    97.8489  -999.2500  -999.2500
   24.0000    97.7724  -999.2500  -999.2500
   24.5000    95.2165  -999.2500  -999.2500
   25.0000    92.7493  -999.2500  -999.2500
   25.5000    91.8532  -999.2500  -999.2500
   26.0000    96.7372  -999.2500  -999.2500
   26.5000    99.9789  -999.2500  -999.2500
   27.0000    99.2467  -999.2500  -999.2500
   27.5000    96.1229  -999.2500  -999.2500
   28.0000    95.5408  -999.2500  -999.2500
   28.5000    97.9721  -999.2500  -999.2500
   29.0000   100.4008  -999.2500  -999.2500
   29.5000   101.6210  -999.2500  -999.2500
   30.0000   101.0272  -999.2500  -999.2500
   30.5000    98.6234  -999.2500  -999.2500
   31.0000    95.6141  -999.2500  -999.2500
   31.5000    93.2089  -999.2500  -999.2500
   32.0000    92.0122  -999.2500  -999.2500
   32.5000    92.6435  -999.2500  -999.2500
   33.0000    94.5458  -999.2500  -999.2500
   33.5000    95.8288  -999.2500  -999.2500
   34.0000    97.4985  -999.2500  -999.2500
   34.5000    95.4179  -999.2500  -999.2500
   35.0000    92.7795  -999.2500  -999.2500
   35.5000    90.4834  -999.2500  -999.2500
   36.0000    88.4811  -999.2500  -999.2500
   36.5000    92.9899  -999.2500  -999.2500
   37.0000    93.0453  -999.2500  -999.2500
   37.5000    91.2135  -999.2500  -999.2500
   38.0000    90.9486  -999.2500  -999.2500
   38.5000    90.3565  -999.2500  -999.2500
   39.0000    91.5788  -999.2500  -999.2500
   39.5000    90.3821  -999.2500  -999.2500
   40.0000    89.1843  -999.2500  -999.2500
   40.5000    92.8226  -999.2500  -999.2500
   41.0000    95.8556  -999.2500  -999.2500
   41.5000    93.4504  -999.2500  -999.2500
   42.0000    90.4330  -999.2500  -999.2500
   42.5000    89.2444  -999.2500  -999.2500
   43.0000    92.6103  -999.2500  -999.2500
   43.5000    96.0131  -999.2500  -999.2500
   44.0000    95.5408  -999.2500  -999.2500
   44.5000    91.5499  -999.2500  -999.2500
   45.0000    92.2961  -999.2500  -999.2500
   45.5000    95.5821  -999.2500  -999.2500
   46.0000    97.4381  -999.2500  -999.2500
   46.5000    97.2306  -999.2500  -999.2500
   47.0000    95.6838  -999.2500  -999.2500
   47.5000    93.5952  -999.2500  -999.2500
   48.0000    93.6095     7.9588   225.3857
   48.5000    96.0381     3.3476    10.0376
   49.0000   106.9261     3.5176     3.5200
   49.5000   115.3971    10.1739     3.7196
   50.0000   119.6385    24.2599     4.5742
   50.5000   120.8587    27.0988     5.7086
   51.0000   119.6620    23.6171     6.3803
   51.5000   115.4442    10.6189     7.1260
   52.0000   114.8517     7.6300     7.7314
   52.5000   114.9748     7.2232     7.1774
   53.0000   118.7613     6.7444     6.5286
   53.5000   120.9294     6.6460     6.1754
   54.0000   119.7327     7.3314     5.9441
   54.5000   119.7462     7.9666     6.0391
   55.0000   120.5740     8.1923     6.4131
   55.5000   122.4300     8.0731     6.8756
   56.0000   123.1339     7.6438     7.2097
   56.5000   118.8731     7.3333     7.2097
   57.0000   112.1511     7.2467     7.2097
   57.5000   105.3195     7.1500     7.0866
   58.0000   102.9144     7.1529     6.8923
   58.5000   101.1118     7.1555     6.8228
   59.0000   112.6056     7.1582     6.9464
   59.5000   116.2428     7.0623     7.0444
   60.0000   118.6715     7.0654     7.1439
   60.5000   120.4959     7.0680     7.2097
   61.0000   120.5077     7.0705     7.2097
   61.5000   120.5196     7.1263     7.2097
   62.0000   120.5317     7.0758     7.2097
   62.5000   120.5438     7.0784     7.1110
   63.0000   120.5559     7.0810     7.1110
   63.5000   120.5680     7.0841     7.0671
   64.0000   120.4109     6.9891     6.9688
   64.5000   119.7875     6.9921     6.9175
   65.0000   117.4924     6.9947     6.9175
   65.5000   116.3082     6.9972     6.9175
   66.0000   118.5055     6.9997     6.9175
   66.5000   120.3615     7.0022     6.9175
   67.0000   120.6550     7.1020     6.9175
   67.5000   120.0604     7.2032     7.0136
   68.0000   118.8659     7.2058     7.0136
   68.5000   118.8776     7.2084     7.1110
   69.0000   118.8894     7.3112     7.1110
   69.5000   120.1097     7.3138     7.2097
   70.0000   120.7257     7.3165     7.2097
   70.5000   121.9459     7.3272     7.3098
   71.0000   124.9809     7.4352     7.4113
   71.5000   125.5952     7.6339     7.5142
   72.0000   124.8741     7.7427     7.6185
   72.5000   123.0111     7.7689     7.6185
   73.0000   120.6707     7.9928     7.7243
   73.5000   118.8389     8.0786     7.7243
   74.0000   117.4220     8.1938     7.8315
   74.5000   115.5589     8.1968     7.7243
   75.0000   112.5881     8.1998     7.7243
   75.5000   109.4159     8.2028     7.6185
   76.0000   106.3444     8.2059     7.6185
   76.5000   107.8490     8.0965     7.6185
   77.0000   120.8965     8.0994     7.6185
   77.5000   121.7069     8.1024     7.6185
   78.0000   120.3158     8.2185     7.6185
   78.5000   120.9318     8.2215     7.6185
   79.0000   121.5478     8.2245     7.6185
   79.5000   122.7681     8.2274     7.7243
   80.0000   123.3841     8.2304     7.8315
   80.5000   124.0001     8.3477     7.9402
   81.0000   125.8469     8.5842     8.0505
   81.5000   128.3605     8.5873     8.0505
   82.0000   130.8520     8.7097     8.0505
   82.5000   133.3434     8.7128     8.0505
   83.0000   135.5394     8.7160     8.0505
   83.5000   133.5619     8.8402     8.0635
   84.0000   131.1259     8.9673     8.2909
   84.5000   128.4491     9.0995     8.5069
   85.0000   126.4652     9.2236     8.6450
   85.5000   130.4683     9.3697     8.8887
   86.0000   133.1964     9.6202     9.1394
   86.5000   132.0023     9.7574     9.3971
   87.0000   126.5760     9.9261     9.5609
   87.5000   122.3582    10.1769     9.9345
   88.0000   118.7446    10.3220    10.0747
   88.5000   121.7775    10.3715    10.3588
   89.0000   123.6020    10.4730    10.6067
   89.5000   121.1969    10.6223    10.8013
   90.0000   118.7917    10.7738    11.0546
   90.5000   116.3866    10.9274    11.1084
   91.0000   115.7523    10.9314    11.2081
   91.5000   113.9932    11.1681    11.2081
   92.0000   114.1108    11.3327    11.2081
   92.5000   115.4985    11.2502    11.2081
   93.0000   116.9487    10.9482    11.0546
   93.5000   119.0745    10.9522    10.9865
   94.0000   120.9305    10.8055    10.8336
   94.5000   122.4431    10.5160    10.6828
   95.0000   123.7462    10.3757    10.6067
   95.5000   125.6133    10.3795    10.6067
   96.0000   129.0634    10.3832    10.5293
   96.5000   127.4100    10.3870    10.4615
   97.0000   123.1922    10.3907    10.3803
   97.5000   119.5786    10.3945    10.2829
   98.0000   121.4030    10.2558    10.0376
   98.5000   123.2275    10.1180    10.0376
   99.0000   124.4477     9.9784     9.9963
   99.5000   125.6680     9.8510     9.9001
  100.0000   126.8882     9.8547     9.7646
  100.5000   127.5023     9.8584     9.6322
  101.0000   124.5720     9.8620     9.5015
  101.5000   120.6012     9.8656     9.4853
  102.0000   117.1721     9.8692     9.2229
  102.5000   115.5790     9.8729     9.1202
  103.0000   123.9417     9.9201     9.1216
  103.5000   128.1831    10.0173     9.1229
  104.0000   130.0075    10.0210     9.2970
  104.5000   131.2278    10.0247     9.3805
  105.0000   130.6353     9.8910     9.3818
  105.5000   128.8344     9.8947     9.3831
  106.0000   125.8250     9.8983     9.3844
  106.5000   123.4169     9.9019     9.3857
  107.0000   121.6190     9.8703     9.3872
  107.5000   121.0266     9.7341     9.3885
  108.0000   121.1360     9.4684     9.2610
  108.5000   123.7241     9.3838     9.2624
