~VERSION INFORMATION
 VERS.                2.0:   CWLS LOG ASCII STANDARD - VERSION 2.0
 WRAP.                 NO:   ONE LINE PER DEPTH STEP
~WELL INFORMATION
#MNEM.UNIT      DATA TYPE    INFORMATION
#----------   ------------   ------------------------------
 STRT.F           36.0000:   START DEPTH
 STOP.F          564.0000:   STOP DEPTH
 STEP.F            0.5000:   STEP LENGTH
 NULL.          -999.2500:   NO VALUE
 COMP.    FENIX & SCISSON:   COMPANY
 WELL.        NPR #73-S-3:   WELL
 FLD .             TEAPOT:   FIELD
 LOC .       S3 T38N R78W:   LOCATION
 CNTY.            NATRONA:   COUNTY
 STAT.            WYOMING:   STATE
 CTRY. UNITED STATES OF AMERICA:   COUNTRY
 SRVC.       Schlumberger:   SERVICE COMPANY
 DATE.        19-FEB-1977:   LOGDATE
 API .       490251027900:   API NUMBER
~CURVE INFORMATION
#MNEM.UNIT       API CODE    CURVE DESCRIPTION
#----------   ------------   ------------------------------
 DEPT.F                  :   
 SPR .MV     07 010 01 00:   SPONTANEOUS POTENTIAL
 ILD .OHMM   07 120 46 00:   INDUCTION LOG DEEP
 ILM .OHMM   07 120 44 00:   INDUCTION LOG MEDIUM
 LL8 .OHMM   07 220 08 00:   LATEROLOG-8 RES.
 CALD.IN     45 280 60 00:   CALIPER FROM DENSITY LOG
 CORR.G/C3   45 356 01 00:   DENSITY CORRECTION
 RHOB.G/C3   45 350 01 00:   BULK DENSITY
 DPHI.DEC    45 890 12 00:   DENSITY POROSITY SANDSTONE
 GRD .GAPI   45 310 01 00:   GAMMA RAY FROM DENSITY LOG
~PARAMETER INFORMATION
#MNEM.UNIT          VALUE    DESCRIPTION
#----------   ------------   ------------------------------
 PD  .                 GL:   PERMANENT DATUM
 EPD .F              5128:   ELEVATION PERMANENT DATUM
 LMF .                 GL:   LOG MEASURED FROM
 DAPD.F                 5:   FEET ABOVE PERMANENT DATUM
 DMF .                 KB:   DRILLING MEASURED FROM
 EKB .F              5133:   KELLING BUSHING
 EGL .F              5128:   GROUND LEVEL
 DATE.        19-FEB-1977:   RUN DATE
 RUN .                  1:   RUN NUMBER
 DD  .F               570:   DEPTH DRILLER
 DL  .F               565:   DEPTH LOGGER
 BLI .F               564:   BOTTOM LOG INTERVAL
 TLI .F                36:   TOP LOG INTERVAL
 CS  .IN            8.625:   CASING SIZE
 CBD .F                40:   CASING BOTTOM DRILLER
 CBL .F                41:   CASING BOTTOM LOGGER
 BS  .IN            7.875:   BIT SIZE
 BSD .F               570:   BIT SIZE AT DEPTH
 DFT .                FGM:   DRILLING FLUID TYPE
 DFD .                8.9:   DRILLING FLUID DENSITY
 DFV .                 31:   DRILLING FLUID VISCOSITY
 DFPH.                8.2:   DRILLING FLUID PH
 DFL .                9.2:   DRILLING FLUID LOSS
 MSS .            MUD PIT:   MUD SAMPLE SOURCE
 RMS .OHMM           .244:   RESISTIVITY MUD SAMPLE
 MST .F                78:   MUD SAMPLE TEMPERATURE
 RMF .OHMM           .233:   RESISTIVITY MUD FILTRATE SAMPLE
 MFST.F                68:   MUD FILTRATE SAMPLE TEMPERATURE
 RMC .OHMM            .36:   RESISTIVITY MUD CAKE
 MCST.F                78:   MUD CAKE SAMPLE TEMPERATURE
 MFSS.               MEAS:   MUD FILTRATE SAMPLE SOURCE
 MCSS.               CALC:   MUD CAKE SAMPLE SOURCE
 RMB .OHMM            .35:   RESISTIVITY MUD AT BHT
 BHT .F                55:   BOTTOM HOLE TEMPERATURE
 TCS .HRS               2:   TIME CURCULATED STOPPED
 MRT .F                55:   MAXIMUM RECORDED TEMPERATURE
 LUN .               7711:   LOGGING UNIT NUMBER
 LUL .               CSPR:   LOGGING UNIT LOCATION
 ENGI.                FIX:   RECORDING ENGINEER
 WITN.           VOORHEES:   WITNESSED BY
 CLNT.            A2DTECH:   CLIENT CODE
 ORIG.           5" PRINT:   ORIGIN OF DATA
 UWI .       490251027900:   UNIQUE WELL ID
 DICO. A2D Technologies, Inc.:   DIGITIZING COMPANY
~OTHER INFORMATION
~A   DEPT      SPR        ILD        ILM        LL8       CALD       CORR       RHOB       DPHI        GRD   
# ...
  109.0000   -54.8161    10.1486     9.0128     9.2385     8.6703     0.0008     2.4400     0.1239   124.2891
  109.5000   -55.0035    10.1542     9.0187     9.1166     8.6715     0.0081     2.4528     0.1182   126.8466
  110.0000   -55.5297    10.2300     8.9621     9.0598     8.6727     0.0125     2.4694     0.1130   124.4713
  110.5000   -55.6606    10.3064     8.9680     9.1294     8.6739     0.0193     2.4702     0.1070   121.9465
  111.0000   -55.3443    10.3833     9.2876     9.3897     8.6751     0.0148     2.4628     0.1112   123.3081
  111.5000   -55.1768    10.4609     9.7518     9.7911     8.6763     0.0172     2.4719     0.1079   125.2676
  112.0000   -55.0103    10.6851     9.9613    10.0703     8.6923     0.0187     2.4674     0.1060   126.1808
  112.5000   -55.1412    10.8392    10.0363    10.2161     8.6786     0.0210     2.4840     0.1042   126.1972
  113.0000   -55.2722    11.0715    10.0426    10.2929     8.6947     0.0226     2.4886     0.0952   125.6156
  113.5000   -55.7012    11.3088     9.9784    10.3704     8.6959     0.0234     2.4894     0.0939   124.4361
  114.0000   -55.6831    11.6309     9.9862    10.5205     8.7119     0.0235     2.4790     0.0978   122.0608
  114.5000   -55.5160    11.7987     9.9224    10.5996     8.7280     0.0085     2.4745     0.1047   119.9845
  115.0000   -55.3489    11.9689     9.8605    10.6794     8.7441     0.0093     2.4641     0.1092   117.9234
  115.5000   -55.0327    12.0582     9.8682    10.7598     8.7750     0.0176     2.4769     0.1104   114.9363
  116.0000   -54.7166    12.2321     9.8743    10.7665     8.8060     0.0215     2.4875     0.0999   114.5001
  116.5000   -54.6985    12.3235     9.8112    10.8475     8.8220     0.0230     2.4898     0.0950   114.3711
  117.0000   -54.6804    12.4155     9.8189    11.0045     8.8383     0.0186     2.4599     0.1107   112.3861
  117.5000   -54.6623    12.4209     9.8250    11.2407     8.8839     0.0246     2.4599     0.1161   109.3071
  118.0000   -54.6443    12.5133     9.8311    11.8021     8.9306     0.0345     2.4532     0.1182   106.0507
  118.5000   -54.6262    12.4344     9.8373    11.3324     9.0725     0.0435     2.4773     0.1109   103.8249
  119.0000   -54.6081    12.3559     9.8434    10.7327     9.4599     0.0391     2.4654     0.1154   103.8412
  119.5000   -54.8881    12.1864     9.8495    10.5202     9.7271     0.0264     2.4602     0.1145   103.8576
  120.0000   -55.0236    11.7824     9.7866    10.5268     9.8462     0.0257     2.4648     0.1139   103.2760
  120.5000   -55.1545    11.5532     9.8618    10.4596     9.9522     0.0212     2.4573     0.1155   101.9470
  121.0000   -54.8376    11.4803     9.8680    10.1838    10.0407     0.0266     2.4747     0.1117    99.8707
  121.5000   -54.6706    11.4866     9.9410    10.0511    10.1166     0.0236     2.4522     0.1192    99.1356
  122.0000   -54.8022    11.4930     9.8787     9.9200    10.1746     0.0312     2.4538     0.1189   100.3518
  122.5000   -54.9404    11.4994     9.8851     9.9246    10.2205     0.0350     2.4741     0.1092   102.9092
  123.0000   -55.3631    11.5057     9.7559     9.9308    10.2663     0.0245     2.4629     0.1136   105.9151
  123.5000   -55.6422    11.5121     9.7621     9.9370    10.3121     0.0366     2.4660     0.1121   107.7252
  124.0000   -55.6241    11.4393     9.8356     9.9432    10.3282     0.0457     2.4788     0.1040   108.7878
  124.5000   -55.6060    11.3671     9.8417     9.9494    10.3440     0.0533     2.4992     0.0921   108.6506
  125.0000   -55.5879    11.2953     9.8478     9.8197    10.3154     0.0428     2.4872     0.0917   108.8205
  125.5000   -55.5698    11.2240     9.9219     9.6916    10.2868     0.0413     2.4813     0.1008   110.4811
  126.0000   -55.9989    11.2305     9.8600     9.6977    10.2436     0.0482     2.4889     0.1028   109.3016
  126.5000   -56.2834    11.3144     9.8662     9.7037    10.2151     0.0602     2.4950     0.0926   107.6737
  127.0000   -56.1117    11.3988     9.8723    10.4006    10.2011     0.0708     2.4920     0.0922   106.9426
  127.5000   -55.9446    11.4839     9.8108    11.4583    10.1579     0.0844     2.4966     0.0919   107.1084
  128.0000   -55.4794    11.5697     9.7494    11.4253    10.0740     0.0807     2.4967     0.0922   108.7690
  128.5000   -55.1633    11.5761     9.6224    10.3489     9.6245     0.0342     2.4727     0.1006   111.1770
  129.0000   -54.6981    11.5825     9.3671     9.6668     9.3727     0.0305     2.4893     0.1051   111.9407
  129.5000   -54.2330    11.5889     9.1801     9.4751     9.4631     0.0358     2.4991     0.0901   111.9570
  130.0000   -53.9168    11.5158     8.9379     9.6455     9.5834     0.0224     2.4804     0.0939   111.8239
  130.5000   -53.6007    11.2867     8.8213     9.9538     9.6143     0.0164     2.4707     0.1123   111.8402
  131.0000   -53.2845    11.0621     8.7649    10.3083     9.6304     0.0150     2.4550     0.1177   112.0060
  131.5000   -53.2664    10.9908     8.7102    10.5296     9.6465     0.0164     2.4490     0.1213   113.2242
  132.0000   -53.3974    11.0743     8.7170     9.9724     9.6774     0.0255     2.4604     0.1171   115.0403
  132.5000   -53.3830    11.1570     8.7225     9.7750     9.7381     0.0346     2.4702     0.1095   116.0912
  133.0000   -53.5148    11.1632     8.7881     9.7141    10.0071     0.0408     2.4733     0.1056   116.2571
  133.5000   -53.8088    11.0167     8.8529     9.7872    10.1125     0.0393     2.4666     0.1068   115.6751
  134.0000   -54.2315    10.7234     8.7388     9.7933    10.0087     0.0266     2.4591     0.1161   115.0936
  134.5000   -54.8033    10.5100     8.5069     9.7322     9.8896     0.0199     2.4525     0.1179   115.5849
  135.0000   -55.3799    10.3721     8.2799     9.8055     9.7728     0.0102     2.4367     0.1245   118.7178
  135.5000   -55.6602    10.3052     8.1159    10.0160     9.7452     0.0125     2.4496     0.1205   119.1825
  136.0000   -55.7914    10.1699     8.0112     9.8854     9.7927     0.0171     2.4549     0.1175   117.4051
  136.5000   -55.9225     9.9690     7.8525     9.4269     9.7736     0.0187     2.4602     0.1166   110.6950
  137.0000   -55.9037     9.7036     7.8023     8.9897     9.7190     0.0090     2.4490     0.1211   111.1598
  137.5000   -55.7366     9.3805     7.7537     8.6319     9.7053     0.0150     2.4506     0.1199   113.5677
  138.0000   -55.7185     9.0059     7.7053     8.2883     9.7065     0.0233     2.4597     0.1153   116.8726
  138.5000   -55.7004     8.8135     7.6573     8.1242     9.6931     0.0272     2.4650     0.1141   117.6363
  139.0000   -55.6823     8.7097     7.6632     8.0736     9.6496     0.0287     2.4561     0.1183   118.2505
  139.5000   -55.8178     8.7147     7.7209     8.0786     9.6356     0.0198     2.4389     0.1243   121.2564
  140.0000   -56.2468     8.7797     7.7248     7.9733     9.6219     0.0288     2.4517     0.1189   120.8243
  140.5000   -56.6713     8.8452     7.8460     7.9782     9.6681     0.0326     2.4527     0.1192   117.8511
  141.0000   -56.5042     8.9113     8.0131     8.2057     9.7288     0.0252     2.4473     0.1212   116.3727
  141.5000   -56.1881     8.9817     8.2971     8.5565     9.7746     0.0110     2.4384     0.1231   114.0757
  142.0000   -56.0210     9.1097     8.5967     8.8005     9.7907     0.0081     2.4467     0.1209   109.5280
  142.5000   -55.5558     9.2396     8.8915     9.0515     9.7919     0.0096     2.4465     0.1194   105.2095
  143.0000   -55.2396     9.4365     8.9584     9.3096     9.7930     0.0179     2.4574     0.1160   104.6278
  143.5000   -54.9235     9.6388     9.0258     9.4443     9.7942     0.0255     2.4657     0.1157   107.6338
  144.0000   -54.8813     9.7778     8.9695     9.5810     9.8103     0.0264     2.4530     0.1193   108.0986
  144.5000   -54.5931     9.9188     8.9751     9.5870     9.8261     0.0226     2.4493     0.1209   107.6665
  145.0000   -54.4262     9.9243     8.9807     9.3643     9.7383     0.0174     2.4476     0.1217   108.9287
