~VERSION INFORMATION
 VERS.                2.0:   CWLS LOG ASCII STANDARD - VERSION 2.0
 WRAP.                 NO:   ONE LINE PER DEPTH STEP
~WELL INFORMATION
#MNEM.UNIT      DATA TYPE    INFORMATION
#----------   ------------   ------------------------------
 STRT.F           10.0000:   START DEPTH
 STOP.F         2599.5000:   STOP DEPTH
 STEP.F            0.5000:   STEP LENGTH
 NULL.          -999.2500:   NO VALUE
 COMP. FENIX & SCISSON INC:   COMPANY
 WELL.   34-SHX-33 #34-33:   WELL
 FLD .             TEAPOT:   FIELD
 LOC .      S33 T39N R78W:   LOCATION
 CNTY.            NATRONA:   COUNTY
 STAT.            WYOMING:   STATE
 CTRY. UNITED STATES OF AMERICA:   COUNTRY
 SRVC.           BIRDWELL:   SERVICE COMPANY
 DATE.        20-FEB-1978:   LOGDATE
 API .       490251058400:   API NUMBER
~CURVE INFORMATION
#MNEM.UNIT       API CODE    CURVE DESCRIPTION
#----------   ------------   ------------------------------
 DEPT.F                  :   
 GR  .GAPI   30 310 01 00:   GAMMA RAY
 CALI.IN     70 280 01 00:   CALIPER
~PARAMETER INFORMATION
#MNEM.UNIT          VALUE    DESCRIPTION
#----------   ------------   ------------------------------
 PD  .                 GL:   PERMANENT DATUM
 EPD .F              5174:   ELEVATION PERMANENT DATUM
 LMF .                 KB:   LOG MEASURED FROM
 DAPD.F                10:   FEET ABOVE PERMANENT DATUM
 DMF .                 KB:   DRILLING MEASURED FROM
 EKB .F              5184:   KELLING BUSHING
 EGL .F              5174:   GROUND LEVEL
 DATE.            2-20-78:   RUN DATE
 RUN .                  1:   RUN NUMBER
 DD  .F              2590:   DEPTH DRILLER
 DL  .F              2600:   DEPTH LOGGER
 BLI .F              2600:   BOTTOM LOG INTERVAL
 CS  .IN            8.625:   CASING SIZE
 CBD .F               737:   CASING BOTTOM DRILLER
 BS  .IN            8.625:   BIT SIZE
 BSD .F              2590:   BIT SIZE AT DEPTH
 TCS .HRS               2:   TIME CURCULATED STOPPED
 LUL .             CASPER:   LOGGING UNIT LOCATION
 ENGI.             MILLER:   RECORDING ENGINEER
 WITN.           MCGINLEY:   WITNESSED BY
 CLNT.            A2DTECH:   CLIENT CODE
 ORIG.           5" PRINT:   ORIGIN OF DATA
 UWI .       490251058400:   UNIQUE WELL ID
 DICO. A2D Technologies, Inc.:   DIGITIZING COMPANY
~OTHER INFORMATION
~A   DEPT        GR      CALI   
# ...
  982.0000   136.8743    10.9144
  982.5000   130.2720    10.9145
  983.0000   123.4516    10.9051
  983.5000   121.7935    10.8962
  984.0000   128.3271    10.9327
  984.5000   134.8201    10.9679
  985.0000   140.6918    10.9930
  985.5000   140.8441    10.9852
  986.0000   141.6751    10.9781
  986.5000   145.4599    10.9711
  987.0000   144.8762    10.9641
  987.5000   143.9963    10.9570
  988.0000   145.0045    10.9500
  988.5000   141.3025    10.9430
  989.0000   139.4493    10.9356
  989.5000   138.9358    10.9412
  990.0000   139.1493    10.9501
  990.5000   140.4230    10.9642
  991.0000   140.8839    10.9828
  991.5000   136.3820    11.0014
  992.0000   132.2426    11.0200
  992.5000   135.2601    11.0386
  993.0000   139.2978    11.0573
  993.5000   143.5104    11.0762
  994.0000   144.5006    11.0918
  994.5000   144.2153    11.0515
  995.0000   144.0066    11.0102
  995.5000   145.6706    11.0858
  996.0000   146.2738    11.1499
  996.5000   145.9547    11.0919
  997.0000   147.3110    11.0369
  997.5000   149.0411    11.0978
  998.0000   150.7777    11.0734
  998.5000   151.9169    11.0130
  999.0000   149.3146    11.0474
  999.5000   146.6791    11.0929
 1000.0000   144.4652    11.1322
 1000.5000   146.4870    11.0541
 1001.0000   148.4877    11.0943
 1001.5000   150.4452    11.1565
 1002.0000   152.2100    11.1331
 1002.5000   151.3360    11.0744
 1003.0000   150.8187    11.0546
 1003.5000   154.3772    11.0918
 1004.0000   152.8093    11.1808
 1004.5000   150.0216    11.2892
 1005.0000   148.7004    11.2656
 1005.5000   150.4797    11.2378
 1006.0000   152.1762    11.4134
 1006.5000   153.4721    11.4724
 1007.0000   154.8018    11.5003
 1007.5000   156.9580    11.5070
 1008.0000   160.1271    11.4921
 1008.5000   163.2836    11.5292
 1009.0000   165.0309    11.4943
 1009.5000   162.0029    11.5158
 1010.0000   155.8853    11.5616
 1010.5000   148.7796    11.6076
 1011.0000   147.4347    11.6420
 1011.5000   146.2655    11.6884
 1012.0000   143.2749    11.4925
 1012.5000   141.8780    11.4611
 1013.0000   144.7621    11.4736
 1013.5000   147.5632    11.4872
 1014.0000   151.3838    11.4831
 1014.5000   158.1457    11.4712
 1015.0000   158.9554    11.4907
 1015.5000   160.0190    11.5132
 1016.0000   162.6441    11.5321
 1016.5000   161.2428    11.5178
 1017.0000   164.8954    11.5129
 1017.5000   170.9556    11.5800
 1018.0000   173.0419    11.6604
 1018.5000   169.2285    11.4706
 1019.0000   165.1179    11.4718
 1019.5000   160.9635    11.4805
 1020.0000   156.8459    11.5487
 1020.5000   153.7079    11.6111
 1021.0000   152.3273    11.6186
 1021.5000   150.8820    11.6231
 1022.0000   150.4850    11.6386
 1022.5000   159.8426    11.8117
 1023.0000   164.2774    11.5421
 1023.5000   162.5414    11.5553
 1024.0000   160.3671    11.5588
 1024.5000   158.1653    11.5680
 1025.0000   156.0081    11.5771
 1025.5000   155.5944    11.5856
 1026.0000   156.1093    11.5673
 1026.5000   156.6291    11.5045
 1027.0000   157.1436    11.4729
 1027.5000   157.3975    11.4078
 1028.0000   157.2862    11.2789
 1028.5000   157.1826    11.1928
 1029.0000   157.0951    11.2728
 1029.5000   156.5351    11.3303
 1030.0000   153.2062    11.3013
 1030.5000   149.9679    11.3221
 1031.0000   149.2793    11.4345
 1031.5000   148.6911    11.5082
 1032.0000   148.0877    11.3962
 1032.5000   147.5115    11.4202
 1033.0000   148.1993    11.4485
 1033.5000   154.6750    11.4337
 1034.0000   161.0734    11.4120
 1034.5000   166.6489    11.4991
 1035.0000   161.6044    11.6375
 1035.5000   157.2417    11.7801
 1036.0000   152.5413    11.8462
 1036.5000   145.2871    11.8675
 1037.0000   138.8382    11.8953
 1037.5000   142.7768    11.9220
 1038.0000   148.4003    11.9976
 1038.5000   154.2044    12.0857
 1039.0000   157.4501    12.0972
 1039.5000   159.8773    11.9817
 1040.0000   159.1072    11.9520
 1040.5000   156.7501    12.0311
 1041.0000   154.4143    12.1070
 1041.5000   152.3483    12.1145
 1042.0000   150.9666    12.0630
 1042.5000   148.9370    12.2576
 1043.0000   144.4290    13.4995
 1043.5000   141.9720    13.6418
 1044.0000   140.0130    12.6444
 1044.5000   137.9961    12.4146
 1045.0000   134.7321    12.2941
 1045.5000   131.2491    12.1015
 1046.0000   125.1060    11.8962
 1046.5000   121.6880    11.6136
 1047.0000   125.7910    12.0555
 1047.5000   135.1034    11.7517
 1048.0000   144.0758    11.5702
 1048.5000   148.2305    11.6062
 1049.0000   143.4854    11.6298
 1049.5000   140.0311    11.4762
 1050.0000   140.3076    11.4520
 1050.5000   140.7348    11.4864
 1051.0000   138.4415    11.5226
 1051.5000   135.0115    11.5594
 1052.0000   131.7809    11.5680
 1052.5000   132.2373    11.5628
 1053.0000   135.7916    11.5573
 1053.5000   139.0444    11.5518
 1054.0000   137.6559    11.5467
 1054.5000   140.3057    11.5415
 1055.0000   139.3452    11.5364
 1055.5000   137.5124    11.5308
 1056.0000   132.8684    11.5223
 1056.5000   128.5890    11.5138
 1057.0000   129.4575    11.5052
 1057.5000   131.6066    11.4965
 1058.0000   133.5840    11.4702
 1058.5000   131.8473    11.4214
 1059.0000   130.0453    11.3918
 1059.5000   128.5135    11.4196
 1060.0000   129.4270    11.4505
 1060.5000   130.6520    11.4253
 1061.0000   131.8822    11.4163
 1061.5000   134.9757    11.4244
 1062.0000   139.9925    11.3881
 1062.5000   142.1041    11.2268
 1063.0000   140.7518    11.0681
 1063.5000   142.3534    11.0374
 1064.0000   140.6309    11.1098
 1064.5000   137.7716    11.1827
 1065.0000   134.9231    11.2517
 1065.5000   132.8139    11.2639
 1066.0000   135.2521    11.2739
 1066.5000   136.7572    11.2841
 1067.0000   136.3041    11.2975
 1067.5000   135.5466    11.3245
 1068.0000   134.9432    11.3844
 1068.5000   137.0277    11.4542
 1069.0000   139.1078    11.5240
 1069.5000   140.9180    11.5937
 1070.0000   140.8098    11.6360
 1070.5000   140.2505    11.6464
 1071.0000   136.9470    11.6570
 1071.5000   133.9730    11.6673
 1072.0000   133.2490    11.6776
 1072.5000   132.5524    11.6879
 1073.0000   132.9334    11.6982
 1073.5000   134.9930    11.7089
 1074.0000   138.7073    11.7054
 1074.5000   142.3441    11.6978
 1075.0000   144.3813    11.6922
 1075.5000   142.6466    11.7542
 1076.0000   141.6636    11.8081
 1076.5000   144.9356    11.6932
 1077.0000   147.2137    11.6459
 1077.5000   147.3586    11.7098
 1078.0000   145.3999    11.7723
 1078.5000   140.4479    11.8111
 1079.0000   136.7055    11.8107
 1079.5000   138.2749    11.8108
 1080.0000   140.4736    11.8108
 1080.5000   142.6745    11.8108
 1081.0000   142.9806    11.8105
 1081.5000   139.7668    11.8223
 1082.0000   136.6091    11.8302
 1082.5000   135.0834    11.8195
 1083.0000   137.5754    11.8091
 1083.5000   141.7007    11.7986
 1084.0000   146.1327    11.7909
 1084.5000   150.5738    12.0123
 1085.0000   153.4785    11.9182
 1085.5000   153.9383    11.9559
 1086.0000   151.8411    11.8131
 1086.5000   147.7296    11.7873
 1087.0000   143.6308    11.7894
 1087.5000   139.5546    11.7392
 1088.0000   136.4875    11.6823
 1088.5000   138.9146    11.6251
 1089.0000   144.3195    11.5709
 1089.5000   149.8151    11.6220
 1090.0000   153.6593    11.6309
 1090.5000   155.8943    11.6324
 1091.0000   150.9947    11.6492
 1091.5000   147.1033    11.4178
 1092.0000   143.2146    11.9510
 1092.5000   139.3307    11.5632
 1093.0000   136.2174    11.4569
 1093.5000   134.5651    11.3416
 1094.0000   138.1551    11.2187
 1094.5000   144.3166    11.0901
 1095.0000   144.2376    11.0458
 1095.5000   144.0639    11.0354
 1096.0000   144.8384    11.0436
 1096.5000   146.7555    11.0515
 1097.0000   147.4662    11.0593
 1097.5000   145.1648    11.0671
 1098.0000   142.8087    11.0779
 1098.5000   144.2643    11.0938
 1099.0000   146.3797    11.0903
 1099.5000   144.2391    11.2239
 1100.0000   141.3911    11.4006
 1100.5000   138.4164    11.5342
 1101.0000   138.1387    11.6253
 1101.5000   138.8008    11.6513
 1102.0000   143.4491    11.7113
 1102.5000   148.8329    11.7711
 1103.0000   151.5629    11.7902
