~VERSION INFORMATION
 VERS.                2.0:   CWLS LOG ASCII STANDARD - VERSION 2.0
 WRAP.                 NO:   ONE LINE PER DEPTH STEP
~WELL INFORMATION
#MNEM.UNIT      DATA TYPE    INFORMATION
#----------   ------------   ------------------------------
 STRT.F            8.0000:   START DEPTH
 STOP.F          916.0000:   STOP DEPTH
 STEP.F            0.5000:   STEP LENGTH
 NULL.          -999.2500:   NO VALUE
 COMP. LAWRENCE/ALLISON INC:   COMPANY
 WELL.    41-66 SX #11-11:   WELL
 FLD .             NPR #3:   FIELD
 LOC .      S11 T38N R78W:   LOCATION
 CNTY.            NATRONA:   COUNTY
 STAT.            WYOMING:   STATE
 CTRY. UNITED STATES OF AMERICA:   COUNTRY
 SRVC.           Gearhart:   SERVICE COMPANY
 DATE.        13-MAY-1987:   LOGDATE
 API .       490251112600:   API NUMBER
~CURVE INFORMATION
#MNEM.UNIT       API CODE    CURVE DESCRIPTION
#----------   ------------   ------------------------------
 DEPT.F                  :   
 GRR .GAPI   07 310 01 00:   GAMMA RAY FROM RES. LOG.
 RILM.OHMM   07 120 44 00:   INDUCTION LOG MEDIUM RESISTIVITY
 RILD.OHMM   07 120 46 00:   INDUCTION LOG DEEP RESISTIVITY
~PARAMETER INFORMATION
#MNEM.UNIT          VALUE    DESCRIPTION
#----------   ------------   ------------------------------
 PD  .                 GL:   PERMANENT DATUM
 EPD .F              5166:   ELEVATION PERMANENT DATUM
 LMF .                 KB:   LOG MEASURED FROM
 DAPD.F                 8:   FEET ABOVE PERMANENT DATUM
 DMF .                 KB:   DRILLING MEASURED FROM
 EKB .F              5174:   KELLING BUSHING
 EDF .F              5174:   DRILLING FLOOR
 EGL .F              5166:   GROUND LEVEL
 DATE.            5-13-87:   RUN DATE
 RUN .                  1:   RUN NUMBER
 DD  .F               945:   DEPTH DRILLER
 DL  .F               930:   DEPTH LOGGER
 BLI .F               921:   BOTTOM LOG INTERVAL
 TLI .F                49:   TOP LOG INTERVAL
 CS  .IN            8.625:   CASING SIZE
 CBD .F                47:   CASING BOTTOM DRILLER
 CBL .F                49:   CASING BOTTOM LOGGER
 BS  .IN            7.875:   BIT SIZE
 BSD .F               945:   BIT SIZE AT DEPTH
 DFT .           AIR FOAM:   DRILLING FLUID TYPE
 TCS .HRS            2230:   TIME CURCULATED STOPPED
 TLAB.HRS            1105:   TIME LOGGER AT BOTTOM
 MRT .F                80:   MAXIMUM RECORDED TEMPERATURE
 LUN .               7597:   LOGGING UNIT NUMBER
 LUL .                GLT:   LOGGING UNIT LOCATION
 ENGI.            WANGLER:   RECORDING ENGINEER
 WITN.             STRONG:   WITNESSED BY
 CLNT.            A2DTECH:   CLIENT CODE
 ORIG.       2", 5" PRINT:   ORIGIN OF DATA
 UWI .       490251112600:   UNIQUE WELL ID
 DICO. A2D Technologies, Inc.:   DIGITIZING COMPANY
~OTHER INFORMATION
~A    DEPT      GRR      RILM       RILD   
# ...
   99.0000    99.1809     4.4050     4.6721
   99.5000   100.1524     4.4398     4.7241
  100.0000    97.9889     4.4394     4.7770
  100.5000    94.5538     4.4845     4.8331
  101.0000    92.1748     4.5151     4.8331
  101.5000    93.7074     4.5458     4.8331
  102.0000    97.2484     4.5768     4.8331
  102.5000    99.3018     4.6080     4.9252
  103.0000    99.5531     4.6393     5.0597
  103.5000    98.9092     4.6947     5.2406
  104.0000    97.9731     4.8388     5.4280
  104.5000    94.5113     5.1049     5.6221
  105.0000    89.4492     5.3857     5.8230
  105.5000    86.5767     5.6819     6.0350
  106.0000    86.4936     6.0047     6.2409
  106.5000    87.6410     6.1191     6.2357
  107.0000    89.7792     5.9897     6.1051
  107.5000    91.8590     5.8591     5.9949
  108.0000    95.3185     5.7314     5.8867
  108.5000    99.5471     5.6064     5.7805
  109.0000   102.7392     5.4842     5.6762
  109.5000   102.4974     5.3646     5.5737
  110.0000   101.2911     5.2476     5.4731
  110.5000   100.4012     5.1330     5.3744
  111.0000    99.6903     5.0217     5.2765
  111.5000    98.9743     4.9238     5.2110
  112.0000    98.8993     4.9240     5.2124
  112.5000   101.8946     5.0068     5.2413
  113.0000   106.2599     5.0669     5.3094
  113.5000   110.6313     5.1654     5.4192
  114.0000   114.2222     5.2627     5.5241
  114.5000   115.4613     5.3619     5.6317
  115.0000   114.9861     5.4629     5.7414
  115.5000   113.9549     5.5658     5.8534
  116.0000   110.9894     5.6707     5.9674
  116.5000   106.5730     5.7775     6.0836
  117.0000   102.7804     5.8864     6.1584
  117.5000   100.9285     5.9973     6.2151
  118.0000   100.2341     6.1102     6.2723
  118.5000   102.3592     6.1774     6.2948
  119.0000   104.4273     6.1053     6.2948
  119.5000   103.2065     6.0208     6.2354
  120.0000   101.0834     5.9371     6.1680
  120.5000   100.2513     5.8553     6.1014
  121.0000   100.0099     5.6843     5.9218
  121.5000   100.4260     5.4953     5.6917
  122.0000   100.9819     5.3123     5.6089
  122.5000   102.1459     5.1361     5.5612
  123.0000   105.9885     4.9646     5.5476
  123.5000   109.9977     4.8789     5.5341
  124.0000   112.3550     4.9166     5.5157
  124.5000   111.2492     5.0913     5.5213
  125.0000   104.6034     5.2170     5.5300
  125.5000    98.4075     5.3374     5.5388
  126.0000    92.7121     5.4639     5.5475
  126.5000    95.3959     5.4639     5.5563
  127.0000    99.3994     5.3611     5.5680
  127.5000   102.5100     5.2770     5.4748
  128.0000   104.8966     5.1942     5.3357
  128.5000   106.3938     5.1127     5.2002
  129.0000   106.1294     5.0325     5.0666
  129.5000   106.1076     4.9535     5.0880
  130.0000   106.4853     4.8789     5.1096
  130.5000   107.1785     4.8789     5.1314
  131.0000   107.3556     4.8789     5.1533
  131.5000   105.6011     4.9127     5.1752
  132.0000   103.5133     4.9587     5.1972
  132.5000   101.4060     5.0051     5.2194
  133.0000   100.0003     5.0519     5.2416
  133.5000    99.2176     5.0666     5.2615
  134.0000    99.5791     4.9719     5.2322
  134.5000    99.9071     4.9405     5.2003
  135.0000   101.3229     4.9077     5.1686
  135.5000   103.9888     4.8751     5.1371
  136.0000   107.7427     4.8427     5.1059
  136.5000   110.1189     4.8331     5.0668
  137.0000   110.4467     4.8391     5.0793
  137.5000   110.6734     4.8789     5.0964
  138.0000   110.9463     4.9188     5.1136
  138.5000   109.7096     4.9591     5.1309
  139.0000   107.9075     4.9997     5.1483
  139.5000   106.0495     5.0190     5.1633
  140.0000   105.2244     4.9574     5.1282
  140.5000   106.9894     4.8748     5.0657
  141.0000   109.4746     4.7936     5.0041
  141.5000   110.4542     4.7137     4.9433
  142.0000   109.6673     4.6351     4.8833
  142.5000   108.3861     4.5579     4.8331
  143.0000   107.9821     4.4811     4.8331
  143.5000   107.8166     4.4818     4.8331
  144.0000   105.9262     4.4815     4.8331
  144.5000   103.7529     4.4817     4.8330
  145.0000   103.9714     4.5057     4.8331
  145.5000   106.1028     4.5797     4.8639
  146.0000   108.2617     4.6550     4.9204
  146.5000   107.2582     4.7314     4.9774
  147.0000   105.0034     4.8092     5.0265
  147.5000   105.4782     4.8882     5.0536
  148.0000   110.0144     4.9726     5.0809
  148.5000   114.6997     4.9708     5.1083
  149.0000   115.4197     4.9698     5.1359
  149.5000   112.7359     5.0179     5.1636
  150.0000   107.4801     5.0421     5.1915
  150.5000   107.0758     5.0688     5.2195
  151.0000   107.6878     5.0957     5.2477
  151.5000   108.0750     5.1227     5.2761
  152.0000   107.2837     5.1498     5.3046
  152.5000   105.6369     5.1771     5.3332
  153.0000   105.2945     5.2045     5.3620
  153.5000   105.9612     5.2321     5.3909
  154.0000   106.8127     5.2598     5.4201
  154.5000   105.9881     5.2877     5.4493
  155.0000   102.7963     5.3156     5.4787
  155.5000   101.1753     5.3438     5.5083
  156.0000   101.2457     5.3778     5.5256
  156.5000   104.7740     5.4220     5.5830
  157.0000   109.3521     5.4670     5.6410
  157.5000   113.4723     5.5167     5.6995
  158.0000   115.3938     5.5179     5.7279
  158.5000   113.1423     5.3770     5.6741
  159.0000   108.1376     5.1460     5.4814
  159.5000   103.1965     4.9250     5.1505
  160.0000   100.1581     4.7134     4.8393
  160.5000    98.3462     4.4872     4.5469
  161.0000    99.7850     4.2628     4.2713
  161.5000   103.2050     4.0497     4.0844
  162.0000   109.2099     3.8443     4.0387
  162.5000   114.7422     3.7145     4.1167
  163.0000   115.1841     3.7787     4.1781
  163.5000   112.6902     3.9849     4.2769
  164.0000   109.8132     4.2197     4.5272
  164.5000   106.9471     4.4683     4.7925
  165.0000   104.0873     4.7428     5.0734
  165.5000   101.5395     5.0634     5.3705
  166.0000   101.4807     5.4058     5.6208
  166.5000   101.3590     5.7713     5.7822
  167.0000   101.2357     5.9003     5.9223
  167.5000   101.3977     6.0014     6.0658
  168.0000   103.2047     6.1042     6.2127
  168.5000   104.3857     6.2088     6.3632
  169.0000   104.6421     6.3151     6.5174
  169.5000   103.2155     6.5300     6.6753
  170.0000   101.2531     6.7884     6.8528
  170.5000    99.2139     6.7098     6.7884
  171.0000    98.4987     6.6013     6.6496
  171.5000    98.3739     6.4939     6.5812
  172.0000    99.2023     6.3885     6.5136
  172.5000   102.2191     6.2948     6.4467
  173.0000   105.1054     6.2323     6.2950
  173.5000   107.7320     6.1455     6.0708
  174.0000   105.5283     6.0616     5.8546
  174.5000   100.6992     5.8378     5.6479
  175.0000    98.6238     5.5956     5.4612
  175.5000    98.1403     5.3634     5.1127
  176.0000    97.6590     5.1408     4.8089
  176.5000    96.0228     4.8974     4.5248
  177.0000    93.4594     4.5600     4.2573
  177.5000    92.6529     4.2751     4.0058
  178.0000    95.6165     3.8391     3.8662
  178.5000   101.8399     3.5398     3.8257
  179.0000   104.5354     3.4410     3.8170
  179.5000   106.3564     3.4410     3.8174
  180.0000   107.2859     3.6068     3.9085
  180.5000   107.4196     3.8140     4.0818
  181.0000   105.7011     4.0333     4.3096
  181.5000   103.4695     4.2652     4.5502
  182.0000   101.2116     4.5105     4.8043
  182.5000    98.8701     4.7694     5.0764
  183.0000    97.0735     5.0447     5.3164
  183.5000    97.7116     5.1628     5.3084
  184.0000   101.0344     5.1829     5.2679
  184.5000   104.4263     5.2119     5.2121
  185.0000   105.7046     5.1665     5.1900
  185.5000   105.1893     5.1143     5.1646
  186.0000   104.4016     5.0627     5.1393
  186.5000   103.0826     5.0115     5.1147
  187.0000   101.4449     4.9609     5.0684
  187.5000   100.9355     4.8560     4.3938
  188.0000   100.6134     4.6249     3.8713
  188.5000   100.4031     4.3976     3.4124
  189.0000   100.4121     3.7018     3.0152
  189.5000   100.7541     3.1045     2.8180
