~VERSION INFORMATION
 VERS.                2.0:   CWLS LOG ASCII STANDARD - VERSION 2.0
 WRAP.                 NO:   ONE LINE PER DEPTH STEP
~WELL INFORMATION
#MNEM.UNIT      DATA TYPE    INFORMATION
#----------   ------------   ------------------------------
 STRT.F           38.0000:   START DEPTH
 STOP.F         1202.0000:   STOP DEPTH
 STEP.F            0.5000:   STEP LENGTH
 NULL.          -999.2500:   NO VALUE
 COMP.       INTEX OIL CO:   COMPANY
 WELL.     72 S 14 #72-14:   WELL
 FLD .            WILDCAT:   FIELD
 LOC .      S14 T38N R78W:   LOCATION
 CNTY.            NATRONA:   COUNTY
 STAT.            WYOMING:   STATE
 CTRY. UNITED STATES OF AMERICA:   COUNTRY
 SRVC.       Schlumberger:   SERVICE COMPANY
 DATE.        26-AUG-1966:   LOGDATE
 API .       490250970800:   API NUMBER
~CURVE INFORMATION
#MNEM.UNIT       API CODE    CURVE DESCRIPTION
#----------   ------------   ------------------------------
 DEPT.F                  :   
 SPR .MV     05 010 01 00:   SPONTANEOUS POTENTIAL FROM RES.
 ASN .OHMM   05 041 16 00:   AMPLIFIED SHORT NORMAL 16"
 ILD .OHMM   05 120 46 00:   INDUCTION LOG DEEP
 CILD.MMHO   05 110 46 00:   CONDUCTIVITY INDUCTION LOG DEEP
 CORR.G/C3   45 356 01 00:   DENSITY CORRECTION
 GRD .GAPI   45 310 01 00:   GAMMA RAY FROM DENSITY LOG
 CALD.IN     45 280 60 00:   CALIPER FROM DENSITY LOG
 DPHI.DEC    45 890 12 00:   DENSITY POROSITY SANDSTONE
 RHOB.G/C3   45 350 01 00:   BULK DENSITY
~PARAMETER INFORMATION
#MNEM.UNIT          VALUE    DESCRIPTION
#----------   ------------   ------------------------------
 PD  .                 GL:   PERMANENT DATUM
 EPD .F              5265:   ELEVATION PERMANENT DATUM
 LMF .                 KB:   LOG MEASURED FROM
 DAPD.F                 5:   FEET ABOVE PERMANENT DATUM
 DMF .                 KB:   DRILLING MEASURED FROM
 EKB .F              5270:   KELLING BUSHING
 DATE.        26-AUG-1966:   RUN DATE
 RUN .                  1:   RUN NUMBER
 DD  .F              1201:   DEPTH DRILLER
 DL  .F              1203:   DEPTH LOGGER
 BLI .F              1202:   BOTTOM LOG INTERVAL
 TLI .F                46:   TOP LOG INTERVAL
 CS  .IN            8.625:   CASING SIZE
 BS  .IN             6.75:   BIT SIZE
 BSD .F              1201:   BIT SIZE AT DEPTH
 DFT .     CHEM- GEL- OIL:   DRILLING FLUID TYPE
 DFD .                9.4:   DRILLING FLUID DENSITY
 MRT .F                94:   MAXIMUM RECORDED TEMPERATURE
 LUN .               3527:   LOGGING UNIT NUMBER
 LUL .             CASPER:   LOGGING UNIT LOCATION
 ENGI.             KNOBEL:   RECORDING ENGINEER
 WITN.                MAY:   WITNESSED BY
 CLNT.            A2DTECH:   CLIENT CODE
 ORIG.       2", 5" PRINT:   ORIGIN OF DATA
 UWI .       490250970800:   UNIQUE WELL ID
 DICO. A2D Technologies, Inc.:   DIGITIZING COMPANY
~OTHER INFORMATION
~A   DEPT      SPR        ASN        ILD       CILD       CORR        GRD       CALD       DPHI       RHOB   
# ...
  330.0000   -25.9636     7.6997     7.1773   153.1532     0.0226   100.4620     7.1327     0.1176     2.4595
  330.5000   -25.9622     7.7152     7.1780   153.1532     0.0206   100.9182     7.1186     0.1164     2.4536
  331.0000   -25.8102     7.7612     7.1787   153.1532     0.0185   104.2803     7.1193     0.1194     2.4476
  331.5000   -25.8087     7.8062     7.1795   153.9039     0.0166   106.3011     7.1201     0.1228     2.4529
  332.0000   -25.8072     7.8217     7.1051   154.7248     0.0163   104.0746     7.1208     0.1259     2.4522
  332.5000   -25.8055     7.7921     7.1060   156.1562     0.0159   103.4129     7.1215     0.1271     2.4507
  333.0000   -25.8041     7.7475     7.0316   156.9069     0.0166   103.4218     7.1223     0.1274     2.4478
  333.5000   -25.8026     7.7179     7.1074   157.6577     0.0184   102.0873     7.1230     0.1214     2.4568
  334.0000   -25.8012     7.6713     7.1310   158.4084     0.0219    98.9597     7.1385     0.1157     2.4560
  334.5000   -25.7997     7.6137     7.2498   158.4084     0.0282    98.5305     7.1243     0.1235     2.4493
  335.0000   -25.7979     7.5841     7.3686   157.6577     0.0181    98.7705     7.1253     0.1199     2.4658
  335.5000   -25.7965     7.6296     7.4858   156.1562     0.0247    98.9955     7.0962     0.1037     2.5204
  336.0000   -25.9457     7.8102     7.4865   153.1532     0.0426    97.1922     7.0819     0.0792     2.5429
  336.5000   -26.0947     8.0524     7.4872   150.1501     0.0571    94.7377     7.0232     0.0627     2.5527
  337.0000   -26.0934     8.1415     7.5632   146.3964     0.0696    92.7466     6.9792     0.0636     2.5520
  337.5000   -26.3928     8.1720     7.5639   142.6426     0.0737    92.5482     6.9649     0.0714     2.5430
  338.0000   -26.3914     8.5178     7.4895   138.1381     0.0558    95.0162     7.0701     0.0941     2.5079
  338.5000   -26.2393     8.7734     7.4152   136.6366     0.0399    93.6610     7.1007     0.0992     2.5072
  339.0000   -26.0873     8.7589     7.3348   141.1411     0.0534    91.3309     7.0716     0.0791     2.5261
  339.5000   -25.9352     8.6842     7.1165   144.8949     0.0485    90.3485     6.9829     0.0731     2.5334
  340.0000   -25.7828     8.6097     6.9671   147.8979     0.0400    95.7526     6.9090     0.0794     2.5226
  340.5000   -25.7814     8.5350     6.8925   150.2102     0.0377    94.9970     7.0142     0.0925     2.5131
  341.0000   -25.7800     8.4304     6.7433   153.1532     0.0368    93.7284     7.0597     0.0874     2.5133
  341.5000   -25.9291     8.2656     6.6689   155.4054     0.0362    98.3547     7.0753     0.0916     2.5081
  342.0000   -26.2289     8.1459     6.6698   156.1562     0.0461   102.8822     7.0760     0.1029     2.4797
  342.5000   -26.3781     8.0488     6.6705   157.6577     0.0340   104.4854     7.0617     0.1170     2.4558
  343.0000   -26.5272     7.9367     6.7463   158.4084     0.0304   103.5574     7.0626     0.1269     2.4491
  343.5000   -26.6764     7.8921     6.7470   158.4084     0.0363   102.4936     7.0484     0.1284     2.4357
  344.0000   -26.6746     7.8774     6.7487   156.9069     0.0243   107.1970     7.0492     0.1389     2.4297
  344.5000   -26.6732     7.8779     6.8237   153.9039     0.0169   107.8743     7.0649     0.1400     2.4395
  345.0000   -26.6566     7.8633     6.8995   150.9009     0.0228   103.8616     7.0656     0.1305     2.4417
  345.5000   -26.5193     7.9840     7.0504   147.8979     0.0222   103.6448     7.0663     0.1353     2.4343
  346.0000   -26.8191     8.2247     7.1262   144.8949     0.0147   107.6798     7.0671     0.1336     2.4485
  346.5000   -27.2698     8.4353     7.2770   142.5523     0.0153   109.0300     7.0678     0.1248     2.4643
  347.0000   -27.8705     8.5859     7.4281   139.6396     0.0203   109.0389     7.0686     0.1101     2.4763
  347.5000   -28.3284     8.6776     7.5789   137.3874     0.0303   108.1536     7.0693     0.1184     2.4591
  348.0000   -28.6202     8.7370     7.6547   135.1351     0.0245   106.8212     7.0701     0.1217     2.4651
  348.5000   -28.6188     8.7675     7.8056   132.8829     0.0288    98.5589     7.0857     0.1115     2.4734
  349.0000   -28.4667     8.7829     7.9565   131.3814     0.0371    99.2385     7.0864     0.1079     2.4816
  349.5000   -28.3147     8.8543     8.1178   130.6306     0.0461    99.2474     7.0872     0.0936     2.5108
  350.0000   -28.0120     8.9639     8.3367   129.8799     0.0603    93.8381     7.0879     0.0973     2.5066
  350.5000   -27.7142     8.8737     8.3791   130.6462     0.0619    93.2280     7.0957     0.1022     2.4937
  351.0000   -27.8677     8.7685     8.4070   129.1239     0.0484    97.0609     7.1048     0.1034     2.4922
  351.5000   -28.1717     9.0086     8.2559   127.6718     0.0379   100.6409     7.1057     0.1049     2.4907
  352.0000   -28.1546     9.2222     8.1801   127.6897     0.0358   102.9151     7.1066     0.1076     2.4780
  352.5000   -27.8763     9.2635     8.1044   127.7041     0.0334   104.6645     7.1074     0.1132     2.4638
  353.0000   -27.7293     9.0832     7.9533   129.2199     0.0231   102.6438     7.1083     0.1204     2.4526
  353.5000   -27.7321     8.9629     7.8025   130.7357     0.0124   102.9776     7.1092     0.1300     2.4392
  354.0000   -27.5844     8.8727     7.8017   133.0059     0.0124   107.4457     7.1101     0.1356     2.4460
  354.5000   -27.5874     8.7809     7.7260   135.2725     0.0259   108.0534     7.0959     0.1072     2.4894
  355.0000   -27.5908     8.6922     7.6502   136.7883     0.0454   105.5738     7.0970     0.0997     2.5066
  355.5000   -27.5937     8.6320     7.6493   139.0549     0.0747   105.3886     7.0979     0.0880     2.5066
  356.0000   -27.5966     8.5718     7.5735   141.3215     0.0732   108.4113     7.0988     0.0955     2.5126
  356.5000   -27.5994     8.5416     7.5728   143.6911     0.0702   108.7597     7.0848     0.0937     2.5044
  357.0000   -27.6024     8.3874     7.4970   145.8583     0.0686   106.1431     7.0857     0.0880     2.5097
  357.5000   -27.6059     8.1809     7.4963   147.3741     0.0650   104.7537     7.0866     0.0927     2.5059
  358.0000   -27.7594     8.1357     7.3452   150.3914     0.0527   104.9883     7.0723     0.1053     2.4918
  358.5000   -27.9128     8.1506     7.2694   152.6580     0.0380   106.3385     7.0735     0.1116     2.4761
  359.0000   -27.9157     8.1504     7.1186   154.2391     0.0287   105.9003     7.0744     0.1214     2.4529
  359.5000   -27.9187     8.0571     7.0428   156.4440     0.0275   103.8973     7.0752     0.1286     2.4350
  360.0000   -27.9222     7.8648     6.8919   157.9599     0.0465    98.5411     7.0610     0.1349     2.4470
  360.5000   -27.7737     7.7296     6.8159   158.7249     0.0485    96.7617     7.0621     0.1106     2.4777
  361.0000   -27.6260     7.6093     6.8152   159.4901     0.0410    98.5590     7.0630     0.1082     2.4710
  361.5000   -27.3283     7.4890     6.8898   160.2552     0.0414   100.1305     7.0639     0.1127     2.4650
  362.0000   -27.3112     7.3988     6.8889   160.2730     0.0409    98.8003     7.0648     0.1109     2.4712
  362.5000   -27.1835     7.3986     6.8880   159.5331     0.0338   100.8212     7.0657     0.1120     2.4650
  363.0000   -27.0358     7.4285     6.8873   159.5510     0.0257   107.7600     7.0666     0.1153     2.4568
  363.5000   -27.0393     7.4884     6.9618   158.8110     0.0252   108.4374     7.0675     0.1252     2.4404
  364.0000   -27.0422     7.5183     6.9609   158.8289     0.0275   105.0953     7.0684     0.1308     2.4359
  364.5000   -27.1958     7.5332     7.0353   159.5975     0.0353   105.9984     7.0693     0.1260     2.4524
  365.0000   -27.1993     7.5030     7.0344   162.6149     0.0371   107.5721     7.0702     0.1177     2.4592
  365.5000   -27.2021     7.3677     6.9586   167.1337     0.0386   110.2636     7.0711     0.1155     2.4532
  366.0000   -27.2050     7.1573     6.8828   171.6526     0.0486   112.5058     7.0720     0.1284     2.4547
