~VERSION INFORMATION
 VERS.                2.0:   CWLS LOG ASCII STANDARD - VERSION 2.0
 WRAP.                 NO:   ONE LINE PER DEPTH STEP
~WELL INFORMATION
#MNEM.UNIT      DATA TYPE    INFORMATION
#----------   ------------   ------------------------------
 STRT.F           14.0000:   START DEPTH
 STOP.F          623.5000:   STOP DEPTH
 STEP.F            0.5000:   STEP LENGTH
 NULL.          -999.2500:   NO VALUE
 COMP. LAWRENCE/ALLISON INC:   COMPANY
 WELL.   23-61 STX #10-10:   WELL
 FLD .             TEAPOT:   FIELD
 LOC .      S10 T38N R78W:   LOCATION
 CNTY.            NATRONA:   COUNTY
 STAT.            WYOMING:   STATE
 CTRY. UNITED STATES OF AMERICA:   COUNTRY
 SRVC.           Gearhart:   SERVICE COMPANY
 DATE.        02-JUL-1986:   LOGDATE
 API .       490251107700:   API NUMBER
~CURVE INFORMATION
#MNEM.UNIT       API CODE    CURVE DESCRIPTION
#----------   ------------   ------------------------------
 DEPT.F                  :   
 GRR .GAPI   07 310 01 00:   GAMMA RAY FROM RES. LOG
 RILD.OHMM   07 120 46 00:   INDUCTION LOG DEEP RESISTIVITY
 RILM.OHMM   07 120 44 00:   INDUCTION LOG MEDIUM
~PARAMETER INFORMATION
#MNEM.UNIT          VALUE    DESCRIPTION
#----------   ------------   ------------------------------
 PD  .                 GL:   PERMANENT DATUM
 EPD .F              5251:   ELEVATION PERMANENT DATUM
 LMF .                 KB:   LOG MEASURED FROM
 DAPD.F                 5:   FEET ABOVE PERMANENT DATUM
 DMF .                 KB:   DRILLING MEASURED FROM
 EKB .F              5256:   KELLING BUSHING
 EGL .F              5251:   GROUND LEVEL
 DATE.             7-2-86:   RUN DATE
 RUN .                  1:   RUN NUMBER
 DD  .F               648:   DEPTH DRILLER
 DL  .F               633:   DEPTH LOGGER
 BLI .F               623:   BOTTOM LOG INTERVAL
 TLI .F                15:   TOP LOG INTERVAL
 CS  .IN            8.625:   CASING SIZE
 CBD .F                47:   CASING BOTTOM DRILLER
 CBL .F                47:   CASING BOTTOM LOGGER
 BS  .IN            7.875:   BIT SIZE
 BSD .F               648:   BIT SIZE AT DEPTH
 DFT .               FOAM:   DRILLING FLUID TYPE
 BHT .F                82:   BOTTOM HOLE TEMPERATURE
 TCS .HRS            0930:   TIME CURCULATED STOPPED
 TLAB.HRS            1240:   TIME LOGGER AT BOTTOM
 MRT .F                82:   MAXIMUM RECORDED TEMPERATURE
 LUN .               7609:   LOGGING UNIT NUMBER
 LUL .           GILLETTE:   LOGGING UNIT LOCATION
 ENGI.              BAUER:   RECORDING ENGINEER
 WITN.           JENNINGS:   WITNESSED BY
 CLNT.            A2DTECH:   CLIENT CODE
 ORIG.       2", 5" PRINT:   ORIGIN OF DATA
 UWI .       490251107700:   UNIQUE WELL ID
 DICO. A2D Technologies, Inc.:   DIGITIZING COMPANY
~OTHER INFORMATION
~A   DEPT       GRR      RILD       RILM   
# ...
  287.0000   108.6184     9.0829     8.7499
  287.5000   108.9178     9.1130     8.8220
  288.0000   104.2814     9.1339     8.8722
  288.5000   100.9294     9.1548     8.9227
  289.0000   101.2453     9.1757     8.9734
  289.5000   103.7209     9.1967     9.0245
  290.0000   106.1054     9.2177     9.0830
  290.5000   108.6337     9.2388     9.0550
  291.0000   106.8214     9.2543     9.0127
  291.5000   104.1592     9.2371     8.9709
  292.0000   102.0914     9.1725     8.9282
  292.5000   105.7475     9.1083     8.8508
  293.0000   109.8493     9.0446     8.7539
  293.5000   119.4350     8.9555     8.6589
  294.0000   133.5501     8.7997     8.5648
  294.5000   162.0228     8.6466     8.4718
  295.0000   153.7633     8.5081     8.3798
  295.5000   139.3195     8.5076     8.3171
  296.0000   124.7685     8.5077     8.2479
  296.5000   109.4615     8.4656     8.1793
  297.0000   106.4470     8.4327     8.1112
  297.5000   103.9828     8.3999     8.0437
  298.0000   103.6839     8.3672     7.9768
  298.5000   105.7662     8.2730     7.7748
  299.0000   105.2035     7.9836     7.5622
  299.5000   103.5333     7.7278     7.3553
  300.0000   101.9208     7.4803     7.1541
  300.5000   103.0619     7.2407     6.9585
  301.0000   104.4607     7.0867     6.8455
  301.5000   105.8567     6.9276     6.7875
  302.0000   107.2634     6.9890     6.7362
  302.5000   108.6514     7.0767     6.8147
  303.0000   106.8757     7.1656     6.9022
  303.5000   104.7962     7.3029     7.0351
  304.0000   102.7726     7.4623     7.1887
  304.5000   105.2134     7.6288     7.3490
  305.0000   108.1014     7.8261     7.5390
  305.5000   109.0574     8.0444     7.7494
  306.0000   109.4986     8.0444     7.7888
  306.5000   109.9856     8.0444     7.8318
  307.0000   112.1970     8.0444     7.8750
  307.5000   114.5310     8.0444     7.8955
  308.0000   116.0943     8.0342     7.8547
  308.5000   114.4318     8.0034     7.8221
  309.0000   110.9744     7.9673     7.7774
  309.5000   107.0316     7.8367     7.6430
  310.0000   103.1586     7.6649     7.4490
  310.5000   106.2249     7.4968     7.2594
  311.0000   111.7083     7.3333     7.0759
  311.5000   116.3436     7.1251     6.8630
  312.0000   115.6008     6.8871     6.6328
  312.5000   108.9582     6.6563     6.4098
  313.0000   106.7917     6.4344     6.1943
  313.5000   106.5984     6.2491     5.9860
  314.0000   108.3188     6.2501     5.8413
  314.5000   109.8961     6.3077     5.8010
  315.0000   109.5992     6.3571     5.9403
  315.5000   110.1835     6.4069     6.0458
  316.0000   110.7185     6.5687     6.1796
  316.5000   109.6957     6.8266     6.4603
  317.0000   108.6285     7.0943     6.7531
  317.5000   107.5674     7.3725     7.0593
  318.0000   106.5103     7.6614     7.3292
  318.5000   105.4496     7.9696     7.5223
  319.0000   105.5062     8.0359     7.6773
  319.5000   106.4227     8.1046     7.7528
  320.0000   106.7848     8.1738     7.8309
  320.5000   105.1826     8.2437     7.9099
  321.0000   103.5993     8.3141     7.9896
  321.5000   104.0470     8.3852     8.0701
  322.0000   107.4747     8.4737     8.1629
  322.5000   110.9935     8.5900     8.2750
  323.0000   111.9274     8.7083     8.3889
  323.5000   110.9138     8.8279     8.5044
  324.0000   109.8278     8.9492     8.6210
  324.5000   110.9973     8.9986     8.6686
  325.0000   113.0243     8.9986     8.6686
  325.5000   115.1386     9.0267     8.6954
  326.0000   115.2919     9.0738     8.7410
  326.5000   112.5729     9.1211     8.7866
  327.0000   108.0923     9.1687     8.8326
  327.5000   103.6753     9.2165     8.8787
  328.0000   100.5791     9.2543     8.9157
  328.5000   102.4899     9.1683     8.8329
  329.0000   104.5385     9.0787     8.7457
  329.5000   104.7902     8.9912     8.6615
  330.0000   104.3447     8.9046     8.5780
  330.5000   108.7393     8.8188     8.4953
  331.0000   113.8986     8.7338     8.4135
  331.5000   119.0770     8.6457     8.3286
  332.0000   118.3707     8.5451     8.2317
  332.5000   115.4822     8.4458     8.1360
  333.0000   112.5979     8.3475     8.0414
  333.5000   112.2098     8.2507     7.9478
  334.0000   116.1404     8.1547     7.8554
  334.5000   120.1799     8.0596     7.7640
  335.0000   118.9498     7.6864     7.5796
  335.5000   115.5855     7.2630     7.4291
  336.0000   112.1457     6.8630     7.2815
  336.5000   111.2364     6.4850     6.9261
  337.0000   111.9458     5.8638     6.5517
  337.5000   112.4570     5.2599     6.1975
  338.0000   112.6040     4.7181     5.6038
  338.5000   112.7330     4.2322     4.9356
  339.0000   114.1867     3.7963     4.3505
  339.5000   116.4497     3.4053     3.8352
  340.0000   117.3714     3.1516     3.4048
  340.5000   113.1430     2.9645     3.1850
  341.0000   108.1095     2.7995     2.9892
  341.5000   103.0552     2.7137     2.8061
  342.0000    98.8210     2.6469     2.7385
  342.5000    97.6908     2.8177     2.7205
  343.0000   100.9712     3.0510     2.8354
  343.5000   105.4669     3.3037     2.9721
  344.0000   110.9542     3.5773     3.1601
  344.5000   115.9962     3.9311     3.5113
  345.0000   115.0547     4.3507     3.8977
  345.5000   113.8672     4.8149     4.3266
  346.0000   114.2838     5.3288     4.8027
  346.5000   119.1152     5.8975     5.2837
  347.0000   123.7900     6.0657     5.8010
  347.5000   126.2871     6.1803     5.8559
  348.0000   124.2001     6.2971     5.9056
  348.5000   121.9031     6.4161     5.9557
  349.0000   119.5838     6.4288     6.0217
  349.5000   119.5500     6.2684     5.9791
  350.0000   122.2121     6.1354     5.9114
  350.5000   124.8736     5.9625     5.7439
  351.0000   126.6203     5.7762     5.5643
  351.5000   127.2114     5.5956     5.3904
  352.0000   126.8476     5.4207     5.2219
  352.5000   122.6246     5.2513     5.0587
  353.0000   117.0767     5.1377     4.9493
  353.5000   111.4492     5.1692     4.9789
  354.0000   108.5501     5.2709     5.0777
  354.5000   110.2511     5.3822     5.1849
  355.0000   113.9200     5.5915     5.3089
  355.5000   117.9796     5.8269     5.4461
  356.0000   122.7439     6.0727     5.6333
  356.5000   127.4465     6.3287     5.9282
  357.0000   130.3612     6.5955     6.2390
  357.5000   127.0985     6.8724     6.5642
  358.0000   123.6650     7.1515     6.8900
  358.5000   120.2241     7.3384     7.0698
  359.0000   117.2201     7.5339     7.2575
  359.5000   119.1672     7.7339     7.4503
  360.0000   121.2523     7.9393     7.6481
  360.5000   123.2217     8.1199     7.8221
  361.0000   119.7384     7.9482     7.6567
  361.5000   115.7743     7.8010     7.5149
  362.0000   115.2767     7.6561     7.3753
  362.5000   117.8693     7.5141     7.2386
  363.0000   119.7393     7.3752     7.1043
  363.5000   119.7039     7.2324     6.9644
  364.0000   120.7319     7.0655     6.7835
  364.5000   122.6096     6.9021     6.6072
  365.0000   121.9236     6.7152     6.4288
  365.5000   121.3737     6.4584     6.1224
  366.0000   122.3831     6.1899     5.8187
  366.5000   125.3537     5.8284     5.5301
  367.0000   128.2980     5.4881     5.2559
  367.5000   131.3250     5.2307     5.0337
  368.0000   130.2586     5.0898     4.8845
  368.5000   126.9342     4.9493     4.6795
  369.0000   124.0491     5.0634     4.7342
  369.5000   124.1892     5.1832     4.8343
  370.0000   126.8457     5.4168     5.0718
  370.5000   129.4277     5.7466     5.3612
  371.0000   127.2389     6.0966     5.6670
  371.5000   124.0761     6.4679     5.9902
  372.0000   120.9148     6.8641     6.3319
  372.5000   117.7264     7.2854     6.7111
  373.0000   116.1355     7.5430     7.0582
  373.5000   116.4341     7.6773     7.3957
  374.0000   121.0557     7.8841     7.5926
  374.5000   125.6470     8.0575     7.7665
  375.0000   127.1801     8.1243     7.8256
  375.5000   125.9004     8.1917     7.8913
  376.0000   124.6114     8.2734     7.9696
  376.5000   123.3403     8.2604     7.9667
  377.0000   123.1539     8.2396     7.9620
  377.5000   124.6790     8.2187     7.9573
