~VERSION INFORMATION
 VERS.                2.0:   CWLS LOG ASCII STANDARD - VERSION 2.0
 WRAP.                 NO:   ONE LINE PER DEPTH STEP
~WELL INFORMATION
#MNEM.UNIT      DATA TYPE    INFORMATION
#----------   ------------   ------------------------------
 STRT.F           80.0000:   START DEPTH
 STOP.F          740.0000:   STOP DEPTH
 STEP.F            0.5000:   STEP LENGTH
 NULL.          -999.2500:   NO VALUE
 COMP. U S NAVY/INTEX OIL CO:   COMPANY
 WELL. NPR 3 TEAPOT DOME #73-S-34:   WELL
 FLD .             TEAPOT:   FIELD
 LOC .      S34 T39N R78W:   LOCATION
 CNTY.            NATRONA:   COUNTY
 STAT.            WYOMING:   STATE
 CTRY. UNITED STATES OF AMERICA:   COUNTRY
 SRVC. Schlumberger Well Surveying Corp:   SERVICE COMPANY
 DATE.        19-FEB-1961:   LOGDATE
 API .       490250655200:   API NUMBER
~CURVE INFORMATION
#MNEM.UNIT       API CODE    CURVE DESCRIPTION
#----------   ------------   ------------------------------
 DEPT.F                  :   
 GR  .CPS    99 310 30 00:   GAMMA RAY FROM PERFORATING FORMATION COLLAR CHART
 SPR .MV     05 010 01 00:   SPONTANEOUS POTENTIAL
 ILD .OHMM   05 120 46 00:   INDUCTION LOG DEEP
 CILD.MMHO   05 110 46 00:   CONDUCTIVITY INDUCTION LOG DEEP
 ASN .OHMM   05 041 16 00:   AMPLIFIED SHORT NORMAL 16"
~PARAMETER INFORMATION
#MNEM.UNIT          VALUE    DESCRIPTION
#----------   ------------   ------------------------------
 LMF .                 KB:   LOG MEASURED FROM
 DMF .                 KB:   DRILLING MEASURED FROM
 EKB .F              5044:   KELLING BUSHING
 EGL .F              5040:   GROUND LEVEL
 DATE.          2-19-1961:   RUN DATE
 RUN .                  1:   RUN NUMBER
 DD  .F               740:   DEPTH DRILLER
 DL  .F               741:   DEPTH LOGGER
 BLI .F               740:   BOTTOM LOG INTERVAL
 TLI .F                80:   TOP LOG INTERVAL
 CBD .F               740:   CASING BOTTOM DRILLER
 CBL .F               741:   CASING BOTTOM LOGGER
 BS  .IN            7.875:   BIT SIZE
 BSD .F               740:   BIT SIZE AT DEPTH
 DFT .       GEL-OIL EMUL:   DRILLING FLUID TYPE
 DFD .                9.2:   DRILLING FLUID DENSITY
 DFV .                 49:   DRILLING FLUID VISCOSITY
 DFPH.                  8:   DRILLING FLUID PH
 DFL .               11.4:   DRILLING FLUID LOSS
 MSS .           FLOWLINE:   MUD SAMPLE SOURCE
 RMS .OHMM            .84:   RESISTIVITY MUD SAMPLE
 MST .F                74:   MUD SAMPLE TEMPERATURE
 RMF .OHMM            .83:   RESISTIVITY MUD FILTRATE SAMPLE
 MFST.F                75:   MUD FILTRATE SAMPLE TEMPERATURE
 RMC .OHMM            .52:   RESISTIVITY MUD CAKE
 MCST.F                74:   MUD CAKE SAMPLE TEMPERATURE
 RMB .OHMM           1.98:   RESISTIVITY MUD AT BHT
 BHT .F                70:   BOTTOM HOLE TEMPERATURE
 TCS .HRS               1:   TIME CURCULATED STOPPED
 MRT .F                70:   MAXIMUM RECORDED TEMPERATURE
 LUN .               2523:   LOGGING UNIT NUMBER
 LUL .               CSPR:   LOGGING UNIT LOCATION
 ENGI.             KNOBEL:   RECORDING ENGINEER
 WITN.          JORGENSEN:   WITNESSED BY
 CLNT.            A2DTECH:   CLIENT CODE
 ORIG.        2" 5" PRINT:   ORIGIN OF DATA
 UWI .       490250655200:   UNIQUE WELL ID
 DICO. A2D Technologies, Inc.:   DIGITIZING COMPANY
~OTHER INFORMATION
~A   DEPT       GR        SPR          ILD      CILD         ASN 
   80.0000  -999.2500  -999.2500     4.5125   228.7344     1.3174
   80.5000  -999.2500   -20.7645     4.5125   231.8465     1.3174
   81.0000  -999.2500  -999.2500     4.5125   234.2038     1.3174
   81.5000  -999.2500  -999.2500     4.5125   236.4756     1.3499
   82.0000  -999.2500   -20.8013     4.4250   239.3154     1.4104
   82.5000  -999.2500   -20.8184     4.2855   242.1551     1.4709
   83.0000  -999.2500   -20.8358     4.1728   244.9948     1.5313
   83.5000  -999.2500   -20.8532     4.0596   248.0723     1.5908
   84.0000  -999.2500   -20.8706     3.9461   252.4896     1.6578
   84.5000  -999.2500   -20.8880     3.8325   261.7687     1.8776
   85.0000  -999.2500   -20.9053     3.7189   275.7780     2.0966
   85.5000  -999.2500   -20.9227     3.6053   289.7874     2.3145
   86.0000  -999.2500   -20.9401     3.4912   315.1245     2.5322
   86.5000  -999.2500   -20.9574     3.3758   343.9004     2.7499
   87.0000  -999.2500   -20.9721     3.2794   372.6764     2.9676
   87.5000  -999.2500   -20.9336     3.5245   401.4523     3.1853
   88.0000  -999.2500   -20.8797     3.7790   430.2282     3.4030
   88.5000  -999.2500   -20.8250     4.0318   450.7261     3.6210
   89.0000  -999.2500   -20.7704     4.2844   450.7261     3.8384
   89.5000  -999.2500   -20.7158     4.5367   439.3927     4.0388
   90.0000  -999.2500   -20.6612     4.7880   421.4008     4.1340
   90.5000  -999.2500   -20.6066     4.9028   403.5283     4.2238
   91.0000  -999.2500   -20.5520     4.8447   385.8436     4.3137
   91.5000  -999.2500   -20.4973     4.7883   352.6398     4.4085
   92.0000  -999.2500   -20.4427     4.7311   316.1035     4.4075
   92.5000  -999.2500   -20.3887     4.6732   279.4779     4.3868
   93.0000  -999.2500   -20.3506     4.6220   242.8769     3.7183
   93.5000  -999.2500   -20.3513     4.7760   206.2759     2.4885
   94.0000  -999.2500   -20.3512     4.9428   200.7261     2.2134
   94.5000  -999.2500   -20.3512     5.1081   200.7261     2.0779
   95.0000  -999.2500   -20.3512     5.2755   200.7261     1.9437
   95.5000  -999.2500   -20.3512     5.2379   202.6528     1.8203
   96.0000  -999.2500   -20.3512     5.1396   205.9308     1.8751
   96.5000  -999.2500   -20.3512     4.9599   212.8764     1.9346
   97.0000  -999.2500   -20.3512     4.6958   225.1815     1.9933
   97.5000  -999.2500   -20.3512     4.4229   240.2749     2.0521
   98.0000  -999.2500   -20.3512     4.1495   266.1480     2.1114
   98.5000  -999.2500   -20.3512     3.8765   292.1484     2.1628
   99.0000  -999.2500   -20.3511     3.6034   319.8315     2.0533
   99.5000  -999.2500   -20.3505     3.3299   332.0287     1.9381
  100.0000  -999.2500   -20.3801     3.0576   344.8626     1.8236
  100.5000  -999.2500   -20.4157     2.8455   357.7845     1.7090
  101.0000  -999.2500   -20.4515     2.9656   370.7270     1.5903
  101.5000  -999.2500   -20.4871     3.1164   373.9626     1.6081
  102.0000  -999.2500   -20.5228     3.2676   368.7759     1.6627
  102.5000  -999.2500   -20.5585     3.4185   350.0173     1.7203
  103.0000  -999.2500   -20.5941     3.5694   324.7752     1.7414
  103.5000  -999.2500   -20.6298     3.7203   299.5332     1.8093
  104.0000  -999.2500   -20.6654     3.8712   280.6017     1.8838
  104.5000  -999.2500   -20.7012     4.0221   265.0415     1.9585
  105.0000  -999.2500   -20.7369     4.1730   246.7151     2.0332
  105.5000  -999.2500   -20.7651     4.3244   235.6501     2.1079
  106.0000  -999.2500   -20.7538     4.4758   231.3278     2.1826
  106.5000  -999.2500   -20.6975     4.6037   230.8091     2.2572
  107.0000  -999.2500   -20.6424     4.5240   231.9761     2.3254
  107.5000  -999.2500   -20.5875     4.4495   233.5322     2.3757
  108.0000  -999.2500   -20.5325     4.3754   236.5145     2.4273
  108.5000  -999.2500   -20.4776     4.3013   239.9723     2.4221
  109.0000  -999.2500   -20.4226     4.2275   243.4301     2.4016
  109.5000  -999.2500   -20.3676     4.1529   246.9346     2.3806
  110.0000  -999.2500   -20.3127     4.0576   253.4854     2.3584
  110.5000  -999.2500   -20.2577     3.8754   270.2502     2.3932
  111.0000  -999.2500   -20.2027     3.6972   286.8257     2.4440
  111.5000  -999.2500   -20.1478     3.5146   303.4232     2.4952
  112.0000  -999.2500   -20.0928     3.4364   320.0208     2.5462
  112.5000  -999.2500   -20.0377     3.3840   328.3195     2.5968
  113.0000  -999.2500   -19.9830     3.3324   333.3333     2.6486
  113.5000  -999.2500   -19.9363     3.2806   336.7911     2.7351
  114.0000  -999.2500   -19.9708     3.2288   340.2490     2.9767
  114.5000  -999.2500   -20.0179     3.1751   345.9543     3.2273
  115.0000  -999.2500   -20.0655     3.1483   358.4025     3.6066
  115.5000  -999.2500   -20.1131     3.0737   368.5166     4.0289
  116.0000  -999.2500   -20.1607     3.0015   371.6525     4.3869
  116.5000  -999.2500   -20.2082     2.9294   375.7925     4.3232
  117.0000  -999.2500   -20.2558     2.8572   383.4592     4.2243
  117.5000  -999.2500   -20.3034     2.7850   400.0000     4.1254
  118.0000  -999.2500   -20.3509     2.7129   419.5021     4.0271
  118.5000  -999.2500   -20.3985     2.6407   439.0042     3.9288
  119.0000  -999.2500   -20.4461     2.5686   458.5062     3.8305
  119.5000  -999.2500   -20.4938     2.4964   478.0083     3.7323
  120.0000  -999.2500   -20.5418     2.4241   517.1161     3.6339
  120.5000  -999.2500   -20.5424     2.3494   538.0019     3.5352
  121.0000  -999.2500   -20.4338     2.3310   519.2827     3.4351
  121.5000  -999.2500   -20.3249     2.4714   504.2784     3.4211
  122.0000  -999.2500   -20.2164     2.6540   486.5145     3.5620
  122.5000  -999.2500   -20.1079     2.8374   456.9502     3.6985
  123.0000  -999.2500   -19.9995     3.0205   423.7552     3.8344
  123.5000  -999.2500   -19.8910     3.2036   392.1162     4.1008
  124.0000  -999.2500   -19.7824     3.3867   360.9958     4.4091
  124.5000  -999.2500   -19.6739     3.5701   327.9305     4.7165
  125.0000  -999.2500   -19.5643     3.7525   294.0298     4.9552
  125.5000  -999.2500   -19.5397     3.8935   266.9883     4.9591
  126.0000  -999.2500   -19.6565     3.8730   260.7170     4.9680
  126.5000  -999.2500   -19.7747     3.8498   264.1770     4.9299
  127.0000  -999.2500   -19.8926     3.8270   272.5622     4.8782
  127.5000  -999.2500   -20.0103     3.8034   282.5899     4.8263
  128.0000  -999.2500   -20.1281     3.7515   292.6176     4.7744
  128.5000  -999.2500   -20.2459     3.5882   311.4626     4.7227
  129.0000  -999.2500   -20.3636     3.4293   333.2469     4.6714
  129.5000  -999.2500   -20.4815     3.2707   357.7542     4.5498
  130.0000  -999.2500   -20.5989     3.1120   383.1691     4.4065
  130.5000  -999.2500   -20.7190     2.9534   408.5840     4.2627
  131.0000  -999.2500   -20.6573     2.7947   433.9990     4.1190
  131.5000  -999.2500   -20.4827     2.6356   459.4139     3.9749
  132.0000  -999.2500   -20.3060     2.4696   484.8288     3.8321
  132.5000  -999.2500   -20.1291     2.5549   491.1826     3.7396
  133.0000  -999.2500   -19.9524     2.7092   461.5442     3.8272
  133.5000  -999.2500   -19.7759     2.8654   437.8334     3.9105
  134.0000  -999.2500   -19.5976     3.0223   414.1227     3.9945
  134.5000  -999.2500   -19.5297     3.2392   380.4090     4.1961
  135.0000  -999.2500   -19.6063     3.4776   343.3610     4.8543
  135.5000  -999.2500   -19.6832     3.7162   306.3130     5.5093
  136.0000  -999.2500   -19.7597     3.9549   269.7095     5.9292
  136.5000  -999.2500   -19.8361     4.1935   234.4398     6.0168
  137.0000  -999.2500   -19.9124     4.4321   220.6209     6.0363
  137.5000  -999.2500   -19.9887     4.6706   213.9523     6.0907
  138.0000  -999.2500   -20.0650     4.9092   207.2836     6.2615
  138.5000  -999.2500   -20.1414     5.1479   200.6150     6.7960
  139.0000  -999.2500   -20.2177     5.3915   193.9464     7.0490
  139.5000  -999.2500   -20.2940     5.5670   187.2777     7.2305
  140.0000  -999.2500   -20.3705     5.7288   180.6091     7.4273
  140.5000  -999.2500   -20.4465     5.8895   175.1630     7.7598
