~VERSION INFORMATION
 VERS.                2.0:   CWLS LOG ASCII STANDARD - VERSION 2.0
 WRAP.                 NO:   ONE LINE PER DEPTH STEP
~WELL INFORMATION
#MNEM.UNIT      DATA TYPE    INFORMATION
#----------   ------------   ------------------------------
 STRT.F           30.0000:   START DEPTH
 STOP.F          507.0000:   STOP DEPTH
 STEP.F            0.5000:   STEP LENGTH
 NULL.          -999.2500:   NO VALUE
 COMP. FENIX & SCISSON INC:   COMPANY
 WELL.      NPR-3 #42S-10:   WELL
 FLD .             TEAPOT:   FIELD
 LOC .      S10 T38N R78W:   LOCATION
 CNTY.            NATRONA:   COUNTY
 STAT.            WYOMING:   STATE
 CTRY. UNITED STATES OF AMERICA:   COUNTRY
 SRVC.            Unknown:   SERVICE COMPANY
 DATE.        15-JUL-1978:   LOGDATE
 API .       490251065700:   API NUMBER
~CURVE INFORMATION
#MNEM.UNIT       API CODE    CURVE DESCRIPTION
#----------   ------------   ------------------------------
 DEPT.F                  :   
 SPR .MV     07 010 01 00:   SPONTANEOUS POTENTIAL
 ILD .OHMM   07 120 46 00:   INDUCTION LOG DEEP
 SN  .OHMM   07 040 16 00:   SHORT NORMAL
 CALD.IN     45 280 60 00:   CALIPER FROM DENSITY LOG
 GRD .GAPI   45 310 01 00:   GAMMA RAY FROM DENSITY LOG
 CORR.G/C3   45 356 01 00:   DENSITY CORRECTION
 RHOB.G/C3   45 350 01 00:   BULK DENSITY
 DPHI.DEC    45 890 12 00:   DENSITY POROSITY SANDSTONE
~PARAMETER INFORMATION
#MNEM.UNIT          VALUE    DESCRIPTION
#----------   ------------   ------------------------------
 PD  .                 GL:   PERMANENT DATUM
 EPD .F              5204:   ELEVATION PERMANENT DATUM
 LMF .                 KB:   LOG MEASURED FROM
 DAPD.F                 4:   FEET ABOVE PERMANENT DATUM
 DMF .                 KB:   DRILLING MEASURED FROM
 EKB .F              5208:   KELLING BUSHING
 EGL .F              5204:   GROUND LEVEL
 DATE.        15-JUL-1978:   RUN DATE
 RUN .                  1:   RUN NUMBER
 DD  .F               500:   DEPTH DRILLER
 DL  .F               511:   DEPTH LOGGER
 BLI .F               504:   BOTTOM LOG INTERVAL
 TLI .F                30:   TOP LOG INTERVAL
 CS  .IN            8.625:   CASING SIZE
 CBD .F                40:   CASING BOTTOM DRILLER
 CBL .F                40:   CASING BOTTOM LOGGER
 BS  .IN            7.875:   BIT SIZE
 BSD .F               500:   BIT SIZE AT DEPTH
 DFT .                KCL:   DRILLING FLUID TYPE
 DFD .                8.7:   DRILLING FLUID DENSITY
 DFV .                 32:   DRILLING FLUID VISCOSITY
 DFPH.                9.0:   DRILLING FLUID PH
 RMS .OHMM           0.18:   RESISTIVITY MUD SAMPLE
 MST .F                78:   MUD SAMPLE TEMPERATURE
 RMF .OHMM           0.16:   RESISTIVITY MUD FILTRATE SAMPLE
 MFST.F                88:   MUD FILTRATE SAMPLE TEMPERATURE
 RMC .OHMM           0.28:   RESISTIVITY MUD CAKE
 MCST.F                88:   MUD CAKE SAMPLE TEMPERATURE
 MFSS.               MEAS:   MUD FILTRATE SAMPLE SOURCE
 MCSS.               MEAS:   MUD CAKE SAMPLE SOURCE
 TCS .HRS               1:   TIME CURCULATED STOPPED
 LUN .               2958:   LOGGING UNIT NUMBER
 LUL .               CASP:   LOGGING UNIT LOCATION
 ENGI.              HONEA:   RECORDING ENGINEER
 WITN.           MCGINLEY:   WITNESSED BY
 CLNT.            A2DTECH:   CLIENT CODE
 ORIG.           5" PRINT:   ORIGIN OF DATA
 UWI .       490251065700:   UNIQUE WELL ID
 DICO. A2D Technologies, Inc.:   DIGITIZING COMPANY
~OTHER INFORMATION
~A   DEPT      SPR        ILD         SN       CALD        GRD       CORR       RHOB       DPHI   
# ...
  151.5000   -33.9405     9.9347     7.3674     8.6566    83.2261     0.0483     2.4477     0.1392
  152.0000   -33.9240     9.8037     7.3396     8.5549    84.5810     0.0545     2.4538     0.1338
  152.5000   -33.9108     9.6745     7.3210     8.4830    80.4498     0.0591     2.4629     0.1302
  153.0000   -33.7485     9.4827     7.3260     8.4258    79.5816     0.0608     2.4683     0.1314
  153.5000   -33.7352     9.3577     7.3300     8.4280    79.1593     0.0520     2.4698     0.1337
  154.0000   -33.7220     9.2343     7.3340     8.4153    79.3313     0.0418     2.4626     0.1418
  154.5000   -33.7088     9.0501     7.3380     8.4027    79.3547     0.0389     2.4440     0.1480
  155.0000   -33.6955     8.8696     7.3420     8.3609    79.5267     0.0391     2.4366     0.1489
  155.5000   -33.6823     8.6928     7.3460     8.2593    79.5501     0.0393     2.4397     0.1488
  156.0000   -33.5200     8.4610     7.2996     8.1873    79.5735     0.0395     2.4413     0.1506
  156.5000   -33.3537     8.2923     7.3036     8.1301    79.5969     0.0396     2.4332     0.1569
  157.0000   -33.0343     8.2394     7.3076     8.1021    79.4710     0.0398     2.4311     0.1562
  157.5000   -32.8842     8.1869     7.2605     8.0895    79.4951     0.0415     2.4350     0.1529
  158.0000   -33.1690     8.1908     7.2654     8.0922    80.2674     0.0417     2.4396     0.1481
  158.5000   -33.4505     8.1948     7.2694     8.1092    82.2625     0.0419     2.4449     0.1445
  159.0000   -33.5896     8.1987     7.2225     8.1559    83.9168     0.0406     2.4488     0.1394
  159.5000   -33.5731     8.2600     7.2274     8.1730    85.2409     0.0378     2.4556     0.1352
  160.0000   -33.5599     8.3783     7.1808     8.1602    84.2242     0.0335     2.4647     0.1364
  160.5000   -33.5466     8.4983     7.1363     8.0883    80.5329     0.0262     2.4588     0.1438
  161.0000   -33.5334     8.6201     7.0913     8.1053    79.3676     0.0189     2.4461     0.1474
  161.5000   -33.8182     8.6837     7.0465     8.2573    78.2023     0.0145     2.4381     0.1470
  162.0000   -34.2521     8.7477     6.9541     8.4261    77.9285     0.0177     2.4414     0.1464
  162.5000   -34.3912     8.8122     6.9102     8.5893    77.9519     0.0224     2.4474     0.1434
  163.0000   -34.3746     8.7550     6.8177     8.7081    78.5697     0.0300     2.4512     0.1379
  163.5000   -34.3614     8.5226     6.7300     8.7548    79.3360     0.0347     2.4588     0.1403
  164.0000   -34.4978     8.1822     6.6821     8.7570    79.6566     0.0364     2.4522     0.1451
  164.5000   -34.4840     7.8015     6.6453     8.6850    77.3026     0.0411     2.4471     0.1481
  165.0000   -34.6200     7.5936     6.6498     8.5834    75.2458     0.0475     2.4449     0.1468
  165.5000   -34.6065     7.4421     6.6534     8.5405    75.7149     0.0583     2.4481     0.1349
  166.0000   -34.7423     7.3945     6.6571     8.4839    77.6781     0.0744     2.4646     0.1235
  166.5000   -34.7288     7.2972     6.6607     8.4268    78.5854     0.0865     2.4774     0.1169
  167.0000   -34.7154     7.2506     6.7103     8.3844    78.6092     0.0867     2.4940     0.1315
  167.5000   -34.5503     7.2044     6.8070     8.3570    78.6376     0.0660     2.4754     0.1446
  168.0000   -34.0899     7.2079     6.8577     8.3145    78.6610     0.0483     2.4487     0.1503
  168.5000   -33.7786     7.2113     6.9088     8.2723    78.9816     0.0395     2.4383     0.1559
  169.0000   -33.6164     7.2646     6.9126     8.2745    79.8965     0.0352     2.4278     0.1610
  169.5000   -33.6031     7.2681     6.9163     8.2915    82.4459     0.0338     2.4221     0.1597
  170.0000   -33.5899     7.3224     6.8727     8.2938    84.1038     0.0355     2.4283     0.1537
  170.5000   -33.5767     7.4273     6.8764     8.2960    86.9503     0.0387     2.4411     0.1483
  171.0000   -33.7158     7.4821     6.8321     8.2982    90.2369     0.0374     2.4457     0.1420
  171.5000   -33.6992     7.5373     6.7889     8.3009    82.9853     0.0330     2.4503     0.1477
  172.0000   -33.6860     7.6452     6.7461     8.3327    80.6313     0.0227     2.4481     0.1527
  172.5000   -33.6727     7.7016     6.7035     8.4536    80.4829     0.0185     2.4318     0.1512
  173.0000   -33.6595     7.8119     6.6164     8.6487    81.2724     0.0202     2.4349     0.1440
  173.5000   -33.6463     7.8696     6.5746     8.8289    82.4845     0.0219     2.4477     0.1383
  174.0000   -33.4840     7.9276     6.5330     8.9201    83.7087     0.0236     2.4583     0.1404
  174.5000   -33.4708     7.9314     6.4474     8.8926    84.3304     0.0252     2.4457     0.1508
  175.0000   -33.4575     7.9899     6.3627     8.8207    84.6360     0.0284     2.4391     0.1514
  175.5000   -33.4441     7.9937     6.2362     8.7635    84.5098     0.0315     2.4422     0.1505
  176.0000   -33.4307     7.9417     6.1510     8.7503    84.6876     0.0377     2.4409     0.1531
  176.5000   -33.5668     7.7843     6.0271     8.7233    84.8596     0.0468     2.4313     0.1495
  177.0000   -33.8484     7.2209     5.8651     8.7107    83.6943     0.0545     2.4360     0.1492
  177.5000   -33.9875     6.5615     5.7160     8.7129    80.3002     0.0651     2.4420     0.1515
  178.0000   -34.2690     6.1286     5.6023     8.7151    78.0948     0.0667     2.4346     0.1491
  178.5000   -34.4048     5.8435     5.5287     8.7174    73.8091     0.0654     2.4363     0.1455
  179.0000   -34.3915     5.6877     5.4931     8.7218    73.0837     0.0580     2.4431     0.1419
  179.5000   -34.5306     5.6127     5.4968     8.7222    76.2333     0.0490     2.4514     0.1428
  180.0000   -34.5141     5.6207     5.5760     8.6354    80.2686     0.0406     2.4545     0.1451
  180.5000   -34.3518     5.7424     5.7743     8.6222    81.7779     0.0378     2.4457     0.1478
  181.0000   -34.1896     6.0214     5.9386     8.6398    81.6523     0.0365     2.4428     0.1478
  181.5000   -34.0273     6.2779     6.1076     8.6717    81.6761     0.0322     2.4437     0.1465
  182.0000   -33.8650     6.5453     6.3684     8.7480    82.3021     0.0294     2.4490     0.1453
  182.5000   -33.7028     6.8241     6.5743     8.8393    82.7637     0.0265     2.4551     0.1441
  183.0000   -33.5405     7.0661     6.7468     8.9008    81.5334     0.0207     2.4545     0.1438
  183.5000   -33.3782     7.3166     6.9193     8.9178    77.0208     0.0150     2.4516     0.1467
  184.0000   -33.2160     7.5242     7.0763     8.9052    76.7411     0.0107     2.4540     0.1476
  184.5000   -33.2027     7.7376     7.1782     8.8777    77.2162     0.0094     2.4488     0.1464
  185.0000   -33.1793     7.9025     7.2317     8.9096    78.5769     0.0096     2.4475     0.1446
  185.5000   -33.0268     8.0710     7.2356     8.9563    82.0178     0.0097     2.4515     0.1457
  186.0000   -33.0134     8.1866     7.2396     8.9585    87.0932     0.0100     2.4500     0.1406
  186.5000   -32.9974     8.3039     7.2435     8.8561    87.8537     0.0146     2.4531     0.1367
  187.0000   -32.9842     8.4570     7.1968     8.8145    85.2084     0.0165     2.4637     0.1390
  187.5000   -32.9710     8.5389     7.2017     8.8316    84.9287     0.0224     2.4593     0.1324
  188.0000   -32.9577     8.6208     7.2056     8.8936    85.9981     0.0271     2.4691     0.1270
  188.5000   -32.7955     8.7027     7.1592     8.9551    85.2786     0.0302     2.4760     0.1281
  189.0000   -32.7822     8.7343     7.1640     9.0018    82.6274     0.0379     2.4776     0.1236
  189.5000   -32.7690     8.7384     7.1679     9.0485    82.0564     0.0485     2.4725     0.1121
  190.0000   -32.7558     8.6817     7.1718     9.0507    84.9133     0.0591     2.4666     0.1140
  190.5000   -32.7425     8.6868     7.1758     9.0529    85.0951     0.0697     2.5168     0.1208
  191.0000   -32.8816     8.7509     7.1797     8.9958    86.1444     0.0505     2.4766     0.1180
  191.5000   -32.8651     8.7551     7.1836     8.8941    87.3565     0.0537     2.4748     0.1093
