~VERSION INFORMATION
 VERS.                2.0:   CWLS LOG ASCII STANDARD - VERSION 2.0
 WRAP.                 NO:   ONE LINE PER DEPTH STEP
~WELL INFORMATION
#MNEM.UNIT      DATA TYPE    INFORMATION
#----------   ------------   ------------------------------
 STRT.F            0.0000:   START DEPTH
 STOP.F          825.0000:   STOP DEPTH
 STEP.F            0.5000:   STEP LENGTH
 NULL.          -999.2500:   NO VALUE
 COMP. BROWN JOHN E&C INC:   COMPANY
 WELL. NAVAL PETROLEUM RESERVE 3 SHX- #21-1-2:   WELL
 FLD .             TEAPOT:   FIELD
 LOC .       S2 T38N R78W:   LOCATION
 CNTY.            NATRONA:   COUNTY
 STAT.            WYOMING:   STATE
 CTRY. UNITED STATES OF AMERICA:   COUNTRY
 SRVC.     Atlas Wireline:   SERVICE COMPANY
 DATE.        11-NOV-1991:   LOGDATE
 API .       490252247600:   API NUMBER
~CURVE INFORMATION
#MNEM.UNIT       API CODE    CURVE DESCRIPTION
#----------   ------------   ------------------------------
 DEPT.F                  :   
 GRR .GAPI   07 310 01 00:   GAMMA RAY
 RFOC.OHMM   07 220 04 00:   RESISTIVITY FOCUSED LOG
 RILD.OHMM   07 120 46 00:   INDUCTION LOG DEEP RESISTIVITY
 RILM.OHMM   07 120 44 00:   INDUCTION LOG MEDIUM RESISTIVITY
 SPR .MV     07 010 01 00:   SPONTANEOUS POTENTIAL
~PARAMETER INFORMATION
#MNEM.UNIT          VALUE    DESCRIPTION
#----------   ------------   ------------------------------
 PD  .                 GL:   PERMANENT DATUM
 EPD .F              5110:   ELEVATION PERMANENT DATUM
 LMF .                 KB:   LOG MEASURED FROM
 DAPD.F                10:   FEET ABOVE PERMANENT DATUM
 DMF .                 KB:   DRILLING MEASURED FROM
 EKB .F              5120:   KELLING BUSHING
 EGL .F              5110:   GROUND LEVEL
 DATE.        11-NOV-1991:   RUN DATE
 RUN .                  1:   RUN NUMBER
 DD  .F               830:   DEPTH DRILLER
 DL  .F               527:   DEPTH LOGGER
 BLI .F               525:   BOTTOM LOG INTERVAL
 CS  .IN            9.625:   CASING SIZE
 CBD .F                58:   CASING BOTTOM DRILLER
 CBL .F                58:   CASING BOTTOM LOGGER
 BS  .IN             8.75:   BIT SIZE
 BSD .F               830:   BIT SIZE AT DEPTH
 DFT .          KCL WATER:   DRILLING FLUID TYPE
 RMS .OHMM          0.248:   RESISTIVITY MUD SAMPLE
 MST .F                93:   MUD SAMPLE TEMPERATURE
 BHT .F               104:   BOTTOM HOLE TEMPERATURE
 TCS .HRS               2:   TIME CURCULATED STOPPED
 MRT .F               104:   MAXIMUM RECORDED TEMPERATURE
 LUN .            HL 6274:   LOGGING UNIT NUMBER
 LUL .             CASPER:   LOGGING UNIT LOCATION
 ENGI.       P. RASMUSSEN:   RECORDING ENGINEER
 WITN.        GARY STRONG:   WITNESSED BY
 CLNT.            A2DTECH:   CLIENT CODE
 ORIG.           5" PRINT:   ORIGIN OF DATA
 UWI .       490252247600:   UNIQUE WELL ID
 DICO. A2D Technologies, Inc.:   DIGITIZING COMPANY
~OTHER INFORMATION
~A    DEPT       GRR     RFOC       RILD       RILM        SPR   
# ...
  427.0000   114.1609     7.8717     8.1113     7.0383   -64.4922
  427.5000   116.8410     7.8143     8.1065     7.0113   -65.0978
  428.0000   121.0259     7.7573     8.0463     6.9547   -65.1036
  428.5000   121.6023     7.7383     7.9313     6.9100   -64.9595
  429.0000   112.3026     7.6975     7.8179     6.9073   -65.1385
  429.5000   110.1959     7.6944     7.8127     6.8573   -65.7222
  430.0000   112.8723     7.6913     7.8085     6.8550   -66.3277
  430.5000   113.4602     7.6882     7.6970     6.8054   -66.7833
  431.0000   108.9510     7.7385     7.6929     6.8031   -67.2389
  431.5000   105.6467     7.7346     7.6887     6.8057   -67.3946
  432.0000   108.9219     7.7314     7.7390     6.8458   -67.5504
  432.5000   112.8194     7.7283     7.7876     6.8905   -67.5562
  433.0000   115.1802     7.8328     7.8375     6.9843   -67.5412
  433.5000   112.7668     7.8848     7.8877     7.1287   -67.1195
  434.0000   110.9558     7.7723     7.9934     7.3266   -66.3757
  434.5000   112.1388     7.8774     8.0446     7.5300   -65.6319
  435.0000   113.9243     8.0394     8.1513     7.6053   -65.6377
  435.5000   113.6067     8.2617     8.3179     7.7121   -66.0933
  436.0000   112.3946     8.4901     8.4880     7.8957   -66.1170
  436.5000   110.5836     8.6665     8.6617     8.1149   -65.6541
  437.0000   106.3454     8.8514     8.8386     8.2833   -64.5737
  437.5000   101.6717     8.9625     9.0871     8.4537   -63.4194
  438.0000    97.3626     9.1468     9.3307     8.6284   -63.1239
  438.5000    97.3481     9.3988     9.7214     8.9297   -63.1312
  439.0000    98.5311     9.5921     9.9214     9.2414   -63.2869
  439.5000   100.3130     9.6548     9.9850     9.4980   -63.4427
  440.0000   102.6936     9.6509    10.1174     9.5600   -63.7483
  440.5000   103.8767     9.5805    10.3243     9.5568   -64.0540
  441.0000   104.7605     9.5105    10.6085     9.4876   -64.5098
  441.5000   105.0452     9.5152    10.9776     9.5512   -64.5169
  442.0000   103.2306     9.6353    11.1235     9.7478   -64.5227
  442.5000   101.1202     9.7656    11.1160     9.8813   -64.2272
  443.0000    99.3092     9.8967    11.1100    10.0847   -63.9331
  443.5000    98.0971     9.8927    11.1040    10.1514   -64.2403
  444.0000    97.7831     9.8205    11.0981    10.0777   -64.5459
  444.5000    98.0680     9.7489    11.0921    10.0688   -64.1020
  445.0000    98.9516     9.6777    11.0861    10.0007   -63.1934
  445.5000   100.7335     9.6071    10.7774     9.9974   -61.7163
  446.0000   106.1069     9.6031    10.4725     9.8564   -62.0219
  446.5000   107.6277     9.5984    10.1843     9.7851   -62.7774
  447.0000   105.4790     9.7958    10.1085     9.6471   -63.0830
  447.5000    99.3564     9.8608    10.0334     9.4422   -62.9375
  448.0000    95.8690     9.2607    10.0990     9.2479   -63.0947
  448.5000    98.5455     8.8805    10.2344     9.1803   -63.4004
  449.0000   102.1237     8.8166    10.3715     9.1772   -64.0060
  449.5000   105.1032     8.9970    10.5091     9.2387   -64.4629
  450.0000   104.4898     9.1187    10.4309     9.4296   -65.0684
  450.5000    99.9842     9.3779    10.3532     9.6906   -65.2242
  451.0000    98.1733     9.6290    10.2750     9.8908   -65.3785
  451.5000    94.5557     9.8952    10.2695     9.9563   -65.2344
  452.0000    90.9581    10.0997    10.2640     9.9528   -65.3916
  452.5000    91.2397    10.2353    10.2584    10.0188   -65.3974
  453.0000    96.9138    10.2312    10.1822    10.0146   -65.4033
  453.5000   101.1116    10.2270    10.1767    10.0814   -65.5378
  454.0000   104.0969    10.0824    10.1010     9.6667   -64.9418
  454.5000   102.2860    10.0088    10.0258     9.4646   -64.6441
  455.0000   101.0797     9.8604     9.9716     9.2668   -64.0480
  455.5000   102.8616     9.6597     9.8994     9.1361   -63.7476
  456.0000   102.8500     9.5892     9.6257     8.9451   -63.1324
  456.5000   101.3273     9.4536     9.2308     8.8191   -62.4083
  457.0000    98.5430     9.3199     9.2276     8.6275   -61.9615
  457.5000    98.0219     9.1247     9.1602     8.3371   -61.5146
  458.0000    98.6120     8.8720     8.8455     8.1064   -61.3669
  458.5000    98.2981     8.5668     8.5416     8.2175   -62.8697
  459.0000    94.9931     8.4457     8.4212     8.3866   -63.9221
  459.5000    95.5803     8.4422     8.3610     8.4428   -64.5262
  460.0000    97.3651     8.4974     8.4740     8.4393   -65.1274
  460.5000    98.5511     8.5521     8.5301     8.3782   -64.5313
  461.0000    94.6444     8.4312     8.5272     8.3753   -63.3348
  461.5000    93.4352     8.3119     8.5171     8.3146   -62.2882
  462.0000    95.5203     8.1944     8.4035     8.2538   -62.1405
  462.5000    97.6045     8.0785     8.2851     8.1375   -62.2940
  463.0000   100.3153     8.0195     8.2252     8.0228   -62.4469
  463.5000   103.8659     7.9610     8.1093     7.9647   -62.7496
  464.0000   105.0548     7.9577     8.0506     7.9070   -63.0705
  464.5000   103.2439     8.0654     7.9924     7.9044   -63.5058
  465.0000   100.2383     8.2313     8.0453     7.9017   -63.6586
  465.5000    99.0291     8.4006     8.2113     8.0737   -63.9614
  466.0000    97.8199     8.4555     8.4437     8.2310   -64.1135
  466.5000    96.6107     8.4512     8.5539     8.1714   -63.5167
  467.0000    95.6746     8.4478     8.5503     8.0005   -63.0705
  467.5000    94.4887     8.3862     8.4884     7.6191   -63.2234
  468.0000    92.9801     8.2676     8.3689     7.3063   -63.8901
  468.5000    92.0703     8.1506     8.1940     7.0551   -65.7787
  469.0000    92.6575     7.9791     7.9675     6.8107   -65.9315
  469.5000    99.5322     7.9209     7.6937     6.4302   -66.2343
  470.0000   107.6044     7.8089     7.3781     6.1353   -66.6870
  470.5000   106.9940     7.3854     7.1226     6.0070   -67.1396
  471.0000   104.2495     6.9366     6.8253     6.1312   -67.7422
  471.5000   101.5787     6.4702     6.5515     6.2579   -68.3448
  472.0000    98.5731     6.6953     6.5493     6.4316   -68.8116
  472.5000    95.5675     7.1721     6.6384     6.4295   -69.1010
  473.0000    96.4541     7.5804     6.7293     6.4273   -68.9540
  473.5000   101.8317     7.5652     6.8676     6.5660   -68.8063
  474.0000   105.1135     7.4664     7.1072     6.6951   -68.8099
  474.5000   107.8184     7.4119     7.2540     6.7400   -68.6629
  475.0000   109.9301     7.4089     7.4037     6.7371   -68.6658
  475.5000   109.5668     7.4581     7.5100     6.7823   -68.5187
  476.0000   104.4654     7.5068     7.5541     6.8272   -68.0719
  476.5000   103.8579     7.5553     7.6040     6.8243   -68.3754
  477.0000   107.7356     7.5521     7.5483     6.8694   -68.5282
  477.5000   108.6251     7.4969     7.5982     6.8671   -68.5311
  478.0000   108.6106     7.4938     7.5957     6.9126   -68.3834
  478.5000   108.5988     7.5429     7.6465     7.0548   -67.7873
  479.0000   108.8839     7.6973     7.6965     7.2012   -67.1898
  479.5000   108.2735     7.9101     7.7473     7.2993   -66.8936
  480.0000   104.3697     8.1853     7.8020     7.2962   -67.0465
  480.5000   102.8640     8.2968     7.8500     7.3446   -67.4998
  481.0000   104.3465     8.1787     7.8467     7.3420   -68.1024
  481.5000   104.9341     7.8429     7.8441     7.3395   -68.4052
  482.0000   104.0239     7.6786     7.8414     7.2858   -68.4081
  482.5000   103.3782     7.7288     7.7310     7.2330   -68.4110
  483.0000   103.1025     7.6722     7.7284     7.1807   -68.7138
  483.5000   105.7826     7.6157     7.6724     7.0794   -68.4168
  484.0000   110.5614     7.6126     7.6169     7.0282   -67.6622
  484.5000   110.2504     7.6098     7.6143     6.9291   -67.0741
  485.0000   109.9394     7.6065     7.6117     6.8790   -67.3768
  485.5000   109.3290     7.6034     7.6086     6.8291   -67.6796
  486.0000   104.8026     7.6004     7.6595     6.8743   -67.8324
  486.5000   102.4192     7.5972     7.7101     6.9673   -67.3856
  487.0000   103.6027     7.5941     7.8144     7.0140   -66.9387
  487.5000   111.0762     7.6438     7.8117     7.0111   -66.6417
