~VERSION INFORMATION
 VERS.                2.0:   CWLS LOG ASCII STANDARD - VERSION 2.0
 WRAP.                 NO:   ONE LINE PER DEPTH STEP
~WELL INFORMATION
#MNEM.UNIT      DATA TYPE    INFORMATION
#----------   ------------   ------------------------------
 STRT.F           20.0000:   START DEPTH
 STOP.F          610.0000:   STOP DEPTH
 STEP.F            0.5000:   STEP LENGTH
 NULL.          -999.2500:   NO VALUE
 COMP. LAWRENCE/ALLISON INC:   COMPANY
 WELL.    44-55 SX #10-10:   WELL
 FLD .             TEAPOT:   FIELD
 LOC .      S10 T38N R78W:   LOCATION
 CNTY.            NATRONA:   COUNTY
 STAT.            WYOMING:   STATE
 CTRY. UNITED STATES OF AMERICA:   COUNTRY
 SRVC.            Unknown:   SERVICE COMPANY
 DATE.        29-AUG-1984:   LOGDATE
 API .       490251098300:   API NUMBER
~CURVE INFORMATION
#MNEM.UNIT       API CODE    CURVE DESCRIPTION
#----------   ------------   ------------------------------
 DEPT.F                  :   
 AC  .US/F   60 520 00 00:   ACOUSTIC SONIC
 SPR .MV     07 010 01 00:   SPONTANEOUS POTENTIAL
 RILD.OHMM   07 120 46 00:   INDUCTION LOG DEEP RESISTIVITY
 RILM.OHMM   07 120 44 00:   INDUCTION LOG MEDIUM RESISTIVITY
 RFOC.OHMM   07 220 04 00:   RESISTIVITY FOCUSED LOG
 GRD .GAPI   45 310 01 00:   GAMMA RAY FROM DENSITY LOG
 CALD.IN     45 280 60 00:   CALIPER
 DEN .G/C3   45 350 01 00:   COMPENSATED BULK DENSTIY
 CNC .DEC    42 890 03 00:   NEUTRON POROSITY SANDSTONE
 PORD.DEC    45 890 12 00:   DENSITY POROSITY SANDSTONE
 CORR.G/C3   45 356 01 00:   DENSITY CORRECTION
~PARAMETER INFORMATION
#MNEM.UNIT          VALUE    DESCRIPTION
#----------   ------------   ------------------------------
 PD  .                 GL:   PERMANENT DATUM
 EPD .F              5247:   ELEVATION PERMANENT DATUM
 LMF .                 KB:   LOG MEASURED FROM
 DAPD.F                13:   FEET ABOVE PERMANENT DATUM
 DMF .                 KB:   DRILLING MEASURED FROM
 EKB .F              5260:   KELLING BUSHING
 EGL .F              5247:   GROUND LEVEL
 DATE.        29-AUG-1984:   RUN DATE
 RUN .                  1:   RUN NUMBER
 DD  .F               613:   DEPTH DRILLER
 DL  .F               607:   DEPTH LOGGER
 BLI .F               607:   BOTTOM LOG INTERVAL
 TLI .F                42:   TOP LOG INTERVAL
 CBL .F                42:   CASING BOTTOM LOGGER
 BS  .IN            7.875:   BIT SIZE
 BSD .F               613:   BIT SIZE AT DEPTH
 DFT .          KCL WATER:   DRILLING FLUID TYPE
 MSS .               TANK:   MUD SAMPLE SOURCE
 RMS .OHMM           .295:   RESISTIVITY MUD SAMPLE
 MST .F                75:   MUD SAMPLE TEMPERATURE
 TCS .HRS               3:   TIME CURCULATED STOPPED
 MRT .F               100:   MAXIMUM RECORDED TEMPERATURE
 LUN .               4082:   LOGGING UNIT NUMBER
 LUL .               ROOS:   LOGGING UNIT LOCATION
 ENGI.             MILLER:   RECORDING ENGINEER
 WITN.            JOHNSON:   WITNESSED BY
 CLNT.            A2DTECH:   CLIENT CODE
 ORIG.       2", 5" PRINT:   ORIGIN OF DATA
 UWI .       490251098300:   UNIQUE WELL ID
 DICO. A2D Technologies, Inc.:   DIGITIZING COMPANY
~OTHER INFORMATION
~A   DEPT       AC        SPR       RILD       RILM       RFOC         GRD      CALD        DEN        CNC       PORD       CORR   
# ...
  111.5000   104.2087    37.3455     8.3068     9.1287     8.8282    96.3397     8.0985     2.5143     0.3562     0.0983     0.0701
  112.0000   104.3655    38.0408     8.1807     8.9777     8.7161    97.0777     8.0975     2.5090     0.3745     0.1016     0.0641
  112.5000   104.7206    38.0137     8.0566     8.8292     8.5658    97.4633     8.1007     2.5038     0.3795     0.1052     0.0566
  113.0000   105.1198    37.9420     7.9344     8.6832     8.4180    96.4281     8.1048     2.5060     0.3637     0.1042     0.0666
  113.5000   105.9860    37.8673     7.8140     8.5396     8.2728    96.3239     8.1090     2.5095     0.3389     0.1018     0.0730
  114.0000   106.9042    38.2493     7.6954     8.3989     8.1301    97.9794     8.1131     2.5037     0.3326     0.1039     0.0489
  114.5000   107.4902    38.7408     7.5787     8.2594     7.9899    99.5284     8.1172     2.4941     0.3333     0.1103     0.0246
  115.0000   107.3610    39.0528     7.4637     8.1622     7.8676    97.6602     8.1199     2.4844     0.3365     0.1168     0.0114
  115.5000   106.5090    38.9972     7.3773     8.1622     7.8676    95.4986     8.1225     2.4789     0.3330     0.1192     0.0006
  116.0000   105.6570    38.9479     7.4109     8.2882     8.1137    92.7076     8.1251     2.5046     0.3330     0.1037    -0.0071
  116.5000   105.0830    38.8965     7.5620     8.4453     8.2892    87.7451     8.1277     2.5306     0.3413     0.0848    -0.0050
  117.0000   105.0404    38.8747     7.7146     8.5856     8.4067    87.6880     8.1303     2.5385     0.3503     0.0915     0.0018
  117.5000   105.2769    39.2421     7.8704     8.6883     8.4771    93.2178     8.1329     2.4943     0.3514     0.1099    -0.0009
  118.0000   105.7118    39.6341     8.0294     8.7879     8.5461    99.0604     8.1354     2.4582     0.3428     0.1282    -0.0035
  118.5000   105.5682    40.0247     8.1916     8.8901     8.7363   100.3228     8.1316     2.4524     0.3218     0.1356    -0.0044
  119.0000   105.4192    40.4061     8.3570     8.9850     8.9253    99.7553     8.1148     2.4702     0.3002     0.1271     0.0308
  119.5000   107.4609    40.3647     8.5257     9.1514     9.1141    93.4679     8.0983     2.4970     0.2958     0.1081     0.0485
  120.0000   110.8586    39.5566     8.6250     9.2832     9.1141    86.8352     8.0819     2.5310     0.2901     0.0888     0.0413
  120.5000   114.4818    38.7705     8.7851     9.2504     9.0663    82.4447     8.0653     2.5197     0.2922     0.0888     0.0342
  121.0000   114.6283    38.4299     8.7851     9.2237     9.0272    84.5293     8.0577     2.4990     0.3018     0.1062     0.0407
  121.5000   112.4004    38.8840     8.7340     9.1970     8.9882    88.1840     8.0577     2.4850     0.3081     0.1152     0.0369
  122.0000   109.5675    39.3260     8.6841     9.1704     8.9495    92.4208     8.0576     2.4905     0.3143     0.1123     0.0201
  122.5000   107.5324    39.7782     8.6344     9.1438     8.9110    98.9729     8.0576     2.5038     0.3206     0.1047     0.0175
  123.0000   106.1178    39.8485     8.5851     9.1174     8.8726   100.4095     8.0576     2.5111     0.3300     0.0998     0.0225
  123.5000   105.7872    39.7774     8.5360     9.0910     8.8344   100.0139     8.0576     2.5141     0.3265     0.0992     0.0275
  124.0000   105.6240    39.7051     8.4872     9.0647     8.7963    98.3308     8.0576     2.5128     0.3159     0.0992     0.0324
  124.5000   105.3181    39.6317     8.4387     9.0385     8.7584    94.9775     8.0576     2.5054     0.3095     0.1041     0.0363
  125.0000   105.0123    39.5558     8.3904     9.0124     8.7207    93.7297     8.0576     2.4911     0.3141     0.1146     0.0370
  125.5000   104.9202    39.4847     8.3732     8.9863     8.6831    94.0869     8.0576     2.4769     0.3201     0.1228     0.0347
  126.0000   104.9784    39.1559     8.3563     8.9603     8.6457    95.0220     8.0576     2.4752     0.3192     0.1190     0.0322
  126.5000   105.2275    38.7735     8.3393     8.9344     8.6085    97.2361     8.0576     2.4842     0.3198     0.1160     0.0225
  127.0000   105.6003    38.3914     8.3223     8.9085     8.5714    98.4832     8.0576     2.4872     0.3257     0.1182     0.0123
  127.5000   105.9731    38.0110     8.3054     8.8827     8.5344    96.9921     8.0576     2.4821     0.3302     0.1204     0.0110
  128.0000   106.1637    37.6311     8.2884     8.8571     8.4975    95.5864     8.0576     2.4773     0.3280     0.1216     0.0327
  128.5000   106.1178    37.2505     8.2716     8.8313     8.4669    95.1554     8.0576     2.4801     0.3262     0.1194     0.0557
  129.0000   105.5180    36.8931     8.2547     8.8055     8.4666    95.8230     8.0576     2.4832     0.3342     0.1176     0.0602
  129.5000   104.7725    36.6730     8.2376     8.7842     8.7142    96.3422     8.0576     2.4795     0.3346     0.1221     0.0489
  130.0000   103.7388    36.4766     8.4663     8.8860     8.9276    94.3606     8.0579     2.4705     0.3002     0.1295     0.0297
  130.5000   102.6247    36.5131     8.6687     9.0624     9.1465    94.0768     8.0638     2.4614     0.2999     0.1316     0.0106
  131.0000   102.0946    36.6832     8.8760     9.2423     9.3706    95.8831     8.0696     2.4690     0.2996     0.1230     0.0001
  131.5000   101.7611    36.8515     9.0882     9.4258     9.6002    97.6050     8.0755     2.4824     0.3078     0.1152     0.0241
  132.0000   101.5164    37.0246     9.3055     9.6129     9.8355    96.8384     8.0813     2.4960     0.3214     0.1104     0.0474
  132.5000   101.2709    37.2957     9.5277     9.8038    10.0838    95.9124     8.0872     2.4997     0.2991     0.1096     0.0623
  133.0000   100.8425    37.0048     9.7558     9.9984    10.1198    94.9839     8.0929     2.4921     0.2989     0.1134     0.0351
  133.5000   100.3837    36.7003    10.0136    10.1969    10.1570    94.8289     8.0961     2.4802     0.2987     0.1203    -0.0098
  134.0000    99.8707    36.2135    10.2859    10.3993    10.1943    94.8052     8.0890     2.4753     0.2949     0.1228     0.0008
  134.5000    99.1749    35.6579    10.5656    10.6057    10.2318    92.9082     8.0822     2.4840     0.2793     0.1156     0.0143
  135.0000    98.4790    35.0990    10.8529    10.9182    10.2709    88.3757     8.0753     2.4955     0.2702     0.1087     0.0273
  135.5000    97.7832    34.5412    11.1480    11.2728    10.4879    85.0007     8.0685     2.5034     0.2766     0.1072     0.0388
  136.0000    97.0874    33.9913    11.4511    11.6390    10.7805    85.5932     8.0618     2.4979     0.2902     0.1095     0.0379
  136.5000    96.3442    33.4236    11.7625    12.0171    11.0813    88.8162     8.0583     2.4925     0.2974     0.1123     0.0372
  137.0000    95.4202    32.8630    12.0823    12.4075    11.3905    90.2762     8.0599     2.4870     0.2854     0.1148     0.0367
  137.5000    94.4975    32.3026    12.4109    12.8106    11.7083    88.6343     8.0614     2.4952     0.2757     0.1116     0.0306
  138.0000    93.8411    31.7837    12.7484    13.1642    12.0350    84.7350     8.0630     2.5064     0.2666     0.1054     0.0230
  138.5000    93.9305    31.2915    13.0437    13.1642    12.3708    79.4119     8.0646     2.5108     0.2662     0.1020     0.0153
  139.0000    94.3981    30.6147    13.0448    13.1642    12.4578    78.1722     8.0662     2.5011     0.2753     0.1075     0.0077
  139.5000    94.8640    29.9489    12.9119    13.0902    12.2472    79.7075     8.0677     2.4889     0.2830     0.1146     0.0000
  140.0000    95.3393    29.3136    12.7362    12.9515    11.9695    81.6724     8.0693     2.4872     0.2803     0.1164    -0.0021
  140.5000    95.1780    28.8372    12.5629    12.7831    11.6815    83.6718     8.0709     2.5027     0.2767     0.1072     0.0402
  141.0000    94.9709    28.3713    12.3920    12.6165    11.7456    85.9695     8.0724     2.5158     0.2771     0.0994     0.0760
  141.5000    94.8403    27.7647    12.2235    12.4522    11.8659    88.3823     8.0740     2.5220     0.2782     0.0950     0.0793
