~VERSION INFORMATION
 VERS.                2.0:   CWLS LOG ASCII STANDARD - VERSION 2.0
 WRAP.                 NO:   ONE LINE PER DEPTH STEP
~WELL INFORMATION
#MNEM.UNIT      DATA TYPE    INFORMATION
#----------   ------------   ------------------------------
 STRT.F           34.0000:   START DEPTH
 STOP.F          614.0000:   STOP DEPTH
 STEP.F            0.5000:   STEP LENGTH
 NULL.          -999.2500:   NO VALUE
 COMP. FENIX & SCISSON INC:   COMPANY
 WELL.      71-SX-3 #71-3:   WELL
 FLD .             TEAPOT:   FIELD
 LOC .       S3 T38N R78W:   LOCATION
 CNTY.            NATRONA:   COUNTY
 STAT.            WYOMING:   STATE
 CTRY. UNITED STATES OF AMERICA:   COUNTRY
 SRVC.              Welex:   SERVICE COMPANY
 DATE.        10-MAR-1977:   LOGDATE
 API .       490251028900:   API NUMBER
~CURVE INFORMATION
#MNEM.UNIT       API CODE    CURVE DESCRIPTION
#----------   ------------   ------------------------------
 DEPT.F                  :   
 CALD.IN     45 280 60 00:   CALIPER
 GRD .GAPI   45 310 01 00:   GAMMA RAY FROM DENSITY LOG
 RHOB.G/C3   45 350 01 00:   BULK DENSITY
 DPHI.DEC    45 890 12 00:   DENSITY POROSITY SANDSTONE
 CORR.G/C3   45 356 01 00:   DENSITY CORRECTION
 SGRD.OHMM   07 220 05 00:   SHALLOW RESISTIVITY
 ILD .OHMM   07 120 46 00:   INDUCTION LOG DEEP
 ILM .OHMM   07 120 44 00:   INDUCTION LOG MEDIUM
 SPR .MV     07 010 01 00:   SPONTANEOUS POTENTIAL
~PARAMETER INFORMATION
#MNEM.UNIT          VALUE    DESCRIPTION
#----------   ------------   ------------------------------
 PD  .                 GL:   PERMANENT DATUM
 EPD .F              5117:   ELEVATION PERMANENT DATUM
 LMF .                 GL:   LOG MEASURED FROM
 DMF .                 GL:   DRILLING MEASURED FROM
 EGL .F              5117:   GROUND LEVEL
 DATE.          3-10-1977:   RUN DATE
 RUN .                  1:   RUN NUMBER
 DD  .F               630:   DEPTH DRILLER
 DL  .F               619:   DEPTH LOGGER
 BLI .F               617:   BOTTOM LOG INTERVAL
 TLI .F                34:   TOP LOG INTERVAL
 CS  .IN            8.625:   CASING SIZE
 CBD .F                40:   CASING BOTTOM DRILLER
 CBL .F                41:   CASING BOTTOM LOGGER
 BS  .IN            7.875:   BIT SIZE
 BSD .F               630:   BIT SIZE AT DEPTH
 DFT .            KCL MUD:   DRILLING FLUID TYPE
 DFD .                  9:   DRILLING FLUID DENSITY
 DFV .                 33:   DRILLING FLUID VISCOSITY
 MSS .            MUD PIT:   MUD SAMPLE SOURCE
 RMS .OHMM           2.33:   RESISTIVITY MUD SAMPLE
 MST .F                57:   MUD SAMPLE TEMPERATURE
 RMF .OHMM           1.83:   RESISTIVITY MUD FILTRATE SAMPLE
 MFST.F                57:   MUD FILTRATE SAMPLE TEMPERATURE
 RMC .OHMM           2.53:   RESISTIVITY MUD CAKE
 MCST.F                57:   MUD CAKE SAMPLE TEMPERATURE
 MFSS.           FANN KIT:   MUD FILTRATE SAMPLE SOURCE
 MCSS.           FANN KIT:   MUD CAKE SAMPLE SOURCE
 RMB .OHMM            2.1:   RESISTIVITY MUD AT BHT
 BHT .F                63:   BOTTOM HOLE TEMPERATURE
 TCS .HRS             1.5:   TIME CURCULATED STOPPED
 MRT .F                63:   MAXIMUM RECORDED TEMPERATURE
 LUN .               8611:   LOGGING UNIT NUMBER
 LUL .           GILLETTE:   LOGGING UNIT LOCATION
 ENGI.               DOAK:   RECORDING ENGINEER
 WITN.              BURKE:   WITNESSED BY
 CLNT.            A2DTECH:   CLIENT CODE
 ORIG.       2", 5" PRINT:   ORIGIN OF DATA
 UWI .       490251028900:   UNIQUE WELL ID
 DICO. A2D Technologies, Inc.:   DIGITIZING COMPANY
~OTHER INFORMATION
~A   DEPT     CALD        GRD       RHOB       DPHI       CORR       SGRD        ILD        ILM        SPR   
# ...
  435.5000     7.7401    34.1702     2.3126     0.1999     0.0472    37.8857    20.4842    21.8302   -43.1624
  436.0000     7.7575    33.0337     2.3191     0.1942     0.0439    29.0206    20.2885    21.7271   -43.0962
  436.5000     7.7748    36.7516     2.3467     0.1766     0.0503    29.8759    20.0949    21.6253   -43.0123
  437.0000     7.7922    37.7047     2.3767     0.1590     0.0574    31.3494    19.9033    21.8108   -42.9276
  437.5000     7.8095    36.9482     2.4067     0.1414     0.0646    32.9263    19.7135    22.1202   -42.8430
  438.0000     7.8264    39.8452     2.4269     0.1302     0.0718    34.5861    19.5255    22.4352   -42.7586
  438.5000     7.7964    42.7935     2.4456     0.1243     0.0722    31.1141    19.3393    22.0549   -42.6740
  439.0000     7.7030    40.7909     2.4641     0.1183     0.0689    25.6619    19.1896    21.6788   -42.5876
  439.5000     7.6102    38.4812     2.4825     0.0997     0.0655    26.5594    19.4107    21.3095   -42.5682
  440.0000     7.5172    40.7377     2.5013     0.0894     0.0677    28.2544    19.5987    20.9460   -42.5676
  440.5000     7.4245    43.1656     2.5038     0.0876     0.0750    21.0455    19.7885    20.6520   -42.5679
  441.0000     7.3483    45.5766     2.4763     0.1021     0.0731    26.0720    19.9083    21.1634   -42.5680
  441.5000     7.3376    47.9823     2.4533     0.1151     0.0700    25.0805    19.4415    21.6984   -42.5820
  442.0000     7.3474    50.4022     2.4303     0.1280     0.0663    31.2605    19.0785    22.2470   -42.6078
  442.5000     7.3788    50.8322     2.4098     0.1403     0.0610    41.7659    18.7222    23.0625   -42.6336
  443.0000     7.4179    48.8535     2.4036     0.1466     0.0558    56.7706    18.1920    22.6239   -42.6596
  443.5000     7.4576    46.9420     2.3974     0.1513     0.0505    40.5950    17.3799    21.1597   -42.6855
  444.0000     7.4974    46.9262     2.3931     0.1543     0.0476    23.5715    16.6042    19.7298   -42.7115
  444.5000     7.5371    48.9818     2.3887     0.1576     0.0463    19.0036    15.8616    18.6312   -42.7378
  445.0000     7.5769    45.9951     2.3831     0.1609     0.0451    19.0070    15.1520    18.0294   -42.7641
  445.5000     7.6167    42.9794     2.3742     0.1642     0.0439    18.3933    14.4741    17.4483   -42.7431
  446.0000     7.6563    41.9800     2.3686     0.1675     0.0427    18.1580    13.9828    16.8223   -42.7182
  446.5000     7.6948    45.7940     2.3662     0.1712     0.0415    18.4985    13.8153    16.1115   -42.6935
  447.0000     7.7354    47.9269     2.3553     0.1783     0.0402    18.8045    13.6499    16.1165   -42.6688
  447.5000     7.7750    45.5904     2.3436     0.1843     0.0390    19.0149    13.4865    15.7254   -42.6442
  448.0000     7.8143    44.8404     2.3369     0.1881     0.0382    18.7497    13.2857    15.4754   -42.6196
  448.5000     7.8535    50.6892     2.3423     0.1847     0.0403    18.4651    13.3704    15.2310   -42.5951
  449.0000     7.8649    48.5702     2.3500     0.1805     0.0424    18.1847    13.4634    15.1039   -42.5682
  449.5000     7.8465    45.5838     2.3578     0.1757     0.0446    17.8279    13.5571    15.1030   -42.4688
  450.0000     7.8283    49.1531     2.3656     0.1710     0.0468    17.9658    13.6515    15.3853   -42.3590
  450.5000     7.8100    51.2191     2.3733     0.1662     0.0489    18.2431    13.7465    15.6453   -42.2492
  451.0000     7.7940    50.0199     2.3811     0.1614     0.0511    18.5265    13.8422    15.9109   -42.1401
  451.5000     7.7989    50.0620     2.3888     0.1573     0.0533    18.7334    13.9385    16.1830   -42.0285
  452.0000     7.8041    53.8952     2.3891     0.1561     0.0537    18.9503    14.0355    16.4598   -41.9211
  452.5000     7.8091    55.6175     2.3834     0.1590     0.0533    19.1698    14.1332    16.7414   -41.7175
  453.0000     7.8135    53.6205     2.3890     0.1567     0.0529    19.3917    14.2316    17.0277   -41.5763
  453.5000     7.8117    51.7231     2.3897     0.1561     0.0525    19.5456    14.2995    17.1855   -41.5203
  454.0000     7.8099    49.8446     2.3864     0.1585     0.0521    18.9545    14.1765    17.3442   -41.4535
  454.5000     7.8081    49.6759     2.3857     0.1571     0.0532    18.1528    14.0835    16.4688   -41.3853
  455.0000     7.8063    51.4315     2.3935     0.1517     0.0579    17.1749    13.9912    15.9220   -41.3822
  455.5000     7.8045    48.9211     2.4047     0.1443     0.0626    17.4033    13.8954    15.2524   -41.3830
  456.0000     7.8028    45.9255     2.4099     0.1411     0.0623    18.1364    13.7716    15.3735   -41.3820
  456.5000     7.8010    44.0205     2.4022     0.1487     0.0591    18.4968    13.6488    15.5553   -41.3521
  457.0000     7.7992    43.6634     2.3925     0.1542     0.0560    17.8317    13.5271    15.7354   -41.2421
  457.5000     7.7974    46.4770     2.3891     0.1588     0.0528    17.3458    13.4065    15.9671   -41.1360
  458.0000     7.7959    49.6255     2.3882     0.1614     0.0529    16.8731    13.2870    15.6050   -41.0302
  458.5000     7.7955    52.7895     2.3952     0.1560     0.0562    16.4870    13.1686    15.1226   -40.9240
  459.0000     7.7557    55.9355     2.4103     0.1479     0.0595    16.2551    13.0437    14.6552   -40.8138
  459.5000     7.7283    56.7131     2.4251     0.1398     0.0629    16.0264    12.9537    14.2022   -40.8486
  460.0000     7.7008    54.8253     2.4257     0.1371     0.0662    15.6762    12.7878    13.9106   -40.9260
  460.5000     7.6735    52.6781     2.4129     0.1443     0.0659    16.5651    12.6239    14.0062   -41.0049
  461.0000     7.6536    50.5307     2.3986     0.1521     0.0590    16.1457    12.4622    14.0390   -41.0836
  461.5000     7.6713    48.3919     2.3843     0.1599     0.0522    15.5975    12.3025    13.8694   -41.1621
  462.0000     7.6887    49.1035     2.3702     0.1699     0.0453    15.1103    12.1189    13.6552   -41.2407
  462.5000     7.7060    52.3410     2.3698     0.1666     0.0404    15.5700    12.3403    13.7353   -41.3192
  463.0000     7.7233    51.4845     2.3807     0.1604     0.0426    16.0641    12.5071    13.9680   -41.3978
  463.5000     7.7404    49.9864     2.3915     0.1543     0.0452    16.5741    12.6763    14.2048   -41.4763
  464.0000     7.7530    48.4697     2.3903     0.1564     0.0476    17.3400    12.8477    14.4451   -41.5549
  464.5000     7.7851    48.4328     2.3970     0.1560     0.0501    16.9732    12.9244    14.7004   -41.6335
  465.0000     7.8109    50.7382     2.4072     0.1491     0.0527    16.3360    12.7873    14.5296   -41.7116
  465.5000     7.7943    52.9554     2.4175     0.1422     0.0551    15.7232    12.6700    14.3083   -41.7956
  466.0000     7.7786    52.8905     2.4242     0.1377     0.0577    15.1103    12.5539    14.0900   -41.8922
  466.5000     7.7630    49.7004     2.4151     0.1429     0.0548    15.5830    12.4388    13.8752   -42.0158
  467.0000     7.7474    49.0682     2.4054     0.1489     0.0505    16.1145    12.3438    13.6639   -42.2494
  467.5000     7.7316    51.9707     2.4002     0.1381     0.0461    15.7155    12.2118    13.4084   -42.4851
  468.0000     7.7152    48.7134     2.4323     0.1156     0.0446    15.3143    12.1191    13.4292   -42.7199
  468.5000     7.7389    45.3087     2.4757     0.0932     0.0506    14.8328    12.3441    13.4656   -42.9666
  469.0000     7.7695    44.1229     2.5193     0.0708     0.0567    15.0579    12.3431    13.5021   -43.4466
  469.5000     7.7917    49.7512     2.5582     0.0545     0.0627    15.4533    12.4373    13.5322   -43.9372
  470.0000     7.7784    48.7890     2.5591     0.0562     0.0688    15.8583    12.5326    14.0540   -44.3034
  470.5000     7.7658    46.8850     2.5426     0.0650     0.0708    16.1145    12.6290    14.6083   -43.9601
  471.0000     7.7533    44.8651     2.5130     0.0840     0.0671    17.1380    12.7263    15.1845   -43.8436
  471.5000     7.7408    48.4110     2.4832     0.1031     0.0634    19.0477    12.8244    15.7834   -44.0998
