~VERSION INFORMATION
 VERS.                2.0:   CWLS LOG ASCII STANDARD - VERSION 2.0
 WRAP.                 NO:   ONE LINE PER DEPTH STEP
~WELL INFORMATION
#MNEM.UNIT      DATA TYPE    INFORMATION
#----------   ------------   ------------------------------
 STRT.F          534.0000:   START DEPTH
 STOP.F         1847.5000:   STOP DEPTH
 STEP.F            0.5000:   STEP LENGTH
 NULL.          -999.2500:   NO VALUE
 COMP. LAWRENCE/ALLISON INC:   COMPANY
 WELL.      18 SHX #18-27:   WELL
 FLD .             TEAPOT:   FIELD
 LOC .      S27 T39N R78W:   LOCATION
 CNTY.            NATRONA:   COUNTY
 STAT.            WYOMING:   STATE
 CTRY. UNITED STATES OF AMERICA:   COUNTRY
 SRVC.            Unknown:   SERVICE COMPANY
 DATE.        01-MAR-1985:   LOGDATE
 API .       490251102000:   API NUMBER
~CURVE INFORMATION
#MNEM.UNIT       API CODE    CURVE DESCRIPTION
#----------   ------------   ------------------------------
 DEPT.F                  :   
 ROP .MIN/FT 91 810 01 00:   RATE OF DRILLING PENETRATION
 TGAS.UNITS  91 830 01 00:   TOTAL GAS FROM HOTWIRE
~PARAMETER INFORMATION
#MNEM.UNIT          VALUE    DESCRIPTION
#----------   ------------   ------------------------------
 DATE.           3-1-1985:   RUN DATE
 DD  .F              1848:   DEPTH DRILLER
 DL  .F              1825:   DEPTH LOGGER
 TLI .F               535:   TOP LOG INTERVAL
 WITN.  ALBERT C. KRAVATZ:   WITNESSED BY
 CLNT.            A2DTECH:   CLIENT CODE
 ORIG.           5" PRINT:   ORIGIN OF DATA
 UWI .       490251102000:   UNIQUE WELL ID
 DICO. A2D Technologies, Inc.:   DIGITIZING COMPANY
~OTHER INFORMATION
~A   DEPT      ROP       TGAS   
# ...
 1627.5000     1.2424     8.2189
 1628.0000     1.2427     8.2552
 1628.5000     1.2431     8.2915
 1629.0000     1.2434     8.3278
 1629.5000     1.2438     8.3641
 1630.0000     1.2441     8.4005
 1630.5000     1.2445     8.4368
 1631.0000     1.2448     8.4731
 1631.5000     1.2452     8.5094
 1632.0000     1.2455     8.5457
 1632.5000     1.2459     8.5821
 1633.0000     1.2462     8.6184
 1633.5000     1.2466     8.6547
 1634.0000     1.2469     8.6910
 1634.5000     1.2473     8.7274
 1635.0000     1.2476     8.7637
 1635.5000     1.2480     8.8000
 1636.0000     1.2483     8.8363
 1636.5000     1.2487     8.8726
 1637.0000     1.2490     8.9090
 1637.5000     1.2494     8.9453
 1638.0000     1.2497     8.9816
 1638.5000     1.2501     9.0179
 1639.0000     1.2504     9.0543
 1639.5000     1.2508     9.0906
 1640.0000     1.2511     9.1269
 1640.5000     1.2515     9.1632
 1641.0000     1.2518     9.1995
 1641.5000     1.2522     9.2359
 1642.0000     1.2525     9.2722
 1642.5000     1.2529     9.3085
 1643.0000     1.2532     9.3448
 1643.5000     1.2536     9.3811
 1644.0000     1.2539     9.4175
 1644.5000     1.2543     9.4538
 1645.0000     1.2546     9.4901
 1645.5000     1.2550     9.5264
 1646.0000     1.2553     9.5628
 1646.5000     1.2557     9.5991
 1647.0000     1.2560     9.6354
 1647.5000     1.2564     9.6717
 1648.0000     1.2567     9.7080
 1648.5000     1.2571     9.7444
 1649.0000     1.2574     9.7807
 1649.5000     1.2578     9.8170
 1650.0000     1.2581     9.8533
 1650.5000     1.2585     9.8896
 1651.0000     1.2588     9.9260
 1651.5000     1.2592     9.9623
 1652.0000     1.2595     9.9986
 1652.5000     1.2599    10.0349
 1653.0000     1.2602    10.0713
 1653.5000     1.2606    10.1076
 1654.0000     1.2609    10.1439
 1654.5000     1.2613    10.1802
 1655.0000     1.2616    10.2165
 1655.5000     1.2620    10.2529
 1656.0000     1.2623    10.2892
 1656.5000     1.2627    10.3255
 1657.0000     1.2630    10.3618
 1657.5000     1.2634    10.3981
 1658.0000     1.2637    10.4345
 1658.5000     1.2641    10.4708
 1659.0000     1.2644    10.5071
 1659.5000     1.2648    10.5434
 1660.0000     1.2651    10.5798
 1660.5000     1.2655    10.6161
 1661.0000     1.2658    10.6524
 1661.5000     1.2662    10.6887
 1662.0000     1.2665    10.7250
 1662.5000     1.2669    10.7614
 1663.0000     1.2673    10.7977
 1663.5000     1.2676    10.8340
 1664.0000     1.2680    10.8703
 1664.5000     1.2683    10.9066
 1665.0000     1.2687    10.9430
 1665.5000     1.2690    10.9793
 1666.0000     1.2694    11.0156
 1666.5000     1.2697    11.0519
 1667.0000     1.2701    11.0883
 1667.5000     1.2704    11.1246
 1668.0000     1.2708    11.1609
 1668.5000     1.2711    11.1972
 1669.0000     1.2715    11.2335
 1669.5000     1.2718    11.2699
 1670.0000     1.2722    11.3062
 1670.5000     1.2725    11.3425
 1671.0000     1.2729    11.3788
 1671.5000     1.2732    11.4152
 1672.0000     1.2736    11.4515
 1672.5000     1.2739    11.4878
 1673.0000     1.2743    11.5241
 1673.5000     1.2746    11.5604
 1674.0000     1.2750    11.5968
 1674.5000     1.2753    11.6331
 1675.0000     1.2757    11.6694
 1675.5000     1.2760    11.7057
 1676.0000     1.2764    11.7420
 1676.5000     1.2767    11.7784
 1677.0000     1.2771    11.8147
 1677.5000     1.2774    11.8510
 1678.0000     1.2778    11.8873
 1678.5000     1.2781    11.9237
 1679.0000     1.2785    11.9600
 1679.5000     1.2788    11.9963
 1680.0000     1.2792    12.0326
 1680.5000     1.2795    12.0689
 1681.0000     1.2799    12.1053
 1681.5000     1.2802    12.1416
 1682.0000     1.2806    12.1779
 1682.5000     1.2809    12.2142
 1683.0000     1.2813    12.2505
 1683.5000     1.2816    12.2869
 1684.0000     1.2820    12.3232
 1684.5000     1.2922    12.3595
 1685.0000     1.3213    12.3958
 1685.5000     1.3504    12.4322
 1686.0000     1.3853    12.4685
 1686.5000     1.3853    12.5048
 1687.0000     1.3853    12.5411
 1687.5000     1.3852    12.5774
 1688.0000     1.3851    12.6138
 1688.5000     1.3851    12.6501
 1689.0000     1.3850    12.6864
 1689.5000     1.3849    12.7227
 1690.0000     1.3849    12.7590
 1690.5000     1.3848    12.7954
 1691.0000     1.3847    12.8317
 1691.5000     1.3847    12.8680
 1692.0000     1.3846    12.9043
 1692.5000     1.3845    12.9407
 1693.0000     1.3845    12.9770
 1693.5000     1.3844    13.0133
 1694.0000     1.3843    13.0496
 1694.5000     1.3843    13.0859
 1695.0000     1.3842    13.1223
 1695.5000     1.3841    13.1586
 1696.0000     1.3841    13.1949
 1696.5000     1.3840    13.2312
 1697.0000     1.3840    13.2676
 1697.5000     1.3839    13.3039
 1698.0000     1.3838    13.3402
 1698.5000     1.3838    13.3765
 1699.0000     1.3837    13.4128
 1699.5000     1.3836    13.4492
 1700.0000     1.3836    13.4855
 1700.5000     1.3835    13.4902
 1701.0000     1.3834    13.4849
 1701.5000     1.3834    13.4796
 1702.0000     1.3833    13.4743
 1702.5000     1.3832    13.4690
 1703.0000     1.3832    13.4638
 1703.5000     1.3831    13.4585
 1704.0000     1.3830    13.4532
 1704.5000     1.3830    13.4479
 1705.0000     1.3829    13.4426
 1705.5000     1.3828    13.4373
 1706.0000     1.3828    13.4320
 1706.5000     1.3827    13.4268
 1707.0000     1.3826    13.4215
 1707.5000     1.3826    13.4162
 1708.0000     1.3825    13.4109
 1708.5000     1.3824    13.4056
 1709.0000     1.3824    13.4003
 1709.5000     1.3823    13.3950
 1710.0000     1.3822    13.3897
 1710.5000     1.3822    13.3845
 1711.0000     1.3821    13.3792
 1711.5000     1.3820    13.3739
 1712.0000     1.3820    13.3686
 1712.5000     1.3819    13.3633
 1713.0000     1.3818    13.3580
 1713.5000     1.3818    13.3527
 1714.0000     1.3817    13.3475
 1714.5000     1.3816    13.3422
 1715.0000     1.3816    13.3369
 1715.5000     1.3815    13.3316
 1716.0000     1.3814    13.3263
 1716.5000     1.3814    13.3210
 1717.0000     1.3813    13.3157
 1717.5000     1.3812    13.3105
 1718.0000     1.3812    13.3052
 1718.5000     1.3811    13.2999
 1719.0000     1.3810    13.2946
 1719.5000     1.3810    13.2893
 1720.0000     1.3809    13.2840
 1720.5000     1.3809    13.2787
 1721.0000     1.3808    13.2734
 1721.5000     1.3807    13.2682
 1722.0000     1.3807    13.2629
 1722.5000     1.3806    13.2576
 1723.0000     1.3805    13.2523
 1723.5000     1.3805    13.2470
 1724.0000     1.3804    13.2417
 1724.5000     1.3803    13.2364
 1725.0000     1.3803    13.2312
 1725.5000     1.3802    13.2259
 1726.0000     1.3801    13.2206
 1726.5000     1.3801    13.2153
 1727.0000     1.3800    13.2100
 1727.5000     1.3799    13.2047
 1728.0000     1.3799    13.1994
 1728.5000     1.3798    13.1942
 1729.0000     1.3797    13.1889
 1729.5000     1.3797    13.1836
 1730.0000     1.3796    13.1783
 1730.5000     1.3795    13.1730
 1731.0000     1.3795    13.1677
 1731.5000     1.3794    13.1624
 1732.0000     1.3793    13.1572
 1732.5000     1.3793    13.1519
 1733.0000     1.3792    13.1466
 1733.5000     1.3791    13.1413
 1734.0000     1.3791    13.1360
 1734.5000     1.3790    13.1307
 1735.0000     1.3789    13.1254
 1735.5000     1.3789    13.1201
 1736.0000     1.3788    13.1149
 1736.5000     1.3787    13.1096
 1737.0000     1.3787    13.1043
 1737.5000     1.3786    13.0990
 1738.0000     1.3785    13.0937
 1738.5000     1.3785    13.0884
 1739.0000     1.3784    13.0831
 1739.5000     1.3783    13.0779
 1740.0000     1.3783    13.0726
 1740.5000     1.3782    13.0673
 1741.0000     1.3781    13.0620
 1741.5000     1.3781    13.0567
 1742.0000     1.3780    13.0514
 1742.5000     1.3779    13.0461
 1743.0000     1.3779    13.0409
 1743.5000     1.3778    13.0356
 1744.0000     1.3778    13.0303
 1744.5000     1.3777    13.0250
 1745.0000     1.3776    13.0197
 1745.5000     1.3776    13.0144
 1746.0000     1.3775    13.0091
 1746.5000     1.3774    13.0038
 1747.0000     1.3774    12.9986
 1747.5000     1.3773    12.9933
 1748.0000     1.3772    12.9880
 1748.5000     1.3772    12.9827
