~VERSION INFORMATION
 VERS.                2.0:   CWLS LOG ASCII STANDARD - VERSION 2.0
 WRAP.                 NO:   ONE LINE PER DEPTH STEP
~WELL INFORMATION
#MNEM.UNIT      DATA TYPE    INFORMATION
#----------   ------------   ------------------------------
 STRT.F           26.0000:   START DEPTH
 STOP.F          520.0000:   STOP DEPTH
 STEP.F            0.5000:   STEP LENGTH
 NULL.          -999.2500:   NO VALUE
 COMP. LAWRENCE/ALLISON INC:   COMPANY
 WELL.   52-15 STX #52-10:   WELL
 FLD .             TEAPOT:   FIELD
 LOC .      S10 T38N R78W:   LOCATION
 CNTY.            NATRONA:   COUNTY
 STAT.            WYOMING:   STATE
 CTRY. UNITED STATES OF AMERICA:   COUNTRY
 SRVC.           Gearhart:   SERVICE COMPANY
 DATE.        23-JUL-1987:   LOGDATE
 API .       490251114600:   API NUMBER
~CURVE INFORMATION
#MNEM.UNIT       API CODE    CURVE DESCRIPTION
#----------   ------------   ------------------------------
 DEPT.F                  :   
 RLL .OHMM   07 220 00 00:   LATEROLOG RESISTIVITY
 RILD.OHMM   07 120 46 00:   INDUCTION LOG DEEP RESISTIVITY
 RILM.OHMM   07 120 44 00:   INDUCTION LOG MEDIUM RESISTIVITY
 GRR .GAPI   07 310 01 00:   GAMMA RAY FROM RES. LOG.
~PARAMETER INFORMATION
#MNEM.UNIT          VALUE    DESCRIPTION
#----------   ------------   ------------------------------
 PD  .                 GL:   PERMANENT DATUM
 EPD .F              5195:   ELEVATION PERMANENT DATUM
 LMF .                 KB:   LOG MEASURED FROM
 DAPD.F                 8:   FEET ABOVE PERMANENT DATUM
 DMF .                 KB:   DRILLING MEASURED FROM
 EKB .F              5203:   KELLING BUSHING
 EDF .F              5201:   DRILLING FLOOR
 EGL .F              5195:   GROUND LEVEL
 DATE.          7-23-1987:   RUN DATE
 RUN .                  1:   RUN NUMBER
 DD  .F               519:   DEPTH DRILLER
 DL  .F               520:   DEPTH LOGGER
 BLI .F               519:   BOTTOM LOG INTERVAL
 TLI .F                30:   TOP LOG INTERVAL
 CS  .IN            8.625:   CASING SIZE
 CBD .F                48:   CASING BOTTOM DRILLER
 CBL .F                48:   CASING BOTTOM LOGGER
 BS  .IN            7.875:   BIT SIZE
 BSD .F               519:   BIT SIZE AT DEPTH
 DFT .                MUD:   DRILLING FLUID TYPE
 DFD .                8.9:   DRILLING FLUID DENSITY
 DFV .                 40:   DRILLING FLUID VISCOSITY
 MSS .            MUD PIT:   MUD SAMPLE SOURCE
 RMS .OHMM            .37:   RESISTIVITY MUD SAMPLE
 MST .F                70:   MUD SAMPLE TEMPERATURE
 RMF .OHMM            .29:   RESISTIVITY MUD FILTRATE SAMPLE
 MFST.F                70:   MUD FILTRATE SAMPLE TEMPERATURE
 RMC .OHMM             .5:   RESISTIVITY MUD CAKE
 MCST.F                70:   MUD CAKE SAMPLE TEMPERATURE
 MFSS.              CHART:   MUD FILTRATE SAMPLE SOURCE
 MCSS.              CHART:   MUD CAKE SAMPLE SOURCE
 RMB .OHMM            .35:   RESISTIVITY MUD AT BHT
 BHT .F                80:   BOTTOM HOLE TEMPERATURE
 TCS .HRS            1100:   TIME CURCULATED STOPPED
 TLAB.HRS            1534:   TIME LOGGER AT BOTTOM
 MRT .F                80:   MAXIMUM RECORDED TEMPERATURE
 LUN .               7597:   LOGGING UNIT NUMBER
 LUL .           GILLETTE:   LOGGING UNIT LOCATION
 ENGI.         WEATHERMON:   RECORDING ENGINEER
 WITN.         MR. STRONG:   WITNESSED BY
 CLNT.            A2DTECH:   CLIENT CODE
 ORIG.       2", 5" PRINT:   ORIGIN OF DATA
 UWI .       490251114600:   UNIQUE WELL ID
 DICO. A2D Technologies, Inc.:   DIGITIZING COMPANY
~OTHER INFORMATION
~A   DEPT      RLL       RILD       RILM         GRR  
   26.0000  -999.2500  -999.2500  -999.2500    55.8468
   26.5000  -999.2500  -999.2500  -999.2500    55.8468
   27.0000  -999.2500  -999.2500  -999.2500    56.0995
   27.5000  -999.2500  -999.2500  -999.2500    56.4943
   28.0000  -999.2500  -999.2500  -999.2500    54.3292
   28.5000  -999.2500  -999.2500  -999.2500    50.5201
   29.0000  -999.2500  -999.2500  -999.2500    46.6816
   29.5000  -999.2500  -999.2500  -999.2500    42.7143
   30.0000  -999.2500  -999.2500  -999.2500    41.8898
   30.5000  -999.2500  -999.2500  -999.2500    43.4527
   31.0000  -999.2500  -999.2500  -999.2500    43.9439
   31.5000  -999.2500  -999.2500  -999.2500    44.9038
   32.0000  -999.2500  -999.2500  -999.2500    46.6882
   32.5000  -999.2500  -999.2500  -999.2500    48.7426
   33.0000  -999.2500  -999.2500  -999.2500    50.2317
   33.5000  -999.2500  -999.2500  -999.2500    49.1099
   34.0000  -999.2500  -999.2500  -999.2500    47.0396
   34.5000  -999.2500  -999.2500  -999.2500    45.4305
   35.0000  -999.2500  -999.2500  -999.2500    46.1159
   35.5000  -999.2500  -999.2500  -999.2500    46.7781
   36.0000  -999.2500  -999.2500  -999.2500    46.2286
   36.5000  -999.2500  -999.2500  -999.2500    45.1379
   37.0000  -999.2500  -999.2500  -999.2500    43.9924
   37.5000  -999.2500  -999.2500  -999.2500    43.7504
   38.0000  -999.2500  -999.2500  -999.2500    43.7606
   38.5000  -999.2500  -999.2500  -999.2500    43.1909
   39.0000  -999.2500  -999.2500  -999.2500    42.5037
   39.5000  -999.2500  -999.2500  -999.2500    42.3132
   40.0000  -999.2500  -999.2500  -999.2500    43.0843
   40.5000  -999.2500  -999.2500  -999.2500    43.8243
   41.0000  -999.2500  -999.2500  -999.2500    44.7329
   41.5000  -999.2500  -999.2500  -999.2500    45.7706
   42.0000  -999.2500  -999.2500  -999.2500    46.6295
   42.5000  -999.2500  -999.2500  -999.2500    46.8281
   43.0000  -999.2500  -999.2500  -999.2500    47.3008
   43.5000  -999.2500  -999.2500  -999.2500    48.6713
   44.0000  -999.2500  -999.2500  -999.2500    49.9752
   44.5000  -999.2500  -999.2500  -999.2500    50.9771
   45.0000  -999.2500  -999.2500  -999.2500    53.0852
   45.5000  -999.2500  -999.2500  -999.2500    55.8990
   46.0000  -999.2500  -999.2500  -999.2500    58.7197
   46.5000  -999.2500  -999.2500  -999.2500    59.0867
   47.0000  -999.2500  -999.2500  -999.2500    58.9501
   47.5000     0.5941    36.4581  -999.2500    57.9067
   48.0000     0.5996    46.6052  -999.2500    57.0455
   48.5000     0.6512    30.5955  1990.7555    57.8728
   49.0000     0.6955    30.8930  1173.9286    59.9019
   49.5000     1.0608    22.1255   733.6403    62.5312
   50.0000     1.7655    22.4560   247.7940    70.0557
   50.5000     2.9384    13.1443   296.0711    78.0561
   51.0000     4.0186     4.6476   361.8889    86.0683
   51.5000     5.1563     2.7978    11.3570    94.0309
   52.0000     6.2008     2.7661     2.7406   100.2977
   52.5000     6.1316     4.1972     3.2675   101.8718
   53.0000     6.0817     5.8371     3.8811   102.8223
   53.5000     6.0795     8.3429     4.3800   103.4318
   54.0000     6.2619    10.5788     5.1424   103.0671
   54.5000     6.3959    10.7004     5.7369   102.6960
   55.0000     6.4878     6.6707     6.3732   103.3705
   55.5000     6.4034     6.6091     6.3723   104.7098
   56.0000     6.3706     6.7406     6.1335   105.5029
   56.5000     6.6039     6.8544     5.9855   103.5831
   57.0000     6.7520     6.9701     5.8051   101.4666
   57.5000     6.9033     7.0878     5.8218    99.7819
   58.0000     7.1177     7.2531     5.8532   101.1976
   58.5000     7.0586     7.1034     5.8847   104.3917
   59.0000     6.9644     6.9239     5.9136   105.8395
   59.5000     6.8714     6.7489     6.0942   105.0282
   60.0000     6.7954     6.6091     6.2650   104.6533
   60.5000     6.8156     6.7218     6.4409   104.4754
   61.0000     6.9104     6.7871     6.6094   103.0060
   61.5000     7.0066     6.8531     6.6296   101.7722
   62.0000     7.1037     6.9197     6.6481   101.8818
   62.5000     7.1849     6.9870     6.6670   103.5100
   63.0000     7.2538     7.0549     6.6860   104.6586
   63.5000     7.3243     7.1177     6.7051   103.6435
   64.0000     7.3864     7.2514     6.7242   101.9317
   64.5000     7.5350     7.3769     6.8005   101.0056
   65.0000     7.6893     7.5046     6.9225   101.0064
   65.5000     7.8428     7.6345     7.1262   100.9921
   66.0000     7.9555     7.7667     7.3319   101.5685
   66.5000     8.1052     7.8814     7.5448   102.2729
   67.0000     8.2740     8.0010     7.6798   102.9893
   67.5000     8.4593     8.1242     7.7945   103.6785
   68.0000     8.6473     8.2491     7.9098   103.9205
   68.5000     8.8395     8.4108     8.0271   102.1191
   69.0000     8.8903     8.3936     8.1036   100.5777
   69.5000     8.8567     8.3647     7.9868   100.7689
   70.0000     8.8321     8.3358     7.9011   100.9245
   70.5000     8.8074     8.3071     7.8164   100.4892
   71.0000     8.7829     8.2786     7.7328    98.5523
   71.5000     8.7584     8.2548     7.6501    96.5433
   72.0000     8.7340     8.2549     7.5679    98.0476
   72.5000     8.7097     8.2039     7.5247   100.9601
   73.0000     8.6853     8.1722     7.5641   101.1640
   73.5000     8.6608     8.1406     7.5912   101.2962
   74.0000     8.6466     8.1036     7.6184   101.8210
   74.5000     8.7072     8.1993     7.6458   104.1851
   75.0000     8.7676     8.3539     7.6653   106.2673
   75.5000     8.8284     8.5115     7.8353   107.9571
   76.0000     8.8903     8.6721     7.9937   105.3497
   76.5000     9.0104     8.8357     8.1553   100.2591
   77.0000     9.2124     9.0023     8.3202    95.2285
   77.5000     9.4189     9.1721     8.4884    92.5951
   78.0000     9.6301     9.3452     8.6534    93.1103
   78.5000     9.8427     9.5744     8.8159    93.9230
   79.0000     9.9594     9.7982     8.9731    94.7082
   79.5000    10.0998    10.0179     8.9959    96.1686
   80.0000    10.2432    10.2424     9.0177    97.8983
   80.5000    10.3888    10.4720     9.0395    99.4412
   81.0000    10.5039    10.7004     9.1409   100.8204
   81.5000    10.8028    10.9846     9.3029   100.9398
   82.0000    11.1718    11.2686     9.5006    97.8771
   82.5000    11.5534    11.5600     9.7025    94.8721
   83.0000    11.9481    11.8589     9.9087    91.8564
   83.5000    12.3562    12.1655    10.2774    88.8762
   84.0000    12.7783    12.4801    10.8820    86.8637
   84.5000    13.2421    12.7602    11.3122    87.3975
   85.0000    13.1199    12.7072    11.1337    90.1332
   85.5000    13.2470    12.6364    10.8993    91.5719
   86.0000    13.3653    12.5661    10.6698    92.1367
   86.5000    12.8302    12.4962    10.4451    92.6902
   87.0000    12.5130    12.4266    10.2160    94.1575
   87.5000    12.4269    12.3005    10.1963    95.5895
   88.0000    12.3413    12.1586    10.1757    96.4439
   88.5000    12.2563    12.0182    10.1552    95.3388
   89.0000    12.1719    11.8795    10.1348    93.0965
   89.5000    12.0881    11.7393    10.1135    90.8506
   90.0000    11.9334    11.6251    10.0901    88.5913
   90.5000    11.7615    11.5093    10.0670    88.1154
   91.0000    11.5911    11.3947    10.0433    89.5717
   91.5000    11.4182    11.2811    10.0286    91.1667
   92.0000    11.4517    11.1697    10.0769    92.1115
   92.5000    11.4894    11.0020    10.1640    93.0321
   93.0000    11.5268    10.9173    10.2509    93.3748
   93.5000    11.5641    10.8364    10.4071    91.2649
   94.0000    11.6013    10.7496    10.3875    89.2166
   94.5000    11.6310    10.6583    10.3666    87.1699
   95.0000    11.5344    10.5677    10.3458    85.1203
   95.5000    11.4550    10.4994    10.3249    83.0765
   96.0000    11.3764    10.4839    10.2160    81.6283
   96.5000    11.3119    10.4687    10.1825    82.7943
   97.0000    11.3129    10.4534    10.1474    86.3684
   97.5000    11.0850    10.4381    10.1124    90.8548
   98.0000    10.9270    10.4228    10.0775    92.7158
   98.5000    10.7714    10.4072    10.0427    93.9096
