~VERSION INFORMATION
 VERS.                2.0:   CWLS LOG ASCII STANDARD - VERSION 2.0
 WRAP.                 NO:   ONE LINE PER DEPTH STEP
~WELL INFORMATION
#MNEM.UNIT      DATA TYPE    INFORMATION
#----------   ------------   ------------------------------
 STRT.F           20.0000:   START DEPTH
 STOP.F          505.0000:   STOP DEPTH
 STEP.F            0.5000:   STEP LENGTH
 NULL.          -999.2500:   NO VALUE
 COMP.    FENIX & SCISSON:   COMPANY
 WELL.   NPR #3 #56-SX-10:   WELL
 FLD .             TEAPOT:   FIELD
 LOC .      S10 T38N R78W:   LOCATION
 CNTY.            NATRONA:   COUNTY
 STAT.            WYOMING:   STATE
 CTRY. UNITED STATES OF AMERICA:   COUNTRY
 SRVC.              Welex:   SERVICE COMPANY
 DATE.        01-MAY-1980:   LOGDATE
 API .       490251081300:   API NUMBER
~CURVE INFORMATION
#MNEM.UNIT       API CODE    CURVE DESCRIPTION
#----------   ------------   ------------------------------
 DEPT.F                  :   
 ILD .OHMM   07 120 46 00:   INDUCTION LOG DEEP
 ILM .OHMM   07 120 44 00:   INDUCTION LOG MEDIUM
 SGRD.OHMM   07 220 05 00:   SHALLOW GUARD RESISTIVITY
 SPR .MV     07 010 01 00:   SPONATANEOUS POTENTIAL FROM RES.
 CALD.IN     45 280 60 00:   CALIPER FROM DENSITY LOG
 DPHI.DEC    45 890 12 00:   DENSITY POROSITY SANDSTONE
 DRHO.G/C3   45 356 01 00:   DENSITY CORRECTION
 GRD .GAPI   45 310 01 00:   GAMMA RAY FROM DENSITY LOG
 RHOB.G/C3   45 350 01 00:   BULK DENSITY
~PARAMETER INFORMATION
#MNEM.UNIT          VALUE    DESCRIPTION
#----------   ------------   ------------------------------
 PD  .                 GL:   PERMANENT DATUM
 EPD .F              5180:   ELEVATION PERMANENT DATUM
 LMF .                 KB:   LOG MEASURED FROM
 DAPD.F                 4:   FEET ABOVE PERMANENT DATUM
 DMF .                 KB:   DRILLING MEASURED FROM
 EKB .F              5184:   KELLING BUSHING
 EGL .F              5180:   GROUND LEVEL
 DATE.        01-MAY-1980:   RUN DATE
 RUN .                  1:   RUN NUMBER
 DD  .F               489:   DEPTH DRILLER
 DL  .F               506:   DEPTH LOGGER
 BLI .F               504:   BOTTOM LOG INTERVAL
 TLI .F                30:   TOP LOG INTERVAL
 BS  .IN            7.875:   BIT SIZE
 BSD .F               489:   BIT SIZE AT DEPTH
 DFT .    WATER BASED MUD:   DRILLING FLUID TYPE
 DFD .                9.9:   DRILLING FLUID DENSITY
 DFV .                 46:   DRILLING FLUID VISCOSITY
 MSS .                PIT:   MUD SAMPLE SOURCE
 RMS .OHMM           0.99:   RESISTIVITY MUD SAMPLE
 MST .F                75:   MUD SAMPLE TEMPERATURE
 RMF .OHMM           0.78:   RESISTIVITY MUD FILTRATE SAMPLE
 MFST.F                75:   MUD FILTRATE SAMPLE TEMPERATURE
 RMC .OHMM           1.18:   RESISTIVITY MUD CAKE
 MCST.F                75:   MUD CAKE SAMPLE TEMPERATURE
 MFSS.               MEAS:   MUD FILTRATE SAMPLE SOURCE
 MCSS.               MEAS:   MUD CAKE SAMPLE SOURCE
 BHT .F               100:   BOTTOM HOLE TEMPERATURE
 TCS .HRS               1:   TIME CURCULATED STOPPED
 MRT .F               100:   MAXIMUM RECORDED TEMPERATURE
 LUN .               9685:   LOGGING UNIT NUMBER
 LUL .             CASPER:   LOGGING UNIT LOCATION
 ENGI.            TOTHILL:   RECORDING ENGINEER
 WITN.           DINSMORE:   WITNESSED BY
 CLNT.            A2DTECH:   CLIENT CODE
 ORIG.           5" PRINT:   ORIGIN OF DATA
 UWI .       490251081300:   UNIQUE WELL ID
 DICO. A2D Technologies, Inc.:   DIGITIZING COMPANY
~OTHER INFORMATION
~A   DEPT       ILD        ILM      SGRD        SPR       CALD       DPHI       DRHO        GRD       RHOB   
# ...
  385.0000    19.8896    15.3755    25.4075   -34.2152     7.8592     0.1901    -0.0072    71.6547     2.3264
  385.5000    19.6054    15.3738    25.9255   -33.9118     7.8154     0.1913    -0.0072    71.4422     2.3257
  386.0000    19.3492    15.4788    25.5692   -34.2065     7.8912     0.1931    -0.0087    71.0392     2.3235
  386.5000    19.2171    15.4766    25.2177   -34.6494     7.9369     0.1955    -0.0086    70.7911     2.3190
  387.0000    19.3521    15.3681    24.6996   -34.9451     7.8480     0.1912     0.0034    70.5813     2.3303
  387.5000    19.7594    15.2604    24.3601   -35.3892     7.8040     0.1807     0.0229    70.3690     2.3529
  388.0000    19.8979    15.0490    24.8711   -35.5332     7.7897     0.1688     0.0364    70.6085     2.3641
  388.5000    20.0375    14.9436    24.6996   -35.2299     7.7756     0.1684     0.0334    71.3126     2.3618
  389.0000    20.0453    14.9419    24.5293   -34.7771     7.7615     0.1696     0.0319    72.2455     2.3647
  389.5000    19.9020    14.9402    23.8405   -34.3243     7.7626     0.1636     0.0334    73.3626     2.3725
  390.0000    19.6301    14.9385    22.8630   -34.1704     7.7785     0.1690     0.0349    73.8277     2.3598
  390.5000    19.3612    14.5290    22.1109   -33.7166     7.7793     0.1819    -0.0011    74.2929     2.3410
  391.0000    18.9650    14.5274    21.5073   -33.5628     7.7802     0.1816     0.0054    74.3062     2.3538
  391.5000    18.3213    14.6267    20.7759   -33.1100     7.7811     0.1687     0.0200    74.5454     2.3681
  392.0000    17.8220    14.9314    19.3868   -32.8067     7.7373     0.1608     0.0275    74.7846     2.3772
  392.5000    16.8637    15.2433    19.1203   -32.3539     7.7230     0.1646     0.0110    75.2498     2.3629
  393.0000    16.1789    15.7777    19.2531   -32.2000     7.7391     0.1693     0.0035    75.4890     2.3629
  393.5000    15.5220    16.5589    19.3868   -31.8967     7.7849     0.1710     0.0036    75.9541     2.3637
  394.0000    15.0992    17.1400    19.2531   -31.8923     7.8456     0.1710     0.0021    76.4193     2.3592
  394.5000    14.6883    17.3769    19.1203   -31.8749     7.9214     0.1710     0.0036    76.4326     2.3660
  395.0000    14.5880    17.4956    19.1203   -31.7331     7.9073     0.1674     0.0201    76.4459     2.3751
  395.5000    14.4883    17.4936    19.2531   -31.7287     7.9081     0.1527     0.0351    75.5474     2.3901
  396.0000    14.2899    17.2305    19.3868   -31.7243     7.7893     0.1503     0.0411    74.6653     2.3962
  396.5000    14.3903    17.0117    19.6570   -31.7200     7.7602     0.1560     0.0276    74.6393     2.3864
  397.0000    14.4912    16.7760    19.6570   -31.5661     7.7311     0.1571     0.0216    74.6953     2.3782
  397.5000    14.5929    16.6585    19.6570   -31.5618     7.7171     0.1598     0.0232    75.3863     2.3843
  398.0000    14.5764    16.5417    19.5214   -31.4079     7.7637     0.1667     0.0154    75.6255     2.3661
  398.5000    14.3942    16.3125    19.2531   -31.4036     7.7956     0.1682     0.0112    75.8648     2.3655
  399.0000    14.2959    16.1982    18.9736   -31.2496     7.7946     0.1640     0.0142    76.1040     2.3686
  399.5000    14.2702    16.1964    18.5984   -31.2443     7.8556     0.1634     0.0127    76.3432     2.3746
  400.0000    14.1992    16.4203    18.2163   -31.2427     7.8413     0.1454     0.0457    76.8091     2.3971
  400.5000    14.0050    16.1946    18.0911   -31.2419     7.6913     0.1397     0.0487    76.8201     2.4131
  401.0000    13.9096    15.9720    17.8433   -31.2437     7.6191     0.1390     0.0410    76.8311     2.4127
  401.5000    13.8146    15.7525    17.8439   -31.0957     7.6201     0.1403     0.0293    76.8421     2.4070
  402.0000    13.6107    15.7525    17.8445   -30.9417     7.6810     0.1424     0.0218    76.8531     2.4032
  402.5000    13.4393    15.6438    17.7220   -30.6502     7.7419     0.1455     0.0173    76.8642     2.3988
  403.0000    13.1643    15.6438    17.5899   -30.5021     7.8028     0.1496     0.0113    76.8752     2.3935
  403.5000    13.1651    15.6438    17.3403   -30.5040     7.8787     0.1513     0.0128    76.8863     2.3928
  404.0000    13.0750    15.6438    16.7695   -30.2065     7.9246     0.1403     0.0159    76.8976     2.4078
  404.5000    12.7191    15.5360    16.3122   -30.0581     7.8658     0.1465    -0.0066    76.6823     2.3989
  405.0000    12.4586    15.2168    15.9776   -29.9104     7.8668     0.1540    -0.0141    76.2443     2.3899
  405.5000    12.1193    14.9041    15.8680   -29.9118     7.9127     0.1576    -0.0186    76.0267     2.3839
  406.0000    11.8592    14.8013    15.8685   -29.9133     7.9084     0.1573    -0.0048    76.0404     2.3959
  406.5000    11.4684    14.6993    15.8690   -29.9148     7.7504     0.1423    -0.0066    75.8228     2.4095
  407.0000    11.1561    14.5979    15.8696   -29.9163     7.7361     0.1450    -0.0080    75.3848     2.4063
  407.5000    10.8522    14.4972    15.5439   -29.9181     7.8569     0.1416    -0.0065    75.1694     2.4080
  408.0000    10.7038    14.4972    15.1202   -29.9195     7.7532     0.1357     0.0040    74.9548     2.4148
  408.5000    11.1714    14.4972    14.7079   -29.9210     7.8143     0.1300     0.0115    75.1995     2.4231
  409.0000    10.6348    14.4972    14.5063   -29.9223     7.8902     0.1312    -0.0005    76.1069     2.4201
  409.5000    10.4997    14.3973    14.3074   -29.9238     7.8912     0.1396    -0.0080    77.0239     2.4021
  410.0000    10.5015    14.3973    14.4606   -29.9254     7.8773     0.1513     0.0055    77.4868     2.3946
  410.5000    10.5029    14.2980    14.5078   -29.7773     7.8484     0.1453    -0.0094    78.0949     2.4051
  411.0000    10.4315    14.1015    14.4082   -29.7788     7.8194     0.1495    -0.0304    79.0901     2.3729
  411.5000    10.4333    14.0042    14.3093   -29.6308     7.8055     0.1679    -0.0301    80.0048     2.3601
  412.0000    10.4347    13.8117    14.3099   -29.6323     7.8816     0.1566    -0.0039    81.3712     2.3699
  412.5000    10.5086    13.7165    14.2116   -29.6341     7.9276     0.1394     0.0176    82.0599     2.4067
  413.0000    10.5100    13.7165    14.1141   -29.7850     7.9436     0.1257     0.0356    81.8449     2.4340
  413.5000    10.4365    13.7165    14.2127   -29.7864     7.8847     0.1189     0.0416    81.6227     2.4533
  414.0000    10.2968    13.7165    14.3119   -29.7879     7.7660     0.1249     0.0192    81.1597     2.4421
  414.5000    10.2275    13.7165    14.6126   -29.7894     7.7371     0.1371     0.0132    80.7514     2.4113
  415.0000    10.1584    13.7165    14.7146   -29.7908     7.7980     0.1431     0.0102    80.7624     2.4008
  415.5000    10.0198    13.7165    14.7151   -29.7922     7.8589     0.1440     0.0123    80.7734     2.4151
  416.0000    10.0215    13.7165    14.7156   -29.7937     7.8299     0.1356     0.0312    81.2362     2.4219
  416.5000     9.9536    13.7165    14.8183   -29.9447     7.7699     0.1284     0.0417    81.6991     2.4407
  417.0000     9.8179    14.0042    14.9217   -29.9465     7.7122     0.1212     0.0402    81.9360     2.4480
  417.5000     9.7518    14.1015    14.0212   -29.9479     7.6983     0.1263     0.0343    82.6247     2.4325
  418.0000     9.7077    14.0042    14.2172   -30.0989     7.6694     0.1269     0.0358    83.3134     2.4362
  418.5000     9.6127    13.7165    14.3164   -29.9505     7.6554     0.1248     0.0403    83.7914     2.4408
  419.0000     9.5177    13.6219    14.0227   -29.9817     7.7016     0.1287     0.0298    84.4955     2.4273
  419.5000     9.4254    13.5280    13.8305   -30.1033     7.7625     0.1272     0.0281    85.1565     2.4476
  420.0000     9.2971    13.5280    13.7354   -30.1046     7.8085     0.1116     0.0568    85.1675     2.4649
  420.5000     9.1706    13.6219    13.6412   -30.1061     7.8394     0.1023     0.0643    84.9526     2.4754
  421.0000     9.0460    13.7165    13.6418   -30.1076     7.7955     0.0996     0.0627    84.7350     2.4784
