~VERSION INFORMATION
 VERS.                2.0:   CWLS LOG ASCII STANDARD - VERSION 2.0
 WRAP.                 NO:   ONE LINE PER DEPTH STEP
~WELL INFORMATION
#MNEM.UNIT      DATA TYPE    INFORMATION
#----------   ------------   ------------------------------
 STRT.F           20.5000:   START DEPTH
 STOP.F          725.0000:   STOP DEPTH
 STEP.F            0.5000:   STEP LENGTH
 NULL.          -999.2500:   NO VALUE
 COMP. FENIX & SCISSON INC:   COMPANY
 WELL.       NPR 3 #67-27:   WELL
 FLD .             TEAPOT:   FIELD
 LOC .      S27 T39N R78W:   LOCATION
 CNTY.            NATRONA:   COUNTY
 STAT.            WYOMING:   STATE
 CTRY. UNITED STATES OF AMERICA:   COUNTRY
 SRVC.           BIRDWELL:   SERVICE COMPANY
 DATE.        15-SEP-1978:   LOGDATE
 API .       490251069400:   API NUMBER
~CURVE INFORMATION
#MNEM.UNIT       API CODE    CURVE DESCRIPTION
#----------   ------------   ------------------------------
 DEPT.F                  :   
 CALD.IN     45 280 60 00:   CALIPER
 GRD .GAPI   45 310 01 00:   GAMMA RAY FROM DENSITY LOG
 RHOB.G/C3   45 350 01 00:   BULK DENSITY
 DPHI.DEC    45 890 12 00:   DENSITY POROSITY SANDSTONE
 CORR.G/C3   45 356 01 00:   DENSITY CORRECTION
 SPR .MV     05 010 01 00:   SPONTANEOUS POTENTIAL FROM RES.
 ILD .OHMM   05 120 46 00:   INDUCTION LOG DEEP
 SN  .OHMM   05 040 16 00:   SHORT NORMAL 16"
~PARAMETER INFORMATION
#MNEM.UNIT          VALUE    DESCRIPTION
#----------   ------------   ------------------------------
 PD  .                 GL:   PERMANENT DATUM
 EPD .F              5027:   ELEVATION PERMANENT DATUM
 LMF .                 KB:   LOG MEASURED FROM
 DAPD.F                 4:   FEET ABOVE PERMANENT DATUM
 DMF .                 KB:   DRILLING MEASURED FROM
 EKB .F              5031:   KELLING BUSHING
 EGL .F              5027:   GROUND LEVEL
 DATE.            9-15-78:   RUN DATE
 RUN .                  1:   RUN NUMBER
 DD  .F               728:   DEPTH DRILLER
 DL  .F               719:   DEPTH LOGGER
 BLI .F               713:   BOTTOM LOG INTERVAL
 TLI .F                30:   TOP LOG INTERVAL
 CS  .IN            8.625:   CASING SIZE
 CBD .F                34:   CASING BOTTOM DRILLER
 CBL .F                34:   CASING BOTTOM LOGGER
 BS  .IN            7.875:   BIT SIZE
 BSD .F               728:   BIT SIZE AT DEPTH
 DFT .            KCL MUD:   DRILLING FLUID TYPE
 DFD .                  9:   DRILLING FLUID DENSITY
 DFV .                 46:   DRILLING FLUID VISCOSITY
 DFPH.                  9:   DRILLING FLUID PH
 DFL .                7.6:   DRILLING FLUID LOSS
 MSS .          FLOW LINE:   MUD SAMPLE SOURCE
 RMS .OHMM            .34:   RESISTIVITY MUD SAMPLE
 MST .F                68:   MUD SAMPLE TEMPERATURE
 RMF .OHMM             .3:   RESISTIVITY MUD FILTRATE SAMPLE
 MFST.F                68:   MUD FILTRATE SAMPLE TEMPERATURE
 RMC .OHMM            .38:   RESISTIVITY MUD CAKE
 MCST.F                70:   MUD CAKE SAMPLE TEMPERATURE
 MFSS.               MEAS:   MUD FILTRATE SAMPLE SOURCE
 MCSS.               MEAS:   MUD CAKE SAMPLE SOURCE
 RMB .OHMM            .32:   RESISTIVITY MUD AT BHT
 BHT .F                72:   BOTTOM HOLE TEMPERATURE
 TCS .HRS               2:   TIME CURCULATED STOPPED
 MRT .F                72:   MAXIMUM RECORDED TEMPERATURE
 LUN .               2958:   LOGGING UNIT NUMBER
 LUL .               CASP:   LOGGING UNIT LOCATION
 ENGI.           REYNOLDS:   RECORDING ENGINEER
 WITN.           DINSMORE:   WITNESSED BY
 CLNT.            A2DTECH:   CLIENT CODE
 ORIG.           5" PRINT:   ORIGIN OF DATA
 UWI .       490251069400:   UNIQUE WELL ID
 DICO. A2D Technologies, Inc.:   DIGITIZING COMPANY
~OTHER INFORMATION
~A   DEPT     CALD        GRD       RHOB       DPHI       CORR        SPR        ILD         SN   
# ...
  182.5000     8.0101   119.4988     2.4369     0.1534     0.0072   -51.4757     4.8337     5.0631
  183.0000     7.9986   119.7184     2.4325     0.1561     0.0066   -51.5412     4.7825     5.0319
  183.5000     7.9787   120.0812     2.4302     0.1565     0.0060   -51.6065     4.7074     4.9845
  184.0000     7.9587   119.9088     2.4288     0.1577     0.0057   -51.6724     4.5782     4.8614
  184.5000     7.9387   119.7057     2.4227     0.1604     0.0068   -51.6995     4.3569     4.6519
  185.0000     7.9188   119.8254     2.4132     0.1736     0.0079   -51.7000     3.9526     4.4513
  185.5000     7.8987   119.9920     2.3919     0.1954     0.0090   -51.7001     3.5859     4.2608
  186.0000     7.8954   120.1589     2.3468     0.2332     0.0100   -51.7000     3.2531     4.0494
  186.5000     7.9046   120.3577     2.2822     0.2638     0.0110   -51.7000     3.0214     3.8295
  187.0000     7.9139   120.7248     2.2728     0.2626     0.0110   -51.7000     3.0214     3.6208
  187.5000     7.9233   121.0724     2.2671     0.2404     0.0103   -51.7000     3.0214     3.4235
  188.0000     7.9326   120.4487     2.2805     0.2069     0.0094   -51.7003     3.0405     3.1639
  188.5000     7.9420   119.7609     2.3325     0.1836     0.0087   -51.7021     3.0664     3.1969
  189.0000     7.9514   119.2903     2.3862     0.1611     0.0079   -51.6188     3.0970     3.2568
  189.5000     7.9607   119.4884     2.4235     0.1589     0.0071   -51.5186     3.1286     3.4067
  190.0000     7.9701   119.6374     2.4260     0.1578     0.0063   -51.4178     3.3315     3.7092
  190.5000     7.9794   119.1323     2.4261     0.1570     0.0055   -51.3156     3.7075     4.0988
  191.0000     7.9888   118.6396     2.4261     0.1563     0.0047   -51.3453     4.1220     4.5330
  191.5000     7.9981   118.4633     2.4261     0.1555     0.0039   -51.4163     4.5382     4.6385
  192.0000     8.0079   118.9985     2.4261     0.1548     0.0031   -51.4882     4.5305     4.7033
  192.5000     8.0052   119.5210     2.4261     0.1540     0.0023   -51.5603     4.5111     4.6497
  193.0000     7.9987   120.0455     2.4259     0.1546     0.0015   -51.6331     4.4077     4.6118
  193.5000     7.9921   120.5650     2.4252     0.1559     0.0007   -51.6928     4.3067     4.5750
  194.0000     7.9856   120.8702     2.4245     0.1572    -0.0001   -51.5512     4.2816     4.6601
  194.5000     7.9790   120.5121     2.4238     0.1587     0.0006   -51.4065     4.2726     4.6226
  195.0000     7.9725   119.8680     2.4231     0.1610     0.0027   -51.2629     4.2636     4.5777
  195.5000     7.9660   119.1812     2.4185     0.1633     0.0047   -51.1194     4.2546     4.5332
  196.0000     7.9594   118.4661     2.4135     0.1687     0.0068   -50.9758     4.1654     4.4914
  196.5000     7.9529   118.3020     2.4050     0.1752     0.0090   -50.8320     3.9837     4.3531
  197.0000     7.9463   118.4118     2.3932     0.1821     0.0104   -50.7015     3.8100     4.2087
  197.5000     7.9398   118.6610     2.3813     0.1907     0.0118   -50.6993     3.6438     4.0691
  198.0000     7.9332   119.2059     2.3695     0.1993     0.0132   -50.7000     3.4849     3.9342
  198.5000     7.9345   119.7680     2.3571     0.2043     0.0119   -50.6994     3.3749     3.8199
  199.0000     7.9431   119.8011     2.3541     0.2078     0.0096   -50.7042     3.3749     3.7497
  199.5000     7.9518   118.9066     2.3574     0.2091     0.0074   -50.4752     3.4610     3.7008
  200.0000     7.9605   117.9963     2.3823     0.1804     0.0051   -50.1606     3.5419     3.8129
  200.5000     7.9696   117.0818     2.4147     0.1563     0.0033   -49.8415     3.6247     3.9018
  201.0000     7.9665   116.1461     2.4400     0.1453     0.0029   -49.5276     3.7008     3.9932
  201.5000     7.9615   116.1697     2.4439     0.1433     0.0024   -49.2988     3.7958     4.0821
  202.0000     7.9564   116.8774     2.4469     0.1412     0.0019   -49.1901     3.8754     4.3413
  202.5000     7.9509   117.5911     2.4478     0.1417     0.0015   -49.1021     4.3328     4.8352
  203.0000     7.9672   118.3138     2.4485     0.1423     0.0010   -49.1181     4.7469     5.0555
  203.5000     7.9911   118.7506     2.4492     0.1428     0.0005   -49.1315     4.8800     5.1338
  204.0000     8.0152   118.8719     2.4503     0.1434     0.0001   -49.1452     4.9054     5.1575
  204.5000     8.0393   119.0021     2.4484     0.1440    -0.0004   -49.1589     4.9337     5.1575
  205.0000     8.0646   119.1322     2.4448     0.1446    -0.0009   -49.1726     4.9720     5.1575
  205.5000     8.0518   119.2569     2.4412     0.1465    -0.0013   -49.1863     4.9348     5.1397
  206.0000     8.0270   119.8920     2.4375     0.1490    -0.0018   -49.2000     4.8657     5.0808
  206.5000     8.0018   120.7129     2.4338     0.1528    -0.0023   -49.2137     4.7922     5.0168
  207.0000     7.9755   121.0906     2.4291     0.1668    -0.0007   -49.2274     4.5870     4.8969
  207.5000     7.9863   121.0897     2.4080     0.1828     0.0026   -49.2411     4.0540     4.7670
  208.0000     8.0084   121.1327     2.3851     0.2015     0.0060   -49.2548     3.6398     4.5321
  208.5000     8.0308   123.2912     2.3624     0.2225     0.0093   -49.2686     3.3128     4.2082
  209.0000     8.0531   125.0736     2.3292     0.2435     0.0086   -49.2818     3.0488     3.9074
  209.5000     8.0750   125.0596     2.2787     0.2642     0.0077   -49.2994     3.0420     3.6281
  210.0000     8.0882   123.9563     2.2652     0.2642     0.0067   -49.1472     3.0308     3.3439
  210.5000     8.0817   122.2005     2.2838     0.2379     0.0057   -48.9361     3.0214     3.1639
  211.0000     8.0756   120.4625     2.3246     0.2077     0.0055   -48.7216     3.0361     3.2688
  211.5000     8.0694   119.0840     2.3673     0.1830     0.0055   -48.5064     3.0525     3.3694
  212.0000     8.0632   118.5308     2.4113     0.1614     0.0055   -48.2913     3.0757     3.5453
  212.5000     8.0571   118.7181     2.4265     0.1579     0.0055   -48.0891     3.0725     3.9575
  213.0000     8.0509   118.9571     2.4338     0.1548     0.0055   -48.2715     3.8134     4.4502
  213.5000     8.0447   119.1970     2.4374     0.1520     0.0055   -48.4647     4.2399     4.5469
  214.0000     8.0386   119.1148     2.4408     0.1491     0.0055   -48.6576     4.4229     4.7033
  214.5000     8.0324   118.8970     2.4385     0.1484     0.0055   -48.8502     4.5750     4.7425
  215.0000     8.0262   118.9015     2.4362     0.1491     0.0055   -49.0510     4.4558     4.7864
  215.5000     8.0201   118.8976     2.4339     0.1513     0.0065   -49.0994     4.2878     4.8307
  216.0000     8.0140   118.7935     2.4320     0.1563     0.0082   -49.1006     4.3003     4.8800
  216.5000     8.0141   118.6817     2.4321     0.1558     0.0099   -49.1001     4.3153     4.8505
  217.0000     8.0261   118.5700     2.4321     0.1545     0.0117   -49.1000     4.3297     4.8088
  217.5000     8.0380   118.4577     2.4319     0.1533     0.0134   -49.1000     4.2204     4.7674
  218.0000     8.0495   118.3464     2.4237     0.1523     0.0152   -49.1000     4.1338     4.7033
  218.5000     8.0475   118.3954     2.4149     0.1696     0.0169   -49.1000     4.1600     4.6174
  219.0000     8.0447   118.9930     2.4103     0.1708     0.0187   -49.1002     4.1720     4.4966
  219.5000     8.0420   119.5870     2.4069     0.1720     0.0204   -49.0998     3.8424     4.3438
  220.0000     8.0392   120.1781     2.3960     0.1777     0.0197   -49.0830     3.6372     4.1962
  220.5000     8.0366   120.7782     2.3715     0.1909     0.0149   -49.0132     3.4430     4.0536
  221.0000     8.0338   121.0603     2.3557     0.2040     0.0101   -48.9476     3.3132     3.9158
  221.5000     8.0313   120.2317     2.3496     0.2099     0.0054   -48.9064     3.3132     3.7697
  222.0000     7.9961   119.3670     2.3531     0.2088     0.0014   -48.9372     3.3132     3.6500
  222.5000     7.9481   118.5062     2.3630     0.2035     0.0015   -48.9657     3.3132     3.5341
