~VERSION INFORMATION
 VERS.                2.0:   CWLS LOG ASCII STANDARD - VERSION 2.0
 WRAP.                 NO:   ONE LINE PER DEPTH STEP
~WELL INFORMATION
#MNEM.UNIT      DATA TYPE    INFORMATION
#----------   ------------   ------------------------------
 STRT.F          834.5000:   START DEPTH
 STOP.F         1644.0000:   STOP DEPTH
 STEP.F            0.5000:   STEP LENGTH
 NULL.          -999.2500:   NO VALUE
 COMP. LAWRENCE/ALLISON INC:   COMPANY
 WELL.      85 STX #15-15:   WELL
 FLD .            WILDCAT:   FIELD
 LOC .      S15 T38N R78W:   LOCATION
 CNTY.            NATRONA:   COUNTY
 STAT.            WYOMING:   STATE
 CTRY. UNITED STATES OF AMERICA:   COUNTRY
 SRVC.            Unknown:   SERVICE COMPANY
 DATE.        06-SEP-1987:   LOGDATE
 API .       490251116000:   API NUMBER
~CURVE INFORMATION
#MNEM.UNIT       API CODE    CURVE DESCRIPTION
#----------   ------------   ------------------------------
 DEPT.F                  :   
 TGAS.UNITS  91 830 01 00:   TOTAL GAS FROM HOTWIRE
 ROP .MIN/FT 91 810 01 00:   RAT OF DRILLING PENETRATION
~PARAMETER INFORMATION
#MNEM.UNIT          VALUE    DESCRIPTION
#----------   ------------   ------------------------------
 DATE.             9-6-87:   RUN DATE
 BLI .F              1644:   BOTTOM LOG INTERVAL
 TLI .F               834:   TOP LOG INTERVAL
 LUN .              T-146:   LOGGING UNIT NUMBER
 ENGI.               HUSK:   RECORDING ENGINEER
 WITN.              TOWER:   WITNESSED BY
 CLNT.            A2DTECH:   CLIENT CODE
 ORIG.           5" PRINT:   ORIGIN OF DATA
 UWI .       490251116000:   UNIQUE WELL ID
 DICO. A2D Technologies, Inc.:   DIGITIZING COMPANY
~OTHER INFORMATION
~A   DEPT       TGAS        ROP 
# ...
  956.0000     4.6785     0.2897
  956.5000     4.6679     0.2894
  957.0000     4.6574     0.2891
  957.5000     4.6468     0.2889
  958.0000     4.6362     0.2886
  958.5000     4.6257     0.2884
  959.0000     4.6151     0.2881
  959.5000     4.6045     0.2879
  960.0000     4.5940     0.2876
  960.5000     4.6044     0.2879
  961.0000     4.6148     0.2884
  961.5000     4.6253     0.2890
  962.0000     4.6357     0.2895
  962.5000     4.6462     0.2900
  963.0000     4.6566     0.2905
  963.5000     4.6670     0.2910
  964.0000     4.6775     0.2915
  964.5000     4.6879     0.2920
  965.0000     4.6984     0.2926
  965.5000     4.7088     0.2931
  966.0000     4.7193     0.2936
  966.5000     4.7297     0.2941
  967.0000     4.7401     0.2946
  967.5000     4.7506     0.2951
  968.0000     4.7610     0.2956
  968.5000     4.7715     0.2962
  969.0000     4.7819     0.2967
  969.5000     4.7923     0.2972
  970.0000     4.8028     0.2977
  970.5000     4.8132     0.2982
  971.0000     4.8237     0.2987
  971.5000     4.8341     0.2993
  972.0000     4.8445     0.2998
  972.5000     4.8550     0.3003
  973.0000     4.8654     0.3008
  973.5000     4.8759     0.3013
  974.0000     4.8863     0.3018
  974.5000     4.8967     0.3023
  975.0000     4.9072     0.3029
  975.5000     4.9176     0.3034
  976.0000     4.9281     0.3039
  976.5000     4.9385     0.3044
  977.0000     4.9490     0.3049
  977.5000     4.9594     0.3054
  978.0000     4.9698     0.3059
  978.5000     4.9803     0.3065
  979.0000     4.9907     0.3070
  979.5000     5.0012     0.3075
  980.0000     5.0116     0.3080
  980.5000     5.0220     0.3285
  981.0000     5.0325     0.3285
  981.5000     5.0429     0.3285
  982.0000     5.0534     0.3285
  982.5000     5.0638     0.3285
  983.0000     5.0742     0.3285
  983.5000     5.0847     0.3285
  984.0000     5.0951     0.3285
  984.5000     5.1056     0.3285
  985.0000     5.1160     0.3285
  985.5000     5.1264     0.3285
  986.0000     5.1369     0.3285
  986.5000     5.1473     0.3285
  987.0000     5.1578     0.3285
  987.5000     5.1682     0.3285
  988.0000     5.1786     0.3285
  988.5000     6.4440     0.3285
  989.0000     9.7950     0.3285
  989.5000    13.5636     0.3285
  990.0000    25.6849     0.3285
  990.5000   121.9417     0.3285
  991.0000   140.9740     0.3593
  991.5000   142.6545     0.3901
  992.0000   142.2443     0.4107
  992.5000   141.0038     0.4209
  993.0000   139.7608     0.4227
  993.5000   138.5178     0.4107
  994.0000   136.8597     0.4107
  994.5000   135.1991     0.4107
  995.0000   134.3737     0.4090
  995.5000   133.1308     0.4004
  996.0000   131.8903     0.4004
  996.5000   130.2272     0.4004
  997.0000   128.5666     0.4004
  997.5000   127.7437     0.4004
  998.0000   126.5007     0.4004
  998.5000   124.4250     0.4004
  999.0000   123.5972     0.4004
  999.5000   121.9390     0.4004
 1000.0000   120.2784     0.4004
 1000.5000   118.5766     0.4003
 1001.0000   117.6893     0.4001
 1001.5000   116.4258     0.4000
 1002.0000   115.5592     0.3999
 1002.5000   114.6403     0.3997
 1003.0000   113.3458     0.3996
 1003.5000   111.7065     0.3995
 1004.0000   110.8337     0.3994
 1004.5000   109.1320     0.3992
 1005.0000   107.8480     0.3991
 1005.5000   106.9816     0.3990
 1006.0000   105.2799     0.3989
 1006.5000   104.4135     0.3987
 1007.0000   102.7119     0.3986
 1007.5000   101.8455     0.3985
 1008.0000   101.8144     0.3984
 1008.5000   100.9480     0.3982
 1009.0000    99.6639     0.3981
 1009.5000    99.2152     0.3980
 1010.0000    99.1879     0.3978
 1010.5000    99.1566     0.3977
 1011.0000    99.1253     0.3976
 1011.5000    99.0940     0.3975
 1012.0000    99.0626     0.3973
 1012.5000    99.0313     0.3972
 1013.0000    99.0000     0.3971
 1013.5000    98.9687     0.3970
 1014.0000    98.9374     0.3968
 1014.5000    98.9060     0.3967
 1015.0000    98.8747     0.3966
 1015.5000    98.8434     0.3964
 1016.0000    98.8121     0.3963
 1016.5000    98.7807     0.3962
 1017.0000    98.7494     0.3961
 1017.5000    98.7181     0.3959
 1018.0000    98.6868     0.3958
 1018.5000    98.6554     0.3957
 1019.0000    98.6241     0.3956
 1019.5000    98.5928     0.3954
 1020.0000    98.5563     0.3953
 1020.5000    98.6264     0.3950
 1021.0000    98.7104     0.3946
 1021.5000    98.7944     0.3942
 1022.0000    98.8784     0.3938
 1022.5000    98.9624     0.3934
 1023.0000    99.0464     0.3930
 1023.5000    99.1304     0.3926
 1024.0000    99.2144     0.3923
 1024.5000    99.2984     0.3919
 1025.0000    99.3824     0.3915
 1025.5000    99.4664     0.3911
 1026.0000    99.5504     0.3907
 1026.5000    99.6344     0.3903
 1027.0000    99.7184     0.3899
 1027.5000    99.8024     0.3896
 1028.0000    99.8865     0.3892
 1028.5000    99.9705     0.3888
 1029.0000   100.0545     0.3884
 1029.5000   100.1385     0.3880
 1030.0000   100.2225     0.3876
 1030.5000   100.3065     0.3872
 1031.0000   100.3905     0.3869
 1031.5000   100.4745     0.3865
 1032.0000   100.5585     0.3861
 1032.5000   100.6425     0.3857
 1033.0000   100.7265     0.3853
 1033.5000   100.8105     0.3849
 1034.0000   100.8945     0.3845
 1034.5000   100.9785     0.3842
 1035.0000   101.0625     0.3838
 1035.5000   101.1465     0.3834
 1036.0000   101.2305     0.3830
 1036.5000   101.3145     0.3826
 1037.0000   101.3985     0.3822
 1037.5000   101.4825     0.3818
 1038.0000   101.5665     0.3815
 1038.5000   101.6505     0.3811
 1039.0000   101.7345     0.3807
 1039.5000   101.8185     0.3803
 1040.0000   101.9025     0.3799
 1040.5000   101.8503     0.4004
 1041.0000   101.7981     0.4004
 1041.5000   101.7459     0.4004
 1042.0000   101.6937     0.4004
 1042.5000   101.6415     0.4004
 1043.0000   101.5893     0.4107
 1043.5000   101.5371     0.4107
 1044.0000   101.4849     0.4004
 1044.5000   101.4327     0.4004
 1045.0000   101.3805     0.4107
 1045.5000   101.3283     0.4093
 1046.0000   101.2761     0.4004
 1046.5000   101.2239     0.4004
 1047.0000   101.1717     0.3799
 1047.5000   101.1195     0.3799
 1048.0000   101.0673     0.3799
 1048.5000   101.0151     0.3799
 1049.0000   100.9629     0.4107
 1049.5000   100.9107     0.4107
 1050.0000   100.8585     0.4107
 1050.5000   100.8063     0.4326
 1051.0000   100.7541     0.4928
 1051.5000   100.7019     0.5236
 1052.0000   100.6497     0.5441
 1052.5000   100.5974     0.5544
 1053.0000   100.5452     0.5544
 1053.5000   100.4930     0.5647
 1054.0000   100.4408     0.5544
 1054.5000   100.3886     0.5031
 1055.0000   100.3364     0.4620
 1055.5000   100.2842     0.4415
 1056.0000   100.2320     0.4312
 1056.5000   100.1798     0.4312
 1057.0000   100.1276     0.4209
 1057.5000   100.0754     0.4209
 1058.0000   100.0232     0.4209
 1058.5000    99.9710     0.4107
 1059.0000    99.9188     0.4004
 1059.5000    99.8666     0.3901
 1060.0000    99.8144     0.3391
 1060.5000    99.8432     0.3817
 1061.0000    99.8720     0.3725
 1061.5000    99.9008     0.3745
 1062.0000    99.9296     0.3760
 1062.5000    99.9584     0.3775
 1063.0000    99.9872     0.3791
 1063.5000   100.0160     0.3806
 1064.0000   100.0448     0.3821
 1064.5000   100.0736     0.3936
 1065.0000   100.1024     0.3236
 1065.5000   100.1312     0.3046
 1066.0000   100.1601     0.2955
 1066.5000   100.1889     0.2867
 1067.0000   100.2177     0.2784
 1067.5000   100.2465     0.2697
 1068.0000   100.2753     0.2815
 1068.5000   100.3041     0.2830
 1069.0000   100.3329     0.2739
 1069.5000   100.3617     0.2861
 1070.0000   100.3905     0.2876
 1070.5000   100.4193     0.2891
 1071.0000   100.4481     0.2907
 1071.5000   100.4769     0.2816
 1072.0000   100.5057     0.2728
 1072.5000   100.5345     0.2850
 1073.0000   100.5633     0.2964
 1073.5000   100.5921     0.2877
 1074.0000   100.6209     0.2896
 1074.5000   100.6498     0.2911
 1075.0000   100.6786     0.2927
 1075.5000   100.7332     0.2942
 1076.0000   100.8311     0.3060
 1076.5000   100.9095     0.2972
 1077.0000   100.9880     0.3091
