~VERSION INFORMATION
 VERS.                2.0:   CWLS LOG ASCII STANDARD - VERSION 2.0
 WRAP.                 NO:   ONE LINE PER DEPTH STEP
~WELL INFORMATION
#MNEM.UNIT      DATA TYPE    INFORMATION
#----------   ------------   ------------------------------
 STRT.F           15.0000:   START DEPTH
 STOP.F         5640.0000:   STOP DEPTH
 STEP.F            0.5000:   STEP LENGTH
 NULL.          -999.2500:   NO VALUE
 COMP.       F D SERV INC:   COMPANY
 WELL. NAVAL PETROLEUM RESERVE 3 SX-1 #43-10:   WELL
 FLD .         N.P.R. #.3:   FIELD
 LOC .      S10 T38N R78W:   LOCATION
 CNTY.            NATRONA:   COUNTY
 STAT.            WYOMING:   STATE
 CTRY. UNITED STATES OF AMERICA:   COUNTRY
 SRVC.      Dresser Atlas:   SERVICE COMPANY
 DATE.        05-JUL-1986:   LOGDATE
 API .       490251101800:   API NUMBER
~CURVE INFORMATION
#MNEM.UNIT       API CODE    CURVE DESCRIPTION
#----------   ------------   ------------------------------
 DEPT.F                  :   
 GRR .GAPI   07 310 01 00:   GAMMA RAY
 ILD .OHMM   07 120 46 00:   INDUCTION LOG DEEP
 ILM .OHMM   07 120 44 00:   INDUCTION LOG MEDIUM
 CALS.IN     60 280 50 00:   CALIPER FROM SONIC LOG
 GRS .GAPI   60 310 01 00:   GAMMA RAY FROM SONIC LOG
 AC  .US/F   60 520 00 00:   ACCOUSTIC
~PARAMETER INFORMATION
#MNEM.UNIT          VALUE    DESCRIPTION
#----------   ------------   ------------------------------
 PD  .                 GL:   PERMANENT DATUM
 EPD .F              5205:   ELEVATION PERMANENT DATUM
 LMF .                 KB:   LOG MEASURED FROM
 DAPD.F                 5:   FEET ABOVE PERMANENT DATUM
 DMF .                 KB:   DRILLING MEASURED FROM
 EKB .F              5210:   KELLING BUSHING
 EGL .F              5205:   GROUND LEVEL
 DATE.        05-JUL-1986:   RUN DATE
 RUN .                  1:   RUN NUMBER
 DD  .F               560:   DEPTH DRILLER
 DL  .F               560:   DEPTH LOGGER
 BLI .F               550:   BOTTOM LOG INTERVAL
 TLI .F                15:   TOP LOG INTERVAL
 CS  .IN            8.625:   CASING SIZE
 CBD .F                47:   CASING BOTTOM DRILLER
 CBL .F                47:   CASING BOTTOM LOGGER
 BS  .IN            7.875:   BIT SIZE
 BSD .F               560:   BIT SIZE AT DEPTH
 DFT .                AIR:   DRILLING FLUID TYPE
 BHT .F                83:   BOTTOM HOLE TEMPERATURE
 TCS .HRS            2100:   TIME CURCULATED STOPPED
 TLAB.HRS            2230:   TIME LOGGER AT BOTTOM
 MRT .F                83:   MAXIMUM RECORDED TEMPERATURE
 LUN .               7609:   LOGGING UNIT NUMBER
 LUL .           GILLETTE:   LOGGING UNIT LOCATION
 ENGI.              BAURT:   RECORDING ENGINEER
 CLNT.            A2DTECH:   CLIENT CODE
 ORIG. 1" 2" 2.5", 5" PRINT:   ORIGIN OF DATA
 UWI .       490251101800:   UNIQUE WELL ID
 DICO. A2D Technologies, Inc.:   DIGITIZING COMPANY
 R2  . HEADER NOT CLEARLY VISIBLE:   REMARKS 2
~OTHER INFORMATION
~A   DEPT       GRR       ILD        ILM       CALS        GRS         AC   
# ...
 2927.0000  -999.2500  -999.2500  -999.2500     8.6958    55.2870    75.5491
 2927.5000  -999.2500  -999.2500  -999.2500     8.7108    57.4018    74.7923
 2928.0000  -999.2500  -999.2500  -999.2500     8.7108    59.5166    74.2622
 2928.5000  -999.2500  -999.2500  -999.2500     8.7108    55.5891    73.9584
 2929.0000  -999.2500  -999.2500  -999.2500     8.7108    49.5468    73.7299
 2929.5000  -999.2500  -999.2500  -999.2500     8.7560    48.3243    73.2710
 2930.0000  -999.2500  -999.2500  -999.2500     8.7711    47.7341    72.4430
 2930.5000  -999.2500  -999.2500  -999.2500     8.8163    52.2659    70.4046
 2931.0000  -999.2500  -999.2500  -999.2500     8.8916    53.4743    67.1596
 2931.5000  -999.2500  -999.2500  -999.2500     8.9994    53.1722    62.8588
 2932.0000  -999.2500  -999.2500  -999.2500     9.1777    54.0785    59.0105
 2932.5000  -999.2500  -999.2500  -999.2500     9.3886    54.7024    57.4246
 2933.0000  -999.2500  -999.2500  -999.2500     9.5542    50.3447    57.3470
 2933.5000  -999.2500  -999.2500  -999.2500     9.5994    47.4320    57.6460
 2934.0000  -999.2500  -999.2500  -999.2500     9.5542    50.7553    58.1717
 2934.5000  -999.2500  -999.2500  -999.2500     9.4934    56.1934    59.3008
 2935.0000  -999.2500  -999.2500  -999.2500     9.3283    61.3293    61.3348
 2935.5000  -999.2500  -999.2500  -999.2500     9.1777    63.7462    63.8892
 2936.0000  -999.2500  -999.2500  -999.2500     9.0572    61.9335    69.2485
 2936.5000  -999.2500  -999.2500  -999.2500     8.9970    61.6314    72.7154
 2937.0000  -999.2500  -999.2500  -999.2500     8.9367    62.8399    74.8248
 2937.5000  -999.2500  -999.2500  -999.2500     8.8916    66.4653    75.3505
 2938.0000  -999.2500  -999.2500  -999.2500     8.8440    70.3927    75.8009
 2938.5000  -999.2500  -999.2500  -999.2500     8.7711    64.9547    76.7307
 2939.0000  -999.2500  -999.2500  -999.2500     8.7410    62.5378    77.7064
 2939.5000  -999.2500  -999.2500  -999.2500     8.7108    61.9335    78.8106
 2940.0000  -999.2500  -999.2500  -999.2500     8.7108    64.3505    79.4117
 2940.5000  -999.2500  -999.2500  -999.2500     8.7108    67.6737    79.4850
 2941.0000  -999.2500  -999.2500  -999.2500     8.7259    66.4653    79.6331
 2941.5000  -999.2500  -999.2500  -999.2500     8.7560    62.5378    79.9326
 2942.0000  -999.2500  -999.2500  -999.2500     8.7560    59.5166    80.5337
 2942.5000  -999.2500  -999.2500  -999.2500     8.7711    58.6005    81.4365
 2943.0000  -999.2500  -999.2500  -999.2500     8.7711    54.6828    81.8869
 2943.5000  -999.2500  -999.2500  -999.2500     8.7711    51.6616    82.2709
 2944.0000  -999.2500  -999.2500  -999.2500     8.7723    53.1722    82.7115
 2944.5000  -999.2500  -999.2500  -999.2500     8.8012    55.8912    82.9361
 2945.0000  -999.2500  -999.2500  -999.2500     8.8163    55.5891    83.0848
 2945.5000  -999.2500  -999.2500  -999.2500     8.8163    55.5891    83.1581
 2946.0000  -999.2500  -999.2500  -999.2500     8.8163    56.8295    83.2308
 2946.5000  -999.2500  -999.2500  -999.2500     8.8163    58.6103    83.3147
 2947.0000  -999.2500  -999.2500  -999.2500     8.8169    59.2145    83.5281
 2947.5000  -999.2500  -999.2500  -999.2500     8.8313    58.0060    83.6762
 2948.0000  -999.2500  -999.2500  -999.2500     8.8614    56.1934    83.4478
 2948.5000  -999.2500  -999.2500  -999.2500     8.8765    56.4286    82.8423
 2949.0000  -999.2500  -999.2500  -999.2500     8.9066    58.2571    81.7089
 2949.5000  -999.2500  -999.2500  -999.2500     8.9367    61.1975    79.4967
 2950.0000  -999.2500  -999.2500  -999.2500     8.9849    62.1212    74.9923
 2950.5000  -999.2500  -999.2500  -999.2500     9.0764    60.9153    69.1078
 2951.0000  -999.2500  -999.2500  -999.2500     9.2146    60.6181    66.3694
 2951.5000  -999.2500  -999.2500  -999.2500     9.2746    60.0192    65.4076
 2952.0000  -999.2500  -999.2500  -999.2500     9.1540    59.7220    67.8941
 2952.5000  -999.2500  -999.2500  -999.2500     8.9273    59.4247    72.6431
 2953.0000  -999.2500  -999.2500  -999.2500     8.7915    59.1272    76.8642
 2953.5000  -999.2500  -999.2500  -999.2500     8.7921    59.1881    79.3507
 2954.0000  -999.2500  -999.2500  -999.2500     8.8080    62.1707    81.9875
 2954.5000  -999.2500  -999.2500  -999.2500     8.8389    62.4795    82.5887
 2955.0000  -999.2500  -999.2500  -999.2500     8.8394    62.1808    82.9636
 2955.5000  -999.2500  -999.2500  -999.2500     8.8400    61.2789    83.3385
 2956.0000  -999.2500  -999.2500  -999.2500     8.8254    60.6786    83.6380
 2956.5000  -999.2500  -999.2500  -999.2500     8.8109    60.9889    83.9478
 2957.0000  -999.2500  -999.2500  -999.2500     8.8116    61.9037    84.1616
 2957.5000  -999.2500  -999.2500  -999.2500     8.8121    63.1216    83.9326
 2958.0000  -999.2500  -999.2500  -999.2500     8.7976    64.9456    83.5534
 2958.5000  -999.2500  -999.2500  -999.2500     8.7983    68.0564    83.0987
 2959.0000  -999.2500  -999.2500  -999.2500     8.7989    73.7464    82.7884
 2959.5000  -999.2500  -999.2500  -999.2500     8.7994    78.9037    82.4151
 2960.0000  -999.2500  -999.2500  -999.2500     8.8000    84.9701    82.1113
 2960.5000  -999.2500  -999.2500  -999.2500     8.8006    94.0668    82.0338
 2961.0000  -999.2500  -999.2500  -999.2500     8.8013    96.4968    82.0201
 2961.5000  -999.2500  -999.2500  -999.2500     8.8019    86.2010    82.3366
 2962.0000  -999.2500  -999.2500  -999.2500     8.8025    78.3279    82.9323
 2962.5000  -999.2500  -999.2500  -999.2500     8.8030    74.0913    82.5525
 2963.0000  -999.2500  -999.2500  -999.2500     8.8055    79.5516    81.0420
 2963.5000  -999.2500  -999.2500  -999.2500     8.8195    84.5017    79.4561
 2964.0000  -999.2500  -999.2500  -999.2500     8.8352    83.5040    77.4932
 2964.5000  -999.2500  -999.2500  -999.2500     8.8661    74.4188    74.5493
 2965.0000  -999.2500  -999.2500  -999.2500     8.9121    68.9686    72.3601
 2965.5000  -999.2500  -999.2500  -999.2500     9.0341    71.7031    70.6234
 2966.0000  -999.2500  -999.2500  -999.2500     9.0952    71.7103    69.1130
 2966.5000  -999.2500  -999.2500  -999.2500     9.0805    68.0797    68.1304
 2967.0000  -999.2500  -999.2500  -999.2500     9.0508    62.6309    68.3927
 2967.5000  -999.2500  -999.2500  -999.2500     9.0361    59.0003    71.2930
 2968.0000  -999.2500  -999.2500  -999.2500     9.0066    63.2485    74.2320
 2968.5000  -999.2500  -999.2500  -999.2500     8.9922    58.4072    77.8498
 2969.0000  -999.2500  -999.2500  -999.2500     8.9625    61.7463    80.6379
 2969.5000  -999.2500  -999.2500  -999.2500     8.9479    62.3567    81.6333
 2970.0000  -999.2500  -999.2500  -999.2500     8.9636    58.7276    83.2726
 2970.5000  -999.2500  -999.2500  -999.2500     9.0098    56.9151    84.4017
 2971.0000  -999.2500  -999.2500  -999.2500     9.0558    59.0436    85.9078
 2971.5000  -999.2500  -999.2500  -999.2500     9.1170    68.1402    86.6598
 2972.0000  -999.2500  -999.2500  -999.2500     9.1630    75.7218    86.3460
 2972.5000  -999.2500  -999.2500  -999.2500     9.2260    83.9094    84.6187
 2973.0000  -999.2500  -999.2500  -999.2500     9.3159    83.8779    84.3149
 2973.5000  -999.2500  -999.2500  -999.2500     9.4376    76.3466    84.0865
 2974.0000  -999.2500  -999.2500  -999.2500     9.4988    72.4129    84.2352
 2974.5000  -999.2500  -999.2500  -999.2500     9.5297    70.9036    84.3839
 2975.0000  -999.2500  -999.2500  -999.2500     9.5304    71.2124    84.3811
 2975.5000  -999.2500  -999.2500  -999.2500     9.5310    72.1385    84.4544
 2976.0000  -999.2500  -999.2500  -999.2500     9.5011    73.6496    85.1310
 2976.5000  -999.2500  -999.2500  -999.2500     9.4714    75.4735    86.5617
 2977.0000  -999.2500  -999.2500  -999.2500     9.5024    77.2975    86.2579
 2977.5000  -999.2500  -999.2500  -999.2500     9.5486    81.2426    84.9472
 2978.0000  -999.2500  -999.2500  -999.2500     9.6401    87.0384    83.3118
 2978.5000  -999.2500  -999.2500  -999.2500     9.7164    84.2859    82.4047
