~VERSION INFORMATION
 VERS.                2.0:   CWLS LOG ASCII STANDARD - VERSION 2.0
 WRAP.                 NO:   ONE LINE PER DEPTH STEP
~WELL INFORMATION
#MNEM.UNIT      DATA TYPE    INFORMATION
#----------   ------------   ------------------------------
 STRT.F           34.0000:   START DEPTH
 STOP.F          614.0000:   STOP DEPTH
 STEP.F            0.5000:   STEP LENGTH
 NULL.          -999.2500:   NO VALUE
 COMP. FENIX & SCISSON INC:   COMPANY
 WELL.      71-SX-3 #71-3:   WELL
 FLD .             TEAPOT:   FIELD
 LOC .       S3 T38N R78W:   LOCATION
 CNTY.            NATRONA:   COUNTY
 STAT.            WYOMING:   STATE
 CTRY. UNITED STATES OF AMERICA:   COUNTRY
 SRVC.              Welex:   SERVICE COMPANY
 DATE.        10-MAR-1977:   LOGDATE
 API .       490251028900:   API NUMBER
~CURVE INFORMATION
#MNEM.UNIT       API CODE    CURVE DESCRIPTION
#----------   ------------   ------------------------------
 DEPT.F                  :   
 CALD.IN     45 280 60 00:   CALIPER
 GRD .GAPI   45 310 01 00:   GAMMA RAY FROM DENSITY LOG
 RHOB.G/C3   45 350 01 00:   BULK DENSITY
 DPHI.DEC    45 890 12 00:   DENSITY POROSITY SANDSTONE
 CORR.G/C3   45 356 01 00:   DENSITY CORRECTION
 SGRD.OHMM   07 220 05 00:   SHALLOW RESISTIVITY
 ILD .OHMM   07 120 46 00:   INDUCTION LOG DEEP
 ILM .OHMM   07 120 44 00:   INDUCTION LOG MEDIUM
 SPR .MV     07 010 01 00:   SPONTANEOUS POTENTIAL
~PARAMETER INFORMATION
#MNEM.UNIT          VALUE    DESCRIPTION
#----------   ------------   ------------------------------
 PD  .                 GL:   PERMANENT DATUM
 EPD .F              5117:   ELEVATION PERMANENT DATUM
 LMF .                 GL:   LOG MEASURED FROM
 DMF .                 GL:   DRILLING MEASURED FROM
 EGL .F              5117:   GROUND LEVEL
 DATE.          3-10-1977:   RUN DATE
 RUN .                  1:   RUN NUMBER
 DD  .F               630:   DEPTH DRILLER
 DL  .F               619:   DEPTH LOGGER
 BLI .F               617:   BOTTOM LOG INTERVAL
 TLI .F                34:   TOP LOG INTERVAL
 CS  .IN            8.625:   CASING SIZE
 CBD .F                40:   CASING BOTTOM DRILLER
 CBL .F                41:   CASING BOTTOM LOGGER
 BS  .IN            7.875:   BIT SIZE
 BSD .F               630:   BIT SIZE AT DEPTH
 DFT .            KCL MUD:   DRILLING FLUID TYPE
 DFD .                  9:   DRILLING FLUID DENSITY
 DFV .                 33:   DRILLING FLUID VISCOSITY
 MSS .            MUD PIT:   MUD SAMPLE SOURCE
 RMS .OHMM           2.33:   RESISTIVITY MUD SAMPLE
 MST .F                57:   MUD SAMPLE TEMPERATURE
 RMF .OHMM           1.83:   RESISTIVITY MUD FILTRATE SAMPLE
 MFST.F                57:   MUD FILTRATE SAMPLE TEMPERATURE
 RMC .OHMM           2.53:   RESISTIVITY MUD CAKE
 MCST.F                57:   MUD CAKE SAMPLE TEMPERATURE
 MFSS.           FANN KIT:   MUD FILTRATE SAMPLE SOURCE
 MCSS.           FANN KIT:   MUD CAKE SAMPLE SOURCE
 RMB .OHMM            2.1:   RESISTIVITY MUD AT BHT
 BHT .F                63:   BOTTOM HOLE TEMPERATURE
 TCS .HRS             1.5:   TIME CURCULATED STOPPED
 MRT .F                63:   MAXIMUM RECORDED TEMPERATURE
 LUN .               8611:   LOGGING UNIT NUMBER
 LUL .           GILLETTE:   LOGGING UNIT LOCATION
 ENGI.               DOAK:   RECORDING ENGINEER
 WITN.              BURKE:   WITNESSED BY
 CLNT.            A2DTECH:   CLIENT CODE
 ORIG.       2", 5" PRINT:   ORIGIN OF DATA
 UWI .       490251028900:   UNIQUE WELL ID
 DICO. A2D Technologies, Inc.:   DIGITIZING COMPANY
~OTHER INFORMATION
~A   DEPT     CALD        GRD       RHOB       DPHI       CORR       SGRD        ILD        ILM        SPR   
# ...
  472.0000     7.7282    52.9881     2.4646     0.1156     0.0597    21.1702    12.9233    16.4135   -44.3259
  472.5000     7.7153    55.3209     2.4503     0.1274     0.0560    23.2755    13.0227    16.2066   -43.9683
  473.0000     7.7256    54.1270     2.4374     0.1298     0.0523    22.7537    13.1552    15.8268   -44.0703
  473.5000     7.7405    52.9462     2.4391     0.1302     0.0514    21.2370    12.9954    15.1145   -44.1961
  474.0000     7.7556    53.9622     2.4415     0.1305     0.0496    16.7723    12.5745    14.4342   -44.3205
  474.5000     7.7706    55.9147     2.4402     0.1309     0.0478    14.2652    12.1676    13.7846   -44.4443
  475.0000     7.7856    57.8571     2.4390     0.1279     0.0461    13.0437    11.7739    13.1642   -44.5677
  475.5000     7.8006    58.2009     2.4377     0.1246     0.0492    13.2328    11.4004    12.6889   -44.6934
  476.0000     7.8156    55.9150     2.4381     0.1213     0.0528    13.4246    11.0679    12.6194   -44.6603
  476.5000     7.8312    53.6706     2.4455     0.1180     0.0528    13.6572    10.5581    12.5504   -44.5293
  477.0000     7.8238    51.4332     2.4532     0.1146     0.0507    13.5561    10.5623    12.4818   -44.3981
  477.5000     7.8113    50.0323     2.4609     0.1113     0.0486    13.4084    10.5726    12.4136   -44.2249
  478.0000     7.7988    50.2448     2.4685     0.1080     0.0465    13.4641    10.5830    12.3456   -44.0271
  478.5000     7.7862    51.3829     2.4761     0.1050     0.0463    13.5332    10.5933    12.2780   -43.8296
  479.0000     7.7737    52.5120     2.4796     0.1058     0.0470    13.6026    10.6038    12.2107   -43.6287
  479.5000     7.7614    53.6420     2.4723     0.1096     0.0476    13.6724    10.6142    12.1272   -43.6440
  480.0000     7.7605    54.7699     2.4652     0.1164     0.0469    13.7833    10.6248    12.2930   -43.7839
  480.5000     7.7798    55.7631     2.4581     0.1226     0.0448    13.6572    10.6354    12.5803   -43.9252
  481.0000     7.7989    54.6308     2.4528     0.1228     0.0427    15.3907    10.6496    12.9269   -44.0672
  481.5000     7.8179    53.4540     2.4463     0.1244     0.0407    15.1911    10.6601    12.8554   -44.2098
  482.0000     7.8341    52.2773     2.4401     0.1272     0.0386    14.1518    10.3551    12.5411   -44.3403
  482.5000     7.8270    51.3522     2.4381     0.1294     0.0365    12.4578    10.3085    12.2369   -44.2588
  483.0000     7.8154    53.2134     2.4415     0.1265     0.0383    12.4157    10.2620    11.8982   -44.1712
  483.5000     7.8038    55.4172     2.4460     0.1230     0.0416    12.3749    10.2157    11.8240   -44.0853
  484.0000     7.7921    57.3927     2.4543     0.1152     0.0449    12.3438    10.1698    11.7507   -44.0004
  484.5000     7.7805    59.4072     2.4625     0.1089     0.0448    12.6693    10.1240    11.4691   -44.0047
  485.0000     7.7689    59.5877     2.4644     0.1144     0.0410    12.8769    10.0784    11.5275   -44.1287
  485.5000     7.7573    58.4371     2.4529     0.1213     0.0373    13.0879    10.0330    11.6603   -44.2519
  486.0000     7.7457    57.2024     2.4427     0.1259     0.0341    13.1642     9.9878    11.7893   -44.3757
  486.5000     7.7351    59.8504     2.4475     0.1238     0.0359    12.5728     9.9428    11.6901   -44.4995
  487.0000     7.6830    63.3505     2.4530     0.1216     0.0377    12.5872     9.9001    11.5737   -44.6233
  487.5000     7.6164    62.1349     2.4584     0.1194     0.0395    12.6195     9.9001    11.4584   -44.7467
  488.0000     7.5461    60.6444     2.4639     0.1173     0.0413    12.6518     9.9001    11.3442   -44.8700
  488.5000     7.6079    59.1419     2.4694     0.1155     0.0431    12.6889     9.9001    11.2598   -44.9788
  489.0000     7.7078    58.2040     2.4748     0.1143     0.0449    12.5620     9.9001    11.6011   -45.0691
  489.5000     7.7537    60.9631     2.4733     0.1140     0.0466    12.3643     9.8806    11.9346   -45.1353
  490.0000     7.7579    63.7120     2.4621     0.1189     0.0466    12.5075     9.8050    12.1189   -45.0618
  490.5000     7.7611    66.5305     2.4511     0.1241     0.0420    12.7010     9.7301    11.9918   -44.9903
  491.0000     7.7643    66.5420     2.4399     0.1293     0.0375    12.9624     9.6557    11.8918   -44.9195
  491.5000     7.7675    65.4797     2.4288     0.1345     0.0329    13.5733     9.5819    11.7927   -44.8491
  492.0000     7.7707    64.9095     2.4178     0.1398     0.0284    14.1687     9.5086    11.6934   -44.7789
  492.5000     7.7740    68.5173     2.4172     0.1403     0.0287    13.6553     9.4359    11.7694   -44.7622
  493.0000     7.7772    72.0985     2.4266     0.1331     0.0313    13.0870     9.3689    11.8714   -44.8070
  493.5000     7.7804    70.2432     2.4366     0.1285     0.0339    12.6889     9.5249    12.0073   -44.8519
  494.0000     7.7836    67.9668     2.4466     0.1253     0.0365    13.0240     9.7068    11.8376   -44.8978
  494.5000     7.7869    65.7048     2.4565     0.1222     0.0391    13.1642     9.9904    11.5864   -44.9332
  495.0000     7.7901    63.4483     2.4594     0.1202     0.0417    12.7779     9.9152    11.3407   -44.8076
  495.5000     7.7934    61.0508     2.4614     0.1196     0.0380    12.4578     9.7609    11.1006   -44.7926
  496.0000     7.7946    60.2686     2.4677     0.1190     0.0325    12.4068     9.6080    10.8659   -44.8981
  496.5000     7.7961    62.2218     2.4704     0.1181     0.0345    12.3325     9.4575    10.6556   -45.0036
  497.0000     7.7975    62.9635     2.4644     0.1172     0.0373    12.2587     9.3094    10.6209   -45.1099
  497.5000     7.7989    62.0217     2.4744     0.1162     0.0402    12.1853     9.1635    10.5818   -45.2170
  498.0000     7.8004    61.1482     2.4832     0.1155     0.0432    12.1124     9.0200    10.5429   -45.3205
  498.5000     7.8018    61.5027     2.4741     0.1167     0.0402    12.0398     8.9480    10.5041   -45.1977
  499.0000     7.8032    63.5556     2.4651     0.1178     0.0369    11.9677     9.0279    10.4655   -45.0465
  499.5000     7.8046    65.8384     2.4636     0.1190     0.0340    11.8961     9.1016    10.3658   -44.9477
  500.0000     7.8061    68.1520     2.4626     0.1192     0.0376    11.7893     9.1758    10.5317   -44.9964
  500.5000     7.8075    68.7267     2.4600     0.1161     0.0417    11.9023     9.1982    10.6614   -45.0413
  501.0000     7.8089    60.5133     2.4610     0.1121     0.0459    12.1320     9.3921    10.7926   -45.0860
  501.5000     7.8104    54.6814     2.4695     0.1081     0.0515    12.3438     9.6773    10.9257   -45.1309
  502.0000     7.8118    48.8378     2.4728     0.1041     0.0586    12.4568     9.9712    11.0603   -45.1757
  502.5000     7.8137    42.9964     2.4760     0.1026     0.0657    12.5844    10.2740    11.1563   -45.2203
  503.0000     7.7960    37.1549     2.4693     0.1169     0.0728    12.7133    10.5626    11.7072   -45.2657
  503.5000     7.7721    31.3642     2.4355     0.1298     0.0802    12.8061    11.3540    12.3597   -45.3110
  504.0000     7.7481    26.7962     2.4024     0.1426     0.0842    14.2995    12.1347    13.8188   -45.4597
  504.5000     7.7241    27.7505     2.3721     0.1554     0.0889    23.9050    12.9743    15.8633   -45.7186
  505.0000     7.7001    29.2683     2.3720     0.1665     0.0858    40.2191    13.7833    17.6660   -45.9773
  505.5000     7.6761    30.6896     2.3725     0.1665     0.0805    32.0606    16.2584    19.0012   -46.2465
  506.0000     7.6521    27.9162     2.3678     0.1663     0.0751    27.1511    17.7976    20.3271   -46.3194
  506.5000     7.6281    24.8708     2.3402     0.1929     0.0697    31.9472    19.3140    21.7455   -46.3221
  507.0000     7.6041    21.8263     2.3067     0.2045     0.0642    34.5911    20.9596    22.6796   -46.3219
  507.5000     7.5801    18.7483     2.3136     0.2018     0.0598    28.4795    22.7453    23.6604   -46.3202
  508.0000     7.5559    18.7940     2.3233     0.1973     0.0604    36.9285    24.1472    24.6837   -46.2731
