~VERSION INFORMATION
 VERS.                2.0:   CWLS LOG ASCII STANDARD - VERSION 2.0
 WRAP.                 NO:   ONE LINE PER DEPTH STEP
~WELL INFORMATION
#MNEM.UNIT      DATA TYPE    INFORMATION
#----------   ------------   ------------------------------
 STRT.F          936.5000:   START DEPTH
 STOP.F         2325.5000:   STOP DEPTH
 STEP.F            0.5000:   STEP LENGTH
 NULL.          -999.2500:   NO VALUE
 COMP. LAWRENCE/ALLISON INC:   COMPANY
 WELL.  NPR 3 #45-1-SHX-3:   WELL
 FLD .             TEAPOT:   FIELD
 LOC .       S3 T38N R78W:   LOCATION
 CNTY.            NATRONA:   COUNTY
 STAT.            WYOMING:   STATE
 CTRY. UNITED STATES OF AMERICA:   COUNTRY
 SRVC.            Unknown:   SERVICE COMPANY
 DATE.        10-OCT-1991:   LOGDATE
 API .       490251092300:   API NUMBER
~CURVE INFORMATION
#MNEM.UNIT       API CODE    CURVE DESCRIPTION
#----------   ------------   ------------------------------
 DEPT.F                  :   
 TGAS.UNITS  91 830 01 00:   TOTAL GAS FROM HOTWIRE
 ROP .MIN/FT 91 810 01 00:   RATE OF DRILLING PENETRATION
~PARAMETER INFORMATION
#MNEM.UNIT          VALUE    DESCRIPTION
#----------   ------------   ------------------------------
 EKB .F              5199:   KELLING BUSHING
 EGL .F              5189:   GROUND LEVEL
 DATE.           10-10-91:   RUN DATE
 DD  .F              2325:   DEPTH DRILLER
 BLI .F              2324:   BOTTOM LOG INTERVAL
 TLI .F              1920:   TOP LOG INTERVAL
 CS  .IN            9.625:   CASING SIZE
 CBD .F               498:   CASING BOTTOM DRILLER
 ENGI.               HUSK:   RECORDING ENGINEER
 WITN.              TOWER:   WITNESSED BY
 CLNT.            A2DTECH:   CLIENT CODE
 ORIG.           5" PRINT:   ORIGIN OF DATA
 UWI .       490251092300:   UNIQUE WELL ID
 DICO. A2D Technologies, Inc.:   DIGITIZING COMPANY
~OTHER INFORMATION
~A   DEPT     TGAS          ROP 
# ...
 2151.5000   236.3349     0.4777
 2152.0000   236.0131     0.4886
 2152.5000   235.6912     0.5202
 2153.0000   235.3693     0.5208
 2153.5000   235.0475     0.5213
 2154.0000   234.7256     0.5218
 2154.5000   234.4037     0.5016
 2155.0000   234.0819     0.4813
 2155.5000   233.7600     0.4611
 2156.0000   233.4382     0.4409
 2156.5000   233.1163     0.4312
 2157.0000   232.7944     0.4110
 2157.5000   232.4726     0.4004
 2158.0000   232.1507     0.3793
 2158.5000   231.8288     0.3402
 2159.0000   231.5070     0.3407
 2159.5000   231.1851     0.3412
 2160.0000   230.8633     0.3727
 2160.5000   230.5414     0.4457
 2161.0000   230.2195     0.5187
 2161.5000   229.8977     0.5709
 2162.0000   229.5758     0.5921
 2162.5000   229.2540     0.5823
 2163.0000   228.9321     0.5084
 2163.5000   228.6102     0.4489
 2164.0000   228.2884     0.4494
 2164.5000   227.9665     0.4499
 2165.0000   227.6446     0.4504
 2165.5000   227.3228     0.4509
 2166.0000   227.0009     0.4721
 2166.5000   226.6790     0.4726
 2167.0000   226.3572     0.4420
 2167.5000   226.0353     0.3908
 2168.0000   225.7135     0.3706
 2168.5000   225.3916     0.3711
 2169.0000   225.0697     0.4028
 2169.5000   224.7479     0.4447
 2170.0000   224.4260     0.4763
 2170.5000   224.1041     0.4663
 2171.0000   223.7823     0.4359
 2171.5000   223.4604     0.4155
 2172.0000   223.1386     0.3850
 2172.5000   222.8167     0.3442
 2173.0000   222.4948     0.3137
 2173.5000   222.1730     0.3245
 2174.0000   221.8511     0.3458
 2174.5000   221.5293     0.3774
 2175.0000   221.2074     0.4193
 2175.5000   220.8855     0.4302
 2176.0000   220.5637     0.4618
 2176.5000   220.2418     0.4519
 2177.0000   219.9199     0.4214
 2177.5000   219.5981     0.4010
 2178.0000   219.2762     0.3913
 2178.5000   218.9543     0.3918
 2179.0000   218.6325     0.4130
 2179.5000   218.3106     0.4257
 2180.0000   217.9888     0.4349
 2180.5000   217.6669     0.4354
 2181.0000   217.3450     0.4359
 2181.5000   217.0232     0.4674
 2182.0000   216.7013     0.5404
 2182.5000   216.3794     0.5099
 2183.0000   216.0576     0.4483
 2183.5000   215.7357     0.3867
 2184.0000   215.4139     0.3561
 2184.5000   215.0920     0.3463
 2185.0000   214.7701     0.4297
 2185.5000   214.4483     0.4509
 2186.0000   214.1264     0.4721
 2186.5000   213.8046     0.4726
 2187.0000   213.4827     0.4628
 2187.5000   213.7357     0.4528
 2188.0000   245.1741     0.4430
 2188.5000   276.4874     0.4436
 2189.0000   266.6929     0.4441
 2189.5000   267.2391     0.4554
 2190.0000   267.7851     0.4658
 2190.5000   267.3600     0.4457
 2191.0000   265.1888     0.4048
 2191.5000   263.0176     0.3742
 2192.0000   260.8463     0.3748
 2192.5000   258.6751     0.3648
 2193.0000   256.5038     0.3965
 2193.5000   254.3326     0.4281
 2194.0000   252.1614     0.4493
 2194.5000   249.9901     0.4498
 2195.0000   247.8189     0.4400
 2195.5000   245.6477     0.4405
 2196.0000   243.4764     0.4514
 2196.5000   241.3052     0.4623
 2197.0000   239.1339     0.4835
 2197.5000   236.9627     0.4944
 2198.0000   234.7914     0.5052
 2198.5000   232.6202     0.5161
 2199.0000   230.4490     0.5269
 2199.5000   228.2777     0.5274
 2200.0000   226.4356     0.5280
 2200.5000   226.2824     0.5436
 2201.0000   226.1292     0.5478
 2201.5000   225.9761     0.5371
 2202.0000   225.8229     0.5366
 2202.5000   225.6697     0.5362
 2203.0000   225.5165     0.5358
 2203.5000   225.3633     0.5250
 2204.0000   225.2102     0.4935
 2204.5000   225.0570     0.4414
 2205.0000   224.9038     0.4306
 2205.5000   224.7506     0.4199
 2206.0000   224.5974     0.4297
 2206.5000   224.4442     0.4293
 2207.0000   224.2911     0.4497
 2207.5000   224.1379     0.4804
 2208.0000   223.9847     0.5109
 2208.5000   223.8315     0.5210
 2209.0000   223.6783     0.4998
 2209.5000   223.5252     0.4779
 2210.0000   223.3720     0.4471
 2210.5000   223.2188     0.4364
 2211.0000   223.0656     0.4256
 2211.5000   222.9124     0.4252
 2212.0000   222.7592     0.4145
 2212.5000   222.6061     0.4141
 2213.0000   222.4529     0.4033
 2213.5000   222.2997     0.3925
 2214.0000   222.1465     0.3921
 2214.5000   221.9933     0.3917
 2215.0000   221.8402     0.3913
 2215.5000   221.6870     0.3908
 2216.0000   221.5338     0.3904
 2216.5000   221.3806     0.3900
 2217.0000   221.2274     0.3896
 2217.5000   221.0743     0.4431
 2218.0000   220.9211     0.5233
 2218.5000   220.7679     0.5437
 2219.0000   220.6147     0.5018
 2219.5000   220.4615     0.4496
 2220.0000   220.3083     0.4285
 2220.5000   220.1552     0.4281
 2221.0000   220.0020     0.4277
 2221.5000   219.8488     0.4377
 2222.0000   219.6956     0.4372
 2222.5000   219.5424     0.4368
 2223.0000   219.3893     0.4157
 2223.5000   219.2361     0.3532
 2224.0000   219.0829     0.3424
 2224.5000   218.9297     0.3731
 2225.0000   218.7765     0.4244
 2225.5000   218.6234     0.4564
 2226.0000   218.4702     0.4960
 2226.5000   222.4562     0.5060
 2227.0000   232.3708     0.5160
 2227.5000   242.2855     0.4637
 2228.0000   252.2001     0.4219
 2228.5000   262.1147     0.4008
 2229.0000   272.0294     0.4004
 2229.5000   281.9440     0.4000
 2230.0000   265.7685     0.3995
 2230.5000   245.7733     0.3991
 2231.0000   236.2757     0.4092
 2231.5000   216.6803     0.4190
 2232.0000   217.4830     0.4186
 2232.5000   218.3067     0.4182
 2233.0000   219.2796     0.4178
 2233.5000   230.3770     0.4174
 2234.0000   220.6793     0.4169
 2234.5000   231.9768     0.4165
 2235.0000   232.7762     0.3643
 2235.5000   223.2493     0.3018
 2236.0000   234.3760     0.3118
 2236.5000   235.1944     0.3528
 2237.0000   236.1754     0.3834
 2237.5000   236.9753     0.4037
 2238.0000   227.2777     0.4137
 2238.5000   228.2776     0.4132
 2239.0000   229.0775     0.4128
 2239.5000   229.8770     0.4124
 2240.0000   229.8792     0.4120
 2240.5000   228.6827     0.4116
 2241.0000   227.4863     0.4112
 2241.5000   226.2898     0.4107
 2242.0000   225.0933     0.4103
 2242.5000   223.8968     0.4099
 2243.0000   222.7004     0.4095
 2243.5000   221.5039     0.3677
 2244.0000   220.3074     0.3569
 2244.5000   219.1109     0.3772
 2245.0000   217.9144     0.4299
 2245.5000   216.7180     0.5523
 2246.0000   215.5215     0.6141
 2246.5000   214.3250     0.5411
 2247.0000   213.1285     0.5097
 2247.5000   211.9321     0.4886
 2248.0000   210.7356     0.4054
 2248.5000   209.5391     0.3945
 2249.0000   208.3426     0.3941
 2249.5000   207.1461     0.3835
 2250.0000   205.9497     0.3830
 2250.5000   204.7223     0.4457
 2251.0000   203.4949     0.5601
 2251.5000   202.2676     0.6434
 2252.0000   201.0402     0.6541
 2252.5000   199.8128     0.6237
 2253.0000   198.5855     0.5921
 2253.5000   197.3581     0.5316
 2254.0000   196.1307     0.5011
 2254.5000   194.9034     0.4808
 2255.0000   193.6760     0.4814
 2255.5000   192.4486     0.5130
 2256.0000   191.2212     0.5238
 2256.5000   189.9939     0.5243
 2257.0000   188.7665     0.4935
 2257.5000   187.5391     0.4191
 2258.0000   186.3118     0.3499
 2258.5000   185.0844     0.3608
 2259.0000   183.8570     0.4028
 2259.5000   182.6297     0.4136
 2260.0000   181.4023     0.4452
 2260.5000   180.1749     0.4457
 2261.0000   178.9475     0.4462
 2261.5000   177.7202     0.4260
 2262.0000   176.4928     0.4059
 2262.5000   175.1408     0.3857
 2263.0000   175.9439     0.3654
 2263.5000   176.7470     0.3349
 2264.0000   177.5502     0.3354
 2264.5000   178.4201     0.3463
 2265.0000   179.1761     0.3572
 2265.5000   180.0932     0.3680
 2266.0000   180.9632     0.3807
 2266.5000   181.6476     0.4312
 2267.0000   182.5690     0.4835
 2267.5000   183.3722     0.5254
 2268.0000   184.2421     0.5466
 2268.5000   185.0453     0.5264
 2269.0000   185.7812     0.4545
 2269.5000   186.5903     0.3926
 2270.0000   187.4543     0.3312
 2270.5000   188.3914     0.3008
 2271.0000   189.1942     0.3013
 2271.5000   189.9973     0.3018
 2272.0000   190.8004     0.3023
 2272.5000   191.6036     0.3028
