~VERSION INFORMATION
 VERS.                2.0:   CWLS LOG ASCII STANDARD - VERSION 2.0
 WRAP.                 NO:   ONE LINE PER DEPTH STEP
~WELL INFORMATION
#MNEM.UNIT      DATA TYPE    INFORMATION
#----------   ------------   ------------------------------
 STRT.F           16.0000:   START DEPTH
 STOP.F          430.0000:   STOP DEPTH
 STEP.F            0.5000:   STEP LENGTH
 NULL.          -999.2500:   NO VALUE
 COMP. LAWRENCE/ALLISON INC:   COMPANY
 WELL.  NPR 3 #52-66-1-10:   WELL
 FLD .             TEAPOT:   FIELD
 LOC .      S10 T38N R78W:   LOCATION
 CNTY.            NATRONA:   COUNTY
 STAT.            WYOMING:   STATE
 CTRY. UNITED STATES OF AMERICA:   COUNTRY
 SRVC.           Gearhart:   SERVICE COMPANY
 DATE.        25-MAY-1988:   LOGDATE
 API .       490251121100:   API NUMBER
~CURVE INFORMATION
#MNEM.UNIT       API CODE    CURVE DESCRIPTION
#----------   ------------   ------------------------------
 DEPT.F                  :   
 RILD.OHMM   07 120 46 00:   INDUCTION LOG DEEP RESISTIVITY
 GRR .GAPI   07 310 01 00:   GAMMA RAY FROM RES. LOG.
 RILM.OHMM   07 120 44 00:   INDUCTION LOG MEDIUM RESISTIVITY
~PARAMETER INFORMATION
#MNEM.UNIT          VALUE    DESCRIPTION
#----------   ------------   ------------------------------
 PD  .                 GL:   PERMANENT DATUM
 EPD .F              5169:   ELEVATION PERMANENT DATUM
 LMF .                 KB:   LOG MEASURED FROM
 DAPD.F                 5:   FEET ABOVE PERMANENT DATUM
 DMF .                 KB:   DRILLING MEASURED FROM
 EKB .F              5174:   KELLING BUSHING
 EGL .F              5169:   GROUND LEVEL
 DATE.            5-25-88:   RUN DATE
 RUN .                  1:   RUN NUMBER
 DD  .F               440:   DEPTH DRILLER
 DL  .F               437:   DEPTH LOGGER
 BLI .F               429:   BOTTOM LOG INTERVAL
 TLI .F                44:   TOP LOG INTERVAL
 CS  .IN            8.625:   CASING SIZE
 CBD .F                45:   CASING BOTTOM DRILLER
 CBL .F                44:   CASING BOTTOM LOGGER
 BS  .IN            7.875:   BIT SIZE
 BSD .F               440:   BIT SIZE AT DEPTH
 DFT .                AIR:   DRILLING FLUID TYPE
 TCS .HRS            0900:   TIME CURCULATED STOPPED
 TLAB.HRS            1048:   TIME LOGGER AT BOTTOM
 LUN .               7597:   LOGGING UNIT NUMBER
 LUL .           GILLETTE:   LOGGING UNIT LOCATION
 ENGI.             SLATKY:   RECORDING ENGINEER
 WITN.             STRONG:   WITNESSED BY
 CLNT.            A2DTECH:   CLIENT CODE
 ORIG.       2", 5" PRINT:   ORIGIN OF DATA
 UWI .       490251121100:   UNIQUE WELL ID
 DICO. A2D Technologies, Inc.:   DIGITIZING COMPANY
~OTHER INFORMATION
~A   DEPT     RILD         GRR      RILM   
# ...
  198.0000     7.5268   132.6806     7.7860
  198.5000     7.3433   133.3817     7.6197
  199.0000     7.1643   134.2694     7.4569
  199.5000     6.9897   136.0099     7.2975
  200.0000     6.8193   137.7153     7.1416
  200.5000     6.6530   139.2432     6.9890
  201.0000     6.4878   136.9303     6.7818
  201.5000     6.2092   134.9607     6.4279
  202.0000     5.9376   134.4009     6.1555
  202.5000     5.7515   135.5560     5.8414
  203.0000     5.5938   136.7215     5.5431
  203.5000     5.6658   134.6801     5.2604
  204.0000     5.7207   129.9695     5.0492
  204.5000     5.7761   126.3803     5.0518
  205.0000     5.8051   124.1561     5.3398
  205.5000     6.1052   126.3202     5.6559
  206.0000     6.3926   129.2175     5.9907
  206.5000     6.6935   131.6100     6.3453
  207.0000     7.0085   131.7632     6.7209
  207.5000     7.1195   131.8555     7.1168
  208.0000     6.7880   130.5432     7.3245
  208.5000     6.5727   129.2731     7.3233
  209.0000     6.3647   128.4513     6.5989
  209.5000     6.1635   129.5499     6.0897
  210.0000     5.9687   130.7216     5.6198
  210.5000     5.7515   132.7175     5.1862
  211.0000     5.6574   135.2103     4.9590
  211.5000     5.6459   137.4039     4.9590
  212.0000     5.7391   133.8705     5.0052
  212.5000     5.8051   130.0049     5.2425
  213.0000     6.1216   128.3353     5.6027
  213.5000     6.4373   128.8717     5.9529
  214.0000     6.7692   129.4193     6.3250
  214.5000     7.1182   127.6697     6.7206
  215.0000     7.4853   125.8758     7.1384
  215.5000     7.7614   124.7140     7.5425
  216.0000     8.1061   125.3782     7.6769
  216.5000     8.1018   126.0445     7.8138
  217.0000     8.3770   124.9118     7.9531
  217.5000     8.4885   122.8305     8.0948
  218.0000     8.5400   121.9841     8.2399
  218.5000     8.5881   123.0901     8.3536
  219.0000     8.6363   124.2094     8.4130
  219.5000     8.6849   124.7288     8.4728
  220.0000     8.7337   123.0256     8.5331
  220.5000     8.7828   122.1777     8.5937
  221.0000     8.8321   121.5418     8.6548
  221.5000     8.8817   120.9123     8.7271
  222.0000     8.8903   120.2963     8.7087
  222.5000     8.8368   120.9638     8.6798
  223.0000     8.7998   122.6063     8.6510
  223.5000     8.7630   124.6788     8.6221
  224.0000     8.7271   124.4726     8.5930
  224.5000     8.8321   124.3307     8.5668
  225.0000     9.0002   124.7561     8.6912
  225.5000     9.1715   125.8105     8.8793
  226.0000     9.3461   126.3496     9.0715
  226.5000     9.5744   123.7912     9.2679
  227.0000     8.8791   120.6240     9.4685
  227.5000     8.3145   117.4469     9.5744
  228.0000     7.7857   114.2503     8.7616
  228.5000     7.2906   114.6811     7.7917
  229.0000     6.9234   120.2016     6.9292
  229.5000     6.9198   126.0378     6.1622
  230.0000     6.9594   131.8979     5.5423
  230.5000     6.9858   137.7923     5.5423
  231.0000     7.0281   136.8990     6.1369
  231.5000     7.1177   127.8605     6.6875
  232.0000     7.7906   120.8749     7.2998
  232.5000     8.5976   113.6727     7.9682
  233.0000     9.4881   112.6191     8.6977
  233.5000    10.4708   112.8916     9.4941
  234.0000    11.1094   113.1456    10.3633
  234.5000    11.1028   113.4344    10.9005
  235.0000    11.3557   113.8958    10.9005
  235.5000    11.5221   114.3435    10.9005
  236.0000    11.6310   115.4911    10.9005
  236.5000    12.2764   117.1831    10.9005
  237.0000    12.9714   117.3269    11.0006
  237.5000    13.8784   115.0323    11.2599
  238.0000    15.3144   108.3173    12.2197
  238.5000    16.8990   100.9770    13.9270
  239.0000    18.6475    91.8489    15.8729
  239.5000    20.5770    81.6113    18.0907
  240.0000    22.3737    71.3463    20.6183
  240.5000    24.9019    62.7482    23.4208
  241.0000    27.6836    60.2515    26.0398
  241.5000    30.7775    60.4097    28.9517
  242.0000    32.4557    60.9347    31.6392
  242.5000    33.7854    61.3567    32.8339
  243.0000    34.7110    61.6575    34.0736
  243.5000    34.3908    61.9518    34.3908
  244.0000    35.0341    62.2173    32.9989
  244.5000    33.6245    62.6234    32.2591
  245.0000    32.6550    67.4704    31.5359
  245.5000    31.7136    72.2887    30.7652
  246.0000    30.7993    76.7300    28.6732
  246.5000    29.9282    79.6496    26.7242
  247.0000    29.6521    80.2044    26.0524
  247.5000    29.6521    80.1984    26.0214
  248.0000    30.2068    78.3128    27.0280
  248.5000    30.9607    76.2028    28.0438
  249.0000    31.9953    74.0948    29.1635
  249.5000    33.0644    72.8708    30.3281
  250.0000    34.1693    71.8243    31.5355
  250.5000    35.3111    70.7862    32.8110
  251.0000    36.4942    69.8228    33.5151
  251.5000    37.7269    69.6373    34.2207
  252.0000    38.3699    70.5919    34.9413
  252.5000    39.0250    71.2085    35.6779
  253.0000    39.7001    70.5869    36.9503
  253.5000    40.4028    69.9912    38.2022
  254.0000    41.1180    68.8562    39.4911
  254.5000    41.8459    65.6913    40.6517
  255.0000    42.1671    62.0347    39.7936
  255.5000    41.7782    60.8255    38.7159
  256.0000    41.2423    62.6066    37.6666
  256.5000    40.5927    66.8025    36.6457
  257.0000    39.9533    71.4655    35.6525
  257.5000    39.3241    74.8022    35.2539
  258.0000    38.7047    76.8711    35.0446
  258.5000    38.0951    78.9346    34.8366
  259.0000    37.7298    77.9661    34.6298
  259.5000    37.1952    75.8188    34.4243
  260.0000    36.6954    73.9530    34.2200
  260.5000    35.4599    72.2998    33.7594
  261.0000    34.1606    72.5802    32.8176
  261.5000    32.9089    76.1607    31.4514
  262.0000    31.7031    80.1634    30.0294
  262.5000    30.5414    82.8113    28.6717
  263.0000    29.4223    84.5630    27.3754
  263.5000    28.3443    86.2918    26.1377
  264.0000    27.5645    88.0369    24.9560
  264.5000    26.7637    89.8279    23.8277
  265.0000    25.9849    89.8416    23.3033
  265.5000    25.2323    88.5379    23.0868
  266.0000    24.6306    87.0320    22.8983
  266.5000    24.6362    84.6140    22.7114
  267.0000    24.6362    84.1968    22.5257
  267.5000    24.4090    85.5788    22.3415
  268.0000    24.4090    87.1616    22.2488
  268.5000    24.5048    88.7427    22.4843
  269.0000    24.6898    90.3261    22.6995
  269.5000    24.8762    91.8983    22.9167
  270.0000    25.0640    92.8507    23.1361
  270.5000    25.2532    91.1403    23.3575
  271.0000    25.4437    89.4908    23.5811
  271.5000    25.6422    87.8470    23.8067
  272.0000    26.0354    86.2009    24.0346
  272.5000    25.8293    85.4577    24.2646
  273.0000    25.6007    87.1241    24.4090
  273.5000    25.3741    90.0505    24.3020
  274.0000    25.1495    90.3067    24.1246
  274.5000    24.9269    89.0729    23.9485
  275.0000    24.7063    89.0262    23.7736
  275.5000    24.4876    89.4924    23.6001
  276.0000    24.2709    89.8673    23.4278
  276.5000    24.0560    89.4725    23.2568
  277.0000    23.8431    88.0380    23.0870
  277.5000    23.6321    86.5498    22.9184
  278.0000    23.4229    85.3996    22.7511
  278.5000    23.2156    86.4664    22.4854
  279.0000    23.0101    87.6394    22.1178
  279.5000    22.8760    88.8682    21.7561
  280.0000    22.7724    88.1067    21.4004
  280.5000    22.6650    86.8154    21.0505
  281.0000    22.6961    85.4951    20.8516
  281.5000    22.7270    85.3279    21.1185
  282.0000    22.7580    85.7318    21.3797
  282.5000    22.7889    86.1860    21.6441
  283.0000    22.8197    85.1963    21.9117
  283.5000    22.8523    83.7146    22.1827
  284.0000    22.8781    83.8226    22.4560
  284.5000    22.5842    86.0559    22.0361
  285.0000    22.2950    88.2511    21.6263
  285.5000    22.0103    90.4906    21.2229
  286.0000    21.7294    90.1264    20.8277
  286.5000    21.4521    88.7626    20.4396
  287.0000    21.1783    87.3732    20.0587
  287.5000    20.9081    87.0420    19.6857
  288.0000    20.6413    88.1084    19.4282
  288.5000    20.3779    88.5155    19.2430
