~VERSION INFORMATION
 VERS.                2.0:   CWLS LOG ASCII STANDARD - VERSION 2.0
 WRAP.                 NO:   ONE LINE PER DEPTH STEP
~WELL INFORMATION
#MNEM.UNIT      DATA TYPE    INFORMATION
#----------   ------------   ------------------------------
 STRT.F           80.0000:   START DEPTH
 STOP.F          739.0000:   STOP DEPTH
 STEP.F            0.5000:   STEP LENGTH
 NULL.          -999.2500:   NO VALUE
 COMP. U S NAVY-INTEX OIL:   COMPANY
 WELL.        NPR #36-S-2:   WELL
 FLD .             TEAPOT:   FIELD
 LOC .       S2 T38N R78W:   LOCATION
 CNTY.            NATRONA:   COUNTY
 STAT.            WYOMING:   STATE
 CTRY. UNITED STATES OF AMERICA:   COUNTRY
 SRVC.       Schlumberger:   SERVICE COMPANY
 DATE.        23-JUN-1962:   LOGDATE
 API .       490250641800:   API NUMBER
~CURVE INFORMATION
#MNEM.UNIT       API CODE    CURVE DESCRIPTION
#----------   ------------   ------------------------------
 DEPT.F                  :   
 ASN .OHMM   05 041 16 00:   AMPLIFIED SHORT NORMAL 16"
 ILD .OHMM   05 120 46 00:   INDUCTION LOG DEEP
 CILD.MMHO   05 110 46 00:   CONDUCTIVITY INDUCTION LOG DEEP
 SPR .MV     05 010 01 00:   SPONTANEOUS POTENTIAL FROM RES.
 GR  .GAPI   30 310 01 00:   GAMMA RAY
~PARAMETER INFORMATION
#MNEM.UNIT          VALUE    DESCRIPTION
#----------   ------------   ------------------------------
 PD  .                 KB:   PERMANENT DATUM
 EPD .F              5143:   ELEVATION PERMANENT DATUM
 EKB .F              5143:   KELLING BUSHING
 EGL .F              5138:   GROUND LEVEL
 DATE.        23-JUN-1962:   RUN DATE
 RUN .                  1:   RUN NUMBER
 DD  .F               738:   DEPTH DRILLER
 DL  .F               740:   DEPTH LOGGER
 BLI .F               739:   BOTTOM LOG INTERVAL
 TLI .F                80:   TOP LOG INTERVAL
 BS  .IN             6.75:   BIT SIZE
 BSD .F               738:   BIT SIZE AT DEPTH
 DFT .       OIL EMULSION:   DRILLING FLUID TYPE
 DFD .               10.0:   DRILLING FLUID DENSITY
 DFV .                 53:   DRILLING FLUID VISCOSITY
 DFL .                3.8:   DRILLING FLUID LOSS
 RMS .OHMM            3.9:   RESISTIVITY MUD SAMPLE
 MST .F                66:   MUD SAMPLE TEMPERATURE
 RMF .OHMM            2.9:   RESISTIVITY MUD FILTRATE SAMPLE
 MFST.F                66:   MUD FILTRATE SAMPLE TEMPERATURE
 RMC .OHMM            4.4:   RESISTIVITY MUD CAKE
 MCST.F                66:   MUD CAKE SAMPLE TEMPERATURE
 TCS .HRS               1:   TIME CURCULATED STOPPED
 LUN .               2503:   LOGGING UNIT NUMBER
 LUL .               CSPR:   LOGGING UNIT LOCATION
 ENGI.             DANNER:   RECORDING ENGINEER
 WITN.          JORGENSON:   WITNESSED BY
 CLNT.            A2DTECH:   CLIENT CODE
 ORIG.           5" PRINT:   ORIGIN OF DATA
 UWI .       490250641800:   UNIQUE WELL ID
 DICO. A2D Technologies, Inc.:   DIGITIZING COMPANY
~OTHER INFORMATION
~A   DEPT        ASN        ILD      CILD       SPR         GR   
   80.0000     0.2973     4.7368   233.0325   -74.7457  -999.2500
   80.5000     0.3578     4.4361   258.5505   -73.8472  -999.2500
   81.0000     0.4934     4.1428   280.3147   -73.5457  -999.2500
   81.5000     0.6740     3.8457   305.8327   -73.6920  -999.2500
   82.0000     0.8847     3.6239   314.8341   -74.5853  -999.2500
   82.5000     1.8011     3.5524   317.8315   -73.0890  -999.2500
   83.0000     3.1078     3.4809   312.5668   -73.0861  -999.2500
   83.5000     4.2944     3.4094   299.0457   -73.3823  -999.2500
   84.0000     4.3550     3.4893   311.8009   -73.8264  -999.2500
   84.5000     4.3704     3.4930   314.7964   -74.4212  -999.2500
   85.0000     4.3559     3.5719   313.2873   -74.5675  -999.2500
   85.5000     5.0920     3.5756   296.7632   -74.5638  -999.2500
   86.0000     5.3327     3.8801   266.7256   -75.3070  -999.2500
   86.5000     5.1680     4.2597   251.7030   -75.7526  -999.2500
   87.0000     4.6279     4.5642   241.9357   -75.1518  -999.2500
   87.5000     4.5383     4.8687   235.9222   -74.4026  -999.2500
   88.0000     4.5688     5.0227   233.6624   -72.1608  -999.2500
   88.5000     4.6143     4.8761   233.6548   -71.8601  -999.2500
   89.0000     4.6297     4.7294   233.6472   -72.9012  -999.2500
   89.5000     4.6152     4.5827   233.6397   -70.8086  -999.2500
   90.0000     4.6156     4.5865   234.5347   -69.4631  -999.2500
   90.5000     4.6011     4.5902   236.0085   -70.5049  -999.2500
   91.0000     4.5865     4.5940   236.7319   -68.7102  -999.2500
   91.5000     4.5569     4.5977   238.2057   -69.0057  -999.2500
   92.0000     4.4823     4.6022   242.7523   -70.0475  -999.2500
   92.5000     4.3776     4.5308   252.5654   -67.9550  -999.2500
   93.0000     4.2580     4.2328   267.6408   -68.1020  -999.2500
   93.5000     4.1383     3.9358   302.7821   -66.3073  -999.2500
   94.0000     3.9586     3.6397   347.6877   -67.3491  -999.2500
   94.5000     3.4935     3.3417   405.4879   -66.1521  -999.2500
   95.0000     3.2538     2.9704   441.5164   -65.7013  -999.2500
   95.5000     3.1641     2.4478   464.0313   -65.9969  -999.2500
   96.0000     3.1796     2.2259   474.5343   -66.4657  -999.2500
   96.5000     3.1950     2.2296   473.0252   -65.5432  -999.2500
   97.0000     3.1505     2.2334   464.7594   -66.8835  -999.2500
   97.5000     3.0608     2.3874   446.7339   -66.2835  -999.2500
   98.0000     3.1213     2.4664   415.9455   -66.4299  -999.2500
   98.5000     3.4971     2.6956   380.6527   -66.2776  -999.2500
   99.0000     3.9330     3.1505   329.5941   -63.5880  -999.2500
   99.5000     4.2188     3.6805   287.5445   -62.6895  -999.2500
  100.0000     4.3694     4.3699   248.4979   -63.4328  -999.2500
  100.5000     4.3862     4.6617   234.9768   -63.7314  -999.2500
  101.0000     4.4003     4.7368   231.2155   -62.6566  -999.2500
  101.5000     4.4158     4.6617   231.2079   -60.7374  -999.2500
  102.0000     4.4313     4.5865   243.9631   -62.8357  -999.2500
  102.5000     4.4317     4.5113   249.9616   -62.5225  -999.2500
  103.0000     4.4322     4.3609   251.4574   -62.4837  -999.2500
  103.5000     4.4025     4.2105   251.4480   -61.7703  -999.2500
  104.0000     4.3130     4.2857   252.1912   -62.6628  -999.2500
  104.5000     4.1633     4.2857   256.6881   -63.2568  -999.2500
  105.0000     3.9985     4.2857   275.4493   -62.8054  -999.2500
  105.5000     3.8639     4.2857   287.4538   -61.7576  -999.2500
  106.0000     3.6841     4.0602   312.2210   -61.4562  -999.2500
  106.5000     3.5645     3.6842   338.4897   -62.0502  -999.2500
  107.0000     3.4448     3.0827   383.5272   -62.9427  -999.2500
  107.5000     3.2200     2.5564   437.5737   -63.5368  -999.2500
  108.0000     3.0553     2.1805   478.1067   -61.4443  -999.2500
  108.5000     2.9657     2.1805   499.2999   -61.8891  -999.2500
  109.0000     2.8910     2.0301   520.8856   -62.3339  -999.2500
  109.5000     2.8613     2.0301   514.1213   -62.0324  -999.2500
  110.0000     2.9970     2.1053   490.1205   -61.8809  -999.2500
  110.5000     3.1627     2.1805   470.2433   -62.7727  -999.2500
  111.0000     2.9229     2.2556   443.9458   -63.2182  -999.2500
  111.5000     2.6679     2.7820   411.7496   -64.7071  -999.2500
  112.0000     3.0139     3.3083   375.7228   -65.3018  -999.2500
  112.5000     4.4107     3.9098   314.3769   -62.3131  -999.2500
  113.0000     4.6212     4.5113   260.3152   -60.2205  -999.2500
  113.5000     4.4717     4.8872   234.0314   -59.7698  -999.2500
  114.0000     4.4570     5.1880   216.0059   -59.6176  -999.2500
  114.5000     4.5326     5.1880   209.9923   -59.6146  -999.2500
  115.0000     4.5931     5.1128   212.9877   -59.3131  -999.2500
  115.5000     4.5785     5.0376   218.2354   -59.0117  -999.2500
  116.0000     4.5940     4.9624   222.7324   -58.5609  -999.2500
  116.5000     4.5945     4.9624   227.2293   -58.4087  -999.2500
  117.0000     4.5048     4.8120   242.9875   -58.2565  -999.2500
  117.5000     4.3852     4.5865   260.2472   -58.1043  -999.2500
  118.0000     4.1003     4.2857   296.2757   -58.1013  -999.2500
  118.5000     3.8155     3.9850   347.3192   -58.0983  -999.2500
  119.0000     3.5757     3.3835   374.3387   -58.3946  -999.2500
  119.5000     3.3209     3.0827   388.5954   -58.3909  -999.2500
  120.0000     3.1711     2.7820   397.5968   -58.8357  -999.2500
  120.5000     3.3969     2.7820   399.0927   -59.3344  -999.2500
  121.0000     3.4723     2.7820   399.8359   -58.2327  -999.2500
  121.5000     3.2476     2.7820   395.3219   -57.1850  -999.2500
  122.0000     3.3532     3.0827   377.2963   -57.3313  -999.2500
  122.5000     3.6840     3.3835   332.9945   -58.2238  -999.2500
  123.0000     3.8196     3.9098   299.2032   -58.6805  -999.2500
  123.5000     3.9401     4.2857   263.1595   -57.4716  -999.2500
  124.0000     4.0457     4.5113   245.1340   -56.2746  -999.2500
  124.5000     4.1963     4.5865   239.1204   -57.0179  -999.2500
  125.0000     4.3319     4.6617   236.8606   -57.6119  -999.2500
  125.5000     4.4224     4.6617   236.1023   -57.6090  -999.2500
  126.0000     4.4829     4.6617   235.3440   -57.4567  -999.2500
  126.5000     4.4984     4.6617   235.3364   -57.3045  -999.2500
  127.0000     4.4988     4.6617   235.3289   -57.2895  -999.2500
  127.5000     4.4693     4.6617   236.0739   -57.1492  -999.2500
  128.0000     4.3646     4.6617   236.9469   -56.8299  -999.2500
  128.5000     4.1849     4.6617   244.8682   -56.2478  -999.2500
  129.0000     3.9901     4.5113   264.4598   -56.5434  -999.2500
  129.5000     3.8855     4.2857   288.3342   -56.7164  -999.2500
  130.0000     3.8108     3.9850   303.9044   -56.2382  -999.2500
  130.5000     3.6912     3.6842   322.4843   -55.9367  -999.2500
  131.0000     3.5864     3.4586   330.6257   -56.2323  -999.2500
  131.5000     3.4969     3.4586   330.6081   -56.5286  -999.2500
  132.0000     3.4672     3.4586   329.0990   -55.9278  -999.2500
  132.5000     3.5278     3.4586   333.5959   -55.6263  -999.2500
  133.0000     3.3481     3.4586   350.1049   -55.4741  -999.2500
  133.5000     3.1684     3.4586   362.8601   -55.4712  -999.2500
  134.0000     3.1086     3.4586   369.6093   -55.9167  -999.2500
  134.5000     3.2143     3.4586   371.1036   -55.6145  -999.2500
  135.0000     3.1697     3.3835   371.0957   -55.3130  -999.2500
  135.5000     3.0500     3.2331   371.8389   -55.0115  -999.2500
  136.0000     3.0354     3.0827   398.1076   -54.8593  -999.2500
  136.5000     2.9158     2.7685   450.6526   -55.4541  -999.2500
  137.0000     2.7511     2.4812   479.1736   -55.4504  -999.2500
  137.5000     2.6614     2.1805   522.7089   -55.4474  -999.2500
  138.0000     2.5717     1.9549   558.7374   -55.4444  -999.2500
  138.5000     2.5122     1.9549   560.9840   -55.4414  -999.2500
  139.0000     2.5577     1.9549   530.1938   -55.2892  -999.2500
  139.5000     2.6182     2.1053   509.9160   -55.2863  -999.2500
  140.0000     2.8439     2.1905   487.4651   -55.5825  -999.2500
  140.5000     2.7392     2.4155   459.1189   -56.1758  -999.2500
