~VERSION INFORMATION
 VERS.                2.0:   CWLS LOG ASCII STANDARD - VERSION 2.0
 WRAP.                 NO:   ONE LINE PER DEPTH STEP
~WELL INFORMATION
#MNEM.UNIT      DATA TYPE    INFORMATION
#----------   ------------   ------------------------------
 STRT.F           30.0000:   START DEPTH
 STOP.F          526.0000:   STOP DEPTH
 STEP.F            0.5000:   STEP LENGTH
 NULL.          -999.2500:   NO VALUE
 COMP. FENIX & SCISSON INC:   COMPANY
 WELL.       NPR #37-SX-3:   WELL
 FLD .             TEAPOT:   FIELD
 LOC .       S3 T38N R78W:   LOCATION
 CNTY.            NATRONA:   COUNTY
 STAT.            WYOMING:   STATE
 CTRY. UNITED STATES OF AMERICA:   COUNTRY
 SRVC.              Welex:   SERVICE COMPANY
 DATE.        10-MAR-1977:   LOGDATE
 API .       490251028600:   API NUMBER
~CURVE INFORMATION
#MNEM.UNIT       API CODE    CURVE DESCRIPTION
#----------   ------------   ------------------------------
 DEPT.F                  :   
 ILD .OHMM   07 120 46 00:   INDUCTION LOG DEEP
 ILM .OHMM   07 120 44 00:   INDUCTION LOG MEDIUM
 SPR .MV     07 010 01 00:   SPONTANEOUS POTENTIAL
 SGRD.OHMM   07 220 05 00:   SHALLOW RESISTIVITY
 GRD .GAPI   45 310 01 00:   GAMMA RAY FROM DENSITY LOG
 CALD.IN     45 280 60 00:   CALIPER
 CORR.G/C3   45 356 01 00:   DENSITY CORRECTION
 RHOB.G/C3   45 350 01 00:   BULK DENSITY
 DPOR.DEC    45 890 12 00:   DENSITY POROSITY SANDSTONE
~PARAMETER INFORMATION
#MNEM.UNIT          VALUE    DESCRIPTION
#----------   ------------   ------------------------------
 PD  .                 GL:   PERMANENT DATUM
 EPD .F              5232:   ELEVATION PERMANENT DATUM
 LMF .                 GL:   LOG MEASURED FROM
 DMF .                 GL:   DRILLING MEASURED FROM
 EGL .F              5232:   GROUND LEVEL
 DATE.            3-10-77:   RUN DATE
 RUN .                  1:   RUN NUMBER
 DD  .F               530:   DEPTH DRILLER
 DL  .F               528:   DEPTH LOGGER
 BLI .F               526:   BOTTOM LOG INTERVAL
 TLI .F                35:   TOP LOG INTERVAL
 CS  .IN            8.625:   CASING SIZE
 CBD .F                40:   CASING BOTTOM DRILLER
 CBL .F                42:   CASING BOTTOM LOGGER
 BS  .IN            7.875:   BIT SIZE
 BSD .F               530:   BIT SIZE AT DEPTH
 DFT .            KCL MUD:   DRILLING FLUID TYPE
 DFD .                8.8:   DRILLING FLUID DENSITY
 DFV .                 32:   DRILLING FLUID VISCOSITY
 DFPH.                  8:   DRILLING FLUID PH
 DFL .                7.7:   DRILLING FLUID LOSS
 MSS .            MUD PIT:   MUD SAMPLE SOURCE
 RMS .OHMM            .48:   RESISTIVITY MUD SAMPLE
 MST .F                47:   MUD SAMPLE TEMPERATURE
 RMF .OHMM            .43:   RESISTIVITY MUD FILTRATE SAMPLE
 MFST.F                47:   MUD FILTRATE SAMPLE TEMPERATURE
 RMC .OHMM            .52:   RESISTIVITY MUD CAKE
 MCST.F                47:   MUD CAKE SAMPLE TEMPERATURE
 MFSS.           FANN KIT:   MUD FILTRATE SAMPLE SOURCE
 MCSS.           FANN KIT:   MUD CAKE SAMPLE SOURCE
 RMB .OHMM            .41:   RESISTIVITY MUD AT BHT
 BHT .F                55:   BOTTOM HOLE TEMPERATURE
 TCS .HRS             1.5:   TIME CURCULATED STOPPED
 MRT .F                55:   MAXIMUM RECORDED TEMPERATURE
 LUN .               8611:   LOGGING UNIT NUMBER
 LUL .           GILLETTE:   LOGGING UNIT LOCATION
 ENGI.               DOAK:   RECORDING ENGINEER
 WITN.              BURKE:   WITNESSED BY
 CLNT.            A2DTECH:   CLIENT CODE
 ORIG.       2", 5" PRINT:   ORIGIN OF DATA
 UWI .       490251028600:   UNIQUE WELL ID
 DICO. A2D Technologies, Inc.:   DIGITIZING COMPANY
~OTHER INFORMATION
~A   DEPT      ILD        ILM        SPR       SGRD         GRD        CALD      CORR        RHOB     DPOR   
# ...
  431.5000    22.6424    22.8515   -35.6358    26.5717    76.0369     7.9821     0.0778     2.5215     1.0592
  432.0000    22.7465    25.6029   -35.7835    31.5969    77.7130     7.9821     0.0823     2.5294     1.0997
  432.5000    22.8631    27.9748   -35.9311    57.8645    80.1586     7.9821     0.0871     2.5156     1.0434
  433.0000    22.9803    29.0206   -36.0788    68.0017    82.7797     7.9821     0.0839     2.4828     0.9780
  433.5000    23.0980    28.2055   -36.2267    48.7628    85.3979     7.9821     0.0784     2.4522     0.9133
  434.0000    23.2639    27.4193   -36.3745    44.8607    88.0165     7.9821     0.0730     2.4211     0.8485
  434.5000    22.7601    26.6550   -36.5206    27.1019    88.9857     7.9821     0.0677     2.3869     0.7947
  435.0000    21.7689    25.9120   -36.5700    25.9898    88.3085     7.9821     0.0624     2.3733     0.7689
  435.5000    20.8209    25.1897   -36.4784    25.7520    87.6352     7.9821     0.0570     2.3644     0.7483
  436.0000    20.2172    25.0515   -36.3882    25.9829    87.1195     7.9821     0.0515     2.3556     0.7277
  436.5000    19.8193    25.0515   -36.2976    26.2177    88.2826     7.9821     0.0515     2.3525     0.7163
  437.0000    19.4292    25.0515   -36.2071    26.4708    90.6135     7.9821     0.0533     2.3615     0.7361
  437.5000    19.0468    25.0515   -36.1167    26.3195    94.6740     7.9821     0.0553     2.3685     0.7516
  438.0000    18.6677    25.0515   -36.0262    26.1514    96.7848     7.9821     0.0572     2.3727     0.7635
  438.5000    18.7195    25.0515   -35.9358    25.9898    94.2236     7.9828     0.0591     2.3706     0.7713
  439.0000    18.7721    25.0516   -35.8453    26.4720    93.1605     7.9857     0.0610     2.3664     0.7535
  439.5000    18.8249    25.0516   -35.7549    26.3597    96.0925     7.9884     0.0629     2.3703     0.7622
  440.0000    18.8779    25.0520   -35.6644    26.2310    93.8330     7.9912     0.0648     2.3765     0.7733
  440.5000    18.9311    24.9876   -35.5740    26.1030    92.0424     7.9940     0.0656     2.3726     0.7762
  441.0000    18.9878    24.9026   -35.4835    25.9756    93.3653     7.9967     0.0632     2.3672     0.7590
  441.5000    19.0120    24.8179   -35.3928    25.8491    95.3581     7.9995     0.0610     2.3657     0.7506
  442.0000    18.3265    24.7335   -35.3014    25.7236    94.1145     8.0023     0.0587     2.3755     0.7567
  442.5000    17.8630    24.6494   -35.2233    25.6013    92.0420     8.0050     0.0601     2.3853     0.7944
  443.0000    17.4111    24.1013   -35.3173    25.0889    94.1778     8.0078     0.0628     2.3991     0.8364
  443.5000    16.9707    22.7616   -35.4124    23.9207    93.3703     8.0106     0.0656     2.4141     0.8623
  444.0000    16.5415    21.4923   -35.5065    22.8053    92.2784     8.0133     0.0681     2.4339     0.8718
  444.5000    16.1231    20.2953   -35.6004    21.7429    91.1890     8.0161     0.0673     2.4269     0.8780
  445.0000    15.7152    19.7397   -35.6943    21.2740    90.0959     8.0189     0.0664     2.4182     0.8594
  445.5000    15.3177    19.9763   -35.7890    21.8744    89.2204     8.0216     0.0656     2.4132     0.8462
  446.0000    14.9297    20.1435   -35.9474    22.2299    90.8748     8.0244     0.0648     2.4186     0.8619
  446.5000    14.5646    20.2743   -36.1295    21.5404    91.7380     8.0272     0.0643     2.4313     0.8824
  447.0000    14.4327    19.2750   -36.3120    20.9770    91.4789     8.0299     0.0676     2.4384     0.8969
  447.5000    14.3070    18.4891   -36.4945    20.2777    90.4863     8.0327     0.0708     2.4444     0.9089
  448.0000    14.1822    17.9938   -36.6764    20.3852    89.5265     8.0355     0.0740     2.4630     0.9245
  448.5000    14.0582    18.2537   -36.8591    20.5354    88.5663     8.0382     0.0773     2.4788     0.9399
  449.0000    13.9353    18.4843   -37.0795    20.6537    87.5898     8.0411     0.0759     2.4727     0.9335
  449.5000    13.8135    18.7158   -37.4747    20.5617    86.6067     8.0406     0.0714     2.4597     0.9220
  450.0000    13.6928    19.0181   -37.6881    20.4725    88.1609     8.0382     0.0669     2.4467     0.9082
  450.5000    13.5731    19.5456   -37.8204    21.0281    89.9723     8.0358     0.0624     2.4355     0.9134
  451.0000    13.4544    19.3352   -37.9522    21.4233    91.7788     8.0334     0.0603     2.4397     0.9226
  451.5000    13.3368    18.9598   -38.0841    20.8431    93.5810     8.0309     0.0609     2.4479     0.9321
  452.0000    13.2203    18.5917   -38.2162    20.4204    95.4985     8.0285     0.0614     2.4562     0.9417
  452.5000    13.1047    18.2986   -38.3484    20.2777    97.5501     8.0261     0.0620     2.4644     0.9518
  453.0000    12.9902    18.1917   -38.4806    20.2777    99.6951     8.0237     0.0626     2.4718     0.9627
  453.5000    12.8766    18.0854   -38.6054    20.1587    99.5293     8.0217     0.0631     2.4680     0.9735
  454.0000    12.7840    17.9797   -38.6767    19.8127    98.5869     8.0208     0.0637     2.4673     0.9843
  454.5000    12.7253    17.8747   -38.7501    19.5456   100.1521     8.0199     0.0632     2.4781     0.9951
  455.0000    12.6668    17.7702   -38.8237    19.6168   100.8997     8.0190     0.0591     2.4887     1.0056
  455.5000    12.6085    17.6664   -38.8973    19.6746    97.9218     8.0180     0.0551     2.4893     1.0085
  456.0000    12.5506    17.5632   -38.9708    19.7260    96.7386     8.0171     0.0512     2.4664     0.9564
  456.5000    12.4929    17.4605   -39.0444    19.5155    98.9612     8.0162     0.0490     2.4274     0.8954
  457.0000    12.4578    17.3585   -39.1179    19.3305   100.6606     8.0153     0.0538     2.4293     0.8990
  457.5000    12.6169    17.2570   -39.1915    19.1473   102.5779     8.0144     0.0585     2.4315     0.9002
  458.0000    12.7333    17.1563   -39.2650    19.0140   100.7637     8.0135     0.0631     2.4411     0.9183
  458.5000    12.8506    17.0282   -39.3383    19.0745    98.4323     8.0126     0.0678     2.4551     0.9395
  459.0000    12.9688    17.0760   -39.4110    19.1224    96.2329     8.0117     0.0724     2.4694     0.9608
  459.5000    13.0437    17.1665   -39.4815    19.1887    95.2932     8.0108     0.0771     2.4759     0.9824
  460.0000    12.9459    17.2576   -39.5521    19.1662    95.9259     8.0099     0.0818     2.4774     0.9871
  460.5000    12.8749    17.3442   -39.6226    19.1262    98.2319     8.0090     0.0864     2.4787     0.9879
  461.0000    12.8044    17.3990   -39.6931    19.0865    99.5493     8.0080     0.0913     2.4838     0.9971
  461.5000    12.7342    17.4628   -39.7637    19.0472    98.4472     8.0071     0.0883     2.4897     1.0073
  462.0000    12.6768    17.5043   -39.8342    18.9473    97.3145     8.0062     0.0834     2.4913     0.9908
  462.5000    12.6424    16.6797   -39.9047    18.5309    98.3594     8.0053     0.0784     2.4896     0.9729
  463.0000    12.6080    16.1116   -39.9753    18.1237   100.0114     8.0044     0.0734     2.4877     0.9562
  463.5000    12.5738    16.1152   -40.0458    17.8291   101.8663     8.0035     0.0684     2.4970     0.9661
  464.0000    12.5396    16.1140   -40.1163    17.9636   104.4593     8.0026     0.0709     2.5128     0.9789
  464.5000    12.5057    16.1147   -40.1869    18.0708   107.0634     8.0023     0.0740     2.5317     0.9919
  465.0000    12.4715    16.1145   -40.2575    18.1787   107.2671     8.0050     0.0725     2.5263     0.9950
  465.5000    12.3984    16.1145   -40.3270    18.2872   110.5914     8.0076     0.0707     2.5306     0.9952
  466.0000    12.2517    15.8654   -40.3833    18.3276   111.3469     8.0103     0.0689     2.5348     0.9933
  466.5000    12.1067    15.2499   -40.4312    17.8716   108.3124     8.0129     0.0670     2.5276     0.9907
  467.0000    11.8982    15.6762   -40.4806    17.5608   106.0419     8.0155     0.0647     2.5032     0.9881
  467.5000    11.9052    15.6606   -40.5296    17.2555   109.1223     8.0182     0.0619     2.4798     0.9855
