~VERSION INFORMATION
 VERS.                2.0:   CWLS LOG ASCII STANDARD - VERSION 2.0
 WRAP.                 NO:   ONE LINE PER DEPTH STEP
~WELL INFORMATION
#MNEM.UNIT      DATA TYPE    INFORMATION
#----------   ------------   ------------------------------
 STRT.F            1.0000:   START DEPTH
 STOP.F          886.0000:   STOP DEPTH
 STEP.F            0.5000:   STEP LENGTH
 NULL.          -999.2500:   NO VALUE
 COMP. BROWN JOHN E&C INC:   COMPANY
 WELL. NAVAL PETROLEUM RESERVE 3 SHX-1 #33-2:   WELL
 FLD .             NPR #3:   FIELD
 LOC .       S2 T38N R78W:   LOCATION
 CNTY.            NATRONA:   COUNTY
 STAT.            WYOMING:   STATE
 CTRY. UNITED STATES OF AMERICA:   COUNTRY
 SRVC.      Western Atlas:   SERVICE COMPANY
 DATE.        26-NOV-1991:   LOGDATE
 API .       490252248300:   API NUMBER
~CURVE INFORMATION
#MNEM.UNIT       API CODE    CURVE DESCRIPTION
#----------   ------------   ------------------------------
 DEPT.F                  :   
 RILD.OHMM   07 120 46 00:   INDUCTION LOG DEEP RESISTIVITY
 RILM.OHMM   07 120 44 00:   INDUCTION LOG MEDIUM RESISTIVITY
 RFOC.OHMM   07 220 04 00:   RESISTIVITY FOCUSED LOG
 SPR .MV     07 010 01 00:   SPONTANEOUS POTENTIAL
 GRR .GAPI   07 310 01 00:   GAMMA RAY
~PARAMETER INFORMATION
#MNEM.UNIT          VALUE    DESCRIPTION
#----------   ------------   ------------------------------
 PD  .                 GL:   PERMANENT DATUM
 EPD .F              5133:   ELEVATION PERMANENT DATUM
 LMF .                 KB:   LOG MEASURED FROM
 DAPD.F                10:   FEET ABOVE PERMANENT DATUM
 DMF .                 KB:   DRILLING MEASURED FROM
 EKB .F              5143:   KELLING BUSHING
 EGL .F              5133:   GROUND LEVEL
 DATE.        26-NOV-1991:   RUN DATE
 RUN .                  1:   RUN NUMBER
 DD  .F               892:   DEPTH DRILLER
 DL  .F               889:   DEPTH LOGGER
 BLI .F               837:   BOTTOM LOG INTERVAL
 CS  .IN            8.625:   CASING SIZE
 CBD .F                40:   CASING BOTTOM DRILLER
 CBL .F                55:   CASING BOTTOM LOGGER
 BS  .IN            7.875:   BIT SIZE
 BSD .F               892:   BIT SIZE AT DEPTH
 DFT .            POLYMER:   DRILLING FLUID TYPE
 DFD .                9.8:   DRILLING FLUID DENSITY
 DFV .                 38:   DRILLING FLUID VISCOSITY
 DFPH.                9.5:   DRILLING FLUID PH
 DFL .               10.6:   DRILLING FLUID LOSS
 MSS .           FLOWLINE:   MUD SAMPLE SOURCE
 RMS .OHMM           2.08:   RESISTIVITY MUD SAMPLE
 MST .F                78:   MUD SAMPLE TEMPERATURE
 RMF .OHMM           1.66:   RESISTIVITY MUD FILTRATE SAMPLE
 MFST.F                78:   MUD FILTRATE SAMPLE TEMPERATURE
 RMC .OHMM           2.60:   RESISTIVITY MUD CAKE
 MCST.F                78:   MUD CAKE SAMPLE TEMPERATURE
 MFSS.               MEAS:   MUD FILTRATE SAMPLE SOURCE
 MCSS.               CALC:   MUD CAKE SAMPLE SOURCE
 RMB .OHMM           1.08:   RESISTIVITY MUD AT BHT
 BHT .F               150:   BOTTOM HOLE TEMPERATURE
 TCS .HRS               2:   TIME CURCULATED STOPPED
 MRT .F               150:   MAXIMUM RECORDED TEMPERATURE
 LUN .            HL-6307:   LOGGING UNIT NUMBER
 LUL .         CASPER, WY:   LOGGING UNIT LOCATION
 ENGI.             ZIEGER:   RECORDING ENGINEER
 WITN.             STRONG:   WITNESSED BY
 CLNT.            A2DTECH:   CLIENT CODE
 ORIG.           5" PRINT:   ORIGIN OF DATA
 UWI .       490252248300:   UNIQUE WELL ID
 DICO. A2D Technologies, Inc.:   DIGITIZING COMPANY
~OTHER INFORMATION
~A    DEPT    RILD       RILM       RFOC        SPR         GRR  
# ...
  550.0000     6.9209     6.9210     6.8259   -82.7544   112.6208
  550.5000     6.9186     6.8713     6.7935   -82.7603   112.0782
  551.0000     6.9162     6.8694     6.7738   -82.9174   111.4681
  551.5000     6.9139     6.8676     6.7717   -83.0746   111.7643
  552.0000     6.9603     6.8657     6.7694   -82.9292   113.2931
  552.5000     6.9573     6.9116     6.7670   -82.4812   115.6786
  553.0000     6.9550     6.9098     6.7176   -82.0312   117.4854
  553.5000     6.9526     6.9079     6.6204   -81.8879   119.2922
  554.0000     6.9497     6.9056     6.5750   -82.0465   120.1941
  554.5000     6.9474     6.9037     6.5727   -82.2037   119.8846
  555.0000     6.9933     6.9019     6.6618   -82.5121   118.9724
  555.5000     6.9910     6.9000     6.7533   -82.8206   117.7580
  556.0000     6.9403     6.8981     6.8091   -82.9778   116.2416
  556.5000     6.9380     6.8963     6.8654   -82.9837   114.7220
  557.0000     6.9357     6.8944     6.8536   -82.9895   113.4422
  557.5000     6.9333     6.8449     6.7904   -82.9955   112.5970
  558.0000     6.9309     6.8430     6.7413   -83.0015   114.7059
  558.5000     6.8802     6.7935     6.7389   -83.1599   115.9100
  559.0000     6.8303     6.6981     6.7056   -83.3171   113.7878
  559.5000     6.7808     6.6963     6.6875   -83.4743   112.8756
  560.0000     6.7317     6.6482     6.6328   -83.4802   113.1733
  560.5000     6.6367     6.5549     6.5738   -83.6373   113.1659
  561.0000     6.5886     6.5078     6.5432   -83.6432   112.2537
  561.5000     6.5409     6.5060     6.5406   -83.6491   111.6435
  562.0000     6.4910     6.4593     6.4935   -83.8064   112.9346
  562.5000     6.4018     6.4129     6.4912   -83.8124   115.2557
  563.0000     6.3992     6.4108     6.4638   -83.6668   116.4583
  563.5000     6.3970     6.4091     6.3970   -83.3715   117.0581
  564.0000     6.3949     6.4073     6.3509   -82.9236   115.5401
  564.5000     6.3927     6.4056     6.3487   -82.7782   113.7216
  565.0000     6.2157     6.3596     6.3465   -82.5214   113.4136
  565.5000     6.0436     6.1840     6.3443   -82.1848   114.6163
  566.0000     5.7953     5.8893     6.3421   -81.8880   114.6102
  566.5000     5.5930     5.6030     6.2865   -81.7317   112.7915
  567.0000     5.4405     5.3411     6.2110   -81.4460   111.8780
  567.5000     5.3267     5.3028     6.0162   -81.4534   112.7784
  568.0000     5.2515     5.2283     5.4747   -81.3065   114.5852
  568.5000     5.2498     5.2999     4.9437   -81.3139   116.3920
  569.0000     5.3961     5.3725     4.9266   -81.3197   116.3861
  569.5000     5.5460     5.4843     5.4690   -81.6282   114.5675
  570.0000     5.6996     5.6367     5.9416   -81.9367   112.7489
  570.5000     5.8580     5.7937     6.1496   -82.3964   113.3473
  571.0000     5.9829     5.9177     6.0059   -82.8704   115.4582
  571.5000     6.1022     6.0362     5.9770   -83.3174   116.3567
  572.0000     6.1002     6.1193     6.1427   -83.6258   115.1408
  572.5000     6.0981     6.1598     6.2728   -83.9343   115.1349
  573.0000     6.1390     6.2446     6.3114   -83.9401   116.3375
  573.5000     6.1364     6.2864     6.3329   -83.7933   117.5416
  574.0000     6.1776     6.2842     6.3066   -83.6479   115.7215
  574.5000     6.1750     6.2825     6.1745   -83.3527   111.4860
  575.0000     6.0878     6.2374     6.1302   -83.3586   108.1569
  575.5000     6.0389     6.1926     6.1075   -83.2133   108.4531
  576.0000     5.9994     6.1478     6.0532   -83.0681   112.6888
  576.5000     5.9974     6.1036     5.9977   -83.0751   112.5841
  577.0000     5.9954     6.1020     5.9380   -82.7769   111.7572
  577.5000     5.9934     6.0582     5.8293   -82.7843   112.9598
  578.0000     5.9499     5.8908     5.8276   -82.7902   114.1638
  578.5000     5.7852     5.6102     5.7851   -82.8636   111.7395
  579.0000     5.3957     5.3059     5.7833   -82.9532   109.0146
  579.5000     4.8590     4.9135     5.7813   -83.1104   106.2897
  580.0000     4.5253     4.6035     5.7793   -83.2880   104.7732
  580.5000     4.3171     4.3354     5.6975   -83.5775   107.7885
  581.0000     4.2562     4.2450     5.4255   -83.7347   110.2215
  581.5000     4.1965     4.2439     4.1097   -84.0424   107.3141
  582.0000     4.2537     4.2427     3.8447   -84.3516   102.9355
  582.5000     4.2815     4.3609     4.4019   -84.5088   104.1381
  583.0000     4.2800     4.5766     5.5086   -84.6659   107.7575
  583.5000     4.3989     4.8701     5.8167   -84.3692   110.1345
  584.0000     4.5868     5.1508     5.8229   -84.0665   111.6747
  584.5000     4.9330     5.4503     5.8010   -83.7529   111.9710
  585.0000     5.4104     5.7470     5.8803   -83.1781   112.5678
  585.5000     5.7172     5.9071     5.9608   -83.1840   114.9810
  586.0000     5.9581     6.0716     5.9776   -83.1898   117.4220
  586.5000     6.1236     6.2407     6.0565   -83.4983   119.4973
  587.0000     6.1642     6.3702     6.2075   -83.8068   121.0020
  587.5000     6.2051     6.5476     6.3588   -84.1024   122.2046
  588.0000     6.2896     6.6373     6.5037   -84.4237   122.1987
  588.5000     6.3312     6.7310     6.5841   -84.5900   121.2865
  589.0000     6.4251     6.7732     6.6438   -84.7383   114.9361
  589.5000     6.4599     6.8185     6.6415   -84.5926   111.9091
  590.0000     6.5027     6.8162     6.6726   -84.4472   109.4863
  590.5000     6.4999     6.8623     6.7575   -84.4546   108.8761
  591.0000     6.4978     6.9081     6.8209   -84.6117   109.4745
  591.5000     6.5413     6.9543     6.9175   -84.7689   112.7904
  592.0000     6.5842     7.0005     6.9598   -85.0774   117.6184
  592.5000     6.6277     7.0963     6.9574   -85.3858   121.8421
  593.0000     6.6254     7.1437     7.0029   -85.6944   119.1172
  593.5000     6.6226     7.2411     7.0507   -85.8515   114.2774
  594.0000     6.5746     7.3407     7.1089   -85.5562   115.4800
  594.5000     6.5270     7.4407     7.1677   -85.2596   119.4016
  595.0000     6.5248     7.4387     7.3007   -84.9629   117.8851
  595.5000     6.5685     7.3343     7.4415   -84.8160   116.0453
  596.0000     6.5658     7.2313     7.5433   -84.5193   115.1017
  596.5000     6.5636     7.0805     7.5927   -84.2241   114.2406
  597.0000     6.5614     6.9328     7.5545   -84.2300   114.8390
  597.5000     6.5591     6.9309     7.3797   -84.0846   115.7394
  598.0000     6.5111     6.9773     7.2103   -84.0919   114.2230
  598.5000     6.4639     6.7372     7.0739   -84.0978   111.8001
  599.0000     6.4170     6.5511     6.9924   -84.2550   111.4936
  599.5000     6.4149     6.4145     6.9716   -84.2609   113.6011
  600.0000     6.2373     6.1514     7.0303   -84.3125   116.3132
  600.5000     6.1493     6.0659     7.1140   -84.1736   117.2152
  601.0000     5.9790     5.8991     7.1117   -84.3390   115.6973
  601.5000     5.6526     5.6535     6.9596   -84.3507   112.0660
  602.0000     5.3283     5.1693     6.6254   -84.3624   110.5510
  602.5000     4.8171     4.6579     6.4067   -84.3741   115.0754
  603.0000     4.4003     4.2853     6.0791   -84.2349   117.2046
  603.5000     3.9642     3.9426     5.6493   -83.7970   118.0848
  604.0000     3.5221     3.6022     5.2385   -83.6549   115.3584
  604.5000     3.1511     3.1790     4.8813   -83.2170   111.7272
  605.0000     2.7611     2.8251     4.4950   -82.9271   109.0023
  605.5000     2.5191     2.5263     4.0451   -82.6342   107.7880
  606.0000     2.3360     2.3746     3.6903   -82.4977   108.9905
  606.5000     2.2556     2.2934     3.3053   -82.2080   109.0302
  607.0000     2.1780     2.2615     3.1722   -82.2225   108.3746
  607.5000     2.1031     2.2928     3.5912   -82.3851   107.4624
  608.0000     2.2069     2.3734     4.0675   -82.6984   111.3825
  608.5000     2.4312     2.5969     4.0064   -82.8609   113.1893
  609.0000     2.7156     2.9630     3.8514   -83.3251   114.6940
  609.5000     3.0819     3.5152     4.0081   -83.7892   114.6882
  610.0000     3.5073     4.1312     5.3621   -84.1026   114.6823
  610.5000     3.9449     4.5204     6.3141   -84.5872   116.4891
