~VERSION INFORMATION
 VERS.                2.0:   CWLS LOG ASCII STANDARD - VERSION 2.0
 WRAP.                 NO:   ONE LINE PER DEPTH STEP
~WELL INFORMATION
#MNEM.UNIT      DATA TYPE    INFORMATION
#----------   ------------   ------------------------------
 STRT.F           88.0000:   START DEPTH
 STOP.F          991.0000:   STOP DEPTH
 STEP.F            0.5000:   STEP LENGTH
 NULL.          -999.2500:   NO VALUE
 COMP. US NAVY /INTEX OIL CO.:   COMPANY
 WELL.    NPR #3 #S-11 63:   WELL
 FLD .             TEAPOT:   FIELD
 LOC .      S11 T38N R78W:   LOCATION
 CNTY.            NATRONA:   COUNTY
 STAT.            WYOMING:   STATE
 CTRY. UNITED STATES OF AMERICA:   COUNTRY
 SRVC.       Schlumberger:   SERVICE COMPANY
 DATE.        24-JUL-1964:   LOGDATE
 API .       490250636200:   API NUMBER
~CURVE INFORMATION
#MNEM.UNIT       API CODE    CURVE DESCRIPTION
#----------   ------------   ------------------------------
 DEPT.F                  :   
 SPR .MV     05 010 01 00:   SPONTANEOUS POTENTIAL FROM RES.
 ASN .OHMM   05 041 16 00:   AMPLIFIED SHORT NORMAL 16"
 ILD .OHMM   05 120 46 00:   INDUCTION LOG DEEP
 CILD.MMHO   05 110 46 00:   CONDUCTIVITY INDUCTION LOG DEEP
 CALS.IN     60 280 50 00:   CALIPER FROM SONIC LOG
 DT  .US/F   60 520 33 00:   INTERVAL TRANSIT TIME
 GR  .GAPI   30 310 01 00:   GAMMA RAY
~PARAMETER INFORMATION
#MNEM.UNIT          VALUE    DESCRIPTION
#----------   ------------   ------------------------------
 PD  .                 GL:   PERMANENT DATUM
 LMF .                 KB:   LOG MEASURED FROM
 DAPD.F                 5:   FEET ABOVE PERMANENT DATUM
 DMF .                 KB:   DRILLING MEASURED FROM
 EKB .F              5914:   KELLING BUSHING
 DATE.          7-24-1964:   RUN DATE
 RUN .                  1:   RUN NUMBER
 DD  .F               990:   DEPTH DRILLER
 DL  .F               992:   DEPTH LOGGER
 BLI .F               991:   BOTTOM LOG INTERVAL
 TLI .F               990:   TOP LOG INTERVAL
 CS  .IN            8.625:   CASING SIZE
 CBD .F                15:   CASING BOTTOM DRILLER
 BS  .IN             6.75:   BIT SIZE
 BSD .F               990:   BIT SIZE AT DEPTH
 DFT .            GEL OIL:   DRILLING FLUID TYPE
 DFD .                9.2:   DRILLING FLUID DENSITY
 DFV .                 47:   DRILLING FLUID VISCOSITY
 MSS .            MUD PIT:   MUD SAMPLE SOURCE
 RMS .OHMM           1.24:   RESISTIVITY MUD SAMPLE
 MST .F                75:   MUD SAMPLE TEMPERATURE
 RMF .OHMM           .801:   RESISTIVITY MUD FILTRATE SAMPLE
 MFST.F                80:   MUD FILTRATE SAMPLE TEMPERATURE
 MFSS.                 FP:   MUD FILTRATE SAMPLE SOURCE
 RMB .OHMM           1.09:   RESISTIVITY MUD AT BHT
 BHT .F                85:   BOTTOM HOLE TEMPERATURE
 TCS .HRS              .5:   TIME CURCULATED STOPPED
 MRT .F                85:   MAXIMUM RECORDED TEMPERATURE
 LUN .               2572:   LOGGING UNIT NUMBER
 LUL .                 MC:   LOGGING UNIT LOCATION
 ENGI.             BOWLER:   RECORDING ENGINEER
 WITN.          JORGENSEN:   WITNESSED BY
 CLNT.            A2DTECH:   CLIENT CODE
 ORIG.      2" & 5" PRINT:   ORIGIN OF DATA
 UWI .       490250636200:   UNIQUE WELL ID
 DICO. A2D Technologies, Inc.:   DIGITIZING COMPANY
~OTHER INFORMATION
~A   DEPT      SPR          ASN        ILD      CILD      CALS         DT         GR   
# ...
  907.0000   -29.2375    10.9426    10.3098    95.6420     6.5786    93.3884    36.8976
  907.5000   -29.2290    10.9490    10.2383    95.5970     6.5648    93.0855    31.6265
  908.0000   -29.0751    10.9541    10.2412    96.3008     6.3781    93.0059    28.7651
  908.5000   -28.7759    10.8843    10.2441    97.0034     6.2921    92.9264    28.3133
  909.0000   -28.3313    10.8894    10.2471    96.9487     6.3216    92.8468    25.7530
  909.5000   -27.8866    10.8193    10.2500    97.6622     6.4818    92.7672    24.3976
  910.0000   -27.4418    10.8247    10.2530    97.6076     6.6272    92.5387    32.0783
  910.5000   -27.1408    10.7548    10.1814    98.3210     6.6549    92.3847    39.1566
  911.0000   -27.1323    10.7602    10.1850    98.2664     6.6554    92.3052    43.2229
  911.5000   -27.1237    10.7664    10.1879    98.2227     6.6560    92.4490    45.3313
  912.0000   -27.4080    10.7715    10.1908    98.1790     6.6565    93.1199    42.1687
  912.5000   -27.9809    10.7766    10.1186    98.1343     6.6571    93.3323    37.5000
  913.0000   -28.4084    10.7817    10.0479    98.0806     6.6577    93.2515    33.8855
  913.5000   -28.5452    10.7869     9.9756    97.2906     6.6582    92.6507    29.9699
  914.0000   -28.6799    10.7157     9.9048    97.2469     6.6444    91.9010    30.1205
  914.5000   -28.6714    10.6459     9.8334    97.2032     6.5702    91.9703    32.8313
  915.0000   -28.6580    10.5772     9.6875    97.1594     6.4582    92.3375    35.8434
  915.5000   -28.5087    10.4325     9.6813    97.1157     6.4733    92.9281    36.1242
  916.0000   -28.3530    10.4377     9.6189    97.8292     6.6324    93.5187    31.1747
  916.5000   -28.0537    10.2929     9.5481    98.5224     6.6617    93.8859    29.5181
  917.0000   -27.8999    10.2230     9.5510   100.7159     6.6623    93.8063    29.0663
  917.5000   -27.6006    10.1532     9.4788   102.1647     6.6629    93.6498    30.9132
  918.0000   -27.3014    10.1596     9.4073   102.9751     6.6634    93.1825    31.1747
  918.5000   -27.1475    10.1647     9.4110   103.5698     6.6640    92.7473    42.1687
  919.0000   -26.8483    10.1698     9.4139   104.2724     6.6790    92.6677    41.7131
  919.5000   -26.5491    10.1750     9.3423   104.9749     6.6795    92.8116    40.3318
  920.0000   -26.3952    10.1801     9.3453   104.9203     6.6802    93.0298    36.8976
  920.5000   -26.2413    10.1852     9.2738   104.8765     6.6808    92.9503    40.7602
  921.0000   -26.2326    10.2654     9.2768   104.8328     6.6813    92.7218    42.9217
  921.5000   -26.2221    10.3456     9.2803   104.7891     6.6819    92.6422    42.9658
  922.0000   -26.3611    10.4267     9.2833   103.2529     6.6825    92.7116    45.0098
  922.5000   -26.3504    10.5068     9.3606   103.2089     6.6830    92.9300    42.9217
  923.0000   -26.4894    10.6619     9.3635   102.3336     6.6836    93.2971    40.5120
  923.5000   -26.4787    10.8169     9.6640   100.1257     6.6551    93.5208    36.2952
  924.0000   -26.6177    10.8970     9.8901    98.5894     6.5804    94.0909    32.0783
  924.5000   -26.7524    11.1270    10.2651    97.0532     6.4835    94.5476    28.1627
  925.0000   -27.0345    11.4320    10.6400    94.0244     6.5419    94.2434    26.3554
  925.5000   -27.1715    11.7370    11.2382    90.9956     6.5857    94.2383    31.3253
  926.0000   -27.6008    12.2688    11.7638    87.9668     6.6006    94.4566    37.0482
  926.5000   -28.1864    12.8154    12.3754    84.9380     6.6012    95.2705    37.8012
  927.0000   -29.1785    13.7776    13.0333    81.9092     6.6162    96.8291    39.3072
  927.5000   -30.1874    14.4574    13.7803    78.8804     6.6167    98.6855    41.2651
  928.0000   -31.4870    15.0622    14.6016    74.9843     6.6173   100.7653    35.8434
  928.5000   -33.2227    15.6670    15.4974    71.0656     6.6179   102.9940    32.9819
  929.0000   -33.5070    16.1219    16.2444    66.0518     6.6040   104.1842    34.9398
  929.5000   -33.4963    16.5768    16.8425    61.5304     6.5903   104.6302    33.7349
  930.0000   -34.5052    16.8818    17.2175    57.7554     6.5909   104.7657    27.7108
  930.5000   -35.3688    17.1868    17.4436    53.9803     6.5914   104.7593    20.0301
  931.0000   -35.7963    17.2669    17.5209    52.4440     6.6064   104.8300    20.1807
  931.5000   -35.7878    17.3471    17.4494    52.4003     6.6214   104.9725    21.2349
  932.0000   -35.7655    17.2034    17.4454    53.8507     6.6219   105.8609    24.2470
  932.5000   -35.4779    17.1336    17.1583    56.0442     6.6225   111.2914    32.6807
  933.0000   -35.1787    16.9138    17.0124    57.4930     6.6519   114.2647    36.5964
  933.5000   -35.0248    16.7690    16.7921    59.0474     6.6668   120.4411    35.9940
  934.0000   -34.5802    16.6230    16.4974    59.6444     6.6243   109.0265    40.5120
  934.5000   -34.5717    16.4032    16.0539    60.3470     6.5959   123.7803    33.1325
  935.0000   -34.4178    16.1097    15.7592    61.0495     6.6543   124.5198    26.8072
  935.5000   -34.2639    15.8900    15.3901    62.4874     6.6980   119.2816    25.9036
  936.0000   -33.9647    15.7451    15.0954    63.2009     6.7130   101.7235    32.2289
  936.5000   -33.8108    15.4505    14.8006    63.1462     6.7136   120.5568    33.3156
  937.0000   -33.5116    15.2944    14.4316    64.5970     6.6997   117.0521    27.2590
  937.5000   -33.2122    15.1608    14.0563    66.0439     6.6571   105.2823    26.3554
  938.0000   -32.7674    15.0910    13.7549    66.0000     6.6144   103.9369    20.7831
  938.5000   -32.1758    15.0212    13.5482    66.7836     6.6151   100.4322    21.4262
  939.0000   -31.7312    15.0276    13.4023    68.1515     6.6157    99.9059    25.8010
  939.5000   -30.9959    15.0327    13.4796    68.8541     6.6162    99.8896    27.4256
  940.0000   -30.1153    15.0378    13.4825    68.7994     6.6312   103.1719    28.0120
  940.5000   -29.8161    15.0429    13.4854    70.2592     6.6318    98.9970    26.6872
  941.0000   -30.2436    14.9730    13.6371    71.6970     6.6467    99.3881    20.0419
  941.5000   -31.1071    14.9033    13.7144    72.3996     6.6617   100.4748    20.9337
  942.0000   -31.8254    14.9086    13.7917    73.8593     6.6623   100.9909    20.3313
  942.5000   -32.1075    14.6886    13.8691    74.5523     6.6772   101.0615    19.5783
  943.0000   -32.3897    14.6188    13.7976    75.2535     6.6803   100.6829    27.5602
  943.5000   -32.5265    14.4003    13.7261    75.9561     6.6929   100.0076    37.8012
  944.0000   -32.6633    14.2555    13.5065    76.6586     6.7079    99.5557    39.7590
  944.5000   -32.3620    14.0345    13.3599    77.3612     6.7228    99.3273    30.4217
  945.0000   -32.0627    13.7410    13.1396    78.0637     6.7090    99.0988    27.4096
  945.5000   -31.6182    13.4463    13.0681    79.5016     6.6950    99.0192    32.0783
  946.0000   -31.1736    13.2265    12.8478    80.2151     6.6667    99.2375    27.5602
  946.5000   -30.5837    13.0817    12.6282    80.1604     6.6530    99.3069    27.2590
  947.0000   -30.2844    12.8620    12.4079    80.8739     6.6828    98.9819    27.1084
  947.5000   -29.9852    12.7172    12.1875    82.3118     6.7118    97.9551    25.9036
  948.0000   -29.8313    12.5724    11.8929    82.2681     6.7125    97.0565    28.1627
  948.5000   -29.8227    12.5025    11.7423    82.9706     6.6985    96.3068    31.3253
  949.0000   -29.8140    12.3577    11.6011    83.0295     6.6560    95.7060    31.3253
  949.5000   -29.8036    12.2879    11.3815    84.3757     6.6276    95.1797    31.4759
  950.0000   -29.8208    12.3349    11.2919    85.2005     6.6307    94.8023    31.9277
  950.5000   -30.1102    12.5922    11.0787    86.7009     6.6466    94.5767    22.7410
  951.0000   -30.3616    12.6699    11.0163    88.0039     6.6626    94.4304    25.3012
  951.5000   -30.4985    12.5955    11.0186    88.7211     6.6785    94.5048    22.5904
  952.0000   -30.4878    12.5151    11.1012    90.1845     6.7003    94.7282    25.4518
