~VERSION INFORMATION
 VERS.                2.0:   CWLS LOG ASCII STANDARD - VERSION 2.0
 WRAP.                 NO:   ONE LINE PER DEPTH STEP
~WELL INFORMATION
#MNEM.UNIT      DATA TYPE    INFORMATION
#----------   ------------   ------------------------------
 STRT.F            7.0000:   START DEPTH
 STOP.F          587.0000:   STOP DEPTH
 STEP.F            0.5000:   STEP LENGTH
 NULL.          -999.2500:   NO VALUE
 COMP. FENIX & SCISSON INC:   COMPANY
 WELL.        NPR-3 #63-3:   WELL
 FLD .             TEAPOT:   FIELD
 LOC .       S3 T38N R78W:   LOCATION
 CNTY.            NATRONA:   COUNTY
 STAT.            WYOMING:   STATE
 CTRY. UNITED STATES OF AMERICA:   COUNTRY
 SRVC.     Wedge Wireline:   SERVICE COMPANY
 DATE.        06-JAN-1978:   LOGDATE
 API .       490251044700:   API NUMBER
~CURVE INFORMATION
#MNEM.UNIT       API CODE    CURVE DESCRIPTION
#----------   ------------   ------------------------------
 DEPT.F                  :   
 ILD .OHMM   05 120 46 00:   INDUCTION LOG DEEP
 SN  .OHMM   05 040 16 00:   SHORT NORMAL
 SPR .MV     05 010 01 00:   SPONTANEOUS POTENTIAL FROM RES.
 CALD.IN     45 280 60 00:   CALIPER FROM DENSITY LOG
 CORR.G/C3   45 356 01 00:   DENSITY CORRECTION
 DPHI.DEC    45 890 12 00:   DENSITY POROSITY SANDSTONE
 GRD .GAPI   45 310 01 00:   GAMMA RAY FROM DENSITY LOG
 RHOB.G/C3   45 350 01 00:   BULK DENSITY
~PARAMETER INFORMATION
#MNEM.UNIT          VALUE    DESCRIPTION
#----------   ------------   ------------------------------
 PD  .                 GL:   PERMANENT DATUM
 EPD .F              5177:   ELEVATION PERMANENT DATUM
 LMF .                 KB:   LOG MEASURED FROM
 DMF .                 KB:   DRILLING MEASURED FROM
 EKB .F              5181:   KELLING BUSHING
 EGL .F              5177:   GROUND LEVEL
 DATE.        06-JAN-1978:   RUN DATE
 RUN .                  1:   RUN NUMBER
 DD  .F               590:   DEPTH DRILLER
 DL  .F               581:   DEPTH LOGGER
 BLI .F               576:   BOTTOM LOG INTERVAL
 TLI .F                20:   TOP LOG INTERVAL
 CS  .IN            9.625:   CASING SIZE
 CBD .F                19:   CASING BOTTOM DRILLER
 CBL .F                19:   CASING BOTTOM LOGGER
 BS  .IN            7.875:   BIT SIZE
 BSD .F               590:   BIT SIZE AT DEPTH
 DFT .                KCL:   DRILLING FLUID TYPE
 DFD .                8.5:   DRILLING FLUID DENSITY
 DFV .                 34:   DRILLING FLUID VISCOSITY
 DFPH.                9.0:   DRILLING FLUID PH
 DFL .                7.8:   DRILLING FLUID LOSS
 MSS .           FLOWLINE:   MUD SAMPLE SOURCE
 RMS .OHMM           0.22:   RESISTIVITY MUD SAMPLE
 MST .F                63:   MUD SAMPLE TEMPERATURE
 RMF .OHMM           0.24:   RESISTIVITY MUD FILTRATE SAMPLE
 MFST.F                63:   MUD FILTRATE SAMPLE TEMPERATURE
 RMC .OHMM           0.48:   RESISTIVITY MUD CAKE
 MCST.F                64:   MUD CAKE SAMPLE TEMPERATURE
 MFSS.               MEAS:   MUD FILTRATE SAMPLE SOURCE
 MCSS.               MEAS:   MUD CAKE SAMPLE SOURCE
 RMB .OHMM           0.19:   RESISTIVITY MUD AT BHT
 BHT .F                71:   BOTTOM HOLE TEMPERATURE
 TCS .HRS               3:   TIME CURCULATED STOPPED
 MRT .F                71:   MAXIMUM RECORDED TEMPERATURE
 LUN .               2958:   LOGGING UNIT NUMBER
 LUL .             CASPER:   LOGGING UNIT LOCATION
 ENGI.             MILLER:   RECORDING ENGINEER
 WITN.         HARRINGTON:   WITNESSED BY
 CLNT.            A2DTECH:   CLIENT CODE
 ORIG.           5" PRINT:   ORIGIN OF DATA
 UWI .       490251044700:   UNIQUE WELL ID
 DICO. A2D Technologies, Inc.:   DIGITIZING COMPANY
~OTHER INFORMATION
~A    DEPT     ILD         SN        SPR       CALD       CORR       DPHI         GRD      RHOB   
# ...
  331.0000    10.6421     7.9495   -47.9689     8.4300    -0.3309     0.1053   119.3577     2.4801
  331.5000    10.3554     7.8465   -47.9579     8.4308    -0.3246     0.1080   118.8012     2.4707
  332.0000     9.9239     7.6905   -47.9469     8.4170    -0.3154     0.1122   124.1015     2.4639
  332.5000     9.3435     7.4228   -48.3721     8.4327    -0.3062     0.1243   124.6973     2.4579
  333.0000     8.9057     7.0898   -48.9424     8.4335    -0.2985     0.1464   122.0682     2.4511
  333.5000     8.4883     6.8538   -49.2221     8.4344    -0.3241     0.1588   122.3731     2.4379
  334.0000     8.2029     6.6714   -49.6444     8.4352    -0.3793     0.1564   125.4782     2.3953
  334.5000     8.0840     6.5389   -49.6334     8.4361    -0.3570     0.1293   128.5658     2.4316
  335.0000     7.9839     6.5926   -49.0262     8.4369    -0.3417     0.1119   129.1644     2.4573
  335.5000     8.0974     6.7770   -48.4458     8.4380    -0.3355     0.1067   128.8792     2.4717
  336.0000     8.2688     6.9705   -47.8534     8.4239    -0.3293     0.1103   132.7111     2.4816
  336.5000     8.4438     7.0713   -47.6971     8.4249    -0.2959     0.1124   135.3656     2.4724
  337.0000     8.5639     7.0755   -47.9768     8.4258    -0.3184     0.1124   134.7894     2.4696
  337.5000     8.6254     7.0798   -48.2565     8.4413    -0.3001     0.1124   131.2792     2.4696
  338.0000     8.6873     6.9400   -48.5362     8.4422    -0.2864     0.1321   122.1861     2.4689
  338.5000     8.6896     6.7554   -48.8159     8.4432    -0.3104     0.1472   117.2047     2.4636
  339.0000     8.6919     6.6211   -48.9477     8.4441    -0.3656     0.1496   116.3348     2.4491
  339.5000     8.6947     6.6250   -48.9338     8.4303    -0.3979     0.1375   118.5787     2.4131
  340.0000     8.5773     6.6351   -48.7774     8.4311    -0.3523     0.1236   120.1753     2.4592
  340.5000     8.5212     6.8192   -48.7664     8.4320    -0.3461     0.1108   113.1409     2.4774
  341.0000     8.5824     7.0138   -48.4647     8.4330    -0.3520     0.1105   110.5089     2.4804
  341.5000     9.0836     7.3141   -48.2951     8.4339    -0.3549     0.1120   109.0517     2.4737
  342.0000     9.7220     7.6273   -48.1493     8.4347    -0.3502     0.1108   107.8493     2.4738
  342.5000    10.1352     7.7939   -47.8476     8.4355    -0.3334     0.1084   106.7247     2.4790
  343.0000    10.4213     7.9597   -47.8366     8.4364    -0.3181     0.1052   105.8549     2.4859
  343.5000    10.4962     8.0195   -47.8256     8.4372    -0.3044     0.1017   104.4005     2.4927
  344.0000    10.5717     8.0242   -47.8119     8.4383    -0.2876     0.0992   101.4749     2.4980
  344.5000    10.4295     8.0290   -47.8009     8.4391    -0.2738     0.0983   103.8356     2.4973
  345.0000    10.1492     8.0338   -47.7899     8.4400    -0.2676     0.1010   111.4855     2.4853
  345.5000     9.7405     8.0397   -48.0698     8.4408    -0.2780     0.1119   116.1957     2.4725
  346.0000     9.1569     8.0444   -48.3493     8.4417    -0.2991     0.1337   116.7943     2.4589
  346.5000     8.0354     8.0492   -48.9169     8.4425    -0.3186     0.1382   116.2181     2.4438
  347.0000     6.9542     8.0539   -49.1994     8.4582    -0.3381     0.1403   116.2294     2.4318
  347.5000     6.2726     8.0034   -49.3314     8.4591    -0.3485     0.1318   115.1886     2.4288
  348.0000     5.9376     8.0093   -49.0174     8.4599    -0.3530     0.1230    94.5219     2.4493
  348.5000     5.8578     8.0140   -48.5795     8.4607    -0.3543     0.1147    97.4700     2.4644
  349.0000     6.5431     7.9079   -47.9871     8.4616    -0.3526     0.1082   101.2991     2.4758
  349.5000     7.7224     7.9137   -47.3947     8.4625    -0.3477     0.1036    96.3177     2.4826
  350.0000     8.7919     7.8640   -46.8023     8.4635    -0.3429     0.1003    95.1542     2.4879
  350.5000     9.4712     7.8143   -46.4988     8.4495    -0.3372     0.1004    98.9861     2.4945
  351.0000    10.1914     7.8719   -46.4855     8.4526    -0.3432     0.1005   101.6659     2.5016
  351.5000    10.7023     8.3217   -46.4700     8.4553    -0.3552     0.1006   104.9189     2.4994
  352.0000    11.2406     8.5073   -46.4576     8.4581    -0.3673     0.0999   105.2294     2.4972
  352.5000    11.7230     8.6222   -46.2997     8.4609    -0.3657     0.0990   103.4954     2.5003
  353.0000    11.8118     8.6262   -46.2873     8.4636    -0.3516     0.0975   101.7093     2.5041
  353.5000    11.9014     8.6301   -46.1294     8.4664    -0.3339     0.0959    99.4344     2.5079
  354.0000    11.9092     8.6341   -45.9685     8.4692    -0.3338     0.0941    97.6948     2.5102
  354.5000    11.8351     8.6382   -45.8106     8.4699    -0.3338     0.0920    95.3678     2.5103
  355.0000    11.8448     8.6430   -45.7982     8.4708    -0.3368     0.0910    93.6281     2.5081
  355.5000    11.8526     8.6470   -45.7857     8.4567    -0.3428     0.0904    92.1822     2.5064
  356.0000    11.8603     8.6510   -45.6279     8.4722    -0.3485     0.0907    91.2775     2.5044
  356.5000    11.9503     8.6549   -45.6123     8.4729    -0.3396     0.0925    90.7587     2.5037
  357.0000    11.9600     8.6590   -45.6029     8.4736    -0.3336     0.0949    91.3742     2.5038
  357.5000    11.9679     8.7238   -45.7546     8.4745    -0.3335     0.0970    95.5083     2.5038
  358.0000    11.8915     8.7881   -45.8939     8.4752    -0.3441     0.0985    95.6007     2.5046
  358.5000    11.8192     8.7921   -45.9985     8.4759    -0.3608     0.0997    94.3785     2.5039
  359.0000    11.7460     8.7357   -46.2766     8.4766    -0.3788     0.1006    94.7003     2.5017
  359.5000    11.7556     8.7399   -46.5548     8.4626    -0.3878     0.1021   102.6523     2.4972
  360.0000    11.7633     8.6838   -46.8299     8.4781    -0.3756     0.1045   108.5485     2.4927
  360.5000    11.9344     8.6888   -46.9628     8.4642    -0.3680     0.1048   109.4520     2.4905
  361.0000    12.1918     8.6928   -47.2410     8.4648    -0.3634     0.1041   109.1808     2.4906
  361.5000    12.5411     8.6370   -47.3739     8.4656    -0.3587     0.1035   109.2453     2.4914
  362.0000    12.7255     8.5817   -47.3583     8.4663    -0.3512     0.1036   115.6925     2.4899
  362.5000    12.3874     8.5866   -47.4943     8.4672    -0.3331     0.1080   119.2392     2.4787
  363.0000    12.0584     8.5906   -47.6272     8.4679    -0.3043     0.1122   118.0870     2.4710
  363.5000    11.5774     8.5945   -47.7573     8.4686    -0.2785     0.1116   114.8789     2.4667
  364.0000    10.7957     8.8387   -47.8898     8.4693    -0.2633     0.1122   113.7266     2.4464
  364.5000     9.5592     9.0359   -47.8742     8.4700    -0.3843     0.1224   117.8664     2.4177
  365.0000     8.3334     9.2212   -47.8617     8.4707    -0.4539     0.1893   120.5320     2.3641
  365.5000     7.3657     9.3534   -47.8492     8.4715    -0.4114     0.1790   122.0229     2.3513
  366.0000     6.9272     9.4875   -47.4007     8.4869    -0.3569     0.1266   123.2201     2.4851
  366.5000     6.7828     9.6236   -45.6303     8.5316    -0.3433     0.1030   123.2426     2.5146
  367.0000     6.8897     9.6947   -44.3203     8.5909    -0.3449     0.0957   123.2651     2.5161
  367.5000     7.4888     9.7672   -44.0171     8.6356    -0.3402     0.0936   115.9511     2.5117
  368.0000    10.8737     9.7717   -43.7140     8.6365    -0.3144     0.0930   107.1630     2.5147
  368.5000    13.3807     9.9118   -43.5561     8.6372    -0.2992     0.0902   103.0739     2.5209
  369.0000    15.3715     9.9163   -43.3983     8.6379    -0.2959     0.0830    99.5721     2.5269
  369.5000    16.0312     9.9210   -43.0920     8.6239    -0.3114     0.0823    98.4141     2.5217
  370.0000    15.9315     9.9952   -42.7888     8.6100    -0.3293     0.0860    96.0985     2.5127
  370.5000    15.8298    10.0689   -42.3403     8.5962    -0.3248     0.0923    93.4778     2.5029
  371.0000    15.8428    10.0735   -41.8918     8.5969    -0.3066     0.0986    89.3887     2.4931
