~VERSION INFORMATION
 VERS.                2.0:   CWLS LOG ASCII STANDARD - VERSION 2.0
 WRAP.                 NO:   ONE LINE PER DEPTH STEP
~WELL INFORMATION
#MNEM.UNIT      DATA TYPE    INFORMATION
#----------   ------------   ------------------------------
 STRT.F           90.0000:   START DEPTH
 STOP.F          799.0000:   STOP DEPTH
 STEP.F            0.5000:   STEP LENGTH
 NULL.          -999.2500:   NO VALUE
 COMP. U S NAVY-INTEX OIL:   COMPANY
 WELL. RES 3 TEAPOT DOM #83S-34:   WELL
 FLD .             TEAPOT:   FIELD
 LOC .      S34 T39N R78W:   LOCATION
 CNTY.            NATRONA:   COUNTY
 STAT.            WYOMING:   STATE
 CTRY. UNITED STATES OF AMERICA:   COUNTRY
 SRVC.       Schlumberger:   SERVICE COMPANY
 DATE.        15-FEB-1961:   LOGDATE
 API .       490250655100:   API NUMBER
~CURVE INFORMATION
#MNEM.UNIT       API CODE    CURVE DESCRIPTION
#----------   ------------   ------------------------------
 DEPT.F                  :   
 ASN .OHMM   05 041 16 00:   AMPLIFIED SHORT NORMAL 16"
 ILD .OHMM   05 120 46 00:   INDUCTION LOG DEEP RESISTIVITY.
 CILD.MMHO   05 110 46 00:   CONDUCTIVITY INDUCTION LOG DEEP
 SPR .MV     05 010 01 00:   SPONTANEOUS POTENTIAL FROM RES.
 GR  .GAPI   30 310 01 00:   GAMMA RAY
~PARAMETER INFORMATION
#MNEM.UNIT          VALUE    DESCRIPTION
#----------   ------------   ------------------------------
 PD  .                 GL:   PERMANENT DATUM
 EPD .F              5090:   ELEVATION PERMANENT DATUM
 LMF .                 KB:   LOG MEASURED FROM
 DAPD.F                 4:   FEET ABOVE PERMANENT DATUM
 DMF .                 KB:   DRILLING MEASURED FROM
 EKB .F              5094:   KELLING BUSHING
 EGL .F              5090:   GROUND LEVEL
 DATE.        15-FEB-1961:   RUN DATE
 RUN .                  1:   RUN NUMBER
 DD  .F               800:   DEPTH DRILLER
 DL  .F               800:   DEPTH LOGGER
 BLI .F               799:   BOTTOM LOG INTERVAL
 TLI .F               100:   TOP LOG INTERVAL
 CBD .F                12:   CASING BOTTOM DRILLER
 BS  .IN            7.875:   BIT SIZE
 BSD .F               800:   BIT SIZE AT DEPTH
 DFT .       OIL EMULSION:   DRILLING FLUID TYPE
 DFD .                9.5:   DRILLING FLUID DENSITY
 DFV .                 50:   DRILLING FLUID VISCOSITY
 RMS .OHMM           1.25:   RESISTIVITY MUD SAMPLE
 MST .F                57:   MUD SAMPLE TEMPERATURE
 RMB .OHMM           0.98:   RESISTIVITY MUD AT BHT
 BHT .F                73:   BOTTOM HOLE TEMPERATURE
 TCS .HRS               1:   TIME CURCULATED STOPPED
 LUN .               2572:   LOGGING UNIT NUMBER
 LUL .                 NC:   LOGGING UNIT LOCATION
 ENGI.            EARNEST:   RECORDING ENGINEER
 WITN.          JORGENSEN:   WITNESSED BY
 CLNT.            A2DTECH:   CLIENT CODE
 ORIG.       2" ,5" PRINT:   ORIGIN OF DATA
 UWI .       490250655100:   UNIQUE WELL ID
 DICO. A2D Technologies, Inc.:   DIGITIZING COMPANY
~OTHER INFORMATION
~A   DEPT        ASN        ILD      CILD       SPR         GR   
# ...
  456.0000    10.2018     7.7560   133.2733   -46.3820  -999.2500
  456.5000     9.9867     7.5771   133.7750   -46.3811  -999.2500
  457.0000     9.7892     7.4513   135.1351   -46.2301  -999.2500
  457.5000     9.8876     7.2289   136.2800   -46.2293  -999.2500
  458.0000     9.9139     7.1998   138.2833   -46.2285  -999.2500
  458.5000     9.8096     7.0741   139.6396   -46.3782  -999.2500
  459.0000     9.6810     6.9277   141.5390   -46.3774  -999.2500
  459.5000     9.5331     6.9277   142.6426   -46.5270  -999.2500
  460.0000     9.4960     7.0080   142.6426   -46.5263  -999.2500
  460.5000     9.5211     7.2289   143.7951   -46.6760  -999.2500
  461.0000     9.5934     7.4408   144.1441   -46.8255  -999.2500
  461.5000     9.6860     7.6112   142.6426   -46.6744  -999.2500
  462.0000     9.7865     7.6807   142.6426   -46.6426  -999.2500
  462.5000     9.8946     7.7246   142.4862   -46.6729  -999.2500
  463.0000     9.9794     7.6807   141.1411   -46.5218  -999.2500
  463.5000    10.0151     7.6807   140.3228   -46.5211  -999.2500
  464.0000    10.0562     7.6807   139.3193   -46.3699  -999.2500
  464.5000    10.1657     7.6807   138.1381   -46.2867  -999.2500
  465.0000    10.2410     7.6054   136.6366   -46.2180  -999.2500
  465.5000    10.2410     7.5725   135.7220   -46.2172  -999.2500
  466.0000    10.2410     7.6135   135.1351   -46.0662  -999.2500
  466.5000    10.2410     7.7560   133.6336   -45.9150  -999.2500
  467.0000    10.2410     7.8313   133.4660   -45.9142  -999.2500
  467.5000    10.2410     7.9819   132.8829   -45.8296  -999.2500
  468.0000    10.2410     7.9819   132.1321   -45.7624  -999.2500
  468.5000    10.1657     7.9819   132.1321   -45.7616  -999.2500
  469.0000    10.0730     7.9819   132.8829   -45.7609  -999.2500
  469.5000    10.0151     7.9819   132.8829   -45.7602  -999.2500
  470.0000     9.9724     7.9418   133.0581   -45.7594  -999.2500
  470.5000     9.9221     7.9819   133.6336   -45.7586  -999.2500
  471.0000     9.8645     7.9066   133.6336   -45.7579  -999.2500
  471.5000     9.7461     7.9066   133.6336   -45.7571  -999.2500
  472.0000     9.7139     7.9066   133.6336   -45.6060  -999.2500
  472.5000     9.7892     7.9066   132.8829   -45.6053  -999.2500
  473.0000     9.8645     7.9066   132.7002   -45.6045  -999.2500
  473.5000     9.9582     7.9937   132.1321   -45.5168  -999.2500
  474.0000    10.0904     8.1325   130.9459   -45.4155  -999.2500
  474.5000    10.2848     8.1699   130.4442   -45.3015  -999.2500
  475.0000    10.4857     8.2957   129.1291   -45.2130  -999.2500
  475.5000    10.7681     8.3584   127.9392   -45.1496  -999.2500
  476.0000    11.0070     8.3966   126.8769   -44.9985  -999.2500
  476.5000    11.2583     8.2763   128.8767   -44.9977  -999.2500
  477.0000    11.4458     8.5701   127.1967   -44.8080  -999.2500
  477.5000    11.5656     8.8638   125.5168   -44.6955  -999.2500
  478.0000    11.6913     9.0342   123.8368   -44.6055  -999.2500
  478.5000    11.8223     9.1677   122.2465   -44.5436  -999.2500
  479.0000    12.3824     9.3013   120.8291   -44.5429  -999.2500
  479.5000    11.8037     9.4348   119.4116   -44.5750  -999.2500
  480.0000    12.1808     9.5683   117.9942   -44.6072  -999.2500
  480.5000    12.4071     9.6726   116.5767   -44.6394  -999.2500
  481.0000    12.5581     9.7185   115.1592   -44.6716  -999.2500
  481.5000    12.7093     9.7644   113.7418   -44.7038  -999.2500
  482.0000    12.7097     9.8103   112.3243   -44.7331  -999.2500
  482.5000    12.8607     9.8620   110.9068   -44.7331  -999.2500
  483.0000    12.9365     9.9232   109.4894   -44.7331  -999.2500
  483.5000    13.0122     9.9844   108.0719   -44.7331  -999.2500
  484.0000    13.0990    10.0456   106.6545   -44.7331  -999.2500
  484.5000    13.1638    10.1068   105.2370   -44.7331  -999.2500
  485.0000    13.2395    10.1680   103.8195   -44.7331  -999.2500
  485.5000    13.2399    10.1603   102.4021   -44.7331  -999.2500
  486.0000    13.1651    10.0685   100.8033   -44.7517  -999.2500
  486.5000    13.1655     9.9767   100.1440   -44.8041  -999.2500
  487.0000    13.0153     9.8849    99.3880   -44.8564  -999.2500
  487.5000    12.9406     9.7931    98.6320   -44.9088  -999.2500
  488.0000    12.8656     9.7013    97.8760   -44.9612  -999.2500
  488.5000    12.7908     9.6361    97.1487   -45.0135  -999.2500
  489.0000    12.7100     9.5953    97.1487   -45.0659  -999.2500
  489.5000    12.5658     9.5545    97.1487   -45.2632  -999.2500
  490.0000    12.4157     9.5137    97.1487   -45.2632  -999.2500
  490.5000    12.4162     9.4758    97.1487   -45.4135  -999.2500
  491.0000    12.4166     9.5246    97.3410   -45.4135  -999.2500
  491.5000    12.4170     9.5701    98.2860   -45.4135  -999.2500
  492.0000    12.4929     9.6156    99.2310   -45.4135  -999.2500
  492.5000    12.5686     9.6611   100.1759   -45.5639  -999.2500
  493.0000    12.6443     9.7325   101.1209   -45.7143  -999.2500
  493.5000    12.7201     9.8550   102.0659   -45.8647  -999.2500
  494.0000    12.7205     9.9774   103.0109   -46.0150  -999.2500
  494.5000    12.7210     9.9973   103.9559   -46.1654  -999.2500
  495.0000    12.7214     9.8842   104.9308   -46.1654  -999.2500
  495.5000    12.5713     9.7712   105.9398   -46.3158  -999.2500
  496.0000    12.4964     9.6582   106.9488   -46.6165  -999.2500
  496.5000    12.3462     9.5452   107.9578   -46.7669  -999.2500
  497.0000    12.1209     9.4322   108.9668   -46.7669  -999.2500
  497.5000    11.9707     9.3362   108.0806   -46.7669  -999.2500
  498.0000    11.8204     9.3233   108.8756   -46.9173  -999.2500
  498.5000    11.5951     9.1729   108.9102   -46.9173  -999.2500
  499.0000    11.3696     9.0226   109.7053   -47.2180  -999.2500
  499.5000    11.2089     9.0226   111.2436   -47.3684  -999.2500
  500.0000    10.9940     8.9478   111.6838   -47.3565  -999.2500
  500.5000    10.8439     8.9498   113.4858   -47.2794  -999.2500
  501.0000    10.7689     8.8015   115.7572   -47.2149  -999.2500
  501.5000    10.6188     8.6533   117.2466   -47.3639  -999.2500
  502.0000    10.6193     8.5050   117.2322   -47.5128  -999.2500
  502.5000    10.6050     8.4320   117.9699   -47.8121  -999.2500
  503.0000    10.5581     8.3590   120.2110   -47.8103  -999.2500
  503.5000    10.4700     8.3617   121.6968   -47.9596  -999.2500
  504.0000    10.4706     8.2134   123.1898   -48.1086  -999.2500
  504.5000    10.3203     8.2913   123.1719   -48.4075  -999.2500
  505.0000    10.3208     8.4438   123.1575   -48.5561  -999.2500
  505.5000    10.3213     8.5212   123.8951   -48.7054  -999.2500
  506.0000    10.2464     8.4481   124.6290   -48.8543  -999.2500
  506.5000    10.2469     8.2897   124.6146   -49.0033  -999.2500
  507.0000    10.2474     8.2269   126.1076   -49.0015  -999.2500
  507.5000    10.1725     8.2296   126.0897   -49.1504  -999.2500
  508.0000    10.1729     8.1560   126.0752   -49.1486  -999.2500
  508.5000    10.1733     8.0835   126.8129   -49.1472  -999.2500
  509.0000    10.1738     8.0105   127.5468   -49.2965  -999.2500
  509.5000    10.0989     7.9374   128.2879   -49.1443  -999.2500
  510.0000    10.0240     7.6394   129.0254   -49.4436  -999.2500
  510.5000    10.0245     7.4160   129.0075   -49.7430  -999.2500
  511.0000    10.0250     7.1926   130.4933   -49.7412  -999.2500
  511.5000     9.8899     6.9692   133.4865   -49.7397  -999.2500
  512.0000     9.7548     6.7463   135.7277   -49.8890  -999.2500
  512.5000     9.4240     6.5981   137.9690   -50.0376  -999.2500
  513.0000     9.2437     6.6002   138.7068   -50.1865  -999.2500
  513.5000     9.0635     6.6776   139.5416   -50.1847  -999.2500
  514.0000     8.9133     7.0556   140.1816   -50.1833  -999.2500
  514.5000     8.8384     7.3591   139.4118   -50.3326  -999.2500
  515.0000     8.8880     7.4364   139.3974   -50.3308  -999.2500
  515.5000     9.0502     7.4386   139.3831   -50.3293  -999.2500
  516.0000     9.1561     7.5159   139.3684   -50.4779  -999.2500
  516.5000     9.2469     7.5181   138.5989   -50.4765  -999.2500
