~VERSION INFORMATION
 VERS.                2.0:   CWLS LOG ASCII STANDARD - VERSION 2.0
 WRAP.                 NO:   ONE LINE PER DEPTH STEP
~WELL INFORMATION
#MNEM.UNIT      DATA TYPE    INFORMATION
#----------   ------------   ------------------------------
 STRT.F            0.0000:   START DEPTH
 STOP.F          978.0000:   STOP DEPTH
 STEP.F            0.5000:   STEP LENGTH
 NULL.          -999.2500:   NO VALUE
 COMP. FENIX & SCISSON INC:   COMPANY
 WELL. N.P.R #3 SX-14 #53:   WELL
 FLD .             TEAPOT:   FIELD
 LOC .      S14 T38N R78W:   LOCATION
 CNTY.            NATRONA:   COUNTY
 STAT.            WYOMING:   STATE
 CTRY. UNITED STATES OF AMERICA:   COUNTRY
 SRVC.              Welex:   SERVICE COMPANY
 DATE.        06-MAR-1977:   LOGDATE
 API .       490251029800:   API NUMBER
~CURVE INFORMATION
#MNEM.UNIT       API CODE    CURVE DESCRIPTION
#----------   ------------   ------------------------------
 DEPT.F                  :   
 SPR .MV     07 010 01 00:   SPONTANEOUS POTENTIAL
 SGRD.OHMM   07 220 05 00:   SHALLOW RESISTIVITY
 ILD .OHMM   07 120 46 00:   INDUCTION LOG DEEP
 ILM .OHMM   07 120 44 00:   INDUCTION LOG MEDIUM
 GRD .GAPI   45 310 01 00:   GAMMA RAY FROM DENSITY LOG
 CALD.IN     45 280 60 00:   CALIPER
 RHOB.G/C3   45 350 01 00:   BULK DENSITY
 DPHI.DEC    45 890 12 00:   DENSITY POROSITY SANDSTONE
 CORR.G/C3   45 356 01 00:   DENSITY CORRECTION
~PARAMETER INFORMATION
#MNEM.UNIT          VALUE    DESCRIPTION
#----------   ------------   ------------------------------
 PD  .                 GL:   PERMANENT DATUM
 EPD .F              5230:   ELEVATION PERMANENT DATUM
 LMF .                 GL:   LOG MEASURED FROM
 DMF .                 GL:   DRILLING MEASURED FROM
 EGL .F              5230:   GROUND LEVEL
 DATE.             3-6-77:   RUN DATE
 RUN .                  1:   RUN NUMBER
 DD  .F               989:   DEPTH DRILLER
 DL  .F               980:   DEPTH LOGGER
 BLI .F               978:   BOTTOM LOG INTERVAL
 TLI .F                50:   TOP LOG INTERVAL
 CS  .IN            8.625:   CASING SIZE
 CBD .F                42:   CASING BOTTOM DRILLER
 CBL .F                42:   CASING BOTTOM LOGGER
 BS  .IN            7.875:   BIT SIZE
 BSD .F               989:   BIT SIZE AT DEPTH
 DFT .            KCL MUD:   DRILLING FLUID TYPE
 DFD .                8.4:   DRILLING FLUID DENSITY
 DFV .                 30:   DRILLING FLUID VISCOSITY
 DFPH.                7.2:   DRILLING FLUID PH
 DFL .               14.4:   DRILLING FLUID LOSS
 MSS .            MUD PIT:   MUD SAMPLE SOURCE
 RMS .OHMM            .41:   RESISTIVITY MUD SAMPLE
 MST .F                48:   MUD SAMPLE TEMPERATURE
 RMF .OHMM            .39:   RESISTIVITY MUD FILTRATE SAMPLE
 MFST.F                48:   MUD FILTRATE SAMPLE TEMPERATURE
 RMC .OHMM            .55:   RESISTIVITY MUD CAKE
 MCST.F                48:   MUD CAKE SAMPLE TEMPERATURE
 MFSS.           FANN KIT:   MUD FILTRATE SAMPLE SOURCE
 MCSS.           FANN KIT:   MUD CAKE SAMPLE SOURCE
 RMB .OHMM            .34:   RESISTIVITY MUD AT BHT
 BHT .F                58:   BOTTOM HOLE TEMPERATURE
 TCS .HRS               2:   TIME CURCULATED STOPPED
 MRT .F                58:   MAXIMUM RECORDED TEMPERATURE
 LUN .               8611:   LOGGING UNIT NUMBER
 LUL .           GILLETTE:   LOGGING UNIT LOCATION
 ENGI.            C. DOAK:   RECORDING ENGINEER
 WITN.           S. BURKE:   WITNESSED BY
 CLNT.            A2DTECH:   CLIENT CODE
 ORIG.        2" 5" PRINT:   ORIGIN OF DATA
 UWI .       490251029800:   UNIQUE WELL ID
 DICO. A2D Technologies, Inc.:   DIGITIZING COMPANY
~OTHER INFORMATION
~A    DEPT     SPR       SGRD        ILD        ILM        GRD       CALD       RHOB       DPHI       CORR   
# ...
  839.5000   -40.3930    15.4786    11.6789    13.8326    83.9444     7.7859     2.3522     0.1787     0.0553
  840.0000   -40.3790    16.4724    12.2735    14.9249    78.1626     7.7830     2.3645     0.1699     0.0578
  840.5000   -40.3708    17.5299    12.8983    16.1137    77.5102     7.7843     2.3735     0.1635     0.0602
  841.0000   -40.3637    18.6554    13.5549    17.4184    81.6551     7.7858     2.3706     0.1655     0.0623
  841.5000   -40.3566    18.9279    14.1792    16.2795    84.9793     7.7872     2.3675     0.1674     0.0604
  842.0000   -40.3495    18.9279    14.7209    15.1907    88.2830     7.7886     2.3715     0.1678     0.0584
  842.5000   -40.3424    18.9279    15.2823    16.0369    90.7234     7.7900     2.3784     0.1632     0.0607
  843.0000   -40.3353    18.9279    15.8637    16.9360    90.3830     7.7914     2.3853     0.1566     0.0631
  843.5000   -40.3282    18.9278    16.6444    17.5695    90.4277     7.7928     2.3883     0.1562     0.0633
  844.0000   -40.3210    18.9274    16.4943    17.3342    92.1769     7.7942     2.3767     0.1623     0.0613
  844.5000   -40.3139    18.9275    16.2876    17.1405    91.3394     7.7956     2.3640     0.1687     0.0593
  845.0000   -40.3068    18.9266    16.0835    16.9489    90.0566     7.7970     2.3549     0.1732     0.0573
  845.5000   -40.2997    19.1433    15.8820    16.7601    91.0980     7.7984     2.3524     0.1766     0.0554
  846.0000   -40.2926    19.3244    15.6829    16.5734    93.9403     7.7998     2.3534     0.1764     0.0555
  846.5000   -40.2855    19.4558    15.4655    16.3888    95.3180     7.8012     2.3657     0.1690     0.0580
  847.0000   -40.2784    19.2360    15.6082    16.1922    93.6413     7.8027     2.3794     0.1610     0.0605
  847.5000   -40.2712    19.0676    15.7695    16.3952    91.5425     7.8041     2.3931     0.1530     0.0630
  848.0000   -40.2641    18.9279    15.9325    16.6183    89.9796     7.8055     2.4026     0.1477     0.0655
  848.5000   -40.2570    19.2168    16.0971    16.8443    88.7249     7.8069     2.3979     0.1506     0.0652
  849.0000   -40.2499    19.4566    16.1922    17.0735    87.9215     7.8083     2.3936     0.1535     0.0636
  849.5000   -40.2428    18.9777    15.4400    17.3057    88.1600     7.8097     2.3891     0.1558     0.0620
  850.0000   -40.2357    18.6274    14.9339    17.4265    90.8551     7.8111     2.3876     0.1558     0.0604
  850.5000   -40.2286    18.2836    14.4444    17.1539    97.2295     7.8125     2.3893     0.1558     0.0589
  851.0000   -40.2215    17.9461    13.9709    16.9727    99.0512     7.8139     2.3920     0.1518     0.0573
  851.5000   -40.2143    17.7495    13.3523    16.7980    98.5806     7.8153     2.4055     0.1464     0.0557
  852.0000   -40.2072    17.9904    13.3925    15.8583    97.6547     7.8167     2.4041     0.1464     0.0541
  852.5000   -40.2001    18.2444    13.4555    14.9078    97.8074     7.8182     2.3983     0.1487     0.0525
  853.0000   -40.1930    18.0941    13.5187    15.8102    99.3913     7.8196     2.3984     0.1487     0.0508
  853.5000   -40.1859    17.8060    13.5823    16.3416   100.9653     7.8210     2.4050     0.1475     0.0520
  854.0000   -40.1788    17.5238    13.6462    14.9364   102.8709     7.8224     2.4118     0.1432     0.0543
  854.5000   -40.1716    17.2466    13.7103    14.2452   104.3504     7.8245     2.4185     0.1390     0.0567
  855.0000   -40.1645    16.9529    13.7748    16.0379   104.4968     7.8268     2.4252     0.1347     0.0590
  855.5000   -40.1574    17.2968    13.8395    15.6307   103.1314     7.8291     2.4305     0.1315     0.0595
  856.0000   -40.1503    17.7495    13.9046    14.8644   101.4845     7.8314     2.4230     0.1350     0.0555
  856.5000   -40.1432    17.1579    13.9797    14.1449    99.8325     7.8337     2.4100     0.1391     0.0517
  857.0000   -40.1361    16.4923    13.8797    13.4603    98.1680     7.8360     2.4055     0.1431     0.0478
  857.5000   -40.1290    16.6821    13.7296    12.8088    96.6008     7.8383     2.4052     0.1472     0.0440
  858.0000   -40.1219    16.8318    13.5811    12.4066    98.1690     7.8406     2.4052     0.1495     0.0405
  858.5000   -40.1147    16.9843    13.4342    13.1093   100.1165     7.8429     2.4173     0.1391     0.0419
  859.0000   -40.1076    17.1383    13.2483    12.8487   103.0328     7.8453     2.4291     0.1319     0.0463
  859.5000   -40.1005    17.2949    12.8118    12.4454   105.9403     7.8476     2.4380     0.1248     0.0518
  860.0000   -40.0934    17.4317    12.3954    12.0547   105.7905     7.8499     2.4470     0.1176     0.0575
  860.5000   -40.0863    16.4894    11.9914    11.6763   100.1486     7.8522     2.4501     0.1157     0.0563
  861.0000   -40.0792    15.4272    11.6007    11.5278    96.4916     7.8545     2.4501     0.1161     0.0539
  861.5000   -40.0721    14.5068    11.2228    12.0870    96.6039     7.8568     2.4503     0.1153     0.0514
  862.0000   -40.0649    15.0667    10.8571    12.5009   100.2782     7.8591     2.4575     0.1120     0.0535
  862.5000   -40.0578    15.3242    10.5034    12.9289   101.3245     7.8614     2.4653     0.1088     0.0591
  863.0000   -40.0507    15.3242    10.4203    13.3716   101.0370     7.8615     2.4661     0.1076     0.0630
  863.5000   -40.0436    15.3243    10.4652    13.7244   100.0944     7.8596     2.4556     0.1154     0.0642
  864.0000   -40.0365    15.3242    10.6674    13.6251    98.0723     7.8576     2.4359     0.1257     0.0623
  864.5000   -40.0294    15.3237    10.8735    13.5435    95.9587     7.8556     2.4162     0.1361     0.0604
  865.0000   -40.0223    15.3209    11.0836    13.4631    93.8548     7.8536     2.4034     0.1446     0.0586
  865.5000   -40.0151    15.3160    11.2977    13.3523    91.8725     7.8517     2.3949     0.1502     0.0567
  866.0000   -40.0080    15.3142    11.5160    13.9677    90.2834     7.8497     2.3963     0.1542     0.0548
  866.5000   -40.0009    16.7928    11.7395    15.0240    89.7628     7.8477     2.4039     0.1482     0.0548
  867.0000   -39.9938    18.0854    12.0685    16.1602    90.5209     7.8457     2.4115     0.1426     0.0555
  867.5000   -39.9868    19.4776    12.0016    17.3823    91.5506     7.8437     2.4190     0.1379     0.0563
  868.0000   -39.9794    20.3707    11.8736    17.9132    92.5588     7.8418     2.4191     0.1367     0.0547
  868.5000   -39.9611    17.9164    11.6959    16.5347    93.7489     7.8398     2.4140     0.1375     0.0527
  869.0000   -39.9433    16.3416    11.5109    14.8950    94.9416     7.8378     2.4092     0.1417     0.0507
  869.5000   -39.9255    15.1688    11.3288    14.9105    96.1378     7.8358     2.4043     0.1455     0.0487
  870.0000   -39.9078    15.1773    11.1496    14.8461    97.3436     7.8339     2.4086     0.1467     0.0492
  870.5000   -39.8901    15.1206    10.9732    14.8056    98.4279     7.8319     2.4141     0.1377     0.0503
  871.0000   -39.8723    15.0894    10.7996    14.7652    97.1385     7.8299     2.4197     0.1355     0.0513
  871.5000   -39.8546    15.0574    10.6287    14.7249    96.4367     7.8279     2.4251     0.1333     0.0524
  872.0000   -39.8368    15.0254    10.4944    14.6848    98.0011     7.8260     2.4307     0.1311     0.0534
  872.5000   -39.8191    14.9935    10.4288    14.6456    98.4452     7.8240     2.4362     0.1288     0.0545
  873.0000   -39.8014    14.9616    10.3635    14.5100    96.2585     7.8224     2.4425     0.1266     0.0556
  873.5000   -39.7836    14.9297    10.2987    14.3531    93.8370     7.8217     2.4495     0.1244     0.0551
  874.0000   -39.7659    14.8812    10.2343    14.1978    92.1162     7.8210     2.4516     0.1222     0.0494
  874.5000   -39.7482    14.7920    10.1703    14.0442    91.5193     7.8203     2.4540     0.1197     0.0509
  875.0000   -39.7304    14.7038    10.1067    13.7084    93.4236     7.8196     2.4654     0.1162     0.0543
  875.5000   -39.7127    14.6162    10.0435    13.2469    95.2754     7.8189     2.4768     0.1127     0.0550
