~VERSION INFORMATION
 VERS.                2.0:   CWLS LOG ASCII STANDARD - VERSION 2.0
 WRAP.                 NO:   ONE LINE PER DEPTH STEP
~WELL INFORMATION
#MNEM.UNIT      DATA TYPE    INFORMATION
#----------   ------------   ------------------------------
 STRT.F          834.5000:   START DEPTH
 STOP.F         1644.0000:   STOP DEPTH
 STEP.F            0.5000:   STEP LENGTH
 NULL.          -999.2500:   NO VALUE
 COMP. LAWRENCE/ALLISON INC:   COMPANY
 WELL.      85 STX #15-15:   WELL
 FLD .            WILDCAT:   FIELD
 LOC .      S15 T38N R78W:   LOCATION
 CNTY.            NATRONA:   COUNTY
 STAT.            WYOMING:   STATE
 CTRY. UNITED STATES OF AMERICA:   COUNTRY
 SRVC.            Unknown:   SERVICE COMPANY
 DATE.        06-SEP-1987:   LOGDATE
 API .       490251116000:   API NUMBER
~CURVE INFORMATION
#MNEM.UNIT       API CODE    CURVE DESCRIPTION
#----------   ------------   ------------------------------
 DEPT.F                  :   
 TGAS.UNITS  91 830 01 00:   TOTAL GAS FROM HOTWIRE
 ROP .MIN/FT 91 810 01 00:   RAT OF DRILLING PENETRATION
~PARAMETER INFORMATION
#MNEM.UNIT          VALUE    DESCRIPTION
#----------   ------------   ------------------------------
 DATE.             9-6-87:   RUN DATE
 BLI .F              1644:   BOTTOM LOG INTERVAL
 TLI .F               834:   TOP LOG INTERVAL
 LUN .              T-146:   LOGGING UNIT NUMBER
 ENGI.               HUSK:   RECORDING ENGINEER
 WITN.              TOWER:   WITNESSED BY
 CLNT.            A2DTECH:   CLIENT CODE
 ORIG.           5" PRINT:   ORIGIN OF DATA
 UWI .       490251116000:   UNIQUE WELL ID
 DICO. A2D Technologies, Inc.:   DIGITIZING COMPANY
~OTHER INFORMATION
~A   DEPT       TGAS        ROP 
  834.5000     6.2890     1.3020
  835.0000     6.2885     1.1989
  835.5000     6.2880     1.1060
  836.0000     6.2874     1.0151
  836.5000     6.2869     1.0153
  837.0000     6.2864     1.0154
  837.5000     6.2858     1.0156
  838.0000     6.2853     1.0157
  838.5000     6.2848     1.0159
  839.0000     6.2842     1.0264
  839.5000     6.2837     1.0265
  840.0000     6.2832     1.0267
  840.5000     6.2826     1.0056
  841.0000     6.2821     0.9251
  841.5000     6.2816     0.8230
  842.0000     6.2810     0.7720
  842.5000     6.2805     0.8753
  843.0000     6.2800     0.9271
  843.5000     6.2794     0.9687
  844.0000     6.2789     1.0000
  844.5000     6.2784     1.0005
  845.0000     6.2779     1.0216
  845.5000     6.2773     1.0222
  846.0000     6.2768     1.0021
  846.5000     6.2763     0.8692
  847.0000     6.2757     0.6951
  847.5000     6.2752     0.6032
  848.0000     6.2747     0.4395
  848.5000     6.2741     0.4605
  849.0000     6.2736     0.4918
  849.5000     6.2731     0.5436
  850.0000     6.2725     0.5544
  850.5000     6.2720     0.5446
  851.0000     6.2715     0.5453
  851.5000     6.2709     0.5458
  852.0000     6.2704     0.5771
  852.5000     6.2699     0.7521
  853.0000     6.2693     0.8348
  853.5000     6.2688     0.9585
  854.0000     6.2683     0.9896
  854.5000     6.2677     0.8157
  855.0000     6.2672     0.6930
  855.5000     6.2667     0.4969
  856.0000     6.2661     0.3758
  856.5000     6.2656     0.3764
  857.0000     6.2651     0.3870
  857.5000     6.2645     0.3773
  858.0000     6.2640     0.3779
  858.5000     6.2635     0.3680
  859.0000     6.2629     0.3789
  859.5000     6.2624     0.3794
  860.0000     6.2637     0.3901
  860.5000     6.2743     0.3801
  861.0000     6.2849     0.3906
  861.5000     6.2956     0.3601
  862.0000     6.3062     0.3604
  862.5000     6.3168     0.3709
  863.0000     6.3275     0.3814
  863.5000     6.3381     0.3921
  864.0000     6.3487     0.4025
  864.5000     6.3593     0.4015
  865.0000     6.3700     0.3927
  865.5000     6.3806     0.3827
  866.0000     6.3912     0.3727
  866.5000     6.4019     0.3730
  867.0000     6.4125     0.3629
  867.5000     6.4231     0.3632
  868.0000     6.4338     0.3738
  868.5000     6.4444     0.3740
  869.0000     6.4550     0.3743
  869.5000     6.4656     0.3745
  870.0000     6.4763     0.3748
  870.5000     6.4869     0.3750
  871.0000     6.4975     0.3855
  871.5000     6.5082     0.3961
  872.0000     6.5188     0.3963
  872.5000     6.5294     0.3966
  873.0000     6.5400     0.3968
  873.5000     6.5507     0.3971
  874.0000     6.5613     0.3973
  874.5000     6.5719     0.3976
  875.0000     6.5826     0.3978
  875.5000     6.5932     0.3982
  876.0000     6.6038     0.3984
  876.5000     6.6144     0.4500
  877.0000     6.6251     0.4913
  877.5000     6.6357     0.5224
  878.0000     6.6463     0.5432
  878.5000     6.6570     0.5434
  879.0000     6.6676     0.5642
  879.5000     6.6782     0.5644
  880.0000     6.6906     0.5338
  880.5000     6.6637     0.5336
  881.0000     6.6316     0.5231
  881.5000     6.5995     0.5228
  882.0000     6.5674     0.5226
  882.5000     6.5353     0.5326
  883.0000     6.5032     0.5323
  883.5000     6.4711     0.5424
  884.0000     6.4390     0.5318
  884.5000     6.4069     0.4905
  885.0000     6.3748     0.4286
  885.5000     6.3427     0.3668
  886.0000     6.3107     0.3254
  886.5000     6.2786     0.3252
  887.0000     6.2465     0.3353
  887.5000     6.2144     0.3452
  888.0000     6.1823     0.3450
  888.5000     6.1502     0.3550
  889.0000     6.1181     0.3445
  889.5000     6.0860     0.3442
  890.0000     6.0539     0.3439
  890.5000     6.0218     0.3334
  891.0000     5.9897     0.3229
  891.5000     5.9576     0.3226
  892.0000     5.9255     0.3224
  892.5000     5.8935     0.3324
  893.0000     5.8614     0.3424
  893.5000     5.8293     0.3524
  894.0000     5.7972     0.3419
  894.5000     5.7651     0.3313
  895.0000     5.7330     0.3516
  895.5000     5.7009     0.3308
  896.0000     5.6688     0.3203
  896.5000     5.6367     0.3406
  897.0000     5.6046     0.3301
  897.5000     5.5725     0.3315
  898.0000     5.5404     0.3296
  898.5000     5.5084     0.3293
  899.0000     5.4763     0.3304
  899.5000     5.4442     0.3391
  900.0000     5.4158     0.3594
  900.5000     5.3954     0.3604
  901.0000     5.3749     0.3614
  901.5000     5.3545     0.3624
  902.0000     5.3340     0.3634
  902.5000     5.3135     0.3645
  903.0000     5.2931     0.3655
  903.5000     5.2726     0.3665
  904.0000     5.2521     0.3676
  904.5000     5.2317     0.3686
  905.0000     5.2112     0.3696
  905.5000     5.1908     0.3706
  906.0000     5.1703     0.3717
  906.5000     5.1498     0.3727
  907.0000     5.1294     0.3737
  907.5000     5.1089     0.3747
  908.0000     5.0884     0.3758
  908.5000     5.0680     0.3768
  909.0000     5.0475     0.3778
  909.5000     5.0270     0.3789
  910.0000     5.0066     0.3799
  910.5000     4.9861     0.3809
  911.0000     4.9657     0.3819
  911.5000     4.9452     0.3830
  912.0000     4.9247     0.3840
  912.5000     4.9043     0.3850
  913.0000     4.8838     0.3860
  913.5000     4.8633     0.3871
  914.0000     4.8429     0.3881
  914.5000     4.8224     0.3891
  915.0000     4.8020     0.3901
  915.5000     4.7815     0.3912
  916.0000     4.7610     0.3922
  916.5000     4.7406     0.3932
  917.0000     4.7201     0.3943
  917.5000     4.6996     0.3953
  918.0000     4.6792     0.3963
  918.5000     4.6587     0.3973
  919.0000     4.6382     0.3984
  919.5000     4.6178     0.3994
  920.0000     4.5957     0.4004
  920.5000     4.6053     0.3997
  921.0000     4.6157     0.3989
  921.5000     4.6262     0.3982
  922.0000     4.6367     0.3975
  922.5000     4.6471     0.3967
  923.0000     4.6576     0.3960
  923.5000     4.6680     0.3953
  924.0000     4.6785     0.3945
  924.5000     4.6890     0.3938
  925.0000     4.6994     0.3931
  925.5000     4.7099     0.3923
  926.0000     4.7203     0.3916
  926.5000     4.7308     0.3909
  927.0000     4.7413     0.3901
  927.5000     4.7517     0.3894
  928.0000     4.7622     0.3887
  928.5000     4.7727     0.3879
  929.0000     4.7831     0.3872
  929.5000     4.7936     0.3865
  930.0000     4.8040     0.3857
  930.5000     4.8145     0.3850
  931.0000     4.8250     0.3843
  931.5000     4.8354     0.3835
  932.0000     4.8459     0.3828
  932.5000     4.8563     0.3821
  933.0000     4.8668     0.3813
  933.5000     4.8773     0.3806
  934.0000     4.8877     0.3799
  934.5000     4.8982     0.3791
  935.0000     4.9087     0.3784
  935.5000     4.9191     0.3777
  936.0000     4.9296     0.3769
  936.5000     4.9400     0.3762
  937.0000     4.9505     0.3755
  937.5000     4.9610     0.3747
  938.0000     4.9714     0.3441
  938.5000     4.9819     0.3245
  939.0000     4.9923     0.3056
  939.5000     5.0028     0.2966
  940.0000     5.0150     0.2978
  940.5000     5.0061     0.2976
  941.0000     4.9955     0.2974
  941.5000     4.9850     0.2971
  942.0000     4.9744     0.2968
  942.5000     4.9638     0.2966
  943.0000     4.9533     0.2963
  943.5000     4.9427     0.2961
  944.0000     4.9321     0.2958
  944.5000     4.9215     0.2956
  945.0000     4.9110     0.2953
  945.5000     4.9004     0.2950
  946.0000     4.8898     0.2948
  946.5000     4.8793     0.2945
  947.0000     4.8687     0.2943
  947.5000     4.8581     0.2940
  948.0000     4.8476     0.2938
  948.5000     4.8370     0.2935
  949.0000     4.8264     0.2932
  949.5000     4.8159     0.2930
  950.0000     4.8053     0.2927
  950.5000     4.7947     0.2925
  951.0000     4.7842     0.2922
  951.5000     4.7736     0.2920
  952.0000     4.7630     0.2917
  952.5000     4.7525     0.2915
  953.0000     4.7419     0.2912
  953.5000     4.7313     0.2909
  954.0000     4.7208     0.2907
  954.5000     4.7102     0.2904
  955.0000     4.6996     0.2902
  955.5000     4.6891     0.2899
