~VERSION INFORMATION
 VERS.                2.0:   CWLS LOG ASCII STANDARD - VERSION 2.0
 WRAP.                 NO:   ONE LINE PER DEPTH STEP
~WELL INFORMATION
#MNEM.UNIT      DATA TYPE    INFORMATION
#----------   ------------   ------------------------------
 STRT.F           36.0000:   START DEPTH
 STOP.F          503.0000:   STOP DEPTH
 STEP.F            0.5000:   STEP LENGTH
 NULL.          -999.2500:   NO VALUE
 COMP.    FENIX & SCISSON:   COMPANY
 WELL.     NPR ##3 77-S-3:   WELL
 FLD .             TEAPOT:   FIELD
 LOC .       S3 T38N R78W:   LOCATION
 CNTY.            NATRONA:   COUNTY
 STAT.            WYOMING:   STATE
 CTRY. UNITED STATES OF AMERICA:   COUNTRY
 SRVC.       Schlumberger:   SERVICE COMPANY
 DATE.        04-MAR-1977:   LOGDATE
 API .       490251029500:   API NUMBER
~CURVE INFORMATION
#MNEM.UNIT       API CODE    CURVE DESCRIPTION
#----------   ------------   ------------------------------
 DEPT.F                  :   
 SPR .MV     07 010 01 00:   SPONTANEOUS POTENTIAL
 ILD .OHMM   07 120 46 00:   INDUCTION LOG DEEP
 ILM .OHMM   07 120 44 00:   INDUCTION LOG MEDIUM
 LL8 .OHMM   07 220 08 00:   LATEROLOG-8 RES.
 GRD .GAPI   45 310 01 00:   GAMMA RAY FROM DENSITY LOG
 CALD.IN     45 280 60 00:   CALIPER FROM DENSITY LOG
 CORR.G/C3   45 356 01 00:   DENSITY CORRECTION
 RHOB.G/C3   45 350 01 00:   BULK DENSITY
 DPHI.DEC    45 890 12 00:   DENSITY POROSITY SANDSTONE
~PARAMETER INFORMATION
#MNEM.UNIT          VALUE    DESCRIPTION
#----------   ------------   ------------------------------
 PD  .                 GL:   PERMANENT DATUM
 EPD .F              5165:   ELEVATION PERMANENT DATUM
 LMF .                 KB:   LOG MEASURED FROM
 DAPD.F                 4:   FEET ABOVE PERMANENT DATUM
 DMF .                 GL:   DRILLING MEASURED FROM
 EKB .F              5169:   KELLING BUSHING
 EGL .F              5165:   GROUND LEVEL
 DATE.        04-MAR-1977:   RUN DATE
 RUN .                  1:   RUN NUMBER
 DD  .F               500:   DEPTH DRILLER
 DL  .F               504:   DEPTH LOGGER
 BLI .F               503:   BOTTOM LOG INTERVAL
 TLI .F                46:   TOP LOG INTERVAL
 CS  .IN            8.625:   CASING SIZE
 CBD .F                42:   CASING BOTTOM DRILLER
 CBL .F                46:   CASING BOTTOM LOGGER
 BS  .IN            7.875:   BIT SIZE
 BSD .F               500:   BIT SIZE AT DEPTH
 DFT .                KCL:   DRILLING FLUID TYPE
 DFD .                8.6:   DRILLING FLUID DENSITY
 DFV .                 32:   DRILLING FLUID VISCOSITY
 DFPH.                8.0:   DRILLING FLUID PH
 DFL .                7.6:   DRILLING FLUID LOSS
 MSS .            MUD PIT:   MUD SAMPLE SOURCE
 RMS .OHMM            .66:   RESISTIVITY MUD SAMPLE
 MST .F                56:   MUD SAMPLE TEMPERATURE
 RMF .OHMM            .49:   RESISTIVITY MUD FILTRATE SAMPLE
 MFST.F                56:   MUD FILTRATE SAMPLE TEMPERATURE
 RMC .OHMM             .4:   RESISTIVITY MUD CAKE
 MCST.F                56:   MUD CAKE SAMPLE TEMPERATURE
 MFSS.               MEAS:   MUD FILTRATE SAMPLE SOURCE
 MCSS.               CALC:   MUD CAKE SAMPLE SOURCE
 TCS .HRS            0100:   TIME CURCULATED STOPPED
 LUN .               7680:   LOGGING UNIT NUMBER
 LUL .               CSPR:   LOGGING UNIT LOCATION
 ENGI.    LOHBECK/ TAYLOR:   RECORDING ENGINEER
 WITN.              BURKE:   WITNESSED BY
 CLNT.            A2DTECH:   CLIENT CODE
 ORIG.           5" PRINT:   ORIGIN OF DATA
 UWI .       490251029500:   UNIQUE WELL ID
 DICO. A2D Technologies, Inc.:   DIGITIZING COMPANY
~OTHER INFORMATION
~A   DEPT      SPR        ILD        ILM        LL8         GRD      CALD       CORR       RHOB       DPHI   
# ...
  474.0000   -47.3543    13.7015    13.7541    14.0859    55.7968     8.0354     0.0147     2.4955     0.0926
  474.5000   -47.3104    13.8042    13.7616    14.1915    54.2271     8.0349     0.0139     2.4850     0.1010
  475.0000   -47.1351    13.8117    13.7692    14.1011    53.5557     8.0345     0.0184     2.4752     0.1050
  475.5000   -46.9596    13.9154    13.7767    14.1108    54.0070     8.0340     0.0166     2.4683     0.1128
  476.0000   -46.8118    13.9231    13.7843    14.1185    56.0301     8.0336     0.0116     2.4654     0.1113
  476.5000   -46.7895    14.0275    13.7918    14.1263    57.1550     8.0331     0.0213     2.4752     0.1032
  477.0000   -46.7672    14.0353    13.7984    14.0365    56.9327     8.0327     0.0250     2.4887     0.0993
  477.5000   -46.7449    13.9458    13.8060    13.9474    56.0254     8.0323     0.0325     2.5097     0.0858
  478.0000   -46.7226    13.9554    13.8146    13.8588    55.8143     8.0318     0.0272     2.5142     0.0816
  478.5000   -46.7003    13.8648    13.8221    13.8664    56.9398     8.0464     0.0332     2.5006     0.0864
  479.0000   -46.8331    13.7787    13.7325    13.6833    57.3911     8.0460     0.0226     2.5044     0.0885
  479.5000   -46.9602    13.6893    13.6479    13.5008    56.4950     8.0304     0.0143     2.4915     0.0948
  480.0000   -46.9324    13.5085    13.4672    13.5100    56.9463     8.0451     0.0106     2.4901     0.1030
  480.5000   -47.0651    13.4227    13.4746    13.3298    59.6431     8.0445     0.0173     2.4983     0.1015
  481.0000   -47.0373    13.2473    13.2052    13.1538    58.7471     8.0441     0.0233     2.5036     0.0976
  481.5000   -47.1700    13.0724    13.1196    12.9801    57.1774     8.0436     0.0142     2.5073     0.0850
  482.0000   -47.1422    12.8108    12.8591    12.8087    56.9551     8.0432     0.0112     2.5050     0.0874
  482.5000   -47.2749    12.6417    12.7772    12.6410    58.5964     8.0428     0.0224     2.4900     0.1078
  483.0000   -47.2471    12.4731    12.6095    12.4742    60.5528     8.0424     0.0246     2.4802     0.0987
  483.5000   -47.3798    12.3101    12.4426    12.2246    61.4532     8.0418     0.0194     2.4908     0.0963
  484.0000   -47.5014    12.1459    12.3642    12.0633    62.5781     8.0414     0.0141     2.4892     0.0951
  484.5000   -47.4791    11.9045    12.2004    11.8220    64.1522     8.0409     0.0174     2.4977     0.0915
  485.0000   -47.3074    11.7473    12.0395    11.7443    64.1544     8.0405     0.0155     2.4847     0.1047
  485.5000   -47.2851    11.5919    11.7988    11.5119    63.0338     8.0401     0.0117     2.4817     0.1029
  486.0000   -47.1133    11.4389    11.6379    11.3506    60.1168     8.0396     0.0140     2.4862     0.0993
  486.5000   -46.9415    11.2101    11.4896    11.1326    59.6699     8.0392     0.0079     2.4869     0.0975
  487.0000   -46.9193    10.9859    11.2497    10.9098    59.4475     8.0387     0.0206     2.5004     0.0906
  487.5000   -46.8970    10.8409    11.0223    10.6930  -999.2500     8.0383     0.0304     2.5071     0.0866
  488.0000   -46.8747    10.6240    10.7411    10.5503  -999.2500     8.0378     0.0363     2.5049     0.0920
  488.5000   -46.8524    10.4780    10.5979    10.4110  -999.2500     8.0373     0.0287     2.4972     0.0951
  489.0000   -46.9806    10.3453    10.5307    10.3449  -999.2500     8.0369     0.0228     2.5156     0.0905
  489.5000   -46.9573    10.2685    10.4638    10.3520  -999.2500     8.0214     0.0250     2.4981     0.0908
  490.0000   -47.0845    10.1438    10.4710    10.4296  -999.2500     8.0210     0.0190     2.4897     0.0983
  490.5000   -47.0622    10.1508    10.6227    10.5807  -999.2500     8.0206     0.0242     2.4875     0.1023
  491.0000   -47.1898    10.2979    10.7022    10.6600  -999.2500     8.0201     0.0294     2.4950     0.0935
  491.5000   -47.1671    10.4471    10.8572    10.8145  -999.2500     8.0197     0.0268     2.4980     0.0950
  492.0000   -47.1448    10.5985    10.8632    10.8204  -999.2500     8.0191     0.0196     2.4935     0.0953
  492.5000   -47.2720    10.6780    10.6445    10.7502  -999.2500     8.0187     0.0031     2.4845     0.1019
  493.0000   -47.2496    10.4643    10.4331    10.6819  -999.2500     8.0183     0.0113     2.4837     0.1010
  493.5000   -47.2272    10.2549    10.1541    10.3974  -999.2500     8.0178     0.0143     2.4949     0.1013
  494.0000   -47.2048    10.0498     9.9511    10.2602  -999.2500     8.0174     0.0127     2.4972     0.0902
  494.5000   -47.1824     9.8473     9.7521    10.1245  -999.2500     8.0169     0.0247     2.5099     0.0944
  495.0000   -47.1599     9.6516     9.5559    10.0602  -999.2500     8.0165     0.0141     2.4926     0.0956
  495.5000   -47.1375     9.5242     9.3661     9.9275  -999.2500     8.0010     0.0224     2.4919     0.0968
  496.0000   -47.1151     9.3971     9.2425     9.8644  -999.2500     8.0006     0.0269     2.4991     0.0916
  496.5000   -46.9432     9.2743     9.1206     9.8018  -999.2500     7.9850     0.0238     2.5062     0.0857
  497.0000   -46.9208     9.2142     9.0615     9.6724  -999.2500     7.9846     0.0343     2.4993     0.0897
  497.5000   -46.5950     9.1556     9.0677     9.6109  -999.2500     7.9842     0.0290     2.4945     0.0997
  498.0000   -46.3916     9.1617     9.0725     9.6162  -999.2500     7.9837     0.0185     2.4896     0.0988
  498.5000  -999.2500  -999.2500  -999.2500  -999.2500  -999.2500     7.9833     0.0205     2.4970     0.0967
  499.0000  -999.2500  -999.2500  -999.2500  -999.2500  -999.2500     7.9829     0.0275     2.5045     0.0853
  499.5000  -999.2500  -999.2500  -999.2500  -999.2500  -999.2500     7.9824     0.0319     2.5023     0.0910
  500.0000  -999.2500  -999.2500  -999.2500  -999.2500  -999.2500     7.9820     0.0536     2.4985     0.0937
  500.5000  -999.2500  -999.2500  -999.2500  -999.2500  -999.2500     7.9899     0.0341     2.4842     0.1003
  501.0000  -999.2500  -999.2500  -999.2500  -999.2500  -999.2500     8.0260     0.0355     2.4737     0.1099
  501.5000  -999.2500  -999.2500  -999.2500  -999.2500  -999.2500     8.1457     0.0475     2.4677     0.1117
  502.0000  -999.2500  -999.2500  -999.2500  -999.2500  -999.2500     8.0702     0.0527     2.4493     0.1151
  502.5000  -999.2500  -999.2500  -999.2500  -999.2500  -999.2500     7.7995     0.0497     2.3791     0.1290
  503.0000  -999.2500  -999.2500  -999.2500  -999.2500  -999.2500     7.5727     0.0459     2.3532     0.1659
