~VERSION INFORMATION
 VERS.                2.0:   CWLS LOG ASCII STANDARD - VERSION 2.0
 WRAP.                 NO:   ONE LINE PER DEPTH STEP
~WELL INFORMATION
#MNEM.UNIT      DATA TYPE    INFORMATION
#----------   ------------   ------------------------------
 STRT.F           12.5000:   START DEPTH
 STOP.F          688.0000:   STOP DEPTH
 STEP.F            0.5000:   STEP LENGTH
 NULL.          -999.2500:   NO VALUE
 COMP. FENIX & SCISSON INC:   COMPANY
 WELL. 26-66 SX 11 WO #26-11:   WELL
 FLD .             TEAPOT:   FIELD
 LOC .      S11 T38N R78W:   LOCATION
 CNTY.            NATRONA:   COUNTY
 STAT.            WYOMING:   STATE
 CTRY. UNITED STATES OF AMERICA:   COUNTRY
 SRVC.      Dresser Atlas:   SERVICE COMPANY
 DATE.        28-AUG-1980:   LOGDATE
 API .       490251084700:   API NUMBER
~CURVE INFORMATION
#MNEM.UNIT       API CODE    CURVE DESCRIPTION
#----------   ------------   ------------------------------
 DEPT.F                  :   
 SFL .OHMM   07 220 01 00:   SHALLOW FOCUSED LOG RESISTIVITY
 ILD .OHMM   07 120 46 00:   INDUCTION LOG DEEP
 ILM .OHMM   07 120 44 00:   INDUCTION LOG MEDIUM
 SPR .MV     07 010 01 00:   SPONTANEOUS POTENTIAL
 CORR.G/C3   45 356 01 00:   DENSITY CORRECTION
 RHOB.G/C3   45 350 01 00:   BULK DENSITY
 DPOR.DEC    45 890 12 00:   DENSITY POROSITY SANDSTONE
 NPOR.DEC    42 890 03 00:   NEUTRON POROSITY SANDSTONE
 GRD .GAPI   45 310 01 00:   GAMMA RAY FROM DENSITY LOG
~PARAMETER INFORMATION
#MNEM.UNIT          VALUE    DESCRIPTION
#----------   ------------   ------------------------------
 PD  .                 GL:   PERMANENT DATUM
 EPD .F              5194:   ELEVATION PERMANENT DATUM
 LMF .                 KB:   LOG MEASURED FROM
 DAPD.F                 5:   FEET ABOVE PERMANENT DATUM
 DMF .                 KB:   DRILLING MEASURED FROM
 EKB .F              5199:   KELLING BUSHING
 EGL .F              5194:   GROUND LEVEL
 DATE.          8-28-1980:   RUN DATE
 RUN .                  1:   RUN NUMBER
 DD  .F               700:   DEPTH DRILLER
 DL  .F               689:   DEPTH LOGGER
 BLI .F               688:   BOTTOM LOG INTERVAL
 TLI .F                14:   TOP LOG INTERVAL
 BS  .IN             8.75:   BIT SIZE
 BSD .F               700:   BIT SIZE AT DEPTH
 DFT .                KCL:   DRILLING FLUID TYPE
 DFD .                8.8:   DRILLING FLUID DENSITY
 DFV .                 55:   DRILLING FLUID VISCOSITY
 DFPH.                 11:   DRILLING FLUID PH
 DFL .                  8:   DRILLING FLUID LOSS
 MSS .           FLOWLINE:   MUD SAMPLE SOURCE
 RMS .OHMM            .72:   RESISTIVITY MUD SAMPLE
 MST .F                66:   MUD SAMPLE TEMPERATURE
 RMF .OHMM            .21:   RESISTIVITY MUD FILTRATE SAMPLE
 MFST.F                66:   MUD FILTRATE SAMPLE TEMPERATURE
 RMC .OHMM           1.24:   RESISTIVITY MUD CAKE
 MCST.F                66:   MUD CAKE SAMPLE TEMPERATURE
 MFSS.               MEAS:   MUD FILTRATE SAMPLE SOURCE
 MCSS.               MEAS:   MUD CAKE SAMPLE SOURCE
 BHT .F               100:   BOTTOM HOLE TEMPERATURE
 TCS .HRS               2:   TIME CURCULATED STOPPED
 MRT .F               100:   MAXIMUM RECORDED TEMPERATURE
 LUN .               6240:   LOGGING UNIT NUMBER
 LUL .               RYTN:   LOGGING UNIT LOCATION
 ENGI.           J. GETTY:   RECORDING ENGINEER
 WITN.              FIVAS:   WITNESSED BY
 CLNT.            A2DTECH:   CLIENT CODE
 ORIG.      1" 2.5" PRINT:   ORIGIN OF DATA
 UWI .       490251084700:   UNIQUE WELL ID
 DICO. A2D Technologies, Inc.:   DIGITIZING COMPANY
~OTHER INFORMATION
~A   DEPT      SFL        ILD        ILM        SPR       CORR       RHOB       DPOR         NPOR      GRD   
# ...
  669.5000    10.9385     9.3439     9.1834   -67.0996     0.0090     2.4811     0.1191     0.2936   131.5336
  670.0000    10.4554     9.3239     9.1834   -66.9255     0.0076     2.4676     0.1259     0.2869   139.5840
  670.5000    10.2176     9.3040     9.1834   -66.7499     0.0152     2.4825     0.1188     0.2859   141.5426
  671.0000    10.0750     9.2841     9.1834   -66.5749     0.0293     2.4989     0.1077     0.2853   138.4149
  671.5000    10.0900     9.2642     9.1834   -66.4024     0.0418     2.5168     0.0966     0.2736   135.1909
  672.0000    10.1550     9.2444     9.1834   -66.2286     0.0552     2.5273     0.0909     0.2614   135.9820
  672.5000    10.2204     9.2247     9.1834   -66.2629     0.0673     2.5445     0.0820     0.2582   136.9002
  673.0000    10.2862     9.2044     9.1852   -66.3517     0.0781     2.5623     0.0693     0.2643   133.2041
  673.5000    10.3525     9.1827     9.1811   -66.4538     0.0508     2.5466     0.0693     0.2685   129.3301
  674.0000    10.4554     9.0477     9.1854   -66.5666     0.0230     2.5066     0.0980     0.2632   127.0629
  674.5000    10.3853     8.9003     8.9809   -66.3789    -0.0008     2.4649     0.1331     0.2587   130.1819
  675.0000    10.2340     8.7554     8.8151   -65.8496    -0.0039     2.4485     0.1418     0.2542   133.8855
  675.5000    10.0750     8.6129     8.6525   -65.3306    -0.0029     2.4496     0.1341     0.2556   137.5343
  676.0000     9.9608     8.4726     8.4929   -64.7925     0.0224     2.4776     0.1154     0.2624   136.2136
  676.5000     9.8397     8.3344     8.3361   -64.5190     0.0441     2.5061     0.0932     0.2669   134.8942
  677.0000     9.7202     8.1984     8.1821   -64.5782     0.0565     2.5300     0.0900     0.2596   134.3525
  677.5000     9.6020     8.0645     8.0308   -64.6173     0.0610     2.5311     0.0889     0.2518   141.3163
  678.0000     9.4854     7.9170     7.9177   -66.3265     0.0551     2.5332     0.0909     0.2526   148.7147
  678.5000     9.3701     7.7400     7.8508   -67.8214     0.0421     2.5143     0.1084     0.2805   146.7753
  679.0000     9.2563  -999.2500     7.7754   -67.0521     0.0294     2.4965     0.1084     0.2969   142.3492
  679.5000     9.1834  -999.2500     7.7007   -65.3133     0.0378     2.5106     0.0996     0.2943   143.5686
  680.0000     9.2328  -999.2500     7.6266   -63.4006     0.0483     2.5224     0.0927     0.2903   145.9133
  680.5000     9.2828  -999.2500     7.5534   -63.0105     0.0484     2.5226     0.0954     0.2907   147.0389
  681.0000     9.3331  -999.2500     7.4898   -62.5811     0.0390     2.5139     0.1005     0.2909   147.9081
  681.5000     9.3837  -999.2500     7.3148   -62.2126     0.0322     2.5059     0.1086     0.2780   147.5871
  682.0000     9.4346  -999.2500     7.1599   -61.8513     0.0318     2.4859     0.1258     0.2713   147.3145
  682.5000     9.4857  -999.2500     7.0084   -61.4632     0.0308     2.4567     0.1382     0.2637   146.4477
  683.0000     9.5301  -999.2500     6.8600   -61.0599     0.0303     2.4454     0.1361     0.2736   144.9762
  683.5000     8.5364  -999.2500  -999.2500   -60.8333     0.0296     2.4643     0.1214     0.2866   145.7105
  684.0000     7.7473  -999.2500  -999.2500   -60.5891     0.0290     2.4887     0.1076     0.2871   148.0453
  684.5000     6.9547  -999.2500  -999.2500   -60.3448     0.0283     2.4985     0.1111     0.2895   148.5586
  685.0000     7.6240  -999.2500  -999.2500   -60.0881     0.0331     2.4854     0.1163     0.2872   146.4878
  685.5000     9.0783  -999.2500  -999.2500   -59.6231     0.0403     2.4852     0.1171     0.2911   145.1569
  686.0000     9.7084  -999.2500  -999.2500   -59.1071     0.0474     2.4859     0.1159     0.3345   144.5157
  686.5000     9.7769  -999.2500  -999.2500   -58.6081  -999.2500  -999.2500  -999.2500  -999.2500  -999.2500
  687.0000     9.8851  -999.2500  -999.2500   -58.0236  -999.2500  -999.2500  -999.2500  -999.2500  -999.2500
  687.5000     9.9944  -999.2500  -999.2500   -57.7458  -999.2500  -999.2500  -999.2500  -999.2500  -999.2500
  688.0000    10.1050  -999.2500  -999.2500   -57.4171  -999.2500  -999.2500  -999.2500  -999.2500  -999.2500
