~VERSION INFORMATION
 VERS.                2.0:   CWLS LOG ASCII STANDARD - VERSION 2.0
 WRAP.                 NO:   ONE LINE PER DEPTH STEP
~WELL INFORMATION
#MNEM.UNIT      DATA TYPE    INFORMATION
#----------   ------------   ------------------------------
 STRT.F           43.0000:   START DEPTH
 STOP.F          466.0000:   STOP DEPTH
 STEP.F            0.5000:   STEP LENGTH
 NULL.          -999.2500:   NO VALUE
 COMP. JOHn BROWN E & C INC:   COMPANY
 WELL. NPR # #3 64-25-SX-10:   WELL
 FLD .        TEAPOT DOME:   FIELD
 LOC .      S10 T38N R78W:   LOCATION
 CNTY.            NATRONA:   COUNTY
 STAT.            WYOMING:   STATE
 CTRY. UNITED STATES OF AMERICA:   COUNTRY
 SRVC.       Schlumberger:   SERVICE COMPANY
 DATE.        26-SEP-1990:   LOGDATE
 API .       490251132200:   API NUMBER
~CURVE INFORMATION
#MNEM.UNIT       API CODE    CURVE DESCRIPTION
#----------   ------------   ------------------------------
 DEPT.F                  :   
 ILD .OHMM   07 120 46 00:   INDUCTION LOG DEEP RESISTIVITY
 ILM .OHMM   07 120 44 00:   INDUCTION LOG MEDIUM
 GRR .GAPI   07 310 01 00:   GAMMA RAY FROM RES. LOG.
~PARAMETER INFORMATION
#MNEM.UNIT          VALUE    DESCRIPTION
#----------   ------------   ------------------------------
 PD  .                 GL:   PERMANENT DATUM
 EPD .F              5190:   ELEVATION PERMANENT DATUM
 LMF .                 KB:   LOG MEASURED FROM
 DAPD.F                10:   FEET ABOVE PERMANENT DATUM
 DMF .                 KB:   DRILLING MEASURED FROM
 EKB .F              5200:   KELLING BUSHING
 EDF .F              5199:   DRILLING FLOOR
 EGL .F              5190:   GROUND LEVEL
 DATE.            9-29-90:   RUN DATE
 RUN .                  1:   RUN NUMBER
 DD  .F               470:   DEPTH DRILLER
 DL  .F               473:   DEPTH LOGGER
 BLI .F               467:   BOTTOM LOG INTERVAL
 TLI .F                46:   TOP LOG INTERVAL
 CS  .IN            8.625:   CASING SIZE
 CBL .F                55:   CASING BOTTOM LOGGER
 BS  .IN            7.875:   BIT SIZE
 BSD .F               470:   BIT SIZE AT DEPTH
 DFT .                AIR:   DRILLING FLUID TYPE
 TCS .HRS            1900:   TIME CURCULATED STOPPED
 TLAB.HRS            2000:   TIME LOGGER AT BOTTOM
 LUN .               5982:   LOGGING UNIT NUMBER
 LUL .               CODY:   LOGGING UNIT LOCATION
 ENGI.             FISHER:   RECORDING ENGINEER
 WITN.             STRONG:   WITNESSED BY
 CLNT.            A2DTECH:   CLIENT CODE
 ORIG.       2", 5" PRINT:   ORIGIN OF DATA
 UWI .       490251132200:   UNIQUE WELL ID
 DICO. A2D Technologies, Inc.:   DIGITIZING COMPANY
~OTHER INFORMATION
~A   DEPT      ILD        ILM         GRR  
# ...
  225.0000     8.4006     8.3136   132.0562
  225.5000     8.4198     8.4585   134.8237
  226.0000     8.4389     8.3802   135.4654
  226.5000     8.4582     8.3802   134.5023
  227.0000     8.4775     8.3802   133.6982
  227.5000     8.4968     8.3802   134.1807
  228.0000     8.5161     8.3801   134.8573
  228.5000     8.5355     8.3801   135.9179
  229.0000     8.5376     8.3798   136.8025
  229.5000     8.5376     8.3956   134.8672
  230.0000     8.5376     8.4167   132.8725
  230.5000     8.5378     8.4380   130.8982
  231.0000     8.5351     8.4592   128.8762
  231.5000     8.7613     8.5231   128.3707
  232.0000     8.9476     8.5861   130.2257
  232.5000     9.1378     8.8046   132.9863
  233.0000     9.3344     9.1869   133.0706
  233.5000     9.4566     9.2832   128.8189
  234.0000     9.2312     8.8525   124.4546
  234.5000     9.0647     8.6173   125.4494
  235.0000     8.6428     7.9420   128.7185
  235.5000     7.5476     6.8989   132.2475
  236.0000     6.5305     5.9881   135.7681
  236.5000     6.3995     5.1664   139.2903
  237.0000     6.5709     5.2592   143.2783
  237.5000     6.6411     5.9928   140.4071
  238.0000     6.3393     6.3312   133.6351
  238.5000     7.2342     6.7068   126.1184
  239.0000     7.8520     7.3437   119.7579
  239.5000     8.5232     8.0063   120.3505
  240.0000     9.2497     8.6279   121.3019
  240.5000    10.0303     9.3784   121.8561
  241.0000    10.8130    10.1921   121.4390
  241.5000    11.1816    10.9762   121.4964
  242.0000    11.1080    10.9245   122.9872
  242.5000    11.0198    10.8748   123.8512
  243.0000    10.9755    10.8254   123.5108
  243.5000    11.4182    10.7732   122.8220
  244.0000    11.7140    11.5597   119.2032
  244.5000    12.7393    12.4390   111.1700
  245.0000    13.8906    13.8692   100.5773
  245.5000    15.2779    15.5630    89.7507
  246.0000    16.9139    17.9123    80.3254
  246.5000    19.1755    20.5928    75.5377
  247.0000    21.7095    23.6784    73.5472
  247.5000    24.3787    27.2266    71.5720
  248.0000    26.9539    29.9602    67.7921
  248.5000    28.9573    31.6979    64.0502
  249.0000    29.8220    31.6519    66.0802
  249.5000    30.8254    31.5961    71.3413
  250.0000    30.5584    31.5403    75.2105
  250.5000    30.7548    31.4847    77.7241
  251.0000    30.8797    31.4043    80.3127
  251.5000    31.0092    31.6534    80.8893
  252.0000    31.3032    32.1080    78.9072
  252.5000    32.3862    32.8710    74.7420
  253.0000    33.7192    33.8308    72.3101
  253.5000    35.1502    36.5120    70.2740
  254.0000    36.6475    39.7940    68.6053
  254.5000    37.3982    42.7301    67.0341
  255.0000    37.8266    41.0485    65.4497
  255.5000    38.2433    39.3088    65.5959
  256.0000    38.8973    38.1440    68.7582
  256.5000    38.5302    37.4689    73.1489
  257.0000    37.8983    36.7960    77.5633
  257.5000    37.2768    36.1362    78.1102
  258.0000    36.6655    35.5232    75.4677
  258.5000    36.1073    34.9647    72.7583
  259.0000    35.8018    34.7018    71.6691
  259.5000    35.4417    34.5752    74.1035
  260.0000    35.9022    34.4662    76.4800
  260.5000    36.5469    35.5569    78.4445
  261.0000    37.2061    36.5460    76.4561
  261.5000    37.8791    37.5647    74.3791
  262.0000    38.5342    38.6095    72.6920
  262.5000    38.0694    39.6388    74.6271
  263.0000    37.6196    38.6748    76.8630
  263.5000    37.4763    37.5898    78.2559
  264.0000    37.8266    36.5304    79.2299
  264.5000    36.9052    35.5031    80.3013
  265.0000    35.9267    34.5047    81.9918
  265.5000    34.9742    33.5344    82.2424
  266.0000    34.0469    32.5950    82.3779
  266.5000    33.1666    32.3804    84.4286
  267.0000    32.3394    31.6694    86.8936
  267.5000    31.5329    30.7101    88.0017
  268.0000    30.7465    29.7798    86.0808
  268.5000    29.9797    28.8770    85.1018
  269.0000    29.2320    28.0001    84.2321
  269.5000    28.0870    27.1498    84.9820
  270.0000    27.4033    26.3254    86.1561
  270.5000    26.7081    25.5260    90.5355
  271.0000    26.0305    24.7509    95.0631
  271.5000    25.3701    23.9993    96.9659
  272.0000    24.7265    23.3183    96.8142
  272.5000    24.0992    22.9981    94.1263
  273.0000    23.4878    22.6784    91.5447
  273.5000    23.2520    22.3799    89.1347
  274.0000    23.1601    22.0541    88.2828
  274.5000    23.1024    21.9727    88.5349
  275.0000    23.3538    21.8684    89.2574
  275.5000    23.5403    21.8481    88.8768
  276.0000    23.7275    22.6629    86.8038
  276.5000    23.9967    23.1592    85.2568
  277.0000    24.3716    23.3804    85.4693
  277.5000    24.9816    23.6033    85.6881
  278.0000    25.6068    24.1674    87.5587
  278.5000    26.2479    25.4783    89.6278
  279.0000    26.9097    26.2031    91.7299
  279.5000    27.3498    26.5621    91.5329
  280.0000    27.5692    26.8104    89.9348
  280.5000    27.0827    26.0980    88.3359
  281.0000    26.5037    25.4178    88.0977
  281.5000    25.9372    24.7553    88.0929
  282.0000    25.3827    24.1100    88.1649
  282.5000    24.7250    23.4753    89.6450
  283.0000    23.9808    23.0386    93.3322
  283.5000    23.2590    22.5188    97.0477
  284.0000    22.9091    22.0152    98.7894
  284.5000    22.5814    21.5224    99.8447
  285.0000    22.2584    21.2468    99.8878
  285.5000    21.9400    21.1349    99.9561
  286.0000    21.6258    20.7727   100.0278
  286.5000    21.3182    20.4167   100.0990
  287.0000    21.0500    19.9072   100.1762
  287.5000    21.0500    19.9923    99.4553
  288.0000    21.0500    20.1513    97.3584
  288.5000    21.0500    20.3216    93.9033
  289.0000    21.0500    20.5389    90.4571
  289.5000    21.0500    20.6615    87.6594
  290.0000    21.0500    20.5959    87.1259
  290.5000    21.0501    20.5491    92.1753
  291.0000    21.0508    20.5027    97.0846
  291.5000    21.0500    20.3731    99.4388
  292.0000    20.9998    20.0705    96.6979
  292.5000    20.6563    19.7723    93.8768
  293.0000    20.3184    19.4786    95.0696
  293.5000    19.9860    19.1893    98.6775
  294.0000    19.6591    18.9042   101.9099
  294.5000    19.3375    18.6234   103.7899
  295.0000    19.0211    18.3467   102.7842
  295.5000    18.7100    18.0742   100.0257
  296.0000    18.4039    17.8057    97.3426
  296.5000    18.1029    17.5412    94.6665
  297.0000    17.9030    17.2821    94.6515
  297.5000    17.7818    17.0272    94.7862
  298.0000    17.6615    16.7761    94.9336
  298.5000    17.5419    16.6594    93.3381
  299.0000    17.2917    16.6234    90.7856
  299.5000    16.8855    16.5875    88.7795
  300.0000    16.8377    16.5514    89.0247
  300.5000    16.8377    16.5275    91.1880
  301.0000    16.8377    16.5275    92.9574
  301.5000    16.8377    16.5259    90.9827
  302.0000    16.8377    16.5667    88.8566
  302.5000    16.8377    16.6818    89.4953
  303.0000    16.6926    16.4830    91.0802
  303.5000    16.5203    16.1768    92.4995
  304.0000    16.3498    15.8763    91.9584
  304.5000    16.1810    15.5814    91.3961
  305.0000    16.0052    15.2920    90.7445
  305.5000    15.8154    15.0590    89.5795
  306.0000    15.6300    14.9121    88.4023
  306.5000    15.2572    14.7646    87.3660
  307.0000    15.0320    14.6185    89.2111
  307.5000    14.9723    14.4738    92.9180
  308.0000    14.8995    14.3671    97.0596
  308.5000    14.7228    14.3009   100.9660
  309.0000    14.5482    14.2349   102.2414
  309.5000    14.3746    14.1694   102.2110
  310.0000    14.3746    14.1039   102.1882
  310.5000    14.3746    14.0391   103.5523
  311.0000    14.3746    13.9789   104.9884
  311.5000    14.4169    14.1866   102.8913
  312.0000    14.5639    14.4276   100.3559
  312.5000    14.7117    14.6726    97.9925
  313.0000    14.8615    14.7867    97.7080
  313.5000    15.0129    14.8175    98.6888
  314.0000    15.1656    14.8485    99.6590
  314.5000    15.3417    14.8799    99.4603
  315.0000    15.2849    14.9196    99.0787
  315.5000    15.2187    14.7605    97.8322
