~VERSION INFORMATION
 VERS.                2.0:   CWLS LOG ASCII STANDARD - VERSION 2.0
 WRAP.                 NO:   ONE LINE PER DEPTH STEP
~WELL INFORMATION
#MNEM.UNIT      DATA TYPE    INFORMATION
#----------   ------------   ------------------------------
 STRT.F           29.0000:   START DEPTH
 STOP.F          882.0000:   STOP DEPTH
 STEP.F            0.5000:   STEP LENGTH
 NULL.          -999.2500:   NO VALUE
 COMP. FENIX & SCISSON INC:   COMPANY
 WELL. NAVAL PETROLEUM RESERVE 3 S-14 #42-14:   WELL
 FLD .             TEAPOT:   FIELD
 LOC .      S14 T38N R78W:   LOCATION
 CNTY.            NATRONA:   COUNTY
 STAT.            WYOMING:   STATE
 CTRY. UNITED STATES OF AMERICA:   COUNTRY
 SRVC.              Welex:   SERVICE COMPANY
 DATE.        03-MAY-1977:   LOGDATE
 API .       490251035400:   API NUMBER
~CURVE INFORMATION
#MNEM.UNIT       API CODE    CURVE DESCRIPTION
#----------   ------------   ------------------------------
 DEPT.F                  :   
 CALD.IN     45 280 60 00:   CALIPER FROM DENSITY LOG
 GRD .GAPI   45 310 01 00:   GAMMA RAY FROM DENSITY LOG
 CORR.G/C3   45 356 01 00:   DENSITY CORRECTION
 DPHI.DEC    45 890 12 00:   DENSITY POROSITY SANDSTONE
 RHOB.G/C3   45 350 01 00:   BULK DENSITY
 SPR .MV     07 010 01 00:   SPONTANEOUS POTENTIAL
 ILD .OHMM   07 120 46 00:   INDUCTION LOG DEEP
 ILM .OHMM   07 120 44 00:   INDUCTION LOG MEDIUM
 SGRD.OHMM   07 221 05 00:   SHALLOW SHORT GUARD RESISTIVITY
~PARAMETER INFORMATION
#MNEM.UNIT          VALUE    DESCRIPTION
#----------   ------------   ------------------------------
 PD  .                 GL:   PERMANENT DATUM
 EPD .F              5206:   ELEVATION PERMANENT DATUM
 LMF .                 GL:   LOG MEASURED FROM
 DMF .                 GL:   DRILLING MEASURED FROM
 EGL .F              5206:   GROUND LEVEL
 DATE.        03-MAY-1977:   RUN DATE
 RUN .                  1:   RUN NUMBER
 DD  .F               855:   DEPTH DRILLER
 DL  .F               884:   DEPTH LOGGER
 BLI .F               882:   BOTTOM LOG INTERVAL
 TLI .F                28:   TOP LOG INTERVAL
 CS  .IN            8.625:   CASING SIZE
 BS  .IN               12:   BIT SIZE
 BSD .F               855:   BIT SIZE AT DEPTH
 DFT .            KCL MUD:   DRILLING FLUID TYPE
 DFD .                8.7:   DRILLING FLUID DENSITY
 BHT .F                75:   BOTTOM HOLE TEMPERATURE
 TCS .HRS            0130:   TIME CURCULATED STOPPED
 MRT .F                75:   MAXIMUM RECORDED TEMPERATURE
 ENGI.            C. DOAK:   RECORDING ENGINEER
 WITN.            R. LYON:   WITNESSED BY
 CLNT.            A2DTECH:   CLIENT CODE
 ORIG.           5" PRINT:   ORIGIN OF DATA
 UWI .       490251035400:   UNIQUE WELL ID
 DICO. A2D Technologies, Inc.:   DIGITIZING COMPANY
~OTHER INFORMATION
~A   DEPT       CALD      GRD       CORR       DPHI         RHOB      SPR        ILD        ILM       SGRD   
# ...
  576.5000     8.0179   122.6463     0.0285     0.1310     2.4529   -39.5724     6.9405     6.9916    10.4411
  577.0000     8.0179   121.1393     0.0405     0.1328     2.4507   -39.7228     6.8442     6.8480    10.1563
  577.5000     8.0179   119.6348     0.0421     0.1310     2.4522   -40.0223     6.7491     6.7074     9.8112
  578.0000     8.0179   122.0175     0.0421     0.1298     2.4574   -40.4712     6.7482     6.6104     9.6764
  578.5000     8.0179   124.8577     0.0451     0.1286     2.4607   -40.9197     6.7008     6.5697     9.6097
  579.0000     8.0179   127.8334     0.0526     0.1256     2.4649   -41.2192     6.6999     6.5697     9.4778
  579.5000     8.0179   129.3229     0.0557     0.1272     2.4619   -41.5187     6.6529     6.5697     9.4124
  580.0000     8.0179   122.7235     0.0587     0.1369     2.4447   -41.9673     6.6031     6.5244     9.4124
  580.5000     8.0179   121.2190     0.0602     0.1399     2.4425   -42.2698     6.4249     6.4348     9.3368
  581.0000     8.0179   125.3982     0.0572     0.1384     2.4391   -42.7156     6.2922     6.2553     9.1557
  581.5000     8.0179   126.1367     0.0543     0.1405     2.4193   -43.0151     6.1197     5.9635     8.9677
  582.0000     8.0179   119.5374     0.0512     0.1623     2.3991   -43.4637     5.9520     5.6818     8.7836
  582.5000     8.0179   120.1262     0.0484     0.1717     2.3834   -43.9122     5.7093     5.4133     8.6033
  583.0000     8.0179   121.7629     0.0469     0.1833     2.3640   -44.2117     5.4308     5.1933     8.2536
  583.5000     8.0179   120.7050     0.0439     0.1965     2.3288   -44.6602     5.0746     4.8800     7.7557
  584.0000     8.0179   117.2472     0.0380     0.2034     2.3199   -45.1227     4.6378     4.5539     7.2375
  584.5000     8.0329   114.0957     0.0333     0.2094     2.3176   -45.7067     4.2093     4.2413     6.7540
  585.0000     8.0179   115.7324     0.0275     0.2037     2.3303   -46.3042     3.6651     3.9658     6.2593
  585.5000     8.0329   122.3092     0.0261     0.1992     2.3445   -46.7528     3.2808     3.6248     5.7609
  586.0000     8.0179   127.6884     0.0246     0.1890     2.3580   -47.2013     2.9483     3.1786     5.2656
  586.5000     8.0179   131.0901     0.0231     0.1791     2.3737   -47.5008     2.6654     2.9053     4.5861
  587.0000     8.0030   134.4025     0.0247     0.1711     2.3864   -47.8003     2.4360     2.6191     3.6500
  587.5000     8.0030   134.6944     0.0352     0.1651     2.3954   -47.8018     2.2729     2.3747     3.2006
  588.0000     7.9880   129.4423     0.0367     0.1393     2.4406   -47.5055     2.1652     2.1730     2.5653
  588.5000     7.9880   131.0791     0.0337     0.1328     2.4537   -47.2085     2.1057     2.0419     2.6372
  589.0000     7.9731   133.9610     0.0307     0.1337     2.4432   -46.6141     2.0766     2.0279     3.2452
  589.5000     7.9731   136.5955     0.0263     0.1405     2.4342   -46.1685     2.1052     2.0419     2.9458
  590.0000     7.9731   140.6274     0.0248     0.1417     2.4425   -45.7228     2.1790     2.1138     3.2379
  590.5000     7.9581   141.5181     0.0309     0.1384     2.4417   -45.1281     2.2868     2.2189     4.8130
  591.0000     7.9581   139.7092     0.0369     0.1352     2.4499   -44.5338     2.4165     2.4610     3.4775
  591.5000     7.9581   135.1728     0.0354     0.1311     2.4559   -44.2368     2.6474     2.8066     3.0075
  592.0000     7.9432   133.7012     0.0370     0.1331     2.4484   -43.9402     3.1418     3.2228     6.1733
  592.5000     7.9432   135.9342     0.0370     0.1423     2.4410   -43.9420     3.7342     3.7008     7.3383
  593.0000     7.9432   139.3673     0.0355     0.1507     2.4262   -43.9434     4.1994     4.0770     7.3383
  593.5000     7.9432   140.2580     0.0310     0.1570     2.4028   -43.7958     4.5307     4.4297     7.1381
  594.0000     7.9581   133.8717     0.0279     0.1624     2.3991   -43.7973     4.7877     4.7548     7.0401
  594.5000     7.9581   130.8036     0.0191     0.1588     2.4058   -43.7991     4.9931     4.9823     7.1381
  595.0000     7.9581   129.8852     0.0147     0.1618     2.4028   -43.8005     5.0938     5.0168     7.2877
  595.5000     7.9581   129.1344     0.0222     0.1639     2.3954   -43.9510     5.1284     5.0168     7.4405
  596.0000     7.9731   129.1244     0.0057     0.1600     2.4081   -43.9524     5.0223     4.9479     7.5441
  596.5000     7.9731   130.1623    -0.0047     0.1516     2.4193   -44.1029     4.8510     4.7798     7.7557
  597.0000     7.9731   132.2481     0.0148     0.1462     2.4305   -44.1043     4.6212     4.5188     6.7654
  597.5000     7.9731   135.8611     0.0178     0.1384     2.4462   -44.1061     4.3599     4.0770     4.6817
  598.0000     7.9880   138.2161     0.0119     0.1340     2.4492   -44.1075     4.0231     3.8576     4.7141
  598.5000     7.9880   134.7605     0.0058     0.1337     2.4507   -44.1090     3.8061     3.8843     6.1733
  599.0000     8.0030   132.8044     0.0089     0.1316     2.4589   -43.9610     3.8586     3.9933     6.3905
  599.5000     8.0030   134.8902     0.0284     0.1286     2.4686   -43.6647     4.0215     4.0770     6.9434
  600.0000     8.0037   130.8376     0.0329     0.1241     2.4709   -43.3681     4.1913     4.1913     7.3536
  600.5000     8.0080   130.0805     0.0284     0.1246     2.4671   -42.8290     4.3762     4.3604     7.4391
  601.0000     8.0124   132.0180     0.0269     0.1232     2.4716   -42.2900     4.5612     4.5294     7.1350
  601.5000     8.0166   135.4503     0.0252     0.1187     2.4768   -41.7509     4.7475     4.7798     6.8436
  602.0000     8.0011   136.6393     0.0238     0.1244     2.4685   -41.2119     5.0591     5.0168     7.3830
  602.5000     8.0007   135.5827     0.0238     0.1295     2.4596   -40.7076     5.2984     5.3043     8.1882
  603.0000     8.0003   133.0292     0.0253     0.1280     2.4640   -40.4139     5.4840     5.5268     9.0187
  603.5000     7.9998   130.1763     0.0282     0.1286     2.4556   -40.1202     5.6762     5.6818     9.5365
  604.0000     7.9994   131.6647     0.0297     0.1319     2.4491   -39.8275     5.8346     5.8411     9.5939
  604.5000     8.0139   131.0551     0.0281     0.1298     2.4610   -39.8319     5.9974     5.9225     9.3946
  605.0000     7.9984   130.4498     0.0221     0.1325     2.4505   -39.8362     6.1223     6.0885     9.2637
  605.5000     8.0130   135.0798     0.0206     0.1343     2.4453   -39.8405     6.2498     6.2593     9.0091
  606.0000     8.0125   136.2709     0.0221     0.1358     2.4423   -39.9940     6.3799     6.3465     8.8836
  606.5000     8.0121   136.5595     0.0281     0.1388     2.4415   -40.2974     6.4233     6.4348     8.8818
  607.0000     8.0116   138.1976     0.0325     0.1385     2.4415   -40.4508     6.4222     6.3905     8.8800
  607.5000     8.0112   139.6838     0.0325     0.1409     2.4400   -40.7532     6.3771     6.2593     8.8782
  608.0000     8.0108   141.4716     0.0310     0.1433     2.4325   -40.9066     6.3323     6.0885     8.6343
  608.5000     8.0102   139.2175     0.0339     0.1472     2.4302   -41.0599     6.2445     5.9225     8.3966
  609.0000     8.0098   137.8616     0.0399     0.1430     2.4347   -41.2133     6.0315     5.7609     8.1097
  609.5000     8.0094   136.9547     0.0414     0.1427     2.4348   -41.3667     5.7458     5.5617     7.7249
  610.0000     8.0089   134.1018     0.0413     0.1460     2.4294   -41.5202     5.5447     5.3390     7.7234
  610.5000     8.0085   136.9375     0.0413     0.1490     2.4242   -41.6745     5.2502     5.1575     7.6686
  611.0000     8.0081   134.9806     0.0398     0.1499     2.4234   -41.9769     5.0015     4.9479     7.6670
  611.5000     8.0075   133.0259     0.0412     0.1401     2.4339   -42.2793     4.7317     4.6817     7.5081
  612.0000     7.9922   131.9715     0.0442     0.1293     2.4630   -42.5817     4.5075     4.5539     7.2515
  612.5000     8.0068   136.3020     0.0472     0.1138     2.4884   -42.8841     4.2350     4.3089     6.9956
