~VERSION INFORMATION
 VERS.                2.0:   CWLS LOG ASCII STANDARD - VERSION 2.0
 WRAP.                 NO:   ONE LINE PER DEPTH STEP
~WELL INFORMATION
#MNEM.UNIT      DATA TYPE    INFORMATION
#----------   ------------   ------------------------------
 STRT.F           38.0000:   START DEPTH
 STOP.F          846.0000:   STOP DEPTH
 STEP.F            0.5000:   STEP LENGTH
 NULL.          -999.2500:   NO VALUE
 COMP. FENIX & SCISSON INC:   COMPANY
 WELL.    NPR 3 #34-SX-14:   WELL
 FLD .        TEAPOT DOME:   FIELD
 LOC .      S14 T38N R78W:   LOCATION
 CNTY.            NATRONA:   COUNTY
 STAT.            WYOMING:   STATE
 CTRY. UNITED STATES OF AMERICA:   COUNTRY
 SRVC.           BIRDWELL:   SERVICE COMPANY
 DATE.        26-APR-1978:   LOGDATE
 API .       490251063500:   API NUMBER
~CURVE INFORMATION
#MNEM.UNIT       API CODE    CURVE DESCRIPTION
#----------   ------------   ------------------------------
 DEPT.F                  :   
 NEUT.CPS    81 330 30 00:   NEUTRON
 TT  .US/F   81 520 00 00:   TRANSIT TIME
 GRD .GAPI   45 310 01 00:   GAMMA RAY FROM DENSITY LOG
 RHOB.G/C3   45 350 01 00:   BULK DENSITY
 DPOR.DEC    45 890 10 00:   DENSITY POROSITY
 CALD.IN     45 280 60 00:   CALIPER FROM DENSITY LOG
 CORR.G/C3   45 356 01 00:   DENSITY CORRECTION
~PARAMETER INFORMATION
#MNEM.UNIT          VALUE    DESCRIPTION
#----------   ------------   ------------------------------
 PD  .                 GL:   PERMANENT DATUM
 EPD .F              5232:   ELEVATION PERMANENT DATUM
 LMF .                 KB:   LOG MEASURED FROM
 DMF .                 KB:   DRILLING MEASURED FROM
 EKB .F              5236:   KELLING BUSHING
 EGL .F              5232:   GROUND LEVEL
 DATE.          4-26-1978:   RUN DATE
 RUN .                  1:   RUN NUMBER
 DD  .F               855:   DEPTH DRILLER
 DL  .F               853:   DEPTH LOGGER
 BLI .F               846:   BOTTOM LOG INTERVAL
 TLI .F                40:   TOP LOG INTERVAL
 CS  .IN            8.625:   CASING SIZE
 CBD .F                40:   CASING BOTTOM DRILLER
 CBL .F                40:   CASING BOTTOM LOGGER
 BS  .IN            7.875:   BIT SIZE
 BSD .F               855:   BIT SIZE AT DEPTH
 DFT .                KCL:   DRILLING FLUID TYPE
 DFD .                8.5:   DRILLING FLUID DENSITY
 DFV .                 31:   DRILLING FLUID VISCOSITY
 DFPH.                 10:   DRILLING FLUID PH
 DFL .               10.4:   DRILLING FLUID LOSS
 MSS .          FLUID PIT:   MUD SAMPLE SOURCE
 RMS .OHMM            .36:   RESISTIVITY MUD SAMPLE
 MST .F                68:   MUD SAMPLE TEMPERATURE
 RMF .OHMM            .28:   RESISTIVITY MUD FILTRATE SAMPLE
 MFST.F                74:   MUD FILTRATE SAMPLE TEMPERATURE
 RMC .OHMM            .48:   RESISTIVITY MUD CAKE
 MCST.F                79:   MUD CAKE SAMPLE TEMPERATURE
 MFSS.               MEAS:   MUD FILTRATE SAMPLE SOURCE
 RMB .OHMM            .33:   RESISTIVITY MUD AT BHT
 BHT .F                75:   BOTTOM HOLE TEMPERATURE
 TCS .HRS               1:   TIME CURCULATED STOPPED
 MRT .F                75:   MAXIMUM RECORDED TEMPERATURE
 LUN .               3006:   LOGGING UNIT NUMBER
 LUL .              CASP.:   LOGGING UNIT LOCATION
 ENGI.             MILLER:   RECORDING ENGINEER
 WITN.           MCGINLEY:   WITNESSED BY
 CLNT.            A2DTECH:   CLIENT CODE
 ORIG.      2" , 5" PRINT:   ORIGIN OF DATA
 UWI .       490251063500:   UNIQUE WELL ID
 DICO. A2D Technologies, Inc.:   DIGITIZING COMPANY
~OTHER INFORMATION
~A   DEPT     NEUT         TT         GRD      RHOB       DPOR       CALD       CORR   
# ...
  356.5000  -999.2500  -999.2500    80.9824     2.4924     0.0880     8.3876     0.0321
  357.0000  -999.2500  -999.2500    79.9248     2.4951     0.0856     8.3709     0.0321
  357.5000  -999.2500  -999.2500    81.0601     2.4978     0.0830     8.3543     0.0321
  358.0000  -999.2500  -999.2500    82.0361     2.5006     0.0838     8.3376     0.0321
  358.5000  -999.2500  -999.2500    80.9222     2.5024     0.0859     8.3208     0.0321
  359.0000  -999.2500  -999.2500    79.8024     2.4978     0.0884     8.3040     0.0311
  359.5000  -999.2500  -999.2500    78.9422     2.4934     0.0898     8.3116     0.0235
  360.0000  -999.2500  -999.2500    79.0861     2.4906     0.0933     8.3265     0.0206
  360.5000  -999.2500  -999.2500    79.5661     2.4843     0.0975     8.3412     0.0178
  361.0000  -999.2500  -999.2500    80.0412     2.4757     0.0980     8.3560     0.0186
  361.5000  -999.2500  -999.2500    80.5156     2.4743     0.0975     8.3405     0.0247
  362.0000  -999.2500  -999.2500    80.9832     2.4760     0.0976     8.2963     0.0303
  362.5000  -999.2500  -999.2500    82.1261     2.4775     0.0978     8.2512     0.0308
  363.0000  -999.2500  -999.2500    83.5499     2.4767     0.0954     8.2493     0.0314
  363.5000  -999.2500  -999.2500    84.9660     2.4768     0.0910     8.2588     0.0322
  364.0000  -999.2500  -999.2500    85.3422     2.4857     0.0882     8.2580     0.0369
  364.5000  -999.2500  -999.2500    84.6207     2.4926     0.0900     8.2066     0.0417
  365.0000  -999.2500  -999.2500    84.1220     2.4911     0.0918     8.1547     0.0451
  365.5000  -999.2500  -999.2500    85.2489     2.4886     0.0934     8.1028     0.0470
  366.0000  -999.2500  -999.2500    86.4386     2.4860     0.0940     8.0509     0.0490
  366.5000  -999.2500  -999.2500    87.4170     2.4835     0.0929     8.0437     0.0509
  367.0000  -999.2500  -999.2500    85.8811     2.4859     0.0909     8.0442     0.0529
  367.5000  -999.2500  -999.2500    86.1372     2.4889     0.0904     8.0452     0.0549
  368.0000  -999.2500  -999.2500    86.4544     2.4913     0.0916     8.0112     0.0568
  368.5000  -999.2500  -999.2500    86.7422     2.4890     0.0919     7.9733     0.0587
  369.0000  -999.2500  -999.2500    85.4326     2.4902     0.0871     7.9551     0.0607
  369.5000  -999.2500  -999.2500    83.9045     2.4948     0.0868     7.9371     0.0627
  370.0000  -999.2500  -999.2500    82.3166     2.4946     0.0877     7.9194     0.0653
  370.5000  -999.2500  -999.2500    82.0861     2.4934     0.0856     7.9025     0.0708
  371.0000  -999.2500  -999.2500    82.2722     2.4933     0.0832     7.8456     0.0761
  371.5000  -999.2500  -999.2500    83.0229     2.5001     0.0807     7.7850     0.0815
  372.0000  -999.2500  -999.2500    85.1763     2.5070     0.0782     7.7245     0.0868
  372.5000  -999.2500  -999.2500    87.6288     2.5138     0.0758     7.6649     0.0922
  373.0000  -999.2500  -999.2500    89.9626     2.5207     0.0754     7.6242     0.0975
  373.5000  -999.2500  -999.2500    89.7485     2.5219     0.0821     7.6226     0.0969
  374.0000  -999.2500  -999.2500    89.1260     2.5086     0.0885     7.6187     0.0914
  374.5000  -999.2500  -999.2500    88.4994     2.4958     0.0926     7.6149     0.0890
  375.0000  -999.2500  -999.2500    87.8616     2.4852     0.0869     7.6111     0.0874
  375.5000  -999.2500  -999.2500    87.8500     2.4902     0.0862     7.6072     0.0853
  376.0000  -999.2500  -999.2500    90.5813     2.4928     0.0926     7.6034     0.0812
  376.5000  -999.2500  -999.2500    91.2189     2.4895     0.0916     7.5996     0.0772
  377.0000  -999.2500  -999.2500    90.5078     2.4903     0.0905     7.5958     0.0732
  377.5000  -999.2500  -999.2500    91.3277     2.4894     0.0926     7.5919     0.0662
  378.0000  -999.2500  -999.2500    92.6112     2.4824     0.0969     7.5881     0.0583
  378.5000  -999.2500  -999.2500    92.9440     2.4755     0.0986     7.5843     0.0504
  379.0000  -999.2500  -999.2500    92.2801     2.4745     0.0986     7.5804     0.0448
  379.5000  -999.2500  -999.2500    92.4759     2.4720     0.1002     7.5766     0.0420
  380.0000  -999.2500  -999.2500    91.3283     2.4688     0.1022     7.5727     0.0400
  380.5000  -999.2500  -999.2500    90.2592     2.4711     0.0983     7.5689     0.0398
  381.0000  -999.2500  -999.2500    92.2907     2.4782     0.0942     7.5658     0.0395
  381.5000  -999.2500  -999.2500    90.5880     2.4854     0.0918     7.5859     0.0393
  382.0000  -999.2500  -999.2500    88.4573     2.4875     0.0927     7.6332     0.0390
  382.5000  -999.2500  -999.2500    88.7498     2.4866     0.0934     7.7142     0.0388
  383.0000  -999.2500  -999.2500    89.7244     2.4856     0.0941     7.7962     0.0386
  383.5000  -999.2500  -999.2500    88.0228     2.4846     0.0947     7.8788     0.0383
  384.0000  -999.2500  -999.2500    83.4836     2.4835     0.0950     7.9616     0.0382
  384.5000  -999.2500  -999.2500    82.9451     2.4880     0.0897     7.9863     0.0419
  385.0000  -999.2500  -999.2500    82.6482     2.4936     0.0866     7.9827     0.0457
  385.5000  -999.2500  -999.2500    82.5154     2.4989     0.0846     8.0079     0.0494
  386.0000  -999.2500  -999.2500    82.7896     2.5005     0.0806     8.0775     0.0533
  386.5000  -999.2500  -999.2500    83.0726     2.5024     0.0809     8.1488     0.0542
  387.0000  -999.2500  -999.2500    83.3527     2.5043     0.0828     8.2197     0.0540
  387.5000  -999.2500  -999.2500    83.6300     2.5028     0.0848     8.2900     0.0491
  388.0000  -999.2500  -999.2500    83.8797     2.5010     0.0862     8.3231     0.0442
  388.5000  -999.2500  -999.2500    84.0952     2.4993     0.0854     8.3134     0.0392
  389.0000  -999.2500  -999.2500    84.1241     2.4992     0.0850     8.3052     0.0342
  389.5000  -999.2500  -999.2500    83.5026     2.5011     0.0856     8.3103     0.0337
  390.0000  -999.2500  -999.2500    82.8984     2.5019     0.0863     8.3622     0.0333
  390.5000  -999.2500  -999.2500    82.2893     2.5025     0.0870     8.4136     0.0330
  391.0000  -999.2500  -999.2500    81.6827     2.5002     0.0877     8.4337     0.0326
  391.5000  -999.2500  -999.2500    81.0734     2.4985     0.0808     8.4113     0.0322
  392.0000  -999.2500  -999.2500    81.3608     2.4992     0.0815     8.3883     0.0335
  392.5000  -999.2500  -999.2500    83.4155     2.5015     0.0821     8.3832     0.0360
  393.0000  -999.2500  -999.2500    85.4913     2.5035     0.0792     8.3850     0.0353
  393.5000  -999.2500  -999.2500    87.5636     2.5052     0.0782     8.3963     0.0344
  394.0000  -999.2500  -999.2500    87.2285     2.5052     0.0802     8.4073     0.0336
  394.5000  -999.2500  -999.2500    86.1695     2.5045     0.0833     8.4183     0.0328
  395.0000  -999.2500  -999.2500    85.7241     2.5007     0.0866     8.4293     0.0319
  395.5000  -999.2500  -999.2500    86.7906     2.4965     0.0877     8.4403     0.0311
  396.0000  -999.2500  -999.2500    87.9630     2.4925     0.0886     8.4513     0.0303
  396.5000  -999.2500  -999.2500    89.1487     2.4898     0.0922     8.4623     0.0294
  397.0000  -999.2500  -999.2500    88.5672     2.4872     0.0934     8.4734     0.0286
  397.5000  -999.2500  -999.2500    87.4771     2.4845     0.0918     8.4834     0.0284
  398.0000  -999.2500  -999.2500    86.4037     2.4865     0.0895     8.4831     0.0294
  398.5000  -999.2500  -999.2500    86.6099     2.4893     0.0890     8.4816     0.0304
  399.0000  -999.2500  -999.2500    89.1304     2.4915     0.0900     8.4726     0.0314
  399.5000  -999.2500  -999.2500    88.9657     2.4891     0.0910     8.4638     0.0324
  400.0000  -999.2500  -999.2500    88.1111     2.4867     0.0921     8.4550     0.0334
  400.5000  -999.2500  -999.2500    88.7965     2.4844     0.0930     8.4462     0.0345
  401.0000  -999.2500  -999.2500    90.4583     2.4824     0.0920     8.4374     0.0355
  401.5000  -999.2500  -999.2500    89.8611     2.4847     0.0908     8.4286     0.0352
