~VERSION INFORMATION
 VERS.                2.0:   CWLS LOG ASCII STANDARD - VERSION 2.0
 WRAP.                 NO:   ONE LINE PER DEPTH STEP
~WELL INFORMATION
#MNEM.UNIT      DATA TYPE    INFORMATION
#----------   ------------   ------------------------------
 STRT.F           15.0000:   START DEPTH
 STOP.F          557.0000:   STOP DEPTH
 STEP.F            0.5000:   STEP LENGTH
 NULL.          -999.2500:   NO VALUE
 COMP. FENIX & SICISSOR INC.:   COMPANY
 WELL.       NPR #85-S-10:   WELL
 FLD .             TEAPOT:   FIELD
 LOC .      S10 T38N R78W:   LOCATION
 CNTY.            NATRONA:   COUNTY
 STAT.            WYOMING:   STATE
 CTRY. UNITED STATES OF AMERICA:   COUNTRY
 SRVC.           BIRDWELL:   SERVICE COMPANY
 DATE.        27-NOV-1978:   LOGDATE
 API .       490251075300:   API NUMBER
~CURVE INFORMATION
#MNEM.UNIT       API CODE    CURVE DESCRIPTION
#----------   ------------   ------------------------------
 DEPT.F                  :   
 CALD.IN     45 280 60 00:   CALIPER FROM DENSITY LOG
 DPHI.DEC    45 890 12 00:   DENSITY POROSITY SANDSTONE
 GRD .GAPI   45 310 01 00:   GAMMA RAY FROM DENSITY LOG
 RHOB.G/C3   45 350 01 00:   BULK DENSITY
 CORR.G/C3   45 356 01 00:   DENSITY CORRECTION
 ILD .OHMM   05 120 46 00:   INDUCTION LOG DEEP
 SN  .OHMM   05 040 00 00:   SHORT NORMAL
 SPR .MV     05 010 01 00:   SPONTANEOUS POTENTIAL
~PARAMETER INFORMATION
#MNEM.UNIT          VALUE    DESCRIPTION
#----------   ------------   ------------------------------
 PD  .                 GL:   PERMANENT DATUM
 EPD .F              5196:   ELEVATION PERMANENT DATUM
 LMF .                 KB:   LOG MEASURED FROM
 DAPD.F                 4:   FEET ABOVE PERMANENT DATUM
 DMF .                 KB:   DRILLING MEASURED FROM
 EKB .F              5200:   KELLING BUSHING
 EGL .F              5196:   GROUND LEVEL
 DATE.        27-NOV-1978:   RUN DATE
 RUN .                  1:   RUN NUMBER
 DD  .F               557:   DEPTH DRILLER
 DL  .F               551:   DEPTH LOGGER
 BLI .F               545:   BOTTOM LOG INTERVAL
 TLI .F                48:   TOP LOG INTERVAL
 CS  .IN            8.625:   CASING SIZE
 CBD .F                40:   CASING BOTTOM DRILLER
 CBL .F                35:   CASING BOTTOM LOGGER
 BS  .IN            7.875:   BIT SIZE
 BSD .F               557:   BIT SIZE AT DEPTH
 DFT .                KCL:   DRILLING FLUID TYPE
 DFD .                8.8:   DRILLING FLUID DENSITY
 DFV .                 38:   DRILLING FLUID VISCOSITY
 DFPH.               11.1:   DRILLING FLUID PH
 DFL .                 14:   DRILLING FLUID LOSS
 MSS .           FLOWLINE:   MUD SAMPLE SOURCE
 RMS .OHMM           0.32:   RESISTIVITY MUD SAMPLE
 MST .F                58:   MUD SAMPLE TEMPERATURE
 RMF .OHMM           0.31:   RESISTIVITY MUD FILTRATE SAMPLE
 MFST.F                74:   MUD FILTRATE SAMPLE TEMPERATURE
 RMC .OHMM           0.53:   RESISTIVITY MUD CAKE
 MCST.F                75:   MUD CAKE SAMPLE TEMPERATURE
 MFSS.               MEAS:   MUD FILTRATE SAMPLE SOURCE
 MCSS.               MEAS:   MUD CAKE SAMPLE SOURCE
 RMB .OHMM           0.31:   RESISTIVITY MUD AT BHT
 BHT .F                59:   BOTTOM HOLE TEMPERATURE
 TCS .HRS               2:   TIME CURCULATED STOPPED
 MRT .F                59:   MAXIMUM RECORDED TEMPERATURE
 LUN .               2958:   LOGGING UNIT NUMBER
 LUL .             CASPER:   LOGGING UNIT LOCATION
 ENGI.             MILLER:   RECORDING ENGINEER
 WITN.           DINSMORE:   WITNESSED BY
 CLNT.            A2DTECH:   CLIENT CODE
 ORIG.         2.5" PRINT:   ORIGIN OF DATA
 UWI .       490251075300:   UNIQUE WELL ID
 DICO. A2D Technologies, Inc.:   DIGITIZING COMPANY
~OTHER INFORMATION
~A   DEPT     CALD       DPHI         GRD      RHOB       CORR        ILD         SN        SPR   
# ...
  460.5000     8.1532     0.2146    82.8135     2.3106     0.0277    21.2690    17.0953   -13.5348
  461.0000     8.1531     0.2105    82.8135     2.3169     0.0246    20.6801    16.8554   -13.8382
  461.5000     8.1529     0.2097    83.1488     2.3232     0.0216    20.1079    16.6189   -13.8368
  462.0000     8.1527     0.2123    83.4781     2.3277     0.0212    19.8270    16.3856   -14.1402
  462.5000     8.1526     0.2153    84.1131     2.3262     0.0184    19.0104    16.3834   -14.1387
  463.0000     8.1524     0.2166    85.2538     2.3232     0.0214    18.4843    16.3811   -14.4421
  463.5000     8.1523     0.2140    87.4648     2.3232     0.0214    17.9728    16.3788   -14.7455
  464.0000     8.1521     0.2062    88.6239     2.3323     0.0320    17.9583    16.3765   -15.1016
  464.5000     8.1520     0.1929    88.4536     2.3504     0.0468    17.7205    16.3742   -15.4268
  465.0000     8.1825     0.1844    87.0948     2.3756     0.0514    17.7193    16.3719   -15.9606
  465.5000     8.1824     0.1668    85.5658     2.4037     0.0543    17.7181    16.3696   -16.0772
  466.0000     8.2129     0.1418    84.0367     2.4307     0.0513    17.7168    16.3673   -16.5671
  466.5000     8.2127     0.1402    82.5076     2.4467     0.0362    17.7156    16.3651   -16.7276
  467.0000     8.2126     0.1417    81.2844     2.4509     0.0301    17.7143    16.3625   -17.1735
  467.5000     8.2267     0.1441    80.0509     2.4483     0.0300    17.7131    16.1328   -17.4769
  468.0000     8.2597     0.1804    78.5035     2.4110     0.0270    17.7116    16.1307   -17.7803
  468.5000     8.2735     0.1973    78.2263     2.3823     0.0269    17.7104    16.1285   -18.0837
  469.0000     8.3346     0.2034    78.6075     2.3520     0.0269    17.7092    16.1263   -18.3872
  469.5000     8.3345     0.2027    79.4495     2.3430     0.0269    17.7081    16.1035   -18.3856
  470.0000     8.3343     0.1934    78.7156     2.3428     0.0322    17.7069    15.8977   -18.3841
  470.5000     8.3649     0.1860    78.2263     2.3490     0.0428    17.7057    15.8955   -18.3826
  471.0000     8.3647     0.1825    77.9205     2.3703     0.0448    17.6847    15.6033   -18.3811
  471.5000     8.3613     0.1804    78.2263     2.3778     0.0447    17.4571    15.4523   -18.3796
  472.0000     8.3337     0.1805    78.8379     2.3778     0.0447    17.1590    15.2927   -18.3780
  472.5000     8.3336     0.1805    83.7309     2.3778     0.0446    16.9728    15.1186   -18.3765
  473.0000     8.3334     0.1805    84.0367     2.3778     0.0416    16.7357    15.0190   -18.6799
  473.5000     8.3333     0.1805    83.7309     2.3800     0.0415    16.5019    14.6024   -18.8415
  474.0000     8.3331     0.1805    83.4210     2.3808     0.0385    16.2639    14.6005   -18.9817
  474.5000     8.3329     0.1817    83.1193     2.3778     0.0294    16.0439    14.3956   -19.2848
  475.0000     8.3328     0.1914    83.0683     2.3688     0.0143    15.8198    14.3936   -19.5884
  475.5000     8.3327     0.1962    82.4333     2.3552     0.0052    15.5989    14.1916   -19.5868
  476.0000     8.3325     0.1910    81.6024     2.3491     0.0052    15.3810    14.1897   -19.8902
  476.5000     8.3324     0.1825    79.8186     2.3552     0.0082    15.1662    14.1877   -20.1936
  477.0000     8.3322     0.1769    79.4495     2.3794     0.0081    15.1652    14.1857   -20.8019
  477.5000     8.3321     0.1719    79.4495     2.3902     0.0081    14.9533    14.1262   -20.8333
  478.0000     8.3319     0.1715    79.7553     2.3932     0.0080    14.9523    13.8518   -21.1586
  478.5000     8.3011     0.1709    80.3670     2.3945     0.0080    14.7434    13.7883   -21.4838
  479.0000     8.3009     0.1709    81.8960     2.3950     0.0049    14.7424    13.6873   -22.0155
  479.5000     8.2889     0.1709    82.8135     2.3961     0.0049    14.7414    13.5924   -22.4390
  480.0000     8.2699     0.1709    82.8135     2.3961     0.0078    14.7403    13.4017   -22.7642
  480.5000     8.2698     0.1697    83.1193     2.3969     0.0078    14.7393    13.3999   -23.2302
  481.0000     8.2696     0.1661    83.1457     2.3991     0.0077    14.7383    13.2119   -23.5335
  481.5000     8.2695     0.1631    84.4924     2.4006     0.0077    14.7370    13.0265   -23.8369
  482.0000     8.2693     0.1613    90.2510     2.4037     0.0077    14.7361    13.0247   -24.4449
  482.5000     8.2692     0.1629    94.4342     2.4037     0.0076    14.7351    12.8419   -24.4435
  483.0000     8.2690     0.1687    94.4342     2.4007     0.0076    14.7341    12.8193   -24.4420
  483.5000     8.2731     0.1665    94.2905     2.4008     0.0075    14.7331    12.6598   -24.4405
  484.0000     8.2773     0.1610    85.1173     2.4084     0.0075    14.7321    12.6581   -24.4390
  484.5000     8.2815     0.1583    80.6728     2.4098     0.0074    14.7310    12.5962   -24.4375
  485.0000     8.2857     0.1624    80.6728     2.4098     0.0074    14.7300    12.4786   -24.4919
  485.5000     8.2899     0.1644    83.1193     2.4098     0.0073    14.7290    12.4769   -24.7395
  486.0000     8.2941     0.1626    84.3425     2.4083     0.0103    14.4667    12.3769   -24.8374
  486.5000     8.2986     0.1590    86.1774     2.4098     0.0133    14.3204    12.2997   -25.0415
  487.0000     8.2064     0.1535    87.7225     2.4234     0.0132    14.0366    12.2981   -25.4878
  487.5000     8.1143     0.1505    96.9317     2.4310     0.0162    13.8263    12.2964   -25.6479
  488.0000     8.2086     0.1592    97.1865     2.4355     0.0192    13.5378    12.2947   -25.9512
  488.5000     8.2367     0.1672    97.1865     2.4295     0.0191    13.1629    12.1222   -26.2546
  489.0000     8.1531     0.1712    97.6840     2.4159     0.0099    12.7987    12.1206   -26.8626
  489.5000     8.0118     0.1725    99.0214     2.3917     0.0066    12.4445    12.1034   -27.1660
  490.0000     7.9602     0.1735    97.6962     2.3887     0.0039    12.2707    11.9487   -27.4695
  490.5000     8.0508     0.1727    95.4913     2.3902     0.0069    12.0993    11.9471   -28.0777
  491.0000     8.1610     0.1576    95.2355     2.3939     0.0068    11.9303    11.9454   -28.3943
  491.5000     8.2051     0.1446    95.3517     2.4084     0.0068    11.7637    11.7777   -28.6845
  492.0000     8.2049     0.1422    95.3517     2.4391     0.0112    11.7629    11.6124   -29.0447
  492.5000     8.2354     0.1422    95.0459     2.4477     0.0127    11.7430    11.6107   -29.2913
  493.0000     8.2353     0.1434    94.7401     2.4477     0.0097    11.5730    11.6088   -29.2896
  493.5000     8.2658     0.1543    92.2904     2.4417     0.0066    11.4357    11.4459   -29.5933
  494.0000     8.2656     0.1695    91.6820     2.4235     0.0066    11.4349    11.4444   -29.8963
  494.5000     8.2655     0.1760    92.0173     2.4054     0.0065    11.4341    11.4428   -29.8948
  495.0000     8.2653     0.1732    94.1284     2.3963     0.0065    11.2743    11.2822   -29.8930
  495.5000     8.2652     0.1657    94.5290     2.3902     0.0064    11.1168    11.2807   -29.8915
  496.0000     8.2650     0.1638    95.3517     2.4070     0.0064    11.1160    11.2234   -30.1949
  496.5000     8.2649     0.1654    95.3517     2.4099     0.0098    11.1153    11.1208   -30.1935
  497.0000     8.2647     0.1682    95.3517     2.4048     0.0123    11.1145    11.1193   -30.4969
  497.5000     8.2645     0.1598    95.3517     2.4005     0.0162    10.9593    11.0952   -30.4954
  498.0000     8.2644     0.1550    95.3517     2.3994     0.0235    10.8062    10.9616   -30.4939
  498.5000     8.2642     0.1519    95.3517     2.4069     0.0316    10.8055    10.9601   -30.4924
  499.0000     8.2641     0.1495    95.3517     2.4229     0.0362    10.8047    10.8799   -30.4909
  499.5000     8.2640     0.1471    95.0459     2.4327     0.0374    10.8040    10.8044   -30.7944
  500.0000     8.2638     0.1489    93.8226     2.4327     0.0301    10.7867    10.6528   -31.1402
  500.5000     8.2675     0.1546    94.4373     2.4310     0.0240    10.6832    10.6516   -31.3965
