~VERSION INFORMATION
 VERS.                2.0:   CWLS LOG ASCII STANDARD - VERSION 2.0
 WRAP.                 NO:   ONE LINE PER DEPTH STEP
~WELL INFORMATION
#MNEM.UNIT      DATA TYPE    INFORMATION
#----------   ------------   ------------------------------
 STRT.F           40.0000:   START DEPTH
 STOP.F          468.0000:   STOP DEPTH
 STEP.F            0.5000:   STEP LENGTH
 NULL.          -999.2500:   NO VALUE
 COMP. BROWN JOHN E&C INC:   COMPANY
 WELL. NAVAL PETROLEUM RESERVE 3 SX-1 #73-2-10:   WELL
 FLD .             TEAPOT:   FIELD
 LOC .      S10 T38N R78W:   LOCATION
 CNTY.            NATRONA:   COUNTY
 STAT.            WYOMING:   STATE
 CTRY. UNITED STATES OF AMERICA:   COUNTRY
 SRVC.     Atlas Wireline:   SERVICE COMPANY
 DATE.        05-MAY-1991:   LOGDATE
 API .       490251134000:   API NUMBER
~CURVE INFORMATION
#MNEM.UNIT       API CODE    CURVE DESCRIPTION
#----------   ------------   ------------------------------
 DEPT.F                  :   
 RILD.OHMM   07 120 46 00:   INDUCTION LOG DEEP RESISTIVITY
 RILM.OHMM   07 120 44 00:   INDUCTION LOG MEDIUM RESISTIVITY
 GRD .GAPI   45 310 01 00:   GAMMA RAY FROM DENSITY LOG
 CALD.IN     45 280 60 00:   CALIPER FROM DENSITY LOG
 CORR.G/C3   45 356 01 00:   DENSITY CORRECTION
 PORD.DEC    45 890 12 00:   POROSITY DENSITY SANDSTONE
 DEN .G/C3   45 350 01 00:   COMPENSATED BULK DENSTIY
~PARAMETER INFORMATION
#MNEM.UNIT          VALUE    DESCRIPTION
#----------   ------------   ------------------------------
 PD  .                 GL:   PERMANENT DATUM
 EPD .F              5178:   ELEVATION PERMANENT DATUM
 LMF .                 KB:   LOG MEASURED FROM
 DAPD.F                 5:   FEET ABOVE PERMANENT DATUM
 DMF .                 KB:   DRILLING MEASURED FROM
 EKB .F              5183:   KELLING BUSHING
 EGL .F              5178:   GROUND LEVEL
 DATE.        05-MAY-1991:   RUN DATE
 RUN .                  1:   RUN NUMBER
 DD  .F               470:   DEPTH DRILLER
 DL  .F               470:   DEPTH LOGGER
 BLI .F               468:   BOTTOM LOG INTERVAL
 TLI .F                 0:   TOP LOG INTERVAL
 CS  .IN            8.625:   CASING SIZE
 CBD .F                45:   CASING BOTTOM DRILLER
 CBL .F                45:   CASING BOTTOM LOGGER
 BS  .IN            7.875:   BIT SIZE
 BSD .F               470:   BIT SIZE AT DEPTH
 DFT .                AIR:   DRILLING FLUID TYPE
 LUN .            HL-6272:   LOGGING UNIT NUMBER
 LUL .             CASPER:   LOGGING UNIT LOCATION
 ENGI.            KINNETT:   RECORDING ENGINEER
 WITN.             STRONG:   WITNESSED BY
 CLNT.            A2DTECH:   CLIENT CODE
 ORIG.           5" PRINT:   ORIGIN OF DATA
 UWI .       490251134000:   UNIQUE WELL ID
 DICO. A2D Technologies, Inc.:   DIGITIZING COMPANY
~OTHER INFORMATION
~A   DEPT     RILD       RILM          GRD     CALD       CORR       PORD        DEN   
# ...
  222.0000     7.3619     7.6754    75.3140     8.6021     0.0109     0.1005     2.4873
  222.5000     7.3609     7.5598    75.0904     8.6023     0.0154     0.0993     2.4918
  223.0000     7.3090     7.4112    75.3230     8.6026     0.0169     0.0975     2.4933
  223.5000     7.2071     7.3079    76.9161     8.6028     0.0169     0.0981     2.4895
  224.0000     7.0087     7.2061    77.1475     8.6031     0.0199     0.1002     2.4865
  224.5000     6.8632     7.1057    76.9240     8.6033     0.0199     0.0999     2.4872
  225.0000     6.7207     6.9582    78.0643     8.6036     0.0169     0.0989     2.4872
  225.5000     6.6271     6.9091    82.8343     8.6038     0.0079     0.1014     2.4827
  226.0000     6.5803     6.9082    86.6967     8.6041     0.0019     0.1134     2.4714
  226.5000     6.3991     6.8594    87.1539     8.6043     0.0019     0.1182     2.4525
  227.0000     6.1799     6.6705    82.8479     8.6046     0.0019     0.1166     2.4540
  227.5000     5.7644     6.1790    80.1293     8.6048     0.0019     0.1084     2.4736
  228.0000     5.4143     5.6841    76.0491     8.5725     0.0049     0.0982     2.4916
  228.5000     5.1926     5.3389    75.3717     8.5727     0.0109     0.0956     2.4947
  229.0000     5.1203     5.3012    77.8736     8.5729     0.0184     0.0964     2.4923
  229.5000     5.1912     5.3746    79.6936     8.5730     0.0154     0.1132     2.4795
  230.0000     5.2631     5.5253    79.9239     8.5732     0.0064     0.1245     2.4366
  230.5000     5.4106     5.6801    77.2064     8.5733     0.0124     0.1374     2.4004
  231.0000     5.6794     5.9623    74.4878     8.5735     0.0214     0.1397     2.4012
  231.5000     5.9203     6.2585    73.1308     8.5736     0.0169     0.1285     2.4359
  232.0000     6.1292     6.5240    72.4545     8.5738     0.0049     0.1166     2.4630
  232.5000     6.3412     6.8481    71.5513     8.5739     0.0079     0.1058     2.4780
  233.0000     6.5919     7.0400    66.5634     8.5741     0.0154     0.1037     2.4825
  233.5000     6.8461     7.1872    64.9783     8.5591     0.0064     0.1019     2.4864
  234.0000     7.0380     7.2868    65.4378     8.5593    -0.0026     0.0994     2.4924
  234.5000     7.0863     7.3366    66.8039     8.5595     0.0034     0.0964     2.4976
  235.0000     6.9390     7.2848    67.2623     8.5445     0.0064     0.0925     2.5005
  235.5000     6.6087     6.8838    67.4938     8.5447     0.0064     0.0904     2.5012
  236.0000     5.9540     6.1134    67.9522     8.5448     0.0049     0.0907     2.5012
  236.5000     5.4771     5.6237    70.6799     8.5450     0.0034     0.0919     2.4989
  237.0000     5.1445     5.3635    72.7267     8.5451     0.0004     0.0943     2.4936
  237.5000     5.0728     5.2521    74.0928     8.5453    -0.0041     0.1030     2.4725
  238.0000     5.0721     5.2151    73.4166     8.5454    -0.0041     0.1312     2.4273
  238.5000     5.1068     5.2871    72.0596     8.5456     0.0034     0.1457     2.4122
  239.0000     5.1417     5.4353    71.1564     8.5457     0.0169     0.1451     2.4167
  239.5000     5.2858     5.5877    71.3878     8.5459     0.0320     0.1315     2.4371
  240.0000     5.6260     5.8247    73.2078     8.5460     0.0245     0.1171     2.4581
  240.5000     5.9881     6.1141    75.2543     8.5462     0.0124     0.1150     2.4641
  241.0000     6.3744     6.4625    75.2859     8.5463     0.0079     0.1120     2.4701
  241.5000     6.7408     6.9264    72.7672     8.5465     0.0111     0.1075     2.4807
  242.0000     7.1207     7.2705    67.0985     8.5466     0.0184     0.1014     2.4882
  242.5000     7.3263     7.6317    64.1301     8.5468     0.0108     0.0972     2.4927
  243.0000     7.5335     7.9006    67.5614     8.5469     0.0032     0.0963     2.4919
  243.5000     7.6931     8.1784    71.1968     8.5471     0.0002     0.0975     2.4912
  244.0000     7.8434     8.3497    73.4706     8.5472    -0.0011     0.0984     2.4919
  244.5000     7.9523     8.5241    72.5674     8.5474     0.0019     0.0969     2.4941
  245.0000     8.0624     8.5826    71.4373     8.5475     0.0036     0.0948     2.4964
  245.5000     8.1741     8.6412    69.1725     8.5477     0.0052     0.0930     2.4986
  246.0000     8.2299     8.7609    65.0923     8.5478     0.0079     0.0918     2.5001
  246.5000     8.3436     8.8208    65.5507     8.5631     0.0094     0.0915     2.5009
  247.0000     8.4009     8.8192    67.5976     8.5481     0.0109     0.0912     2.5023
  247.5000     8.4583     8.8795    67.8291     8.5483     0.0064     0.0903     2.5038
  248.0000     8.4568     8.8168    67.3798     8.5635     0.0019     0.0891     2.5038
  248.5000     8.4557     8.8156    60.3495     8.5637     0.0034     0.0887     2.5046
  249.0000     8.3960     8.6928    59.4463     8.5638     0.0079     0.0887     2.5045
  249.5000     8.3948     8.5717    62.8548     8.5640     0.0079     0.0878     2.5045
  250.0000     8.2577     8.4523    65.8094     8.5641     0.0063     0.0869     2.5060
  250.5000     8.1338     8.4505    64.4468     8.5594     0.0054     0.0860     2.5083
  251.0000     8.1615     8.5667    63.7806     8.5537     0.0050     0.0863     2.5075
  251.5000     8.3900     8.8063    64.0303     8.5485     0.0096     0.0881     2.5068
  252.0000     8.6252     9.0530    65.4463     8.5484     0.0079     0.0884     2.5060
  252.5000     8.8057     9.2413    67.4317     8.5482     0.0038     0.0872     2.5069
  253.0000     8.8661     9.3038    63.4857     8.5481     0.0023     0.0860     2.5108
  253.5000     8.5620     9.2375    60.7164     8.5479     0.0009     0.0845     2.5136
  254.0000     7.9311     8.8570    57.2558     8.5478     0.0025     0.0833     2.5143
  254.5000     7.0960     8.2305    52.4832     8.5476     0.0041     0.0830     2.5136
  255.0000     6.2611     6.2566    49.9937     8.5475     0.0057     0.0845     2.5113
  255.5000     5.7596     5.9584    51.8159     8.5473     0.0117     0.0872     2.5075
  256.0000     5.6794     5.9160    61.1268     8.5472     0.0103     0.0914     2.4925
  256.5000     5.6786     5.9563    73.3877     8.5471     0.0014     0.1074     2.4134
  257.0000     5.7222     6.1226    81.7909     8.5469    -0.0061     0.1376     2.3411
  257.5000     5.9185     6.3818    84.2921     8.5618     0.0316     0.1971     2.2831
  258.0000     6.0844     6.6520    80.8967     8.5768     0.0362     0.2023     2.3584
  258.5000     6.6585     7.1291    69.3301     8.5917     0.0272     0.1629     2.4292
  259.0000     7.6497     7.8555    62.5290     8.6066     0.0198     0.1136     2.4782
  259.5000     8.6673     8.5961    61.1742     8.5914     0.0078     0.0882     2.5083
  260.0000     9.8888     9.7526    57.3231     8.5913    -0.0041     0.0779     2.5196
  260.5000    10.4524    10.4597    53.4721     8.5911    -0.0056     0.0782     2.5211
  261.0000    10.4510    10.7292    52.3425     8.5910    -0.0040     0.0809     2.5173
  261.5000    10.3054    10.6522    57.5704     8.5908    -0.0009     0.0827     2.5158
  262.0000    10.2326    10.6501    60.9811     8.5906     0.0068     0.0818     2.5158
  262.5000    10.3744    10.8721    63.9379     8.5905     0.0159     0.0803     2.5196
  263.0000    10.7516    11.2540    65.5332     8.5903     0.0221     0.0797     2.5203
  263.5000    11.4692    11.8946    66.2207     8.5449     0.0265     0.0827     2.5105
  264.0000    12.6838    12.9259    65.5467     8.5297     0.0175     0.0866     2.5038
  264.5000    13.4068    14.0466    62.8303     8.5145     0.0101     0.0884     2.5023
  265.0000    14.2697    16.0250    57.8447     8.5143     0.0026     0.0902     2.4992
  265.5000    15.4006    18.0401    51.4974     8.5142     0.0042     0.0929     2.4947
  266.0000    16.9712    20.2054    29.9460     8.5140     0.0058     0.1032     2.4864
  266.5000    19.2287    22.6642    24.2795     8.5289    -0.0016     0.1143     2.4676
  267.0000    21.1897    24.1214    22.4708     8.5288    -0.0061     0.1269     2.4366
