~VERSION INFORMATION
 VERS.                2.0:   CWLS LOG ASCII STANDARD - VERSION 2.0
 WRAP.                 NO:   ONE LINE PER DEPTH STEP
~WELL INFORMATION
#MNEM.UNIT      DATA TYPE    INFORMATION
#----------   ------------   ------------------------------
 STRT.F           34.5000:   START DEPTH
 STOP.F          880.5000:   STOP DEPTH
 STEP.F            0.5000:   STEP LENGTH
 NULL.          -999.2500:   NO VALUE
 COMP. FENIX & SCISSON INC:   COMPANY
 WELL. NAVAL PETROLEUM RESERVE 3 S-14 #35-14:   WELL
 FLD .             TEAPOT:   FIELD
 LOC .      S14 T38N R78W:   LOCATION
 CNTY.            NATRONA:   COUNTY
 STAT.            WYOMING:   STATE
 CTRY. UNITED STATES OF AMERICA:   COUNTRY
 SRVC.            Unknown:   SERVICE COMPANY
 DATE.        24-APR-1978:   LOGDATE
 API .       490251062000:   API NUMBER
~CURVE INFORMATION
#MNEM.UNIT       API CODE    CURVE DESCRIPTION
#----------   ------------   ------------------------------
 DEPT.F                  :   
 RHOB.G/C3   45 350 01 00:   BULK DENSITY
 DPHI.DEC    45 890 12 00:   DENSITY POROSITY SANDSTONE
 CORR.G/C3   45 356 01 00:   DENSITY CORRECTION
 GRD .GAPI   45 310 01 00:   GAMMA RAY FROM DENSITY LOG
 CALD.IN     45 280 60 00:   CALIPER FROM DENSITY LOG
 SPR .MV     05 010 01 00:   SPONTANEOUS POTENTIAL FROM RES.
 SN  .OHMM   05 040 16 00:   SHORT NORMAL 16"
 ILD .OHMM   05 120 46 00:   INDUCTION LOG DEEP
~PARAMETER INFORMATION
#MNEM.UNIT          VALUE    DESCRIPTION
#----------   ------------   ------------------------------
 PD  .                 GL:   PERMANENT DATUM
 EPD .F              5246:   ELEVATION PERMANENT DATUM
 LMF .                 KB:   LOG MEASURED FROM
 DMF .                 KB:   DRILLING MEASURED FROM
 EKB .F              5250:   KELLING BUSHING
 EGL .F              5246:   GROUND LEVEL
 DATE.          4-24-1978:   RUN DATE
 RUN .                  1:   RUN NUMBER
 DD  .F               880:   DEPTH DRILLER
 DL  .F               880:   DEPTH LOGGER
 BLI .F               884:   BOTTOM LOG INTERVAL
 TLI .F                50:   TOP LOG INTERVAL
 CS  .IN            8.625:   CASING SIZE
 CBD .F                40:   CASING BOTTOM DRILLER
 CBL .F                50:   CASING BOTTOM LOGGER
 BS  .IN            7.875:   BIT SIZE
 BSD .F               880:   BIT SIZE AT DEPTH
 DFT .                KCL:   DRILLING FLUID TYPE
 DFD .                8.6:   DRILLING FLUID DENSITY
 DFV .                 32:   DRILLING FLUID VISCOSITY
 DFPH.                 10:   DRILLING FLUID PH
 DFL .               12.8:   DRILLING FLUID LOSS
 MSS .            MUD PIT:   MUD SAMPLE SOURCE
 RMS .OHMM            .34:   RESISTIVITY MUD SAMPLE
 MST .F                62:   MUD SAMPLE TEMPERATURE
 RMF .OHMM             .3:   RESISTIVITY MUD FILTRATE SAMPLE
 MFST.F                70:   MUD FILTRATE SAMPLE TEMPERATURE
 RMC .OHMM            .58:   RESISTIVITY MUD CAKE
 MCST.F                70:   MUD CAKE SAMPLE TEMPERATURE
 MFSS.           MEASURED:   MUD FILTRATE SAMPLE SOURCE
 RMB .OHMM            .28:   RESISTIVITY MUD AT BHT
 BHT .F                74:   BOTTOM HOLE TEMPERATURE
 TCS .HRS               4:   TIME CURCULATED STOPPED
 MRT .F                74:   MAXIMUM RECORDED TEMPERATURE
 LUN .               2958:   LOGGING UNIT NUMBER
 LUL .              CASP.:   LOGGING UNIT LOCATION
 ENGI.             MILLER:   RECORDING ENGINEER
 WITN.           MCGINLEY:   WITNESSED BY
 CLNT.            A2DTECH:   CLIENT CODE
 ORIG.       2", 5" PRINT:   ORIGIN OF DATA
 UWI .       490251062000:   UNIQUE WELL ID
 DICO. A2D Technologies, Inc.:   DIGITIZING COMPANY
~OTHER INFORMATION
~A   DEPT     RHOB       DPHI       CORR         GRD      CALD        SPR         SN        ILD   
# ...
  358.5000     2.4825     0.0945     0.0447    90.9208     8.4815   -33.9226     6.3567     6.1958
  359.0000     2.4827     0.0942     0.0472    90.8979     8.4808   -33.9533     6.2838     6.1413
  359.5000     2.4805     0.0985     0.0498    90.9033     8.4801   -33.9868     6.2087     6.0955
  360.0000     2.4718     0.1024     0.0505    90.5254     8.4793   -34.0661     6.2581     6.1494
  360.5000     2.4687     0.1009     0.0496    89.9989     8.4786   -30.0581     6.3100     6.1966
  361.0000     2.4699     0.0994     0.0486    89.4685     8.4779   -32.5614     6.3625     6.2441
  361.5000     2.4663     0.1039     0.0477    88.9257     8.4771   -33.1277     6.4153     6.2919
  362.0000     2.4615     0.1069     0.0484    89.5155     8.4767   -33.0978     6.4686     6.3402
  362.5000     2.4704     0.0950     0.0557    90.9160     8.4490   -33.0475     6.5224     6.3888
  363.0000     2.4810     0.0916     0.0628    92.2657     8.4035   -33.0032     6.5765     6.4377
  363.5000     2.4857     0.0888     0.0699    92.4340     8.3578   -32.9599     6.6312     6.4871
  364.0000     2.4900     0.0861     0.0772    93.5910     8.3112   -32.9166     6.6863     6.5368
  364.5000     2.4943     0.0842     0.0839    94.0341     8.3069   -32.8734     6.7418     6.5869
  365.0000     2.4980     0.0844     0.0873    93.0666     8.3336   -32.8299     6.7978     6.6374
  365.5000     2.4976     0.0845     0.0880    92.1136     8.4045   -32.7876     6.8543     6.6883
  366.0000     2.4972     0.0858     0.0888    91.4778     8.4338   -32.6478     6.9112     6.7396
  366.5000     2.4952     0.0889     0.0802    93.0630     8.4308   -32.4447     6.9686     6.8016
  367.0000     2.4911     0.0918     0.0672    94.6444     8.4271   -32.2425     6.9973     6.7188
  367.5000     2.4890     0.0879     0.0648    95.0401     8.4234   -32.0281     6.9246     6.6679
  368.0000     2.4937     0.0846     0.0628    93.6380     8.4198   -32.4106     6.8695     6.6175
  368.5000     2.4944     0.0943     0.0603    91.6177     8.4162   -33.0362     6.8149     6.5674
  369.0000     2.4851     0.0952     0.0543    89.5813     8.4126   -33.6765     6.7608     6.5177
  369.5000     2.4806     0.0958     0.0530    87.5437     8.4089   -33.9555     6.7070     6.4684
  370.0000     2.4797     0.0956     0.0530    85.5400     8.4053   -33.9540     6.6537     6.4194
  370.5000     2.4789     0.0955     0.0550    84.0954     8.4017   -33.9469     6.6008     6.3709
  371.0000     2.4781     0.0956     0.0570    84.9601     8.3980   -33.9392     6.5483     6.3227
  371.5000     2.4773     0.0966     0.0591    86.5226     8.3964   -33.9322     6.4962     6.2748
  372.0000     2.4763     0.0976     0.0611    88.0959     8.3964   -33.9252     6.4446     6.2273
  372.5000     2.4752     0.0986     0.0632    89.6668     8.3964   -33.9182     6.3824     6.1802
  373.0000     2.4724     0.0995     0.0652    91.0614     8.3965   -33.9112     6.3951     6.1519
  373.5000     2.4695     0.1008     0.0673    91.6761     8.3960   -33.9041     6.4166     6.1668
  374.0000     2.4666     0.1051     0.0677    91.5781     8.4243   -33.8971     6.4382     6.1776
  374.5000     2.4635     0.1059     0.0607    91.5759     8.4660   -33.8901     6.4600     6.1884
  375.0000     2.4631     0.1038     0.0601    93.2898     8.4966   -33.8831     6.4816     6.1992
  375.5000     2.4673     0.1018     0.0594    94.9971     8.4961   -33.8761     6.5008     6.2083
  376.0000     2.4716     0.0969     0.0578    94.3599     8.4960   -33.8690     6.4828     6.1915
  376.5000     2.4732     0.0999     0.0550    93.3287     8.4960   -33.8620     6.4668     6.1760
  377.0000     2.4714     0.1007     0.0526    92.4194     8.4960   -33.8550     6.4508     6.1603
  377.5000     2.4740     0.0992     0.0512    92.1449     8.4960   -33.8480     6.4414     6.1519
  378.0000     2.4860     0.0882     0.0543    91.8670     8.4960   -33.8410     6.5804     6.2846
  378.5000     2.4992     0.0822     0.0588    92.1665     8.4960   -33.8339     6.6806     6.3804
  379.0000     2.4990     0.0849     0.0576    93.2813     8.4961   -33.8269     6.7827     6.4778
  379.5000     2.4988     0.0875     0.0560    94.1762     8.4965   -33.8199     6.8867     6.5766
  380.0000     2.4924     0.0876     0.0545    94.4677     8.4812   -33.8129     6.9973     6.6828
  380.5000     2.4929     0.0854     0.0530    93.6276     8.4643   -33.8059     6.9903     6.6748
  381.0000     2.4972     0.0847     0.0514    91.3085     8.4025   -33.7988     6.9818     6.6663
  381.5000     2.5035     0.0841     0.0538    86.7735     8.3002   -33.7918     6.9737     6.6578
  382.0000     2.5098     0.0790     0.0580    84.8873     8.2548   -33.7849     6.9657     6.6493
  382.5000     2.5123     0.0694     0.0571    84.9498     8.3811   -33.7784     6.9577     6.6409
  383.0000     2.5080     0.0594     0.0563    85.6021     8.4765   -33.7713     6.9498     6.6324
  383.5000     2.5036     0.0598     0.0658    88.9079     8.4759   -33.7222     6.9415     6.6216
  384.0000     2.4991     0.0767     0.0744    92.4604     8.4762   -33.4474     6.9332     6.6591
  384.5000     2.4947     0.0926     0.0638    92.7610     8.4761   -33.1759     7.0096     6.7319
  385.0000     2.4903     0.0928     0.0548    92.9607     8.4761   -32.9631     7.0929     6.8054
  385.5000     2.4870     0.0923     0.0550    94.3149     8.4761   -32.9676     7.1769     6.8798
  386.0000     2.4878     0.0894     0.0550    95.6153     8.4761   -32.9680     7.2619     6.9550
  386.5000     2.4886     0.0882     0.0543    96.3111     8.4761   -32.9681     7.3479     7.0309
  387.0000     2.4853     0.0930     0.0478    95.7803     8.4761   -32.9681     7.4349     7.1078
  387.5000     2.4782     0.0982     0.0412    95.2679     8.4761   -32.9681     7.5229     7.1931
  388.0000     2.4772     0.0945     0.0367    96.5796     8.4761   -32.9681     7.6120     7.2098
  388.5000     2.4830     0.0919     0.0359    98.3738     8.4761   -32.9681     7.7022     7.2425
  389.0000     2.4818     0.0947     0.0382    99.4582     8.4761   -32.9681     7.7934     7.2753
  389.5000     2.4790     0.0975     0.0381   100.4006     8.4761   -32.9681     7.8212     7.3084
  390.0000     2.4779     0.0969     0.0374   101.2181     8.4761   -32.9681     7.8312     7.3415
  390.5000     2.4819     0.0925     0.0402   100.8785     8.4761   -32.9681     7.8408     7.3749
  391.0000     2.4874     0.0879     0.0455    99.4498     8.4752   -32.9681     7.8505     7.4083
  391.5000     2.4968     0.0834     0.0506    97.9728     8.4735   -32.9681     7.8603     7.4419
  392.0000     2.5036     0.0789     0.0541    97.4379     8.4717   -32.9681     7.8700     7.4757
  392.5000     2.5047     0.0787     0.0541    97.1521     8.4700   -32.9681     7.8799     7.5096
  393.0000     2.5029     0.0802     0.0515    95.9063     8.4683   -32.9681     7.9007     7.5455
  393.5000     2.5011     0.0818     0.0490    94.7335     8.4666   -32.9681     7.9970     7.6376
  394.0000     2.4992     0.0805     0.0473    93.9317     8.4648   -32.9681     8.0940     7.7301
  394.5000     2.4992     0.0808     0.0493    93.1290     8.4631   -32.9681     8.1921     7.8239
  395.0000     2.4996     0.0831     0.0510    92.2933     8.4614   -32.9681     8.2914     7.9187
  395.5000     2.4996     0.0854     0.0518    92.0359     8.4597   -32.9681     8.3918     8.0147
  396.0000     2.4965     0.0863     0.0525    91.9555     8.4580   -32.9681     8.4936     8.1119
  396.5000     2.4970     0.0814     0.0526    91.9586     8.4562   -32.9681     8.5964     8.2100
  397.0000     2.4994     0.0844     0.0509    92.4046     8.4545   -32.9681     8.7016     8.3347
  397.5000     2.4950     0.0873     0.0457    92.2997     8.4528   -32.9681     8.7257     8.3147
  398.0000     2.4906     0.0902     0.0402    91.2739     8.4511   -32.9681     8.7257     8.2641
  398.5000     2.4921     0.0854     0.0370    90.4109     8.4493   -32.9681     8.7257     8.2139
