~VERSION INFORMATION
 VERS.                2.0:   CWLS LOG ASCII STANDARD - VERSION 2.0
 WRAP.                 NO:   ONE LINE PER DEPTH STEP
~WELL INFORMATION
#MNEM.UNIT      DATA TYPE    INFORMATION
#----------   ------------   ------------------------------
 STRT.F          779.5000:   START DEPTH
 STOP.F         2194.0000:   STOP DEPTH
 STEP.F            0.5000:   STEP LENGTH
 NULL.          -999.2500:   NO VALUE
 COMP. LAWRENCE/ALLISON INC:   COMPANY
 WELL.        27 X #10-10:   WELL
 FLD .             TEAPOT:   FIELD
 LOC .      S10 T38N R78W:   LOCATION
 CNTY.            NATRONA:   COUNTY
 STAT.            WYOMING:   STATE
 CTRY. UNITED STATES OF AMERICA:   COUNTRY
 SRVC.            Unknown:   SERVICE COMPANY
 DATE.        21-AUG-1987:   LOGDATE
 API .       490251118900:   API NUMBER
~CURVE INFORMATION
#MNEM.UNIT       API CODE    CURVE DESCRIPTION
#----------   ------------   ------------------------------
 DEPT.F                  :   
 ROP .MIN/FT 91 810 01 00:   RATE OF DRILLING PENETRATION
 TGAS.UNITS  91 830 01 00:   TOTAL GAS FROM HOTWIRE
~PARAMETER INFORMATION
#MNEM.UNIT          VALUE    DESCRIPTION
#----------   ------------   ------------------------------
 EKB .F              5237:   KELLING BUSHING
 EGL .F              5236:   GROUND LEVEL
 DATE.        21-AUG-1987:   RUN DATE
 BLI .F              2180:   BOTTOM LOG INTERVAL
 TLI .F               780:   TOP LOG INTERVAL
 LUN .              T-148:   LOGGING UNIT NUMBER
 ENGI.            R. HUSK:   RECORDING ENGINEER
 WITN.           C. TOWER:   WITNESSED BY
 CLNT.            A2DTECH:   CLIENT CODE
 ORIG.           5" PRINT:   ORIGIN OF DATA
 UWI .       490251118900:   UNIQUE WELL ID
 DICO. A2D Technologies, Inc.:   DIGITIZING COMPANY
~OTHER INFORMATION
~A   DEPT      ROP         TGAS 
# ...
 2116.0000     0.4481    81.5462
 2116.5000     0.4489    81.5356
 2117.0000     0.4516    81.5251
 2117.5000     0.4589    81.5145
 2118.0000     0.4513    81.5037
 2118.5000     0.4521    81.4907
 2119.0000     0.4529    81.4801
 2119.5000     0.4537    81.9101
 2120.0000     0.4591    81.8940
 2120.5000     0.4426    81.8593
 2121.0000     0.4415    81.8246
 2121.5000     0.4514    81.7899
 2122.0000     0.4611    81.7552
 2122.5000     0.4600    81.7206
 2123.0000     0.4590    81.6859
 2123.5000     0.4688    81.6512
 2124.0000     0.4567    81.6165
 2124.5000     0.4556    81.5818
 2125.0000     0.4545    81.5471
 2125.5000     0.4535    81.5124
 2126.0000     0.4524    81.4777
 2126.5000     0.4548    81.4430
 2127.0000     0.4610    81.4083
 2127.5000     0.4600    81.3737
 2128.0000     0.4589    81.3390
 2128.5000     0.4578    81.3043
 2129.0000     0.4671    81.2696
 2129.5000     0.4773    81.2311
 2130.0000     0.4821    81.2418
 2130.5000     0.4983    81.2524
 2131.0000     0.5196    81.7010
 2131.5000     0.5477    81.7117
 2132.0000     0.5657    81.7226
 2132.5000     0.5833    81.7356
 2133.0000     0.5966    81.7462
 2133.5000     0.5985    81.7569
 2134.0000     0.5974    81.7675
 2134.5000     0.5961    81.7781
 2135.0000     0.5843    81.7888
 2135.5000     0.5832    81.7994
 2136.0000     0.5713    81.8102
 2136.5000     0.5595    81.8233
 2137.0000     0.5476    81.8340
 2137.5000     0.5248    81.8446
 2138.0000     0.5130    81.4173
 2138.5000     0.5119    81.4279
 2139.0000     0.5108    80.9980
 2139.5000     0.5097    81.0113
 2140.0000     0.4869    80.5839
 2140.5000     0.5075    80.2596
 2141.0000     0.5065    79.7299
 2141.5000     0.5054    79.7411
 2142.0000     0.5043    79.7518
 2142.5000     0.5032    79.7628
 2143.0000     0.5022    79.7737
 2143.5000     0.5011    79.7867
 2144.0000     0.5000    79.7974
 2144.5000     0.4989    79.8081
 2145.0000     0.4978    79.8189
 2145.5000     0.4968    79.8296
 2146.0000     0.4957    79.8403
 2146.5000     0.4946    79.8510
 2147.0000     0.4935    79.8618
 2147.5000     0.4924    79.4343
 2148.0000     0.4973    79.4453
 2148.5000     0.5011    79.4562
 2149.0000     0.5000    79.5404
 2149.5000     0.4989    79.9181
 2150.0000     0.5055    79.9288
 2150.5000     0.5076    79.9395
 2151.0000     0.5065    79.9502
 2151.5000     0.4944    79.9610
 2152.0000     0.5042    79.9717
 2152.5000     0.4923    79.5445
 2153.0000     0.5021    79.5552
 2153.5000     0.5011    79.5659
 2154.0000     0.5000    80.0146
 2154.5000     0.4989    81.8141
 2155.0000     0.4978    84.9273
 2155.5000     0.4968    88.3706
 2156.0000     0.4957    91.0091
 2156.5000     0.4946    94.0855
 2157.0000     0.4935    97.5999
 2157.5000     0.4957   102.4281
 2158.0000     0.5022   106.3805
 2158.5000     0.5011   108.5810
 2159.0000     0.5046   109.0296
 2159.5000     0.5097   110.3542
 2160.0000     0.4763   144.9635
 2160.5000     0.6040   156.4710
 2161.0000     0.6793   157.7363
 2161.5000     0.6570   158.2063
 2162.0000     0.5974   158.2384
 2162.5000     0.5371   157.8245
 2163.0000     0.5114   156.9886
 2163.5000     0.5066   156.5747
 2164.0000     0.4978   157.0527
 2164.5000     0.5006   157.5227
 2165.0000     0.5060   158.4306
 2165.5000     0.5046   159.3394
 2166.0000     0.5032   160.6926
 2166.5000     0.5019   161.6005
 2167.0000     0.5005   160.3187
 2167.5000     0.4992   158.1609
 2168.0000     0.5045   157.3171
 2168.5000     0.5073   156.9032
 2169.0000     0.5133   156.9432
 2169.5000     0.5154   156.9753
 2170.0000     0.5222   157.0073
 2170.5000     0.5320   157.0402
 2171.0000     0.5330   157.0794
 2171.5000     0.5315   157.1115
 2172.0000     0.5193   157.1435
 2172.5000     0.5180   157.1756
 2173.0000     0.5167   156.3317
 2173.5000     0.5154   155.4878
 2174.0000     0.5141   153.7680
 2174.5000     0.5236   152.4862
 2175.0000     0.5213   150.7664
 2175.5000     0.5100   148.6087
 2176.0000     0.5087   147.7728
 2176.5000     0.5073   146.9290
 2177.0000     0.5060   146.0771
 2177.5000     0.5046   145.2332
 2178.0000     0.5002   144.3974
 2178.5000     0.4911   144.4294
 2179.0000     0.4897   144.4615
 2179.5000     0.4884   144.4935
 2180.0000     0.5087   144.5256
 2180.5000     0.5087   144.0975
 2181.0000     0.5087   143.6703
 2181.5000     0.5087   143.6837
 2182.0000     0.5087   143.6945
 2182.5000     0.5087   143.7044
 2183.0000     0.5087   143.7153
 2183.5000     0.5087   143.7263
 2184.0000     0.5087   143.6991
 2184.5000     0.5087   143.6268
 2185.0000     0.5087   143.5546
 2185.5000     0.5087   143.4824
 2186.0000     0.5087   143.4102
 2186.5000     0.5087   143.3380
 2187.0000     0.5087   143.2658
 2187.5000     0.5087   143.1936
 2188.0000     0.5087   143.1214
 2188.5000     0.5087   143.0492
 2189.0000     0.5087   142.9770
 2189.5000     0.5087   142.9047
 2190.0000     0.5087   142.8325
 2190.5000     0.5087   142.7603
 2191.0000     0.5107   142.6881
 2191.5000     0.5195   142.6159
 2192.0000     0.5171   142.5437
 2192.5000     0.5087   142.4715
 2193.0000     0.5087   142.3993
 2193.5000     0.5087   142.3271
 2194.0000     0.5087   142.2549
