~VERSION INFORMATION
 VERS.                2.0:   CWLS LOG ASCII STANDARD - VERSION 2.0
 WRAP.                 NO:   ONE LINE PER DEPTH STEP
~WELL INFORMATION
#MNEM.UNIT      DATA TYPE    INFORMATION
#----------   ------------   ------------------------------
 STRT.F           34.0000:   START DEPTH
 STOP.F          510.0000:   STOP DEPTH
 STEP.F            0.5000:   STEP LENGTH
 NULL.          -999.2500:   NO VALUE
 COMP. LAWRENCE/ALLISON INC:   COMPANY
 WELL.      58-36 SX #3-3:   WELL
 FLD .             TEAPOT:   FIELD
 LOC .       S3 T38N R78W:   LOCATION
 CNTY.            NATRONA:   COUNTY
 STAT.            WYOMING:   STATE
 CTRY. UNITED STATES OF AMERICA:   COUNTRY
 SRVC.           Gearhart:   SERVICE COMPANY
 DATE.        17-SEP-1987:   LOGDATE
 API .       490251116300:   API NUMBER
~CURVE INFORMATION
#MNEM.UNIT       API CODE    CURVE DESCRIPTION
#----------   ------------   ------------------------------
 DEPT.F                  :   
 SPR .MV     07 010 01 00:   SPONTANEOUS POTENTIAL
 RLL .OHMM   07 220 00 00:   LATEROLOG RESISTIVITY
 RILD.OHMM   07 120 46 00:   INDUCTION LOG DEEP RESISTIVITY
 RILM.OHMM   07 120 44 00:   INDUCTION LOG MEDIUM RESISTIVITY
 GRR .GAPI   07 310 01 00:   GAMMA RAY FROM RES. LOG.
~PARAMETER INFORMATION
#MNEM.UNIT          VALUE    DESCRIPTION
#----------   ------------   ------------------------------
 PD  .                 GL:   PERMANENT DATUM
 EPD .F              5205:   ELEVATION PERMANENT DATUM
 LMF .                 KB:   LOG MEASURED FROM
 DAPD.F                 8:   FEET ABOVE PERMANENT DATUM
 DMF .                 KB:   DRILLING MEASURED FROM
 EKB .F              5213:   KELLING BUSHING
 EDF .F              5211:   DRILLING FLOOR
 EGL .F              5205:   GROUND LEVEL
 DATE.            9-17-87:   RUN DATE
 RUN .                  1:   RUN NUMBER
 DD  .F               521:   DEPTH DRILLER
 DL  .F               512:   DEPTH LOGGER
 BLI .F               510:   BOTTOM LOG INTERVAL
 TLI .F                30:   TOP LOG INTERVAL
 CS  .IN            8.625:   CASING SIZE
 CBD .F                52:   CASING BOTTOM DRILLER
 CBL .F                52:   CASING BOTTOM LOGGER
 BS  .IN            7.875:   BIT SIZE
 BSD .F               521:   BIT SIZE AT DEPTH
 DFT .          KCL WATER:   DRILLING FLUID TYPE
 DFD .                8.8:   DRILLING FLUID DENSITY
 MSS .            MUD PIT:   MUD SAMPLE SOURCE
 RMS .OHMM            .60:   RESISTIVITY MUD SAMPLE
 MST .F                41:   MUD SAMPLE TEMPERATURE
 TCS .HRS            0630:   TIME CURCULATED STOPPED
 TLAB.HRS            0918:   TIME LOGGER AT BOTTOM
 MRT .F                80:   MAXIMUM RECORDED TEMPERATURE
 LUN .               7650:   LOGGING UNIT NUMBER
 LUL .           GILLETTE:   LOGGING UNIT LOCATION
 ENGI.         WEATHERMON:   RECORDING ENGINEER
 WITN.             STRONG:   WITNESSED BY
 CLNT.            A2DTECH:   CLIENT CODE
 ORIG. 1", 2.5", 5" PRINT:   ORIGIN OF DATA
 UWI .       490251116300:   UNIQUE WELL ID
 DICO. A2D Technologies, Inc.:   DIGITIZING COMPANY
~OTHER INFORMATION
~A   DEPT      SPR        RLL       RILD       RILM        GRR   
# ...
  461.0000  -132.0674    14.4754    13.1200    11.6940    94.2677
  461.5000  -132.0937    14.5502    13.1206    11.6041    94.6372
  462.0000  -132.1198    14.6252    13.1219    11.5148    95.6329
  462.5000  -132.1458    14.6629    12.9840    11.4263    97.9049
  463.0000  -132.1717    14.5566    12.8345    11.0122   100.1145
  463.5000  -132.1970    14.5277    12.7435    10.5788    99.0785
  464.0000  -132.2282    14.5277    12.5759    10.1616    94.8801
  464.5000  -132.3660    14.4989    12.4105    10.0949    90.8173
  465.0000  -132.5031    14.2144    12.2472    10.0658    87.8203
  465.5000  -132.6226    13.9345    12.0862    10.0371    88.1754
  466.0000  -132.7691    13.6607    11.9272    10.0110    89.4531
  466.5000  -132.9690    13.3919    11.8486     9.9532    90.2216
  467.0000  -133.1725    13.2216    11.6815     9.6411    88.3390
  467.5000  -133.3844    13.0190    11.5657     9.2352    88.1104
  468.0000  -133.4339    12.8790    11.4517     8.8463    92.0636
  468.5000  -133.4350    12.8790    11.2632     8.6784    97.5159
  469.0000  -133.4345    12.8790    11.0465     8.4958    99.3481
  469.5000  -133.4345    12.8790    10.8340     8.3173   100.1613
  470.0000  -133.4337    12.7233    10.6255     8.1423   100.9393
  470.5000  -133.3836    12.5042    10.4211     7.9542   101.9716
  471.0000  -133.2296    12.2888    10.2205     7.9890   104.3837
  471.5000  -133.0773    12.0772    10.1097     8.0588   106.8176
  472.0000  -132.9244    11.8692    10.0857     8.1293   104.1954
  472.5000  -132.7176    11.7204    10.0618     8.2003   100.0370
  473.0000  -132.4111    11.5352    10.0379     8.2718    98.2283
  473.5000  -132.1062    11.6813    10.0141     8.3440    98.3509
  474.0000  -131.8039    11.8041     9.9903     8.4226    99.3755
  474.5000  -131.6308    11.9285     9.9666     8.5539   100.4158
  475.0000  -131.6780    12.0540     9.9430     8.6466    99.7504
  475.5000  -131.7217    12.1807     9.8851     8.5913    98.0290
  476.0000  -131.7667    12.2831     9.8131     8.5303    96.2264
  476.5000  -131.8153    12.0101     9.7416     8.4613    98.4939
  477.0000  -131.6519    11.7560     9.6706     8.3736   102.5096
  477.5000  -131.4485    11.5752     9.5301     8.2867   105.7152
  478.0000  -131.2426    11.3909     9.3860     8.2008   104.9812
  478.5000  -131.2417    11.2098     9.2605     8.1158   104.6215
  479.0000  -131.2872    11.0313     9.1368     8.0316   106.0862
  479.5000  -131.3334    10.8557     9.0147     7.9483   107.9753
  480.0000  -131.3804    10.7001     8.8943     7.8660   109.8271
  480.5000  -131.4599    10.7005     8.7755     7.7783   110.0128
  481.0000  -131.6638    10.6796     8.6582     7.6775   108.0339
  481.5000  -131.8616    10.6092     8.5426     7.5782   106.0963
  482.0000  -132.0591    10.2397     8.4284     7.4801   104.1498
  482.5000  -132.2569    10.1217     8.3158     7.3832   102.2604
  483.0000  -132.4561    10.1217     8.2047     7.2876   101.5114
  483.5000  -132.6544    10.1217     8.0951     7.1933   101.3959
  484.0000  -132.7687    10.0750     7.9869     6.9935   101.2057
  484.5000  -132.1783     9.6188     7.9548     6.7515   103.3793
  485.0000  -131.5853     9.1834     7.9984     6.5179   106.5180
  485.5000  -130.9949     8.7676     8.0322     6.2924   106.4261
  486.0000  -130.4043     8.7271     8.0661     6.0747   104.0948
  486.5000  -129.8104     9.3709     8.1002     5.9687   101.7179
  487.0000  -129.2214     9.8983     8.2717     5.9987   101.1672
  487.5000  -129.0089    10.4554     8.5178     6.0219   100.7169
  488.0000  -128.7740    11.0438     8.7716     6.4322   100.2586
  488.5000  -128.5370    11.3122     9.0330     6.9180    99.7999
  489.0000  -128.3414    11.4227     9.3018     7.4404    99.9627
  489.5000  -128.2298    11.5826     9.5788     8.0023   100.9916
  490.0000  -128.1159    11.7447     9.7264     8.4031   102.0257
  490.5000  -127.9969    11.9091     9.8169     8.7350   101.9693
  491.0000  -128.1514    12.0758     9.9083     8.9740    96.7582
  491.5000  -128.3687    12.2965    10.0006     8.9513    90.5146
  492.0000  -128.5820    12.2728    10.1195     8.9065    96.5791
  492.5000  -128.6999    12.2253    10.1061     8.8624   106.9502
  493.0000  -128.8820    12.1826    10.0838     8.8185  -999.2500
  493.5000  -129.3720    12.1038    10.0617     8.7749  -999.2500
  494.0000  -129.8539    11.9922    10.0395     8.7314  -999.2500
  494.5000  -130.3336    11.8486    10.0079     8.6844  -999.2500
  495.0000  -130.6224    11.8558     9.9671     8.6372  -999.2500
  495.5000  -130.6898    11.8703     9.9264     8.5903  -999.2500
  496.0000  -130.7586    11.8848     9.8859     8.5551  -999.2500
  496.5000  -130.8051    11.8992     9.8456     8.4369  -999.2500
  497.0000  -130.7114    11.9137     9.8054     8.3204  -999.2500
  497.5000  -130.6215    11.9282     9.7654     8.2056  -999.2500
  498.0000  -130.4796    11.9425     9.1412     8.0923  -999.2500
  498.5000  -130.3358    11.9569     8.9982     7.9806  -999.2500
  499.0000  -130.2136    11.9036     8.8438     7.8723  -999.2500
  499.5000  -129.8488    11.7938     8.6907     7.7814  -999.2500
  500.0000  -129.4512    11.3407  -999.2500     7.6908  -999.2500
  500.5000  -129.0576    10.9140  -999.2500     7.5674  -999.2500
  501.0000  -128.8150    10.5029  -999.2500     7.3757  -999.2500
  501.5000  -128.9196    10.1077  -999.2500     7.1839  -999.2500
  502.0000  -128.9652     9.7269  -999.2500     6.9290  -999.2500
  502.5000  -127.9801     9.2815  -999.2500     6.6091  -999.2500
  503.0000  -126.9963     8.8040  -999.2500     6.3041  -999.2500
  503.5000  -999.2500     8.3511  -999.2500     6.0130  -999.2500
  504.0000  -999.2500     7.8566  -999.2500     5.7351  -999.2500
  504.5000  -999.2500     7.2160  -999.2500     5.5410  -999.2500
  505.0000  -999.2500     6.7954  -999.2500  -999.2500  -999.2500
  505.5000  -999.2500     5.6375  -999.2500  -999.2500  -999.2500
  506.0000  -999.2500     4.7556  -999.2500  -999.2500  -999.2500
  506.5000  -999.2500     4.0445  -999.2500  -999.2500  -999.2500
  507.0000  -999.2500     4.3280  -999.2500  -999.2500  -999.2500
  507.5000  -999.2500     4.7593  -999.2500  -999.2500  -999.2500
  508.0000  -999.2500     5.3719  -999.2500  -999.2500  -999.2500
  508.5000  -999.2500     6.0642  -999.2500  -999.2500  -999.2500
  509.0000  -999.2500     6.7973  -999.2500  -999.2500  -999.2500
  509.5000  -999.2500     7.0442  -999.2500  -999.2500  -999.2500
  510.0000  -999.2500     7.1177  -999.2500  -999.2500  -999.2500
