~VERSION INFORMATION
 VERS.                2.0:   CWLS LOG ASCII STANDARD - VERSION 2.0
 WRAP.                 NO:   ONE LINE PER DEPTH STEP
~WELL INFORMATION
#MNEM.UNIT      DATA TYPE    INFORMATION
#----------   ------------   ------------------------------
 STRT.F           14.0000:   START DEPTH
 STOP.F          632.0000:   STOP DEPTH
 STEP.F            0.5000:   STEP LENGTH
 NULL.          -999.2500:   NO VALUE
 COMP. LAWRENCE/ALLISON INC:   COMPANY
 WELL.    17-61 SX #11-11:   WELL
 FLD .             TEAPOT:   FIELD
 LOC .      S11 T38N R78W:   LOCATION
 CNTY.            NATRONA:   COUNTY
 STAT.            WYOMING:   STATE
 CTRY. UNITED STATES OF AMERICA:   COUNTRY
 SRVC.           Gearhart:   SERVICE COMPANY
 DATE.        12-JUN-1986:   LOGDATE
 API .       490251109800:   API NUMBER
~CURVE INFORMATION
#MNEM.UNIT       API CODE    CURVE DESCRIPTION
#----------   ------------   ------------------------------
 DEPT.F                  :   
 GRR .GAPI   07 310 01 00:   GAMMA RAY FROM RES. LOG.
 ILM .OHMM   07 120 44 00:   INDUCTION LOG MEDIUM
 ILD .OHMM   07 120 46 00:   INDUCTION LOG DEEP
~PARAMETER INFORMATION
#MNEM.UNIT          VALUE    DESCRIPTION
#----------   ------------   ------------------------------
 PD  .                 GL:   PERMANENT DATUM
 EPD .F              5193:   ELEVATION PERMANENT DATUM
 LMF .                 KB:   LOG MEASURED FROM
 DAPD.F                 5:   FEET ABOVE PERMANENT DATUM
 DMF .                 KB:   DRILLING MEASURED FROM
 EKB .F              5198:   KELLING BUSHING
 EGL .F              5193:   GROUND LEVEL
 DATE.            6-12-86:   RUN DATE
 RUN .                  1:   RUN NUMBER
 DD  .F               648:   DEPTH DRILLER
 DL  .F               639:   DEPTH LOGGER
 BLI .F               632:   BOTTOM LOG INTERVAL
 TLI .F                15:   TOP LOG INTERVAL
 CS  .IN            8.625:   CASING SIZE
 CBD .F                42:   CASING BOTTOM DRILLER
 CBL .F                42:   CASING BOTTOM LOGGER
 BS  .IN             7.87:   BIT SIZE
 BSD .F               648:   BIT SIZE AT DEPTH
 DFT .               FOAM:   DRILLING FLUID TYPE
 MSS .               TANK:   MUD SAMPLE SOURCE
 RMS .OHMM           2.02:   RESISTIVITY MUD SAMPLE
 MST .F                65:   MUD SAMPLE TEMPERATURE
 RMB .OHMM           1.84:   RESISTIVITY MUD AT BHT
 BHT .F                72:   BOTTOM HOLE TEMPERATURE
 TCS .HRS            0830:   TIME CURCULATED STOPPED
 TLAB.HRS            1000:   TIME LOGGER AT BOTTOM
 MRT .F                72:   MAXIMUM RECORDED TEMPERATURE
 LUN .               7609:   LOGGING UNIT NUMBER
 LUL .           GILLETTE:   LOGGING UNIT LOCATION
 ENGI.              BAUER:   RECORDING ENGINEER
 WITN.             STRONG:   WITNESSED BY
 CLNT.            A2DTECH:   CLIENT CODE
 ORIG.       2", 5" PRINT:   ORIGIN OF DATA
 UWI .       490251109800:   UNIQUE WELL ID
 DICO. A2D Technologies, Inc.:   DIGITIZING COMPANY
~OTHER INFORMATION
~A   DEPT       GRR       ILM        ILD   
# ...
  196.0000   119.7510     9.6059     8.6645
  196.5000   117.8784    10.9918     8.6149
  197.0000   117.4193    12.0056     8.5656
  197.5000   119.4768    12.9536     8.5166
  198.0000   121.8422    12.8331     8.4679
  198.5000   122.6699    11.5981     8.4194
  199.0000   120.8216    10.4524     8.3713
  199.5000   117.3145     9.4199     8.3234
  200.0000   115.4841     8.6686     8.2758
  200.5000   117.7412     8.4907     8.2284
  201.0000   119.9063     8.3553     8.1813
  201.5000   118.0603     8.1961     8.1345
  202.0000   115.1844     8.2270     8.0880
  202.5000   112.8687     8.2569     8.0444
  203.0000   115.6723     8.2876     8.0786
  203.5000   119.0924     8.3184     8.1112
  204.0000   122.5232     8.3506     8.1438
  204.5000   125.5063     8.3814     8.1766
  205.0000   127.6085     8.4219     8.2095
  205.5000   128.1541     8.4626     8.2422
  206.0000   124.6359     8.5035     8.2734
  206.5000   120.5952     8.5446     8.3428
  207.0000   116.7113     8.5859     8.4080
  207.5000   115.0695     8.6274     8.4736
  208.0000   115.2086     8.6690     8.5397
  208.5000   116.5563     8.7109     8.6063
  209.0000   117.9171     8.7530     8.6686
  209.5000   120.3354     8.7953     8.6822
  210.0000   122.3163     8.8378     8.6948
  210.5000   122.3835     8.8805     8.7076
  211.0000   120.0485     8.9234     8.7203
  211.5000   117.6004     8.9665     8.7331
  212.0000   115.5904     9.0098     8.7495
  212.5000   114.3448     9.0534     8.7182
  213.0000   113.7689     9.3813     8.6716
  213.5000   113.1812    10.3722     8.6253
  214.0000   112.6088    11.4723     8.5705
  214.5000   113.1939    12.3290     8.4792
  215.0000   113.8644    13.0416     8.3889
  215.5000   114.5335    13.1978     8.2995
  216.0000   115.1866    11.1439     8.2111
  216.5000   116.4183     9.7188     8.1236
  217.0000   118.3415     8.7785     8.0370
  217.5000   121.3310     8.2678     7.9514
  218.0000   124.2782     8.0064     7.8667
  218.5000   125.7623     7.9696     7.8221
  219.0000   127.1930     8.0292     7.8529
  219.5000   128.6284     8.0701     7.8976
  220.0000   128.8108     8.1111     7.9425
  220.5000   128.3807     8.1524     7.9876
  221.0000   126.4035     8.1938     8.0331
  221.5000   123.4673     8.2355     8.0787
  222.0000   121.8106     8.2818     8.1268
  222.5000   120.9163     8.3663     8.1936
  223.0000   119.4233     8.4516     8.2610
  223.5000   115.6881     8.5378     8.3288
  224.0000   111.9912     8.6249     8.3973
  224.5000   108.3835     8.7128     8.4663
  225.0000   106.1283     8.8017     8.5359
  225.5000   106.3504     8.9149     8.6060
  226.0000   106.9176     8.9072     8.6768
  226.5000   108.9321     8.8968     8.7481
  227.0000   110.8828     8.8863     8.8318
  227.5000   112.8334     8.8758     8.7990
  228.0000   114.7885     8.8654     8.7599
  228.5000   116.7502     8.8552     8.7206
  229.0000   118.3909     8.8449     8.6815
  229.5000   114.9031     8.8406     8.6427
  230.0000   110.7281     8.8320     8.6040
  230.5000   109.9369     9.8988     8.5655
  231.0000   111.9621    10.8743     8.5272
  231.5000   115.9833    11.9459     8.5081
  232.0000   119.9996    12.8331     8.5318
  232.5000   122.7394    12.8331     8.6026
  233.0000   122.7293    11.6244     8.6740
  233.5000   120.9775    10.8470     8.7460
  234.0000   119.2382     9.9199     8.8186
  234.5000   117.4898     9.2488     8.8917
  235.0000   115.7055     9.2555     8.9655
  235.5000   115.4453     9.3506     8.9986
  236.0000   116.8829     9.5307     9.1968
  236.5000   119.9700     9.7129     9.3944
  237.0000   122.9955     9.8986     9.5963
  237.5000   121.4905    10.0878     9.8026
  238.0000   115.3358    10.2807    10.0133
  238.5000   109.3517    10.4772    10.2285
  239.0000   106.1156    10.6775    10.4395
  239.5000   107.0436    10.8816    10.6562
  240.0000   109.7151    11.0896    10.8719
  240.5000   110.9023    11.3016    11.1013
  241.0000   109.0212    11.5176    11.3332
  241.5000   107.7553    11.7378    11.5699
  242.0000   109.7871    11.9623    11.8113
  242.5000   111.7301    12.1913    12.0578
  243.0000   109.8758    12.4239    12.2475
  243.5000   106.6566    12.5956    12.2475
  244.0000   104.5008    12.4513    12.0765
  244.5000   104.7386    12.3392    11.9946
  245.0000   104.4683    12.2282    11.9132
  245.5000   103.4164    12.1182    11.8324
  246.0000   102.3683    12.0092    11.7522
  246.5000   101.3142    11.9091    11.6725
  247.0000   101.6762    11.8246    11.5933
  247.5000   102.1949    11.7465    11.5147
  248.0000   103.7456    11.6688    11.4365
  248.5000   106.0675    11.5917    11.3590
  249.0000   108.4075    11.5151    11.2819
  249.5000   110.4050    11.4390    11.2054
  250.0000   109.0684    11.3634    11.1293
  250.5000   106.7952    11.2883    11.0537
  251.0000   104.5341    11.2137    10.9790
  251.5000   103.6298    11.1548    10.9488
  252.0000   104.8428    11.1553    10.9774
  252.5000   106.2891    11.1552    11.0055
  253.0000   107.7318    11.1554    11.0343
  253.5000   109.1929    11.1555    11.0514
  254.0000   108.9844    11.1543    10.9140
  254.5000   107.7897    11.1585    10.8139
  255.0000   106.5439    10.9620    10.7150
  255.5000   105.8345    10.8294    10.6170
  256.0000   104.9941    10.6986    10.5199
  256.5000   103.5071    10.5695    10.4236
  257.0000   102.4104    10.4419    10.2558
  257.5000   102.9201    10.3391    10.2161
  258.0000   103.8862    10.2942    10.1787
  258.5000   105.1637    10.2495    10.1415
  259.0000   106.9506    10.2050    10.1044
  259.5000   108.7324    10.1607    10.0674
  260.0000   110.5821    10.1166    10.0306
  260.5000   110.4888    10.0727     9.9938
  261.0000   109.0292    10.0290     9.9573
  261.5000   106.2277     9.9855     9.9208
  262.0000   103.4973     9.9421     9.8792
  262.5000   102.1005     9.8989     9.8804
  263.0000   103.6992     9.8560     9.7571
  263.5000   105.2446     9.8130     9.6747
  264.0000   106.1631     9.7878     9.5934
  264.5000   103.6188     9.7795     9.5173
  265.0000   100.7777     9.7454     9.4288
  265.5000    99.5725     9.7117     9.4239
  266.0000   101.1386     9.6780     9.4028
  266.5000   103.0758     9.6446     9.3875
  267.0000   101.7307     9.6111     9.3723
  267.5000   100.0041     9.6066     9.3572
  268.0000    98.2841     9.5000     9.3393
  268.5000    97.9077     9.4758     9.3412
  269.0000    99.4282     9.4521     9.2370
  269.5000    98.7535     9.4276     9.1558
  270.0000    98.0344     9.2684     9.0830
  270.5000    98.5328     9.0350     8.8380
  271.0000    99.0684     8.8075     8.6203
  271.5000    97.2425     8.5857     8.4080
  272.0000    96.4222     8.3696     8.2008
  272.5000    98.9206     8.1588     7.9988
  273.0000   105.5996     7.9524     7.8018
  273.5000   107.9243     7.7478     7.6059
  274.0000   107.9617     7.7481     7.5352
  274.5000   104.4434     7.7972     7.6107
  275.0000   100.0556     7.8221     7.6877
  275.5000    98.0750     7.8649     7.7647
  276.0000   100.3036     7.9486     7.8422
  276.5000   102.9482     8.0330     7.9205
  277.0000   101.1592     8.1182     7.9996
  277.5000    98.8986     8.1961     8.0796
  278.0000    97.0577     8.7165     8.1593
  278.5000    99.8326     9.9380     8.1970
  279.0000   104.6139    10.9830     8.3216
  279.5000   107.2805    11.5920     8.4523
  280.0000   107.1165    12.2475     8.5848
  280.5000   105.5017    12.5956     8.7192
  281.0000   104.8683    12.1199     8.9197
  281.5000   106.4210    10.8087     8.9169
  282.0000   109.3800     9.6394     8.8685
  282.5000   109.6339     8.9975     8.8123
  283.0000   107.2777     8.9057     8.7567
  283.5000   106.0677     8.8951     8.7014
  284.0000   107.1207     8.8849     8.6464
  284.5000   108.4597     8.8738     8.5918
  285.0000   107.9640     8.8628     8.5375
  285.5000   107.3850     8.8517     8.4836
  286.0000   107.0989     8.8407     8.4290
  286.5000   108.9611     8.8297     8.3506
