~VERSION INFORMATION
 VERS.                2.0:   CWLS LOG ASCII STANDARD - VERSION 2.0
 WRAP.                 NO:   ONE LINE PER DEPTH STEP
~WELL INFORMATION
#MNEM.UNIT      DATA TYPE    INFORMATION
#----------   ------------   ------------------------------
 STRT.F           17.0000:   START DEPTH
 STOP.F          592.0000:   STOP DEPTH
 STEP.F            0.5000:   STEP LENGTH
 NULL.          -999.2500:   NO VALUE
 COMP.   FLUOR DANIEL INC:   COMPANY
 WELL. NAVAL PETROLEUM RESERVE SX-1 87 #2-10:   WELL
 FLD .             TEAPOT:   FIELD
 LOC .      S10 T38N R78W:   LOCATION
 CNTY.            NATRONA:   COUNTY
 STAT.            WYOMING:   STATE
 CTRY. UNITED STATES OF AMERICA:   COUNTRY
 SRVC.      Western Atlas:   SERVICE COMPANY
 DATE.        20-JUL-1995:   LOGDATE
 API .       490252274200:   API NUMBER
~CURVE INFORMATION
#MNEM.UNIT       API CODE    CURVE DESCRIPTION
#----------   ------------   ------------------------------
 DEPT.F                  :   
 GRR .GAPI   07 310 01 00:   GAMMA RAY FROM RES. LOG.
 RILD.OHMM   07 120 46 00:   INDUCTION LOG DEEP RESISTIVITY
 RILM.OHMM   07 120 44 00:   INDUCTION LOG MEDIUM RESISTIVITY
~PARAMETER INFORMATION
#MNEM.UNIT          VALUE    DESCRIPTION
#----------   ------------   ------------------------------
 PD  .                 GL:   PERMANENT DATUM
 EPD .F              5221:   ELEVATION PERMANENT DATUM
 LMF .                 KB:   LOG MEASURED FROM
 DAPD.F                10:   FEET ABOVE PERMANENT DATUM
 DMF .                 KB:   DRILLING MEASURED FROM
 EKB .F              5231:   KELLING BUSHING
 EDF .F              5230:   DRILLING FLOOR
 EGL .F              5221:   GROUND LEVEL
 DATE.            7-20-95:   RUN DATE
 RUN .                  1:   RUN NUMBER
 DD  .F               599:   DEPTH DRILLER
 DL  .F               600:   DEPTH LOGGER
 BLI .F               592:   BOTTOM LOG INTERVAL
 TLI .F                54:   TOP LOG INTERVAL
 CS  .IN            9.625:   CASING SIZE
 CBD .F                54:   CASING BOTTOM DRILLER
 CBL .F                54:   CASING BOTTOM LOGGER
 BS  .IN             8.75:   BIT SIZE
 BSD .F               599:   BIT SIZE AT DEPTH
 DFT .                AIR:   DRILLING FLUID TYPE
 BHT .F                98:   BOTTOM HOLE TEMPERATURE
 MRT .F                98:   MAXIMUM RECORDED TEMPERATURE
 LUN .            HL 6539:   LOGGING UNIT NUMBER
 LUL .          RK. SPGS.:   LOGGING UNIT LOCATION
 ENGI.               RALL:   RECORDING ENGINEER
 WITN.             STRONG:   WITNESSED BY
 CLNT.            A2DTECH:   CLIENT CODE
 ORIG.        2" 5" PRINT:   ORIGIN OF DATA
 UWI .       490252274200:   UNIQUE WELL ID
 DICO. A2D Technologies, Inc.:   DIGITIZING COMPANY
~OTHER INFORMATION
~A   DEPT       GRR      RILD       RILM   
# ...
  290.0000   129.3980     7.6516     8.1224
  290.5000   132.2268     7.4903     8.0444
  291.0000   135.0825     7.2755     7.8720
  291.5000   137.8046     7.0680     7.5769
  292.0000   138.0704     6.8665     7.2929
  292.5000   135.8945     6.6646     7.0195
  293.0000   133.7353     6.4193     6.7564
  293.5000   132.3264     6.1830     6.5031
  294.0000   136.4732     5.9555     6.2593
  294.5000   140.9940     5.7363     6.0246
  295.0000   142.2901     5.5252     5.7988
  295.5000   141.7610     5.3218     5.5815
  296.0000   139.4036     5.1432     5.3907
  296.5000   136.0760     5.0474     5.5082
  297.0000   136.5719     5.2355     5.6500
  297.5000   138.3988     5.4478     5.8624
  298.0000   137.1371     5.6687     6.0957
  298.5000   134.5182     5.8986     6.3384
  299.0000   134.9503     6.1378     6.5907
  299.5000   137.5413     6.3867     6.8531
  300.0000   140.0555     6.6457     7.1259
  300.5000   142.5606     6.9152     7.4095
  301.0000   145.0753     7.1956     7.7045
  301.5000   146.1545     7.4899     8.0752
  302.0000   144.0456     7.7059     8.0637
  302.5000   140.5550     7.6978     8.0492
  303.0000   137.0320     7.6871     8.0348
  303.5000   137.1318     7.6762     8.0204
  304.0000   136.9159     7.6653     8.0061
  304.5000   135.8055     7.6546     7.9917
  305.0000   135.8060     7.6439     7.9774
  305.5000   137.9188     7.6332     7.9631
  306.0000   139.9924     7.6225     7.9489
  306.5000   142.1204     7.6118     7.9346
  307.0000   141.8585     7.6011     7.9204
  307.5000   141.4812     7.5904     7.9062
  308.0000   142.2781     7.5797     7.8921
  308.5000   141.8472     7.5637     7.8779
  309.0000   139.9848     7.5644     7.8638
  309.5000   138.0789     7.3895     7.8507
  310.0000   136.1798     7.2532     7.7804
  310.5000   134.4239     7.1810     7.7152
  311.0000   136.6769     7.1348     7.6505
  311.5000   139.8092     7.0889     7.5864
  312.0000   140.5792     6.7977     7.3236
  312.5000   138.8482     6.4604     6.9259
  313.0000   137.6118     6.1412     6.5496
  313.5000   140.8934     5.8665     6.1961
  314.0000   144.2451     5.8665     6.0342
  314.5000   144.5247     5.8665     6.0631
  315.0000   142.1585     5.8665     6.0889
  315.5000   140.6147     5.8160     6.1154
  316.0000   140.7134     5.5951     6.1486
  316.5000   140.7859     5.3826     5.9526
  317.0000   140.8651     5.2297     5.6713
  317.5000   140.9423     5.1357     5.2903
  318.0000   141.0197     5.0433     5.3154
  318.5000   141.0972     4.9539     5.3604
  319.0000   141.1728     5.0532     5.4057
  319.5000   141.1669     5.1550     5.4514
  320.0000   141.0166     5.2597     5.4923
  320.5000   140.8685     5.4463     5.7927
  321.0000   140.7203     5.7626     6.1445
  321.5000   140.5754     6.0974     6.5177
  322.0000   140.4279     6.4516     6.9132
  322.5000   140.0221     6.8264     7.2139
  323.0000   138.1410     6.9976     7.2139
  323.5000   136.2623     7.0134     7.2139
  324.0000   134.3885     6.4031     6.9791
  324.5000   132.4861     6.0248     6.5521
  325.0000   134.0939     5.6689     6.1512
  325.5000   137.2010     5.3340     5.7749
  326.0000   140.6666     5.0189     5.4404
  326.5000   144.1419     4.8612     5.3035
  327.0000   146.6436     5.0214     5.2609
  327.5000   148.5427     5.1432     5.2397
  328.0000   149.8035     5.0474     5.5009
  328.5000   148.0415     5.3006     5.7685
  329.0000   146.3277     5.6409     6.0708
  329.5000   141.8118     6.0031     6.3886
  330.0000   136.3167     6.3886     6.7230
  330.5000   130.8050     6.7115     7.0749
  331.0000   125.2465     7.0131     7.4454
  331.5000   123.0802     7.3483     7.8361
  332.0000   126.3934     7.7126     8.1553
  332.5000   132.0824     7.9728     8.3061
  333.0000   136.9848     8.0752     8.3590
  333.5000   135.8797     8.0552     8.4097
  334.0000   129.3486     8.0367     8.4637
  334.5000   130.0168     8.0180     8.4864
  335.0000   132.6292     7.9996     8.5106
  335.5000   135.1343     8.0146     8.5349
  336.0000   136.6684     8.0330     8.5592
  336.5000   135.2141     8.0516     8.5837
  337.0000   129.6114     8.0707     8.6081
  337.5000   124.0169     8.0796     8.6243
  338.0000   119.8622     8.0874     8.5720
  338.5000   122.7191     8.0954     8.5332
  339.0000   127.4291     8.1034     8.4946
  339.5000   132.1920     8.1114     8.4561
  340.0000   136.9374     8.1194     8.4178
  340.5000   141.7203     8.1275     8.3845
  341.0000   142.9844     8.1355     8.8543
  341.5000   138.8400     8.1435     9.4741
  342.0000   133.5300     8.1514     9.1427
  342.5000   128.1640     8.0866     8.6175
  343.0000   122.6985     8.0087     8.4637
  343.5000   121.8214     7.2745     8.5436
  344.0000   121.8556     6.5326     7.2467
  344.5000   124.4957     5.8665     5.8040
  345.0000   130.0346     5.4929     5.9588
  345.5000   135.5393     5.6102     6.2159
  346.0000   141.0590     5.9014     6.4892
  346.5000   142.0435     6.2077     6.8141
  347.0000   137.1556     6.5299     7.2684
  347.5000   130.0567     6.8990     7.9022
  348.0000   128.6207     7.4786     8.7356
  348.5000   130.3763     8.1069     9.6568
  349.0000   128.8677     8.7879     9.8467
  349.5000   125.8297     9.4741     9.8881
  350.0000   122.8292     9.3480     9.9297
  350.5000   119.8358     9.3052     9.9715
  351.0000   118.2556     9.2626    10.0134
  351.5000   121.1289     9.2108    10.2756
  352.0000   124.7260     9.6818    10.7423
  352.5000   126.4084    10.3106    11.2204
  353.0000   126.9346    11.0568    12.1267
  353.5000   127.4115    11.8517    13.0868
  354.0000   123.8323    12.8006    14.4430
  354.5000   113.0455    14.2037    16.1121
  355.0000   101.6689    15.7366    17.9741
  355.5000    90.4128    17.4412    20.0513
  356.0000    79.3807    19.3528    21.9076
  356.5000    77.5806    22.2827    23.4759
  357.0000    75.9514    23.3233    24.4364
  357.5000    74.3945    24.3996    25.4362
  358.0000    73.1913    25.8985    26.3899
  358.5000    72.3551    25.7757    26.4235
  359.0000    73.9606    25.5991    26.4545
  359.5000    76.9587    25.4238    26.4856
  360.0000    80.4460    25.1785    26.5167
  360.5000    83.9598    25.3150    26.5478
  361.0000    87.2459    25.5481    26.5779
  361.5000    84.0662    25.7833    26.6102
  362.0000    80.1022    26.0207    26.6391
  362.5000    76.4847    26.2046    27.5548
  363.0000    76.5506    26.8427    28.4356
  363.5000    77.1780    27.4963    29.3445
  364.0000    75.2382    28.1659    30.2824
  364.5000    69.8577    28.8518    31.2541
  365.0000    64.4642    29.5405    30.9674
  365.5000    64.3875    30.1010    30.6821
  366.0000    68.2682    29.2818    30.3995
  366.5000    71.0627    28.7244    30.1196
  367.0000    70.1610    28.1754    29.8220
  367.5000    69.0136    27.6365    29.1177
  368.0000    69.3853    26.8929    28.3738
  368.5000    72.8036    27.0807    27.9208
  369.0000    76.2093    27.4289    28.6175
  369.5000    77.1569    27.7774    29.1335
  370.0000    76.7785    28.1296    29.6589
  370.5000    76.3215    28.4864    30.1938
  371.0000    76.0894    28.8477    30.7383
  371.5000    77.7463    29.2135    31.5493
  372.0000    79.4167    29.5840    31.2757
  372.5000    81.0660    29.8194    30.7805
  373.0000    82.4536    29.5889    30.3893
  373.5000    79.9398    29.4218    30.7294
  374.0000    76.0412    29.2596    30.9618
  374.5000    73.6596    28.2905    29.8136
  375.0000    75.8158    27.3859    28.8405
  375.5000    79.1833    26.5134    27.8991
  376.0000    82.1586    25.6693    26.9884
  376.5000    81.9052    24.8520    26.1075
  377.0000    82.1119    24.0608    25.2393
  377.5000    84.0846    23.2947    24.3346
  378.0000    86.0477    22.5531    23.4623
  378.5000    86.7494    21.8350    22.6212
  379.0000    86.8385    21.1398    21.8104
  379.5000    86.9156    20.4668    21.0285
  380.0000    87.0043    20.0942    20.6688
  380.5000    86.5178    20.3181    20.9445
