~VERSION INFORMATION
 VERS.                2.0:   CWLS LOG ASCII STANDARD - VERSION 2.0
 WRAP.                 NO:   ONE LINE PER DEPTH STEP
~WELL INFORMATION
#MNEM.UNIT      DATA TYPE    INFORMATION
#----------   ------------   ------------------------------
 STRT.F            0.0000:   START DEPTH
 STOP.F         1027.0000:   STOP DEPTH
 STEP.F            0.1000:   STEP LENGTH
 NULL.          -999.2500:   NO VALUE
 COMP.       F D SERV INC:   COMPANY
 WELL.   77-1 X 27 #77-27:   WELL
 FLD .             TEAPOT:   FIELD
 LOC .      S27 T39N R78W:   LOCATION
 CNTY.            NATRONA:   COUNTY
 STAT.            WYOMING:   STATE
 CTRY. UNITED STATES OF AMERICA:   COUNTRY
 SRVC.      Western Atlas:   SERVICE COMPANY
 DATE.        04-NOV-1991:   LOGDATE
 API .       490252248600:   API NUMBER
~CURVE INFORMATION
#MNEM.UNIT       API CODE    CURVE DESCRIPTION
#----------   ------------   ------------------------------
 DEPT.F                  :   
 GRR .GAPI   07 310 01 00:   GAMMA RAY
 RILD.OHMM   07 120 46 00:   INDUCTION LOG DEEP RESISTIVITY
 RFOC.OHMM   07 220 04 00:   RESISTIVITY FOCUSED LOG
 RILM.OHMM   07 120 44 00:   INDUCTION LOG MEDIUM RESISTIVITY
 SPR .MV     07 010 01 00:   SPONTANEOUS POTENTIAL
~PARAMETER INFORMATION
#MNEM.UNIT          VALUE    DESCRIPTION
#----------   ------------   ------------------------------
 PD  .                 GL:   PERMANENT DATUM
 EPD .F              5077:   ELEVATION PERMANENT DATUM
 LMF .                 KB:   LOG MEASURED FROM
 DAPD.F                10:   FEET ABOVE PERMANENT DATUM
 DMF .                 KB:   DRILLING MEASURED FROM
 EKB .F              5087:   KELLING BUSHING
 EDF .F              5086:   DRILLING FLOOR
 EGL .F              5077:   GROUND LEVEL
 DATE.        04-NOV-1991:   RUN DATE
 RUN .                  1:   RUN NUMBER
 DD  .F              1030:   DEPTH DRILLER
 DL  .F              1030:   DEPTH LOGGER
 BLI .F              1027:   BOTTOM LOG INTERVAL
 CS  .IN            9.625:   CASING SIZE
 CBD .F                50:   CASING BOTTOM DRILLER
 CBL .F                52:   CASING BOTTOM LOGGER
 BS  .IN             8.75:   BIT SIZE
 BSD .F              1030:   BIT SIZE AT DEPTH
 DFT .          KCL WATER:   DRILLING FLUID TYPE
 MSS .           FLOWLINE:   MUD SAMPLE SOURCE
 RMS .OHMM            .24:   RESISTIVITY MUD SAMPLE
 MST .F                72:   MUD SAMPLE TEMPERATURE
 RMB .OHMM            .19:   RESISTIVITY MUD AT BHT
 BHT .F                90:   BOTTOM HOLE TEMPERATURE
 TCS .HRS               2:   TIME CURCULATED STOPPED
 MRT .F                90:   MAXIMUM RECORDED TEMPERATURE
 LUN .            HL-6274:   LOGGING UNIT NUMBER
 LUL .             CASPER:   LOGGING UNIT LOCATION
 ENGI.             RAUTIO:   RECORDING ENGINEER
 WITN.             STRONG:   WITNESSED BY
 CLNT.            A2DTECH:   CLIENT CODE
 ORIG.           5" PRINT:   ORIGIN OF DATA
 UWI .       490252248600:   UNIQUE WELL ID
 DICO. A2D Technologies, Inc.:   DIGITIZING COMPANY
~OTHER INFORMATION
~A    DEPT      GRR      RILD       RFOC       RILM        SPR   
# ...
  500.2000   108.6863     6.8831     7.2150     6.8043   -34.2802
  500.3000   108.8661     6.9094     7.2148     6.8568   -34.2796
  500.4000   109.0521     6.9357     7.2146     6.9047   -34.2790
  500.5000   109.3353     6.9620     7.2144     6.9440   -34.2785
  500.6000   109.5916     6.9689     7.2442     6.9869   -34.2779
  500.7000   109.5934     7.0106     7.2855     7.0232   -34.2773
  500.8000   109.5954     7.0785     7.3145     7.0352   -34.2767
  500.9000   109.5970     7.1189     7.3176     7.0542   -34.2761
  501.0000   109.5988     7.1645     7.3650     7.0838   -34.2755
  501.1000   109.6006     7.2005     7.4012     7.0836   -34.2749
  501.2000   109.6024     7.2142     7.4159     7.0834   -34.2743
  501.3000   109.6042     7.2327     7.4339     7.1167   -34.2737
  501.4000   109.2408     7.2642     7.4671     7.1572   -34.2731
  501.5000   109.0165     7.2641     7.4669     7.1819   -34.2725
  501.6000   108.8342     7.2640     7.5092     7.1817   -34.2719
  501.7000   108.5905     7.2639     7.5184     7.1815   -34.2713
  501.8000   108.2240     7.2638     7.5424     7.1813   -34.2707
  501.9000   107.8188     7.2637     7.5853     7.1811   -34.2701
  502.0000   107.1618     7.2636     7.6228     7.1809   -34.2695
  502.1000   106.6755     7.2635     7.6226     7.1807   -34.2689
  502.2000   106.2252     7.2242     7.6622     7.1805   -34.2683
  502.3000   105.7180     7.2131     7.6752     7.1802   -34.2677
  502.4000   105.3485     7.1917     7.6961     7.1801   -34.2671
  502.5000   104.7979     7.1630     7.7282     7.1799   -34.2665
  502.6000   104.3940     7.1629     7.7280     7.1621   -34.2659
  502.7000   103.9212     7.1628     7.7277     7.1211   -34.2653
  502.8000   103.4365     7.1271     7.7276     7.0803   -34.2647
  502.9000   103.0955     7.0864     7.7004     7.0801   -34.2641
  503.0000   102.8984     7.0639     7.6737     7.0174   -34.2635
  503.1000   102.5616     7.0545     7.6656     6.9598   -34.2629
  503.2000   102.4527     7.0142     7.6203     6.9201   -34.2623
  503.3000   102.4545     6.9662     7.5783     6.8855   -34.2617
  503.4000   102.4563     6.9662     7.5350     6.8853   -34.2611
  503.5000   102.4581     6.9197     7.4920     6.8495   -34.2605
  503.6000   102.4602     6.8555     7.4492     6.8104   -34.2599
  503.7000   102.4617     6.8163     7.4025     6.7534   -34.2593
  503.8000   102.4635     6.7752     7.3084     6.6863   -34.2587
  503.9000   102.3949     6.7387     7.2716     6.6481   -34.2581
  504.0000   102.2126     6.7003     7.1758     6.6033   -34.2575
  504.1000   102.0199     6.6426     7.0898     6.5418   -34.2569
  504.2000   102.0216     6.5782     7.0400     6.5120   -34.2563
  504.3000   102.0233     6.5407     6.9599     6.4833   -34.2557
  504.4000   102.0251     6.4985     6.8809     6.4096   -34.2551
  504.5000   102.0269     6.4662     6.8337     6.3331   -34.2545
  504.6000   102.0408     6.4293     6.7723     6.2987   -34.2539
  504.7000   102.2554     6.3766     6.7092     6.2628   -34.2533
  504.8000   102.4126     6.3122     6.6708     6.2088   -34.1844
  504.9000   102.4832     6.2761     6.6301     6.1382   -34.1024
  505.0000   102.5599     6.2403     6.5600     6.0712   -34.1018
  505.1000   102.7458     6.1766     6.5385     6.0318   -34.1011
  505.2000   102.9378     6.1267     6.5197     6.0020   -34.1006
  505.3000   103.1177     6.0917     6.4825     5.9897   -34.1000
  505.4000   103.3036     6.0569     6.4430     5.9750   -34.0994
  505.5000   103.3922     6.0202     6.3588     5.9408   -34.0988
  505.6000   103.3371     5.9880     6.3587     5.9067   -34.0982
  505.7000   103.1711     5.9785     6.3356     5.9065   -34.0975
  505.8000   103.1733     5.9784     6.2994     5.8803   -34.0970
  505.9000   103.0146     5.9683     6.2706     5.8653   -34.0964
  506.0000   102.9521     5.9369     6.2704     5.8538   -34.0958
  506.1000   102.9539     5.9368     6.2352     5.8244   -34.0952
  506.2000   103.0335     5.9075     6.1996     5.8242   -34.0946
  506.3000   103.4066     5.8956     6.1835     5.8241   -34.0940
  506.4000   103.7737     5.8955     6.1833     5.8239   -34.0934
  506.5000   104.1437     5.9030     6.1832     5.8082   -34.0284
  506.6000   104.5138     5.9364     6.1830     5.7833   -33.9425
  506.7000   104.8839     5.9363     6.1828     5.7832   -33.9419
  506.8000   105.2330     5.9362     6.1826     5.7830   -33.9412
  506.9000   105.4385     5.9559     6.1825     5.7829   -33.9407
  507.0000   105.7695     5.9774     6.1823     5.7827   -33.9401
  507.1000   106.1395     5.9773     6.1821     5.7952   -33.8853
  507.2000   106.5096     5.9772     6.1819     5.8227   -33.7892
  507.3000   106.8362     6.0092     6.1818     5.8225   -33.7886
  507.4000   107.0192     6.0187     6.2029     5.8223   -33.7880
  507.5000   107.0210     6.0360     6.2382     5.8222   -33.7874
  507.6000   107.0228     6.0604     6.2676     5.8391   -33.7868
  507.7000   106.9183     6.0603     6.2674     5.8723   -33.7862
  507.8000   106.6700     6.0602     6.2673     5.9031   -33.7856
  507.9000   106.3290     6.0601     6.2935     5.9029   -33.7850
  508.0000   106.1319     6.0825     6.3105     5.9318   -33.7844
  508.1000   106.1335     6.1021     6.3213     5.9655   -33.7838
  508.2000   106.1353     6.1097     6.3541     5.9995   -33.7832
  508.3000   106.1371     6.1446     6.3539     6.0336   -33.7826
  508.4000   106.1389     6.1797     6.3537     6.0682   -33.7820
  508.5000   106.1482     6.2150     6.3773     6.1024   -33.7813
  508.6000   106.3674     6.2300     6.4136     6.1372   -33.7808
  508.7000   106.5201     6.2428     6.4420     6.1917   -33.7033
  508.8000   106.5952     6.2784     6.4418     6.2625   -33.6299
  508.9000   106.6674     6.3167     6.4786     6.3297   -33.6293
  509.0000   106.8533     6.3504     6.5154     6.3693   -33.6287
  509.1000   107.0498     6.3867     6.5312     6.4020   -33.6281
  509.2000   107.2252     6.4047     6.5575     6.4384   -33.6275
  509.3000   107.4111     6.4258     6.6273     6.4750   -33.6269
  509.4000   107.5970     6.4940     6.6680     6.5026   -33.6263
  509.5000   107.7305     6.4939     6.7029     6.5024   -33.6257
  509.6000   107.7323     6.5579     6.7683     6.5022   -33.6251
  509.7000   107.7344     6.5844     6.8457     6.5020   -33.6245
  509.8000   107.7359     6.6168     6.9240     6.5018   -33.6239
  509.9000   107.6225     6.6762     7.0031     6.5017   -33.6233
  510.0000   107.3653     6.6761     7.0962     6.5015   -33.6227
  510.1000   106.9988     6.7143     7.1301     6.5013   -33.6222
  510.2000   106.6204     6.7526     7.1706     6.5011   -33.6214
  510.3000   106.0877     6.7912     7.2114     6.5009   -33.6210
  510.4000   105.8126     6.8300     7.2525     6.5008   -33.6204
  510.5000   105.5329     6.8635     7.2949     6.5114   -33.6198
  510.6000   105.1664     6.8633     7.2947     6.5485   -33.6192
  510.7000   104.7836     6.8633     7.2945     6.5910   -33.6185
  510.8000   104.1613     6.8632     7.2720     6.5909   -33.5018
  510.9000   103.0417     6.8631     7.2437     6.6148   -33.4677
  511.0000   102.1138     6.8630     7.2391     6.6525   -33.4671
  511.1000   101.4584     6.8629     7.1932     6.6825   -33.4665
  511.2000   100.9078     6.8628     7.1206     6.6823   -33.4659
  511.3000   100.3527     6.8627     7.0666     6.6821   -33.4652
  511.4000   100.1719     6.8626     7.0262     6.7113   -33.4647
  511.5000    99.9895     6.8625     6.9861     6.7283   -33.4641
  511.6000    99.7054     6.8624     6.9462     6.7409   -33.4635
  511.7000    99.4003     6.8623     6.8988     6.7748   -33.4629
  511.8000    99.2180     6.8622     6.8987     6.7745   -33.4623
  511.9000    99.0164     6.8621     6.8985     6.7744   -33.4617
  512.0000    99.0180     6.8620     6.8837     6.7742   -33.4611
  512.1000    99.1440     6.8619     6.8443     6.7740   -33.4605
  512.2000    99.3299     6.8618     6.8029     6.7738   -33.4599
  512.3000    99.5593     6.8617     6.8027     6.7736   -33.4751
