~VERSION INFORMATION
 VERS.                2.0:   CWLS LOG ASCII STANDARD - VERSION 2.0
 WRAP.                 NO:   ONE LINE PER DEPTH STEP
~WELL INFORMATION
#MNEM.UNIT      DATA TYPE    INFORMATION
#----------   ------------   ------------------------------
 STRT.F           30.5000:   START DEPTH
 STOP.F          692.0000:   STOP DEPTH
 STEP.F            0.5000:   STEP LENGTH
 NULL.          -999.2500:   NO VALUE
 COMP. FENIX & SCISSON INC:   COMPANY
 WELL.   27-S-11-WP #3-11:   WELL
 FLD .  TEAPOT DOME NPR-3:   FIELD
 LOC .      S11 T38N R78W:   LOCATION
 CNTY.            NATRONA:   COUNTY
 STAT.            WYOMING:   STATE
 CTRY. UNITED STATES OF AMERICA:   COUNTRY
 SRVC.       Schlumberger:   SERVICE COMPANY
 DATE.        18-FEB-1978:   LOGDATE
 API .       490251058100:   API NUMBER
~CURVE INFORMATION
#MNEM.UNIT       API CODE    CURVE DESCRIPTION
#----------   ------------   ------------------------------
 DEPT.F                  :   
 CALD.IN     45 280 60 00:   CALIPER FROM DENSITY LOG
 CORR.G/C3   45 356 01 00:   DENSITY CORRECTION
 DPHI.DEC    45 890 12 00:   DENSITY POROSITY SANDSTONE
 GRD .GAPI   45 310 01 00:   GAMMA RAY FROM DENSITY LOG
 RHOB.G/C3   45 350 01 00:   BULK DENSITY
 ILD .OHMM   05 110 46 00:   INDUCTION LOG DEEP
 SN  .OHMM   05 040 16 00:   SHORT NORMAL 16"
 SPR .MV     05 010 01 00:   SPONTANEOUS POTENSIAL FROM RES.
~PARAMETER INFORMATION
#MNEM.UNIT          VALUE    DESCRIPTION
#----------   ------------   ------------------------------
 PD  .                 GL:   PERMANENT DATUM
 EPD .F              5195:   ELEVATION PERMANENT DATUM
 LMF .                 KB:   LOG MEASURED FROM
 DAPD.F                 4:   FEET ABOVE PERMANENT DATUM
 DMF .                 KB:   DRILLING MEASURED FROM
 EKB .F              5199:   KELLING BUSHING
 EGL .F              5195:   GROUND LEVEL
 DATE.        18-FEB-1978:   RUN DATE
 RUN .                  1:   RUN NUMBER
 DD  .F               690:   DEPTH DRILLER
 DL  .F               695:   DEPTH LOGGER
 BLI .F               688:   BOTTOM LOG INTERVAL
 TLI .F                40:   TOP LOG INTERVAL
 CS  .IN            8.625:   CASING SIZE
 CBD .F                40:   CASING BOTTOM DRILLER
 CBL .F                40:   CASING BOTTOM LOGGER
 BS  .IN            7.875:   BIT SIZE
 BSD .F               690:   BIT SIZE AT DEPTH
 DFT .       LIGNO/ SULF.:   DRILLING FLUID TYPE
 DFD .                8.8:   DRILLING FLUID DENSITY
 DFV .                 33:   DRILLING FLUID VISCOSITY
 DFPH.               10.0:   DRILLING FLUID PH
 DFL .                5.0:   DRILLING FLUID LOSS
 MSS .           FLOWLINE:   MUD SAMPLE SOURCE
 RMS .OHMM            1.7:   RESISTIVITY MUD SAMPLE
 MST .F                66:   MUD SAMPLE TEMPERATURE
 RMF .OHMM            2.0:   RESISTIVITY MUD FILTRATE SAMPLE
 MFST.F                58:   MUD FILTRATE SAMPLE TEMPERATURE
 RMC .OHMM            3.0:   RESISTIVITY MUD CAKE
 MCST.F                60:   MUD CAKE SAMPLE TEMPERATURE
 MFSS.               MEAS:   MUD FILTRATE SAMPLE SOURCE
 RMB .OHMM           1.65:   RESISTIVITY MUD AT BHT
 BHT .F                68:   BOTTOM HOLE TEMPERATURE
 TCS .HRS               2:   TIME CURCULATED STOPPED
 MRT .F                68:   MAXIMUM RECORDED TEMPERATURE
 LUN .               2958:   LOGGING UNIT NUMBER
 LUL .             CASPER:   LOGGING UNIT LOCATION
 ENGI.            POINTER:   RECORDING ENGINEER
 WITN.           MCGINLEY:   WITNESSED BY
 CLNT.            A2DTECH:   CLIENT CODE
 ORIG.           5" PRINT:   ORIGIN OF DATA
 UWI .       490251058100:   UNIQUE WELL ID
~OTHER INFORMATION
~A   DEPT     CALD       CORR       DPHI         GRD      RHOB        ILD         SN        SPR   
# ...
  638.0000     7.9534     0.0439     0.0974    90.8165     2.4840    11.2593    12.5682   -42.4716
  638.5000     7.9669     0.0452     0.0938    92.3167     2.4809    11.2511    12.5587   -42.3565
  639.0000     7.9654     0.0466     0.0923    91.5441     2.4884    11.2429    12.5492   -42.3866
  639.5000     7.9636     0.0464     0.0917    89.1049     2.4891    11.2347    12.5397   -42.5693
  640.0000     7.9772     0.0462     0.0906    85.3020     2.4897    11.2265    12.5302   -42.5994
  640.5000     7.9756     0.0460     0.0921    83.0143     2.4957    11.2183    12.4334   -41.8662
  641.0000     7.9738     0.0443     0.0942    84.2115     2.5002    11.2101    12.3373   -41.7360
  641.5000     7.9874     0.0426     0.0967    84.5000     2.4956    11.1238    12.2420   -42.0715
  642.0000     7.9927     0.0394     0.0992    85.6967     2.4940    11.1156    12.2328   -41.4909
  642.5000     7.9992     0.0346     0.1010    88.4090     2.4916    11.1075    12.1383   -41.8779
  643.0000     7.9976     0.0314     0.0980    89.6081     2.4771    11.0992    12.1290   -42.4746
  643.5000     7.9959     0.0343     0.0953    89.2788     2.4723    11.0136    12.1197   -42.8100
  644.0000     7.9942     0.0371     0.0907    89.1216     2.4800    10.9272    12.0259   -42.8401
  644.5000     7.9926     0.0401     0.0880    92.6141     2.4860    10.8444    11.8479   -42.4122
  645.0000     7.9906     0.0429     0.0872    89.8455     2.4951    10.7595    11.7579   -42.4422
  645.5000     7.9889     0.0427     0.0847    89.0729     2.5026    10.6022    11.6656   -42.3197
  646.0000     7.9721     0.0425     0.0814    88.1489     2.4987    10.5026    11.5754   -43.1430
  646.5000     7.9704     0.0423     0.0802    87.3801     2.5072    10.3668    11.4059   -43.7614
  647.0000     7.9539     0.0437     0.0803    89.9371     2.5122    10.2152    11.3178   -43.9441
  647.5000     7.9368     0.0465     0.0806    91.4373     2.5114    10.0659    11.0742   -43.0582
  648.0000     7.9351     0.0524     0.0803    91.2708     2.5106     9.9884    11.0659   -42.4701
  648.5000     7.9183     0.0568     0.0797    90.0437     2.5158     9.9811    10.9804   -41.8970
  649.0000     7.9167     0.0597     0.0791    89.8809     2.5172     9.9738    10.9721   -41.6217
  649.5000     7.9150     0.0610     0.0792    91.3774     2.5179     9.8970    10.8114   -41.3465
  650.0000     7.8982     0.0624     0.0791    93.3358     2.5171     9.7521    10.6530   -41.2244
  650.5000     7.8967     0.0627     0.0789    91.4991     2.5185     9.6094    10.4858   -40.7798
  651.0000     7.8950     0.0631     0.0793    90.6397     2.5176     9.4015    10.3416   -41.5657
  651.5000     7.8933     0.0632     0.0799    92.5301     2.5175     9.2640    10.1900   -40.8203
  652.0000     7.8914     0.0645     0.0861    98.4709     2.5174     9.1286    10.1111   -41.4489
  652.5000     7.8898     0.0643     0.0858    97.2432     2.5143     8.9951    10.0328   -42.2303
  653.0000     7.8729     0.0657     0.0846    94.7547     2.5057     8.9885     9.8857   -41.6376
  653.5000     7.8713     0.0669     0.0874    98.6793     2.5019     8.8571     9.8091   -41.5023
  654.0000     7.8545     0.0713     0.0893    96.9979     2.5056     8.8506     9.8016   -41.2155
  654.5000     7.8529     0.0741     0.0872    95.7709     2.5032     8.8442     9.7940   -41.5389
  655.0000     7.8512     0.0800     0.0854    95.4568     2.4955     8.7761     9.7863   -42.0458
  655.5000     7.8496     0.0875     0.0891    97.5595     2.4992     8.7697     9.7104   -42.8239
  656.0000     7.8480     0.0932     0.0860    98.6090     2.5090     8.7021     9.7028   -42.9713
  656.5000     7.8463     0.0946     0.0834    94.3481     2.4975     8.6049     9.6937   -42.8321
  657.0000     7.8599     0.0928     0.0877    91.1515     2.5080     8.5685     9.6862   -42.2439
  657.5000     7.8578     0.0895     0.0926    89.4697     2.5095     8.4938     9.5442   -41.9520
  658.0000     7.8716     0.0848     0.0945    89.9630     2.5010     8.3184     9.4703   -41.8173
  658.5000     7.8849     0.0785     0.0912    92.1640     2.4925     8.2544     9.2664   -43.2138
  659.0000     7.8833     0.0737     0.0900    93.8158     2.4916     8.1337     9.0036   -42.7738
  659.5000     7.8816     0.0690     0.0940    94.4108     2.4954     8.0148     8.7483   -42.6346
  660.0000     7.8956     0.0657     0.0904    93.1802     2.4869     7.8425     8.7415   -43.1349
  660.5000     7.8936     0.0670     0.0780    92.4078     2.4853     7.7821     8.7964   -41.9117
  661.0000     7.8919     0.0684     0.0826    92.2452     2.5017     7.6684     8.8512   -41.4717
  661.5000     7.8903     0.0636     0.0854    93.8933     2.5192     7.6093     8.7212   -41.4901
  662.0000     7.8886     0.0572     0.0882    98.4240     2.5085     7.6038     8.4719   -41.5084
  662.5000     7.8990     0.0540     0.0891    99.3183     2.5000     7.5452     8.2852   -41.5301
  663.0000     7.9006     0.0538     0.0906    97.8837     2.5007     7.5397     8.2270   -41.5481
  663.5000     7.8988     0.0536     0.0917    97.0160     2.4991     7.4816     8.2193   -41.4089
  664.0000     7.8971     0.0534     0.0869    98.0618     2.4883     7.2663     8.1557   -42.1947
  664.5000     7.8952     0.0501     0.0817    96.5281     2.4966     6.9104     8.1493   -40.6815
  665.0000     7.9090     0.0439     0.1085    97.4224     2.5071     6.4437     7.9739   -41.0093
  665.5000     7.9073     0.0345     0.1201    97.7143     2.4979     6.1746     7.7477   -41.6379
  666.0000     7.9055     0.0267     0.1277    96.4874     2.4705     6.1701     7.3716   -41.9613
  666.5000     7.9039     0.0174     0.1041   102.6810     2.4392     6.1656     7.0630   -43.3533
  667.0000     7.9023     0.0157     0.0817   101.1511     2.4141     6.2918     6.9594   -42.3026
  667.5000     7.9006     0.0276     0.0811   100.6817     2.4261     6.3758     7.0042   -42.0152
  668.0000     7.8990     0.0365     0.0836   100.3636     2.4941     6.4610     6.9975   -42.2005
  668.5000     7.9124     0.0394     0.0845    99.9967     2.5087     6.5033     7.0906   -42.1786
  669.0000     7.9257     0.0392     0.0755    98.2094     2.5040     6.7384     7.7127   -41.9209
  669.5000     7.9397     0.0390     0.0725    96.0770     2.5024     7.1373     8.6297   -41.7818
  670.0000     7.9530     0.0388     0.0765    99.5434     2.5273     7.8353     9.2619   -42.1096
  670.5000     7.9510     0.0385     0.0805   104.6801     2.5227     8.2805     9.8200   -42.1275
  671.0000     7.9648     0.0383     0.0790   101.9380     2.5203     8.5691    10.0226   -42.1455
  671.5000     7.9631     0.0396     0.0742    98.7414     2.5020     8.7461    10.0852   -42.3162
  672.0000     7.9614     0.0394     0.0770    96.6054     2.5231     8.8613    10.0754   -42.1770
  672.5000     7.9597     0.0392     0.0788    99.6209     2.5200     8.8548    10.0676   -42.0423
  673.0000     7.9733     0.0420     0.0792   101.7306     2.5153     8.8484    10.0598   -41.9114
  673.5000     7.9716     0.0434     0.0792   102.6372     2.5046     8.8419     9.9820   -41.7771
  674.0000     7.9700     0.0447     0.0796   101.8455     2.5013     8.8357     9.9742   -41.9481
  674.5000     7.9680     0.0445     0.0799   102.7398     2.5082     8.8290    10.0385   -42.1328
  675.0000     7.9663     0.0443     0.0806   101.5129     2.5103     8.7610     9.9588   -42.3155
  675.5000     7.9649     0.0441     0.0809    96.6496     2.5048     8.6935     9.9512   -42.6171
  676.0000     7.9481     0.0438     0.0807    94.8166     2.5018     8.6537     9.9434   -42.7878
  676.5000     7.9463     0.0452     0.0807    94.6540     2.5153     8.5599     9.9356   -42.6486
  677.0000     7.9448     0.0449     0.0807    95.0937     2.5168     8.5524     9.9277   -42.6711
  677.5000     7.9582     0.0447     0.0808    95.0752     2.5068     8.4865     9.8493   -42.5319
  678.0000     7.9565     0.0454     0.0805    95.0604     2.5029     8.4212     9.7730   -42.8597
