~VERSION INFORMATION
 VERS.                2.0:   CWLS LOG ASCII STANDARD - VERSION 2.0
 WRAP.                 NO:   ONE LINE PER DEPTH STEP
~WELL INFORMATION
#MNEM.UNIT      DATA TYPE    INFORMATION
#----------   ------------   ------------------------------
 STRT.F           30.0000:   START DEPTH
 STOP.F          506.0000:   STOP DEPTH
 STEP.F            0.5000:   STEP LENGTH
 NULL.          -999.2500:   NO VALUE
 COMP. FENIX & SCISSON INC:   COMPANY
 WELL.    42 SX-3F1 #55-3:   WELL
 FLD .             TEAPOT:   FIELD
 LOC .       S3 T38N R78W:   LOCATION
 CNTY.            NATRONA:   COUNTY
 STAT.            WYOMING:   STATE
 CTRY. UNITED STATES OF AMERICA:   COUNTRY
 SRVC.              Welex:   SERVICE COMPANY
 DATE.        26-MAY-1980:   LOGDATE
 API .       490251082900:   API NUMBER
~CURVE INFORMATION
#MNEM.UNIT       API CODE    CURVE DESCRIPTION
#----------   ------------   ------------------------------
 DEPT.F                  :   
 GRD .GAPI   45 310 01 00:   GAMMA RAY FROM DENSITY LOG
 CALD.IN     45 280 60 00:   CALIPER
 RHOB.G/C3   45 350 01 00:   BULK DENSITY
 CORR.G/C3   45 356 01 00:   DENSITY CORRECTION
 DPHI.DEC    45 890 12 00:   DENSITY POROSITY SANDSTONE
 NPHI.DEC    42 890 03 00:   NEUTRON POROSITY SANDSTONE
 GURD.OHMM   07 220 05 00:   GUARD RESISTIVITY
 ILD .OHMM   07 120 46 00:   INDUCTION LOG DEEP
 ILM .OHMM   07 120 44 00:   INDUCTION LOG MEDIUM
 SPR .MV     07 010 01 00:   SPONTANEOUS POTENTIAL
~PARAMETER INFORMATION
#MNEM.UNIT          VALUE    DESCRIPTION
#----------   ------------   ------------------------------
 PD  .                 GL:   PERMANENT DATUM
 EPD .F              5161:   ELEVATION PERMANENT DATUM
 LMF .                 KB:   LOG MEASURED FROM
 DAPD.F                 4:   FEET ABOVE PERMANENT DATUM
 DMF .                 KB:   DRILLING MEASURED FROM
 EKB .F              5165:   KELLING BUSHING
 EGL .F              5161:   GROUND LEVEL
 DATE.            5-26-80:   RUN DATE
 RUN .                  1:   RUN NUMBER
 DD  .F               500:   DEPTH DRILLER
 DL  .F               502:   DEPTH LOGGER
 BLI .F               500:   BOTTOM LOG INTERVAL
 TLI .F                34:   TOP LOG INTERVAL
 BS  .IN            9.875:   BIT SIZE
 BSD .F               500:   BIT SIZE AT DEPTH
 DFT .          KCL WATER:   DRILLING FLUID TYPE
 DFD .                9.5:   DRILLING FLUID DENSITY
 DFV .                 45:   DRILLING FLUID VISCOSITY
 MSS .            MUD PIT:   MUD SAMPLE SOURCE
 RMS .OHMM            .39:   RESISTIVITY MUD SAMPLE
 MST .F                75:   MUD SAMPLE TEMPERATURE
 RMF .OHMM           .312:   RESISTIVITY MUD FILTRATE SAMPLE
 MFST.F                75:   MUD FILTRATE SAMPLE TEMPERATURE
 RMC .OHMM           .468:   RESISTIVITY MUD CAKE
 MCST.F                75:   MUD CAKE SAMPLE TEMPERATURE
 MFSS.           MEASURED:   MUD FILTRATE SAMPLE SOURCE
 MCSS.           MEASURED:   MUD CAKE SAMPLE SOURCE
 RMB .OHMM            .39:   RESISTIVITY MUD AT BHT
 BHT .F                75:   BOTTOM HOLE TEMPERATURE
 TCS .HRS               2:   TIME CURCULATED STOPPED
 MRT .F                75:   MAXIMUM RECORDED TEMPERATURE
 LUN .               9685:   LOGGING UNIT NUMBER
 LUL .             CASPER:   LOGGING UNIT LOCATION
 ENGI.            TOTHILL:   RECORDING ENGINEER
 WITN.            RHOADES:   WITNESSED BY
 CLNT.            A2DTECH:   CLIENT CODE
 ORIG.           5" PRINT:   ORIGIN OF DATA
 UWI .       490251082900:   UNIQUE WELL ID
 DICO. A2D Technologies, Inc.:   DIGITIZING COMPANY
~OTHER INFORMATION
~A   DEPT      GRD       CALD       RHOB       CORR         DPHI       NPHI      GURD        ILD        ILM       SPR   
# ...
  398.5000    86.9563     9.3210     2.4325     0.0741     0.1620     0.2790    19.7549    17.0565    13.2825   -24.5457
  399.0000    87.5849     9.2962     2.4068     0.0497     0.1753     0.2815    19.1871    16.7675    12.9352   -24.7119
  399.5000    88.2130     9.2704     2.3849     0.0309     0.1753     0.2840    19.1976    16.4834    12.8740   -24.8447
  400.0000    88.8422     9.3060     2.3818     0.0406     0.1772     0.2859    17.6819    16.1183    12.8190   -24.6037
  400.5000    89.4808     9.4993     2.3841     0.0498     0.1770     0.2784    17.9046    16.1234    13.0931   -24.3662
  401.0000    90.3492     9.6947     2.3807     0.0556     0.1760     0.2733    18.8485    16.1222    13.3490   -24.1310
  401.5000    91.4953     9.7230     2.3869     0.0716     0.1749     0.2734    18.8504    16.0966    13.6099   -23.8961
  402.0000    92.6366     9.7280     2.3846     0.0874     0.1644     0.2752    19.9085    15.8586    13.7935   -23.6613
  402.5000    93.7730     9.7329     2.4033     0.1037     0.1520     0.2723    19.3348    15.6245    13.3145   -23.4264
  403.0000    93.5101     9.7379     2.4174     0.1282     0.1372     0.2706    18.1634    15.3939    12.9594   -23.1912
  403.5000    92.5625     9.7376     2.4439     0.1565     0.1322     0.2671    16.2757    15.1667    12.5810   -22.9477
  404.0000    91.6092     9.7131     2.4573     0.1895     0.1225     0.2654    14.1691    14.9428    12.6589   -22.8934
  404.5000    91.2681     9.5917     2.4733     0.2035     0.1429     0.2657    15.0760    14.7223    12.9357   -22.8920
  405.0000    91.6016     9.4734     2.4479     0.1635     0.1555     0.2655    15.9742    14.5740    12.5873   -22.8926
  405.5000    92.0021     9.3553     2.4211     0.1376     0.1586     0.2732    15.4885    14.8439    12.7020   -22.9149
  406.0000    92.4056     9.2372     2.4147     0.1302     0.1535     0.2739    15.1188    14.4661    12.9346   -23.0753
  406.5000    92.8014     9.1199     2.4208     0.1276     0.1502     0.2768    15.1188    14.2465    12.7132   -23.2358
  407.0000    92.9063     9.0368     2.4261     0.1316     0.1453     0.2740    14.9210    14.1279    12.2905   -23.3959
  407.5000    92.0518     9.0162     2.4358     0.1518     0.1380     0.2713    14.3329    14.0103    12.0178   -23.5558
  408.0000    91.2102     8.8672     2.4620     0.1741     0.1322     0.2676    14.0489    13.8943    12.0221   -23.7158
  408.5000    90.3626     8.9809     2.4593     0.1827     0.1277     0.2623    15.8284    13.7513    11.3870   -23.8761
  409.0000    89.5436     9.0966     2.4702     0.1983     0.1258     0.2583    15.2000    13.4393    10.9667   -24.0401
  409.5000    90.1421     9.2109     2.4724     0.2072     0.1360     0.2543    13.2321    13.1336    10.8665   -24.0720
  410.0000    90.8340     9.2843     2.4468     0.1633     0.1387     0.2521    12.2429    12.8358    11.1565   -24.0725
  410.5000    91.5210     9.2794     2.4560     0.1606     0.1348     0.2530    15.3987    12.5406    11.3785   -24.0721
  411.0000    92.2066     9.4748     2.4527     0.1479     0.1300     0.2549    14.1866    12.4031    11.5239   -24.0721
  411.5000    92.8975     9.5796     2.4621     0.1462     0.1371     0.2547    12.3557    12.2815    11.5984   -24.0721
  412.0000    93.6119     9.3418     2.4482     0.1337     0.1396     0.2548    13.0458    12.1311    11.6749   -24.0721
  412.5000    93.1990     9.1463     2.4578     0.1475     0.1293     0.2573    13.5863    12.1552    11.7530   -24.0719
  413.0000    92.5686     8.9471     2.4603     0.1350     0.1345     0.2619    13.7118    12.1874    11.8012   -24.0719
  413.5000    91.9378     8.6762     2.4549     0.1199     0.1236     0.2644    13.8384    12.2198    11.5421   -24.0732
  414.0000    91.3085     8.3205     2.4774     0.1307     0.1141     0.2795    13.9662    12.2522    11.2726   -24.1456
  414.5000    90.6796     8.0450     2.4967     0.1419     0.1071     0.2853    14.0951    12.2848    11.4544   -24.3291
  415.0000    90.0507     8.0031     2.5046     0.1531     0.1069     0.2902    14.2253    12.3174    11.8018   -24.5109
  415.5000    89.4218     7.9590     2.4972     0.1453     0.1082     0.2906    14.3091    12.3501    11.6840   -24.6931
  416.0000    88.7927     8.0062     2.5021     0.1360     0.1087     0.2862    13.9206    12.3829    11.5626   -24.8752
  416.5000    88.1621     8.2549     2.4960     0.1192     0.1225     0.2776    14.5031    12.4159    11.4424   -25.0574
  417.0000    87.5265     8.6542     2.4778     0.0956     0.1168     0.2708    14.8439    12.4494    11.2732   -25.2395
  417.5000    87.4254     9.0502     2.4943     0.1088     0.1066     0.2715    13.7225    12.4696    11.2857   -25.4216
  418.0000    87.4246     9.3474     2.5073     0.0925     0.1044     0.2704    13.5128    12.3277    11.3113   -25.6037
  418.5000    87.4253     9.4949     2.4916     0.0741     0.1130     0.2658    13.4741    12.2334    11.3362   -25.7858
  419.0000    87.4254     9.6446     2.5140     0.0849     0.0867     0.2553    13.4354    12.1791    11.3615   -25.9680
  419.5000    87.4302     9.7933     2.5389     0.0953     0.0917     0.2505    13.1375    12.1251    11.3764   -26.1501
  420.0000    87.7090     9.9182     2.5189     0.0837     0.0998     0.2544    12.9356    12.0712    11.2969   -26.3328
  420.5000    88.4704     9.9070     2.5113     0.0834     0.1093     0.2600    13.5450    12.0176    11.2391   -26.4875
  421.0000    89.2242     9.8976     2.4925     0.0710     0.1157     0.2607    13.3017    11.9641    11.1697   -26.6118
  421.5000    89.9792     9.8887     2.4869     0.0749     0.1133     0.2617    13.0996    11.9107    11.2246   -26.7329
  422.0000    90.7345     9.8798     2.4924     0.0892     0.1207     0.2645    12.9356    11.9107    11.3187   -26.7475
  422.5000    91.4902     9.8628     2.4766     0.0871     0.1281     0.2675    12.4431    11.8956    11.3788   -26.4042
  423.0000    92.2357     9.8390     2.4631     0.0855     0.1309     0.2706    11.9838    11.8581    10.9192   -26.0753
  423.5000    92.7292     9.8152     2.4644     0.1018     0.1337     0.2736    11.8018    11.8207    10.5495   -25.7395
  424.0000    92.4666     9.7914     2.4599     0.1234     0.1288     0.2708    12.8654    11.7834    10.1906   -25.7834
  424.5000    92.2143     9.7676     2.4677     0.1359     0.1272     0.2773    13.7935    11.7466    10.4000   -25.9768
  425.0000    91.9607     9.7439     2.4685     0.1407     0.1320     0.2797    12.4859    11.7081    10.6690   -26.1848
  425.5000    91.7049     9.7205     2.4555     0.1452     0.1416     0.2808    11.4814    11.5205    10.4746   -26.1512
  426.0000    91.4441     9.6948     2.4502     0.1455     0.1377     0.2833    12.8245    11.2325    10.2845   -26.0361
  426.5000    91.3403     9.6223     2.4426     0.1610     0.1303     0.2892    14.3091    11.0658    10.3027   -25.9206
  427.0000    92.8442     9.5561     2.4640     0.1827     0.1252     0.2906    13.1554    11.0677    10.3252   -25.8811
  427.5000    94.3246     9.3110     2.4720     0.1978     0.1429     0.2876    11.9105    11.0677    10.3479   -26.2426
  428.0000    94.5990     9.0463     2.4428     0.1590     0.1374     0.2845    12.1924    11.3568    10.3793   -26.6091
  428.5000    94.6770     8.9935     2.4507     0.1437     0.1249     0.2815    12.4695    11.5872    10.2342   -26.6294
  429.0000    94.7611     8.9773     2.4783     0.1656     0.1069     0.2823    12.0130    11.4390    10.0054   -26.6275
  429.5000    95.1474     8.9791     2.5049     0.1870     0.0898     0.2768    11.6497    11.3183    10.1630   -26.6279
  430.0000    96.7882     9.0329     2.5290     0.1922     0.0850     0.2694    11.3765    11.1506    10.3604   -26.6231
  430.5000    98.3925     9.0879     2.5421     0.1707     0.0855     0.2630    12.6612    10.9540    10.4743   -26.3960
  431.0000    99.9966     8.9728     2.5380     0.1410     0.0900     0.2631    14.3091    10.7680    10.3954   -26.1485
  431.5000   101.6310     8.7580     2.5349     0.1221     0.0896     0.2659    12.0190    10.7257    10.3387   -25.8970
