~VERSION INFORMATION
 VERS.                2.0:   CWLS LOG ASCII STANDARD - VERSION 2.0
 WRAP.                 NO:   ONE LINE PER DEPTH STEP
~WELL INFORMATION
#MNEM.UNIT      DATA TYPE    INFORMATION
#----------   ------------   ------------------------------
 STRT.F           44.0000:   START DEPTH
 STOP.F          461.0000:   STOP DEPTH
 STEP.F            0.5000:   STEP LENGTH
 NULL.          -999.2500:   NO VALUE
 COMP. BROWN JOHN E&C INC:   COMPANY
 WELL. NPR 3 SX-10 #55-41-10:   WELL
 FLD .             TEAPOT:   FIELD
 LOC .      S10 T38N R78W:   LOCATION
 CNTY.            NATRONA:   COUNTY
 STAT.            WYOMING:   STATE
 CTRY. UNITED STATES OF AMERICA:   COUNTRY
 SRVC.       Schlumberger:   SERVICE COMPANY
 DATE.        28-SEP-1990:   LOGDATE
 API .       490251131900:   API NUMBER
~CURVE INFORMATION
#MNEM.UNIT       API CODE    CURVE DESCRIPTION
#----------   ------------   ------------------------------
 DEPT.F                  :   
 GRR .GAPI   07 310 01 00:   GAMMA RAY
 ILD .OHMM   07 120 46 00:   INDUCTION LOG DEEP
 ILM .OHMM   07 120 44 00:   INDUCTION LOG MEDIUM
~PARAMETER INFORMATION
#MNEM.UNIT          VALUE    DESCRIPTION
#----------   ------------   ------------------------------
 PD  .                 GL:   PERMANENT DATUM
 EPD .F              5187:   ELEVATION PERMANENT DATUM
 LMF .                 KB:   LOG MEASURED FROM
 DAPD.F              10.0:   FEET ABOVE PERMANENT DATUM
 DMF .                 KB:   DRILLING MEASURED FROM
 EKB .F              5197:   KELLING BUSHING
 EDF .F              5196:   DRILLING FLOOR
 EGL .F              5187:   GROUND LEVEL
 DATE.        28-SEP-1990:   RUN DATE
 RUN .                  1:   RUN NUMBER
 DD  .F               470:   DEPTH DRILLER
 DL  .F               467:   DEPTH LOGGER
 BLI .F               461:   BOTTOM LOG INTERVAL
 TLI .F                48:   TOP LOG INTERVAL
 CS  .IN            8.625:   CASING SIZE
 CBD .F                48:   CASING BOTTOM DRILLER
 CBL .F                49:   CASING BOTTOM LOGGER
 BS  .IN            7.875:   BIT SIZE
 BSD .F               470:   BIT SIZE AT DEPTH
 DFT .                AIR:   DRILLING FLUID TYPE
 TLAB.HRS            1715:   TIME LOGGER AT BOTTOM
 LUN .               6882:   LOGGING UNIT NUMBER
 LUL .               CODY:   LOGGING UNIT LOCATION
 ENGI.        MIKE FISHER:   RECORDING ENGINEER
 WITN.       GARRY STRONG:   WITNESSED BY
 CLNT.            A2DTECH:   CLIENT CODE
 ORIG.           5" PRINT:   ORIGIN OF DATA
 UWI .       490251131900:   UNIQUE WELL ID
 DICO. A2D Technologies, Inc.:   DIGITIZING COMPANY
~OTHER INFORMATION
~A   DEPT      GRR        ILD        ILM   
# ...
  226.0000   127.9265     8.4751     8.7498
  226.5000   131.6328     8.4728     8.6852
  227.0000   136.0530     8.5306     8.7427
  227.5000   139.1757     8.5277     8.7996
  228.0000   136.3747     8.6457     8.8577
  228.5000   135.7265     8.7041     8.9172
  229.0000   135.0783     8.8865     9.0392
  229.5000   132.5925     9.0721     9.2911
  230.0000   127.0438     9.3273     9.3535
  230.5000   122.0703     9.3909     9.2188
  231.0000   119.9193     9.0014     8.7680
  231.5000   120.4962     8.2735     7.9924
  232.0000   122.6045     7.1399     6.9585
  232.5000   127.1631     6.3367     5.9631
  233.0000   137.8472     5.4241     5.2551
  233.5000   149.4502     5.1330     5.0023
  234.0000   152.7836     5.9443     5.7109
  234.5000   150.5134     6.3739     6.4749
  235.0000   142.2900     6.7867     6.9902
  235.5000   133.3723     6.9290     7.8257
  236.0000   126.2922     7.2926     8.6554
  236.5000   122.5812     8.7256     9.7682
  237.0000   121.9420     9.8953    10.3990
  237.5000   124.0414    10.6103    10.6898
  238.0000   128.9062    10.8334    10.9133
  238.5000   133.2108    10.9066    10.6811
  239.0000   135.2579    10.5276    10.4549
  239.5000   134.6098    10.5988    10.6724
  240.0000   131.2050    11.2065    11.2089
  240.5000   128.1066    12.1307    11.4356
  241.0000   124.7020    13.6262    12.4324
  241.5000   120.6847    14.8170    13.9975
  242.0000   112.3795    15.8877    15.7595
  242.5000    97.5810    17.7669    17.6197
  243.0000    84.4280    20.2902    19.4256
  243.5000    76.7354    22.5318    22.8090
  244.0000    69.9617    25.1969    25.1467
  244.5000    64.1068    27.6206    27.3550
  245.0000    66.5214    29.4126    28.1034
  245.5000    71.6925    29.7849    28.0891
  246.0000    77.4761    29.5670    27.6873
  246.5000    82.4786    28.9443    27.4830
  247.0000    85.6655    28.3348    27.2802
  247.5000    87.4676    27.9330    26.7025
  248.0000    88.3597    27.5369    26.3206
  248.5000    88.9366    27.3373    25.7632
  249.0000    88.2795    26.9495    25.5727
  249.5000    86.4062    26.5658    25.5600
  250.0000    85.7580    27.3137    25.7316
  250.5000    86.9478    27.5029    25.5496
  251.0000    86.6089    27.6924    26.8301
  251.5000    83.7577    27.8823    27.7838
  252.0000    79.7975    28.4705    28.7713
  252.5000    81.2962    29.2754    29.5861
  253.0000    82.4888    31.8380    30.8528
  253.5000    81.8436    33.9049    32.3998
  254.0000    80.5859    34.3785    33.3174
  254.5000    81.1658    34.6154    34.0219
  255.0000    83.8897    34.6095    33.7824
  255.5000    85.1220    34.6048    33.5444
  256.0000    88.1043    35.5831    33.3077
  256.5000    90.2156    36.8463    33.0731
  257.0000    91.1100    38.6926    34.0098
  257.5000    87.0876    39.7865    35.2186
  258.0000    82.1546    39.2277    36.7265
  258.5000    78.1403    39.2222    38.0318
  259.0000    76.2701    39.4926    38.8362
  259.5000    79.2921    40.0442    39.3809
  260.0000    80.7909    41.1750    39.6548
  260.5000    79.8394    42.0450    39.6514
  261.0000    78.5817    42.6323    39.3722
  261.5000    79.1617    42.0321    38.2826
  262.0000    81.8856    39.1835    36.9636
  262.5000    83.6907    35.7685    35.4411
  263.0000    83.9643    34.5328    34.2200
  263.5000    82.0859    34.5280    33.0410
  264.0000    80.2156    34.0420    31.9026
  264.5000    79.5705    33.5639    30.9995
  265.0000    81.0693    32.8615    30.1608
  265.5000    84.0994    31.7262    29.3262
  266.0000    88.3547    30.2041    28.3158
  266.5000    91.1190    28.9572    27.3402
  267.0000    93.4881    27.9568    25.8497
  267.5000    94.3744    26.9910    24.2700
  268.0000    95.2606    25.8670    24.0991
  268.5000    97.3719    25.3074    23.9294
  269.0000   100.4021    24.6311    23.4219
  269.5000   101.2894    24.2851    22.7567
  270.0000   100.0306    24.1123    22.3070
  270.5000    96.8525    24.1090    22.1499
  271.0000    95.0568    24.2760    21.9939
  271.5000    95.6368    24.4433    21.9924
  272.0000    96.8293    24.6110    22.1458
  272.5000    98.3281    24.6075    22.2998
  273.0000   100.4394    24.6041    22.4545
  273.5000   102.2445    24.6000    22.4529
  274.0000   102.8244    24.7695    22.6281
  274.5000   100.9460    24.9402    22.7663
  275.0000    99.9946    25.1120    22.9247
  275.5000   100.8808    25.2851    23.0837
  276.0000   101.1626    25.2816    23.0821
  276.5000    98.0591    25.2782    23.2431
  277.0000    96.8014    25.0983    23.0790
  277.5000    97.0750    24.7458    22.7566
  278.0000    98.3072    24.3982    22.7551
  278.5000    99.4601    23.8869    22.5948
  279.0000    96.3565    23.5514    22.5929
  279.5000    95.7114    23.3838    22.5914
  280.0000    94.4536    23.3806    22.2758
  280.5000    95.6461    23.0522    21.8115
  281.0000    97.4512    22.8882    21.2079
  281.5000    99.9093    22.7253    20.9117
  282.0000   101.0614    21.9403    20.4758
  282.5000    98.2641    21.4811    20.1898
  283.0000    96.7001    21.3053    20.0420
  283.5000    96.0631    21.1758    19.9064
  284.0000    96.6349    21.3225    19.9048
  284.5000    97.5211    21.4694    19.9034
  285.0000    98.4073    21.4657    19.9021
  285.5000    98.6810    21.4628    19.9007
  286.0000    99.5591    21.4599    19.8994
  286.5000    99.8409    21.3072    19.8980
  287.0000    98.2688    21.0079    19.8967
  287.5000    99.7676    20.7128    19.8953
  288.0000   102.4915    20.4213    19.8939
  288.5000   103.6845    20.5627    19.8922
  289.0000   102.3848    20.7044    19.4776
  289.5000    99.9353    20.5564    19.2056
  290.0000    99.5964    20.2677    18.8052
  290.5000   101.0952    19.7050    18.5426
  291.0000   102.5940    19.1580    18.2836
  291.5000   103.4802    18.7571    17.9025
  292.0000   103.4476    18.3629    17.7764
  292.5000   100.9648    17.9802    17.3978
  293.0000    95.6020    17.8517    17.0224
  293.5000    92.9282    17.7247    16.5712
  294.0000    94.7332    17.4758    16.2257
  294.5000    97.7634    17.2303    15.9991
  295.0000    98.0452    17.1077    15.8865
  295.5000    98.9233    16.9860    15.9972
  296.0000   101.9535    16.8651    15.9958
  296.5000   103.7586    16.7451    16.1071
  297.0000   101.8801    16.7428    16.2191
  297.5000   100.3162    16.7405    16.2331
  298.0000    98.7522    16.7377    16.2166
  298.5000    97.1882    16.4422    16.1024
  299.0000    95.6242    16.3291    15.8775
  299.5000    94.3664    16.3302    15.5466
  300.0000    92.8025    16.2173    15.3297
  300.5000    94.9464    15.9933    15.2084
  301.0000    98.0092    15.6628    14.9018
  301.5000    98.9971    15.3389    14.7958
  302.0000    96.7173    15.0148    14.7938
  302.5000    94.3714    14.8143    14.7918
  303.0000    95.5576    14.7121    14.6866
  303.5000    97.0479    14.7133    14.4805
  304.0000    97.6336    14.6116    14.2773
  304.5000    97.9080    14.6129    13.9768
  305.0000    99.6948    14.5119    13.8793
  305.5000   102.7048    14.5131    13.7802
  306.0000   105.4108    14.5141    13.8756
  306.5000   105.0700    14.5151    13.9711
  307.0000   102.9128    14.5161    14.1661
  307.5000   101.0595    14.5341    14.3634
  308.0000   100.4221    14.7226    14.5644
  308.5000    99.4807    14.8269    14.6642
  309.0000    98.5393    15.0366    14.7651
  309.5000    97.2940    15.2493    14.8668
  310.0000    97.2644    15.5734    14.8643
  310.5000    99.3972    15.5744    14.7586
  311.0000    98.4138    15.3593    14.6537
  311.5000    95.3447    15.0417    14.5495
  312.0000    93.1876    14.7239    14.4461
  312.5000    95.8936    14.5272    14.1440
  313.0000    99.8154    14.3268    13.8482
  313.5000   102.2175    14.1289    13.5529
  314.0000   103.7077    14.0312    13.3683
  314.5000   104.2861    13.8377    13.2729
  315.0000   102.3810    13.7420    13.0866
  315.5000   100.5722    13.7432    13.0848
  316.0000   101.1506    13.7441    13.0830
  316.5000   102.0329    13.9385    13.1736
