~VERSION INFORMATION
 VERS.                2.0:   CWLS LOG ASCII STANDARD - VERSION 2.0
 WRAP.                 NO:   ONE LINE PER DEPTH STEP
~WELL INFORMATION
#MNEM.UNIT      DATA TYPE    INFORMATION
#----------   ------------   ------------------------------
 STRT.F            0.5000:   START DEPTH
 STOP.F         3087.0000:   STOP DEPTH
 STEP.F            0.5000:   STEP LENGTH
 NULL.          -999.2500:   NO VALUE
 COMP. DEPARTMENT OF ENERGY:   COMPANY
 WELL.    NPR-3 #201-A-29:   WELL
 FLD . TEAPOT NAVAL RESERVE:   FIELD
 LOC .      S29 T39N R78W:   LOCATION
 CNTY.            NATRONA:   COUNTY
 STAT.            WYOMING:   STATE
 CTRY. UNITED STATES OF AMERICA:   COUNTRY
 SRVC.      NL McCullough:   SERVICE COMPANY
 DATE.        24-JUN-1965:   LOGDATE
 API .       490251144400:   API NUMBER
~CURVE INFORMATION
#MNEM.UNIT       API CODE    CURVE DESCRIPTION
#----------   ------------   ------------------------------
 DEPT.F                  :   
 GRR .GAPI   30 310 01 00:   GAMMA RAY
 CALI.IN     30 280 01 00:   CALIPER
~PARAMETER INFORMATION
#MNEM.UNIT          VALUE    DESCRIPTION
#----------   ------------   ------------------------------
 PD  .                 GL:   PERMANENT DATUM
 LMF .                 GL:   LOG MEASURED FROM
 EDF .F              5012:   DRILLING FLOOR
 DATE.        24-JUN-1965:   RUN DATE
 RUN .                  1:   RUN NUMBER
 DD  .F              2782:   DEPTH DRILLER
 DL  .F              2772:   DEPTH LOGGER
 BLI .F              2770:   BOTTOM LOG INTERVAL
 TLI .F              2300:   TOP LOG INTERVAL
 CS  .IN            6.625:   CASING SIZE
 CBD .F              2756:   CASING BOTTOM DRILLER
 ENGI.         COWLTHORPE:   RECORDING ENGINEER
 WITN.             HUDSON:   WITNESSED BY
 CLNT.            A2DTECH:   CLIENT CODE
 ORIG.           5" PRINT:   ORIGIN OF DATA
 UWI .       490251144400:   UNIQUE WELL ID
 DICO. A2D Technologies, Inc.:   DIGITIZING COMPANY
~OTHER INFORMATION
~A    DEPT     GRR         CALI 
# ...
  365.0000  -999.2500     6.4016
  365.5000  -999.2500     6.4035
  366.0000  -999.2500     6.4051
  366.5000  -999.2500     6.4061
  367.0000  -999.2500     6.4070
  367.5000  -999.2500     6.4080
  368.0000  -999.2500     6.4089
  368.5000  -999.2500     6.4099
  369.0000  -999.2500     6.4108
  369.5000  -999.2500     6.4118
  370.0000  -999.2500     6.4127
  370.5000  -999.2500     6.4137
  371.0000  -999.2500     6.4146
  371.5000  -999.2500     6.4156
  372.0000  -999.2500     6.4165
  372.5000  -999.2500     6.4175
  373.0000  -999.2500     6.4184
  373.5000  -999.2500     6.4194
  374.0000  -999.2500     6.4204
  374.5000  -999.2500     6.4213
  375.0000  -999.2500     6.4223
  375.5000  -999.2500     6.4232
  376.0000  -999.2500     6.4242
  376.5000  -999.2500     6.4252
  377.0000  -999.2500     6.4265
  377.5000  -999.2500     6.4277
  378.0000  -999.2500     6.4290
  378.5000  -999.2500     6.4302
  379.0000  -999.2500     6.4315
  379.5000  -999.2500     6.4327
  380.0000  -999.2500     6.4340
  380.5000  -999.2500     6.4352
  381.0000  -999.2500     6.4365
  381.5000  -999.2500     6.4377
  382.0000  -999.2500     6.4390
  382.5000  -999.2500     6.4402
  383.0000  -999.2500     6.4415
  383.5000  -999.2500     6.4427
  384.0000  -999.2500     6.4440
  384.5000  -999.2500     6.4447
  385.0000  -999.2500     6.4447
  385.5000  -999.2500     6.4447
  386.0000  -999.2500     6.4447
  386.5000  -999.2500     6.4447
  387.0000  -999.2500     6.4445
  387.5000  -999.2500     6.4436
  388.0000  -999.2500     6.4426
  388.5000  -999.2500     6.4417
  389.0000  -999.2500     6.4408
  389.5000  -999.2500     6.4398
  390.0000  -999.2500     6.4389
  390.5000  -999.2500     6.4380
  391.0000  -999.2500     6.4371
  391.5000  -999.2500     6.4361
  392.0000  -999.2500     6.4352
  392.5000  -999.2500     6.4343
  393.0000  -999.2500     6.4334
  393.5000  -999.2500     6.4324
  394.0000  -999.2500     6.4315
  394.5000  -999.2500     6.4306
  395.0000  -999.2500     6.4296
  395.5000  -999.2500     6.4287
  396.0000  -999.2500     6.4278
  396.5000  -999.2500     6.4269
  397.0000  -999.2500     6.4260
  397.5000  -999.2500     6.4250
  398.0000  -999.2500     6.4254
  398.5000  -999.2500     6.4263
  399.0000  -999.2500     6.4272
  399.5000  -999.2500     6.4282
  400.0000  -999.2500     6.4291
  400.5000  -999.2500     6.4300
  401.0000  -999.2500     6.4310
  401.5000  -999.2500     6.4319
  402.0000  -999.2500     6.4328
  402.5000  -999.2500     6.4338
  403.0000  -999.2500     6.4347
  403.5000  -999.2500     6.4356
  404.0000  -999.2500     6.4366
  404.5000  -999.2500     6.4375
  405.0000  -999.2500     6.4384
  405.5000  -999.2500     6.4394
  406.0000  -999.2500     6.4403
  406.5000  -999.2500     6.4412
  407.0000  -999.2500     6.4422
  407.5000  -999.2500     6.4431
  408.0000  -999.2500     6.4440
  408.5000  -999.2500     6.4450
  409.0000  -999.2500     6.4459
  409.5000  -999.2500     6.4468
  410.0000  -999.2500     6.4478
  410.5000  -999.2500     6.4487
  411.0000  -999.2500     6.4496
  411.5000  -999.2500     6.4506
  412.0000  -999.2500     6.4515
  412.5000  -999.2500     6.4524
  413.0000  -999.2500     6.4534
  413.5000  -999.2500     6.4543
  414.0000  -999.2500     6.4552
  414.5000  -999.2500     6.4562
  415.0000  -999.2500     6.4571
  415.5000  -999.2500     6.4580
  416.0000  -999.2500     6.4590
  416.5000  -999.2500     6.4599
  417.0000  -999.2500     6.4608
  417.5000  -999.2500     6.4618
  418.0000  -999.2500     6.4627
  418.5000  -999.2500     6.4637
  419.0000  -999.2500     6.4646
  419.5000  -999.2500     6.4647
  420.0000  -999.2500     6.4647
  420.5000  -999.2500     6.4647
  421.0000  -999.2500     6.4647
  421.5000  -999.2500     6.4647
  422.0000  -999.2500     6.4647
  422.5000  -999.2500     6.4647
  423.0000  -999.2500     6.4647
  423.5000  -999.2500     6.4647
  424.0000  -999.2500     6.4647
  424.5000  -999.2500     6.4647
  425.0000  -999.2500     6.4647
  425.5000  -999.2500     6.4647
  426.0000  -999.2500     6.4647
  426.5000  -999.2500     6.4647
  427.0000  -999.2500     6.4637
  427.5000  -999.2500     6.4616
  428.0000  -999.2500     6.4596
  428.5000  -999.2500     6.4575
  429.0000  -999.2500     6.4555
  429.5000  -999.2500     6.4535
  430.0000  -999.2500     6.4514
  430.5000  -999.2500     6.4494
  431.0000  -999.2500     6.4474
  431.5000  -999.2500     6.4453
  432.0000  -999.2500     6.4447
  432.5000  -999.2500     6.4447
  433.0000  -999.2500     6.4447
  433.5000  -999.2500     6.4447
  434.0000  -999.2500     6.4447
  434.5000  -999.2500     6.4447
  435.0000  -999.2500     6.4447
  435.5000  -999.2500     6.4447
  436.0000  -999.2500     6.4447
  436.5000  -999.2500     6.4447
  437.0000  -999.2500     6.4447
  437.5000  -999.2500     6.4447
  438.0000  -999.2500     6.4447
  438.5000  -999.2500     6.4447
  439.0000  -999.2500     6.4447
  439.5000  -999.2500     6.4447
  440.0000  -999.2500     6.4447
  440.5000  -999.2500     6.4447
  441.0000  -999.2500     6.4447
  441.5000  -999.2500     6.4447
  442.0000  -999.2500     6.4447
  442.5000  -999.2500     6.4447
  443.0000  -999.2500     6.4447
  443.5000  -999.2500     6.4447
  444.0000  -999.2500     6.4447
  444.5000  -999.2500     6.4447
  445.0000  -999.2500     6.4447
  445.5000  -999.2500     6.4447
  446.0000  -999.2500     6.4447
  446.5000  -999.2500     6.4447
  447.0000  -999.2500     6.4447
  447.5000  -999.2500     6.4447
  448.0000  -999.2500     6.4447
  448.5000  -999.2500     6.4447
  449.0000  -999.2500     6.4447
  449.5000  -999.2500     6.4447
  450.0000  -999.2500     6.4447
  450.5000  -999.2500     6.4447
  451.0000  -999.2500     6.4447
  451.5000  -999.2500     6.4447
  452.0000  -999.2500     6.4447
  452.5000  -999.2500     6.4447
  453.0000  -999.2500     6.4447
  453.5000  -999.2500     6.4447
  454.0000  -999.2500     6.4447
  454.5000  -999.2500     6.4447
  455.0000  -999.2500     6.4450
  455.5000  -999.2500     6.4460
  456.0000  -999.2500     6.4469
  456.5000  -999.2500     6.4479
  457.0000  -999.2500     6.4488
  457.5000  -999.2500     6.4498
  458.0000  -999.2500     6.4507
  458.5000  -999.2500     6.4517
  459.0000  -999.2500     6.4527
  459.5000  -999.2500     6.4536
  460.0000  -999.2500     6.4546
  460.5000  -999.2500     6.4556
  461.0000  -999.2500     6.4565
  461.5000  -999.2500     6.4575
  462.0000  -999.2500     6.4584
  462.5000  -999.2500     6.4594
  463.0000  -999.2500     6.4604
  463.5000  -999.2500     6.4613
  464.0000  -999.2500     6.4623
  464.5000  -999.2500     6.4632
  465.0000  -999.2500     6.4642
  465.5000  -999.2500     6.4642
  466.0000  -999.2500     6.4632
  466.5000  -999.2500     6.4622
  467.0000  -999.2500     6.4612
  467.5000  -999.2500     6.4603
  468.0000  -999.2500     6.4593
  468.5000  -999.2500     6.4583
  469.0000  -999.2500     6.4573
  469.5000  -999.2500     6.4563
  470.0000  -999.2500     6.4554
  470.5000  -999.2500     6.4544
  471.0000  -999.2500     6.4534
  471.5000  -999.2500     6.4524
  472.0000  -999.2500     6.4514
  472.5000  -999.2500     6.4505
  473.0000  -999.2500     6.4495
  473.5000  -999.2500     6.4485
  474.0000  -999.2500     6.4475
  474.5000  -999.2500     6.4466
  475.0000  -999.2500     6.4456
  475.5000  -999.2500     6.4446
  476.0000  -999.2500     6.4437
  476.5000  -999.2500     6.4427
  477.0000  -999.2500     6.4418
  477.5000  -999.2500     6.4408
  478.0000  -999.2500     6.4399
  478.5000  -999.2500     6.4390
  479.0000  -999.2500     6.4380
  479.5000  -999.2500     6.4371
  480.0000  -999.2500     6.4361
  480.5000  -999.2500     6.4352
  481.0000  -999.2500     6.4342
  481.5000  -999.2500     6.4333
  482.0000  -999.2500     6.4324
  482.5000  -999.2500     6.4314
  483.0000  -999.2500     6.4305
  483.5000  -999.2500     6.4295
  484.0000  -999.2500     6.4286
  484.5000  -999.2500     6.4276
  485.0000  -999.2500     6.4267
  485.5000  -999.2500     6.4258
  486.0000  -999.2500     6.4248
