~VERSION INFORMATION
 VERS.                2.0:   CWLS LOG ASCII STANDARD - VERSION 2.0
 WRAP.                 NO:   ONE LINE PER DEPTH STEP
~WELL INFORMATION
#MNEM.UNIT      DATA TYPE    INFORMATION
#----------   ------------   ------------------------------
 STRT.F          748.0000:   START DEPTH
 STOP.F         2238.0000:   STOP DEPTH
 STEP.F            0.5000:   STEP LENGTH
 NULL.          -999.2500:   NO VALUE
 COMP. LAWRENCE/ALLISON INC:   COMPANY
 WELL. NPR 3 #36-2-SHX-10:   WELL
 FLD .             TEAPOT:   FIELD
 LOC .      S10 T38N R78W:   LOCATION
 CNTY.            NATRONA:   COUNTY
 STAT.            WYOMING:   STATE
 CTRY. UNITED STATES OF AMERICA:   COUNTRY
 SRVC.            Unknown:   SERVICE COMPANY
 DATE.        02-JUN-1984:   LOGDATE
 API .       490256012900:   API NUMBER
~CURVE INFORMATION
#MNEM.UNIT       API CODE    CURVE DESCRIPTION
#----------   ------------   ------------------------------
 DEPT.F                  :   
 ROP .MIN/FT 91 810 01 00:   RATE OF DRILLING PENETRATION
 TGAS.UNITS  91 830 01 00:   TOTAL GAS FROM HOTWIRE
~PARAMETER INFORMATION
#MNEM.UNIT          VALUE    DESCRIPTION
#----------   ------------   ------------------------------
 EKB .F              5223:   KELLING BUSHING
 EGL .F              5213:   GROUND LEVEL
 DATE.             6-2-84:   RUN DATE
 DD  .F              2238:   DEPTH DRILLER
 BLI .F              2238:   BOTTOM LOG INTERVAL
 TLI .F               740:   TOP LOG INTERVAL
 CS  .IN            8.625:   CASING SIZE
 CBD .F               717:   CASING BOTTOM DRILLER
 LUN .               T-83:   LOGGING UNIT NUMBER
 ENGI.            JOHNSON:   RECORDING ENGINEER
 WITN.           SCHERGER:   WITNESSED BY
 CLNT.            A2DTECH:   CLIENT CODE
 ORIG.           5" PRINT:   ORIGIN OF DATA
 UWI .       490256012900:   UNIQUE WELL ID
 DICO. A2D Technologies, Inc.:   DIGITIZING COMPANY
~OTHER INFORMATION
~A   DEPT        ROP     TGAS   
# ...
 1477.0000     0.8005    38.7083
 1477.5000     0.7404    38.7500
 1478.0000     0.7003    38.7917
 1478.5000     0.7012    38.8333
 1479.0000     0.7018    38.8750
 1479.5000     0.7025    38.9167
 1480.0000     0.7033    38.9583
 1480.5000     0.7040    39.0000
 1481.0000     0.7047    39.0417
 1481.5000     0.7054    39.0833
 1482.0000     0.7061    39.1250
 1482.5000     0.7068    39.1667
 1483.0000     0.7075    39.2083
 1483.5000     0.7082    39.2500
 1484.0000     0.7089    39.2917
 1484.5000     0.7097    39.3333
 1485.0000     0.7104    39.3750
 1485.5000     0.7111    39.4167
 1486.0000     0.7118    39.4583
 1486.5000     0.6313    39.5000
 1487.0000     0.5506    39.5417
 1487.5000     0.4904    39.5833
 1488.0000     0.5119   238.4639
 1488.5000     0.5352   423.0058
 1489.0000     0.5585   415.7574
 1489.5000     0.5819   398.0890
 1490.0000     0.6052    64.7990
 1490.5000     0.6285    55.4640
 1491.0000     0.6518    49.2506
 1491.5000     0.6752    45.1306
 1492.0000     0.6985    44.1189
 1492.5000     0.7218    41.0405
 1493.0000     0.7452    40.0421
 1493.5000     0.7685    40.0888
 1494.0000     0.8046    40.1321
 1494.5000     0.8341    39.1270
 1495.0000     0.9319    39.2125
 1495.5000     1.0297    39.3121
 1496.0000     1.1275    39.4117
 1496.5000     1.2253    39.5112
 1497.0000     1.3231    39.6108
 1497.5000     1.4397    39.7104
 1498.0000     1.7046    39.8100
 1498.5000     2.5387    39.9096
 1499.0000     3.0271    40.0092
 1499.5000     3.5157    40.1087
 1500.0000     3.8617    40.2083
 1500.5000     3.3488    40.3079
 1501.0000     2.8739    40.4075
 1501.5000     2.3989    40.5071
 1502.0000     1.9542    40.6067
 1502.5000     1.8126    40.7062
 1503.0000     1.7116    40.8058
 1503.5000     1.6107    40.9248
 1504.0000     1.5706    37.8397
 1504.5000     1.6122    37.8830
 1505.0000     1.6536    41.0480
 1505.5000     1.7152    45.2580
 1506.0000     1.7362    48.4229
 1506.5000     1.6556    52.6329
 1507.0000     1.5955    56.8395
 1507.5000     1.5553    60.0078
 1508.0000     1.5562    62.1311
 1508.5000     1.4957    62.1744
 1509.0000     1.4761    59.3750
 1509.5000     1.4770    59.3750
 1510.0000     1.5388    61.4583
 1510.5000     1.6614    61.4583
 1511.0000     1.8044    61.4583
 1511.5000     1.8051    59.3750
 1512.0000     1.7244    59.3750
 1512.5000     1.5829    58.3333
 1513.0000     1.5429    58.3333
 1513.5000     1.4827    58.3333
 1514.0000     1.4833    58.3333
 1514.5000     1.4839    58.3333
 1515.0000     1.4845    58.3333
 1515.5000     1.4851    57.2917
 1516.0000     1.4857    57.2917
 1516.5000     1.4862    58.3333
 1517.0000     1.4868    58.3333
 1517.5000     1.4874    58.3333
 1518.0000     1.4880    57.2917
 1518.5000     1.4886    55.2083
 1519.0000     1.4892    54.1667
 1519.5000     1.4898    53.1250
 1520.0000     1.4904    51.0417
 1520.5000     1.4910    50.0000
 1521.0000     1.4915    45.8333
 1521.5000     1.4921    42.7083
 1522.0000     1.4753    41.6667
 1522.5000     1.3272    38.5417
 1523.0000     1.1791    38.5417
 1523.5000     1.0055    37.5000
 1524.0000     1.0401    41.6667
 1524.5000     1.0818    59.3750
 1525.0000     1.1236    76.0417
 1525.5000     1.1653    94.7917
 1526.0000     1.2098   100.0000
 1526.5000     1.2056    75.0000
 1527.0000     1.2008    55.2083
 1527.5000     1.1959    54.1667
 1528.0000     1.1910    54.1667
 1528.5000     1.1862    54.1667
 1529.0000     1.1813    54.1667
 1529.5000     1.1764    54.1667
 1530.0000     1.1708    54.1667
 1530.5000     1.2499    54.1667
 1531.0000     1.3391    54.1667
 1531.5000     1.4283    54.1667
 1532.0000     1.4230    54.1667
 1532.5000     1.3075    54.1667
 1533.0000     1.1921    54.1667
 1533.5000     1.0766    54.1667
 1534.0000     1.0926    54.1667
 1534.5000     1.1474    54.1667
 1535.0000     1.2023    54.1667
 1535.5000     1.2571    54.1667
 1536.0000     1.3120  -999.2500
 1536.5000     1.3668  -999.2500
 1537.0000     1.4217  -999.2500
 1537.5000     1.4765  -999.2500
 1538.0000     1.4179  -999.2500
 1538.5000     1.2962  -999.2500
 1539.0000     1.1744  -999.2500
 1539.5000     1.1542  -999.2500
 1540.0000     1.1545  -999.2500
 1540.5000     1.1547  -999.2500
 1541.0000     1.1549  -999.2500
 1541.5000     1.1551  -999.2500
 1542.0000     1.1553  -999.2500
 1542.5000     1.1555  -999.2500
 1543.0000     1.1557  -999.2500
 1543.5000     1.1559  -999.2500
 1544.0000     1.1561  -999.2500
 1544.5000     1.1563  -999.2500
 1545.0000     1.1565  -999.2500
 1545.5000     1.1567  -999.2500
 1546.0000     1.1569  -999.2500
 1546.5000     1.2130  -999.2500
 1547.0000     1.2976  -999.2500
 1547.5000     1.3823  -999.2500
 1548.0000     1.4670    60.0779
 1548.5000     1.5516    60.0753
 1549.0000     1.6363    60.4895
 1549.5000     1.7275    60.4868
 1550.0000     1.6667    60.4847
 1550.5000     1.5653    61.7296
 1551.0000     1.3419    61.7276
 1551.5000     1.1795    62.1415
 1552.0000     1.1646    62.9707
 1552.5000     1.2960    63.3848
 1553.0000     1.4274    65.0449
 1553.5000     1.5588    67.1213
 1554.0000     1.7090    72.9392
 1554.5000     1.5507    80.4197
 1555.0000     1.3660    90.8103
 1555.5000     1.1608   160.0260
 1556.0000     1.1610   164.8909
 1556.5000     1.1612   169.7558
 1557.0000     1.1614   174.6208
 1557.5000     1.1616   179.5843
 1558.0000     1.2521   129.2841
 1558.5000     1.3466   111.8245
 1559.0000     1.4410   103.0947
 1559.5000     1.4876    95.1963
 1560.0000     1.5082    89.7921
 1560.5000     1.5287    86.0508
 1561.0000     1.5492    81.8938
 1561.5000     1.5087    78.1524
 1562.0000     1.4886    74.4111
 1562.5000     1.3872    71.5012
 1563.0000     1.2451    68.1755
 1563.5000     1.1640    66.5127
 1564.0000     1.1648    63.6028
 1564.5000     1.1701    61.9400
 1565.0000     1.1754    61.5243
 1565.5000     1.1807    60.2771
 1566.0000     1.1651    59.4457
 1566.5000     1.1653    58.1986
 1567.0000     1.0842    57.3672
 1567.5000     1.0031    56.5358
 1568.0000     1.0033    56.1201
 1568.5000     1.0645    55.2887
 1569.0000     1.1053    55.2887
 1569.5000     1.1868    54.8730
 1570.0000     1.2277    54.8730
 1570.5000     1.2482    54.8730
 1571.0000     1.2408    54.8730
 1571.5000     1.2331    54.8730
 1572.0000     1.2255    54.8730
 1572.5000     1.2178    54.8730
 1573.0000     1.2102    54.8730
 1573.5000     1.2025    54.8730
 1574.0000     1.1949    54.8730
 1574.5000     1.1872    54.8730
 1575.0000     1.1796    55.2887
 1575.5000     1.1719    55.7044
 1576.0000     1.1895    56.1201
 1576.5000     1.2506    56.5358
 1577.0000     1.3322    56.5358
 1577.5000     1.4136    56.9515
 1578.0000     1.4951    57.7829
 1578.5000     1.4140    58.1986
 1579.0000     1.3329    58.6143
 1579.5000     1.2518    59.8614
 1580.0000     1.2521    60.2771
 1580.5000     1.2523    61.5243
 1581.0000     1.3134    61.9400
 1581.5000     1.3543    63.1871
 1582.0000     1.4765    63.6028
 1582.5000     1.5173    65.2656
 1583.0000     1.5116    68.1755
 1583.5000     1.5054    70.2540
 1584.0000     1.4991    73.5797
 1584.5000     1.4104    78.5681
 1585.0000     1.2971    90.2079
 1585.5000     1.1933   180.8314
 1586.0000     1.2139   180.8769
 1586.5000     1.2547   180.9314
 1587.0000     1.3362   180.9859
 1587.5000     1.4990   181.0403
 1588.0000     1.6008   181.0948
 1588.5000     1.7232   181.1493
 1589.0000     1.8472   181.2038
 1589.5000     1.9712   166.6975
 1590.0000     2.0951   151.3164
 1590.5000     2.2191   133.0254
 1591.0000     2.3431   112.6559
 1591.5000     2.4671    99.7691
 1592.0000     2.5911    93.5335
 1592.5000     2.7150    89.3764
 1593.0000     2.8390    84.8037
 1593.5000     2.9902    81.4781
 1594.0000     3.1710    78.1524
 1594.5000     3.3519    75.2425
 1595.0000     3.5327    73.1640
 1595.5000     3.7136    71.5012
 1596.0000     3.8945    69.8383
 1596.5000     4.0753    68.1755
 1597.0000     4.2562    66.9284
 1597.5000     4.4370    65.2656
 1598.0000     4.5713    64.8499
