~VERSION INFORMATION
 VERS.                2.0:   CWLS LOG ASCII STANDARD - VERSION 2.0
 WRAP.                 NO:   ONE LINE PER DEPTH STEP
~WELL INFORMATION
#MNEM.UNIT      DATA TYPE    INFORMATION
#----------   ------------   ------------------------------
 STRT.F           66.0000:   START DEPTH
 STOP.F          892.0000:   STOP DEPTH
 STEP.F            0.5000:   STEP LENGTH
 NULL.          -999.2500:   NO VALUE
 COMP. LAWRENCE/ALLISON INC:   COMPANY
 WELL. NPR #3 #31-11 SX 2:   WELL
 FLD .             TEAPOT:   FIELD
 LOC .       S2 T38N R78W:   LOCATION
 CNTY.            NATRONA:   COUNTY
 STAT.            WYOMING:   STATE
 CTRY. UNITED STATES OF AMERICA:   COUNTRY
 SRVC.      Dresser Atlas:   SERVICE COMPANY
 DATE.        10-AUG-1985:   LOGDATE
 API .       490251103900:   API NUMBER
~CURVE INFORMATION
#MNEM.UNIT       API CODE    CURVE DESCRIPTION
#----------   ------------   ------------------------------
 DEPT.F                  :   
 PORD.DEC    45 890 12 00:   POROSITY DENSITY SANDSTONE
 CNC .DEC    42 890 03 00:   NEUTRON POROSITY SANDSTONE
 CORR.G/C3   45 356 01 00:   DENSITY CORRECTION
 DEN .G/C3   45 350 01 00:   COMPENSATED BULK DENSTIY
 CALD.IN     45 280 60 00:   CALIPER FROM DENSITY LOG
 SPR .MV     07 010 01 00:   SPONTANEOUS POTENTIAL
 RILD.OHMM   07 120 46 00:   INDUCTION LOG DEEP RESISTIVITY
 RILM.OHMM   07 120 44 00:   INDUCTION LOG MEDIUM RESISTIVITY
 RFOC.OHMM   07 220 04 00:   RESISTIVITY FOCUSED LOG
~PARAMETER INFORMATION
#MNEM.UNIT          VALUE    DESCRIPTION
#----------   ------------   ------------------------------
 PD  .                 GL:   PERMANENT DATUM
 EPD .F              5110:   ELEVATION PERMANENT DATUM
 LMF .                 GL:   LOG MEASURED FROM
 DMF .                 GL:   DRILLING MEASURED FROM
 EKB .F              5115:   KELLING BUSHING
 EGL .F              5110:   GROUND LEVEL
 DATE.        10-AUG-1985:   RUN DATE
 RUN .                  1:   RUN NUMBER
 DD  .F               899:   DEPTH DRILLER
 DL  .F               895:   DEPTH LOGGER
 BLI .F               892:   BOTTOM LOG INTERVAL
 CS  .IN            8.625:   CASING SIZE
 CBD .F                75:   CASING BOTTOM DRILLER
 CBL .F                78:   CASING BOTTOM LOGGER
 BS  .IN            7.875:   BIT SIZE
 BSD .F               899:   BIT SIZE AT DEPTH
 DFT .                KCL:   DRILLING FLUID TYPE
 MSS .           FLOWLINE:   MUD SAMPLE SOURCE
 RMS .OHMM            .21:   RESISTIVITY MUD SAMPLE
 MST .F                75:   MUD SAMPLE TEMPERATURE
 TCS .HRS            0200:   TIME CURCULATED STOPPED
 MRT .F               100:   MAXIMUM RECORDED TEMPERATURE
 LUN .               6274:   LOGGING UNIT NUMBER
 LUL .               GLTE:   LOGGING UNIT LOCATION
 ENGI.             RAUTIO:   RECORDING ENGINEER
 WITN.        LINDA FIVAS:   WITNESSED BY
 CLNT.            A2DTECH:   CLIENT CODE
 ORIG.           5" PRINT:   ORIGIN OF DATA
 UWI .       490251103900:   UNIQUE WELL ID
 DICO. A2D Technologies, Inc.:   DIGITIZING COMPANY
~OTHER INFORMATION
~A   DEPT     PORD        CNC       CORR        DEN       CALD        SPR       RILD       RILM       RFOC   
# ...
  832.5000     0.1469     0.3402     0.0241     2.4410     8.0361   -25.4544     4.7628     5.3862     4.7732
  833.0000     0.1593     0.3427     0.0436     2.4161     8.0349   -25.1590     5.2872     5.7773     7.1465
  833.5000     0.1572     0.3145     0.0617     2.4123     8.0337   -24.7140     5.7879     6.4991     8.3282
  834.0000     0.1415     0.2952     0.0645     2.4318     8.0326   -24.1159     6.3805     7.3153     9.0527
  834.5000     0.1173     0.2743     0.0358     2.4664     8.0314   -23.8187     7.1325     7.9521     9.4376
  835.0000     0.1050     0.2631     0.0493     2.4889     8.0300   -24.1301     7.9733     8.2406     9.2410
  835.5000     0.0960     0.2604     0.0718     2.5054     8.0137   -24.5928     8.4292     8.4642     9.0489
  836.0000     0.0914     0.2592     0.0792     2.5212     8.0126   -25.0538     8.6665     8.6419     8.9849
  836.5000     0.0899     0.2583     0.0731     2.5272     8.0115   -25.6660     8.8485     8.7620     8.9864
  837.0000     0.0897     0.2550     0.0610     2.5271     8.0252   -26.2784     8.9758     8.9459     9.3004
  837.5000     0.0921     0.2474     0.0489     2.5261     8.0240   -26.8923     9.0332     9.1333     9.3645
  838.0000     0.0984     0.2465     0.0455     2.5180     8.0228   -27.3532     9.0317     9.2603     9.3630
  838.5000     0.1090     0.2566     0.0367     2.5074     8.0217   -27.9654     9.0938     9.3238     9.3698
  839.0000     0.1175     0.2729     0.0351     2.4908     8.0205   -28.5981     9.1562     9.3223     9.5578
  839.5000     0.1202     0.2780     0.0351     2.4803     8.0191   -29.4943     9.2832     9.4519     9.6233
  840.0000     0.1199     0.2741     0.0229     2.4795     8.0180   -30.1065     9.5445     9.6503     9.8251
  840.5000     0.1190     0.2644    -0.0012     2.4809     8.0168   -30.5674     9.8132     9.8624    10.1012
  841.0000     0.1175     0.2605    -0.0058     2.4825     8.0308   -31.1814    10.0894    10.1296    10.1705
  841.5000     0.1151     0.2587     0.0092     2.4853     8.0296   -31.1885    10.0877    10.2707    10.1688
  842.0000     0.1103     0.2614     0.0275     2.4906     8.0282   -31.1956    10.1573    10.4131    10.1675
  842.5000     0.1066     0.2648     0.0466     2.4965     8.0270   -31.0514    10.2983    10.3391    10.2372
  843.0000     0.1052     0.2651     0.0601     2.5025     8.0259   -30.6047    10.3689    10.3378    10.4515
  843.5000     0.1046     0.2645     0.0570     2.5025     8.0247   -30.1597    10.4401    10.3364    10.6707
  844.0000     0.1025     0.2545     0.0404     2.5054     8.0236   -29.7129    10.3659    10.4073    10.6693
  844.5000     0.0976     0.2416     0.0463     2.5152     8.0221   -29.1049    10.2925    10.4787    10.6676
  845.0000     0.0933     0.2358     0.0703     2.5235     8.0210   -28.5168    10.2193    10.6244    10.7407
  845.5000     0.0922     0.2367     0.0718     2.5249     8.0198   -28.2213    10.1470    10.6226    10.7393
  846.0000     0.1019     0.2427     0.0656     2.5158     8.0187   -27.9274    10.0752    10.6209    10.7375
  846.5000     0.1052     0.2539     0.0533     2.5075     8.0326   -27.7834    10.0038    10.6195    10.7361
  847.0000     0.1052     0.2658     0.0279     2.4991     8.0314   -27.9436     9.7952    10.5444    10.7347
  847.5000     0.1108     0.2670     0.0143     2.4923     8.0300   -27.7758     9.7259    10.4698    10.8083
  848.0000     0.1164     0.2649     0.0127     2.4900     8.0289   -27.7795     9.7927    10.6154    10.8066
  848.5000     0.1167     0.2622     0.0202     2.4877     8.0277   -27.7832     9.7911    10.4668    10.8052
  849.0000     0.1189     0.2567     0.0336     2.4777     8.0266   -27.1826     9.9272    10.2489    10.8037
  849.5000     0.1273     0.2519     0.0441     2.4568     8.0254   -26.5830    10.0657    10.4728    10.8826
  850.0000     0.1364     0.2480     0.0470     2.4522     8.0243   -25.9825    10.2767    10.7711    10.9524
  850.5000     0.1370     0.2495     0.0433     2.4529     8.0319   -25.8342    10.2224    10.9349    10.9092
  851.0000     0.1342     0.2661     0.0273     2.4566     8.0391   -25.9899     9.9192    10.6817    10.7988
  851.5000     0.1237     0.2758     0.0332     2.4648     8.0462   -26.4467     9.6439    10.4598    10.4285
  852.0000     0.1219     0.2779     0.0452     2.4746     8.0485   -26.4504     9.4419     9.9611    10.5738
  852.5000     0.1241     0.2706     0.0482     2.4730     8.0621   -26.1520     9.5056    10.1117    10.7961
  853.0000     0.1238     0.2609     0.0375     2.4767     8.0758   -26.0045     9.7719    10.3846    10.8706
  853.5000     0.1214     0.2594     0.0390     2.4782     8.0740   -25.5545     9.7014    10.4563    10.9456
  854.0000     0.1193     0.2752     0.0434     2.4774     8.0725   -25.4078     9.6315    10.4552    10.9446
  854.5000     0.1196     0.2715     0.0448     2.4780     8.0708   -25.2604     9.4292    10.4543    10.8676
  855.0000     0.1184     0.2661     0.0448     2.4825     8.0693   -24.8109     9.5592    10.2372    10.6421
  855.5000     0.1154     0.2615     0.0432     2.4870     8.0679   -24.6635     9.4904    10.0246    10.2771
  856.0000     0.1121     0.2609     0.0461     2.4944     8.0664   -24.3651     9.2916     9.7482     9.9940
  856.5000     0.1094     0.2645     0.0715     2.4966     8.0650   -24.3697     9.0337     9.4795     9.7867
  857.0000     0.1115     0.2685     0.1468     2.4853     8.0632   -24.6755     8.8445     9.6117     9.7179
  857.5000     0.1236     0.2759     0.1603     2.4679     8.0617   -24.6792     9.0291     9.6893     9.8534
  858.0000     0.1263     0.2927     0.1662     2.4746     8.0603   -24.6829     9.2176     9.7449     9.9907
  858.5000     0.1194     0.2887     0.1481     2.4889     8.0588   -24.2334     9.2152     9.6091    10.0596
  859.0000     0.1076     0.2790     0.0983     2.5121     8.0574   -24.0686     8.9590     9.4753     9.9194
  859.5000     0.0949     0.2727     0.0576     2.5396     8.0559   -23.6134     8.7103     9.3434     9.7136
  860.0000     0.0799     0.2684     0.0455     2.5519     8.0541   -22.8859     8.3513     9.1493     9.4460
  860.5000     0.0765     0.2657     0.0590     2.5458     8.0527   -22.4355     8.2336     8.9593     9.0588
  861.0000     0.0799     0.2857     0.0980     2.5368     8.0513   -21.9860     7.9495     8.7124     8.7482
  861.5000     0.0850     0.2917     0.1220     2.5261     8.0498   -21.8386     7.7829     8.5911     8.6868
  862.0000     0.0905     0.2911     0.1340     2.5246     8.0483   -21.8432     7.8902     8.5903     8.7467
  862.5000     0.0893     0.2857     0.0993     2.5343     8.0466   -21.8469     8.0549     8.6597     8.8686
  863.0000     0.0841     0.2799     0.0812     2.5433     8.0300   -21.8506     8.1660     8.8316     8.9298
  863.5000     0.0805     0.2751     0.0856     2.5508     8.0286   -22.1564     8.1638     8.8926     8.9914
  864.0000     0.0769     0.2720     0.1025     2.5530     8.0271   -22.3112     8.1613     8.5276     8.9905
  864.5000     0.0748     0.2699     0.1141     2.5612     8.0257   -22.3150     8.2168     8.2350     9.0525
  865.0000     0.0682     0.2802     0.1110     2.5709     8.0239   -22.3195     8.2142     8.2919     9.0517
  865.5000     0.0625     0.2793     0.1049     2.5776     8.0379   -22.0210     8.2121     8.4077     9.1779
  866.0000     0.0601     0.2756     0.1033     2.5716     8.0361   -21.8727     8.1530     8.5844     9.3060
  866.5000     0.0637     0.2738     0.1047     2.5662     8.0346   -21.7254     8.0380     8.7649     9.0494
  867.0000     0.0700     0.2756     0.1062     2.5570     8.0332   -21.1258     7.9247     8.8254     8.8616
  867.5000     0.0759     0.2781     0.0926     2.5473     8.0317   -20.6753     7.5981     8.6421     8.6777
  868.0000     0.0812     0.2814     0.0744     2.5420     8.0299   -20.2268     7.3359     8.3454     8.7427
  868.5000     0.0834     0.2838     0.0623     2.5382     8.0287   -19.6262     7.1319     8.1721     8.8594
