~VERSION INFORMATION
 VERS.                2.0:   CWLS LOG ASCII STANDARD - VERSION 2.0
 WRAP.                 NO:   ONE LINE PER DEPTH STEP
~WELL INFORMATION
#MNEM.UNIT      DATA TYPE    INFORMATION
#----------   ------------   ------------------------------
 STRT.F            0.0000:   START DEPTH
 STOP.F          814.0000:   STOP DEPTH
 STEP.F            0.5000:   STEP LENGTH
 NULL.          -999.2500:   NO VALUE
 COMP.   FLUOR DANIEL INC:   COMPANY
 WELL. NAVAL PETROLEUM RESERVE 3 SHX- #1-34:   WELL
 FLD .          N.P.R. #3:   FIELD
 LOC .      S34 T39N R78W:   LOCATION
 CNTY.            NATRONA:   COUNTY
 STAT.            WYOMING:   STATE
 CTRY. UNITED STATES OF AMERICA:   COUNTRY
 SRVC.      Western Atlas:   SERVICE COMPANY
 DATE.        24-JAN-1995:   LOGDATE
 API .       490252269400:   API NUMBER
~CURVE INFORMATION
#MNEM.UNIT       API CODE    CURVE DESCRIPTION
#----------   ------------   ------------------------------
 DEPT.F                  :   
 GRR .GAPI   07 310 01 00:   GAMMA RAY FROM RES. LOG.
 RILD.OHMM   07 120 46 00:   INDUCTION LOG DEEP RESISTIVITY
 RILM.OHMM   07 120 44 00:   INDUCTION LOG MEDIUM RESISTIVITY
~PARAMETER INFORMATION
#MNEM.UNIT          VALUE    DESCRIPTION
#----------   ------------   ------------------------------
 PD  .                 GL:   PERMANENT DATUM
 EPD .F              5089:   ELEVATION PERMANENT DATUM
 LMF .                 KB:   LOG MEASURED FROM
 DAPD.F                10:   FEET ABOVE PERMANENT DATUM
 DMF .                 KB:   DRILLING MEASURED FROM
 EKB .F              5099:   KELLING BUSHING
 EDF .F              5098:   DRILLING FLOOR
 EGL .F              5089:   GROUND LEVEL
 DATE.        24-JAN-1995:   RUN DATE
 RUN .                  1:   RUN NUMBER
 DD  .F               826:   DEPTH DRILLER
 DL  .F               824:   DEPTH LOGGER
 BLI .F               817:   BOTTOM LOG INTERVAL
 CS  .IN            9.625:   CASING SIZE
 CBD .F                95:   CASING BOTTOM DRILLER
 CBL .F                94:   CASING BOTTOM LOGGER
 BS  .IN             8.75:   BIT SIZE
 BSD .F               826:   BIT SIZE AT DEPTH
 DFT .                AIR:   DRILLING FLUID TYPE
 MRT .F                90:   MAXIMUM RECORDED TEMPERATURE
 LUN .            HL 6321:   LOGGING UNIT NUMBER
 LUL .         FT. MORGAN:   LOGGING UNIT LOCATION
 ENGI.  MARSHALL BENFIELD:   RECORDING ENGINEER
 WITN.        GARY STRONG:   WITNESSED BY
 CLNT.            A2DTECH:   CLIENT CODE
 ORIG.           5" PRINT:   ORIGIN OF DATA
 UWI .       490252269400:   UNIQUE WELL ID
 DICO. A2D Technologies, Inc.:   DIGITIZING COMPANY
~OTHER INFORMATION
~A    DEPT      GRR      RILD       RILM   
# ...
  637.0000    81.8289    13.9920    14.1219
  637.5000    85.5451    13.8863    14.0152
  638.0000    86.7531    13.7814    13.9093
  638.5000    86.7178    13.6773    13.8042
  639.0000    87.0987    13.5739    13.6999
  639.5000    90.4083    13.4714    13.5964
  640.0000    93.9097    13.3976    13.5220
  640.5000    90.9866    13.3348    13.4435
  641.0000    87.5467    13.3199    13.5782
  641.5000    86.8300    13.3199    13.7564
  642.0000    86.1842    13.3199    13.9373
  642.5000    85.5133    13.2896    14.0801
  643.0000    86.6950    13.1564    14.0789
  643.5000    88.2788    13.0245    14.0780
  644.0000    89.5834    12.9520    14.0790
  644.5000    88.8684    13.1646    14.2399
  645.0000    89.1988    13.4826    14.4237
  645.5000    90.2369    13.8245    14.6177
  646.0000    89.8915    13.8213    14.4399
  646.5000    89.3687    13.9093    14.2589
  647.0000    90.2781    13.9496    14.0790
  647.5000    92.2925    13.7600    13.8213
  648.0000    92.3356    13.4666    13.9521
  648.5000    91.2587    13.1795    14.0460
  649.0000    90.1464    12.8985    14.0799
  649.5000    89.1534    12.6235    14.0807
  650.0000    89.3140    12.4733    13.9552
  650.5000    89.5103    12.4311    13.8166
  651.0000    88.9215    12.3889    13.6792
  651.5000    88.0584    12.3710    13.5014
  652.0000    88.7930    12.3709    13.1449
  652.5000    89.8868    12.3709    12.7978
  653.0000    90.9892    12.3710    12.4858
  653.5000    91.9712    12.3710    12.4858
  654.0000    90.9647    12.3710    12.4858
  654.5000    87.7600    12.3710    12.4858
  655.0000    86.6871    12.3711    12.4857
  655.5000    88.5323    12.3717    12.4848
  656.0000    90.8123    12.3459    12.5225
  656.5000    91.0963    12.3157    12.5668
  657.0000    90.1480    12.2857    12.6111
  657.5000    90.4421    12.2558    12.6556
  658.0000    94.1187    12.2259    12.7186
  658.5000    93.8843    12.1961    12.6896
  659.0000    90.3306    12.1664    12.6407
  659.5000    87.7954    12.1445    12.5921
  660.0000    86.6120    12.1361    12.5436
  660.5000    87.0823    12.1073    12.4952
  661.0000    90.7234    12.0785    12.4472
  661.5000    95.0167    12.0498    12.3993
  662.0000    98.0253    12.0328    12.3710
  662.5000    97.5838    12.1445    12.6477
  663.0000    98.4662    12.3276    12.8392
  663.5000    98.1344    12.4858    13.2722
  664.0000    92.4855    12.6916    13.6937
  664.5000    88.3772    12.9837    14.1264
  665.0000    85.8600    13.2825    14.5727
  665.5000    85.5624    13.5882    15.0196
  666.0000    87.2714    13.9496    15.0196
  666.5000    89.0386    13.9496    15.0196
  667.0000    89.8125    13.6816    14.5148
  667.5000    90.6884    13.3199    14.0061
  668.0000    92.0686    12.9891    13.5151
  668.5000    93.1570    12.6273    13.0414
  669.0000    91.8928    12.2756    12.5842
  669.5000    90.4642    11.9337    12.3710
  670.0000    91.8827    11.6013    12.0224
  670.5000    93.9695    11.2782    11.7050
  671.0000    96.1423    11.0729    11.3840
  671.5000    96.8121    10.9684    11.2793
  672.0000    95.2554    10.9543    11.2782
  672.5000    93.3989    10.9403    11.2792
  673.0000    93.7994    10.9262    11.2793
  673.5000    94.5742    10.9122    11.2793
  674.0000    94.0529    10.8981    11.2795
  674.5000    91.7920    10.8804    11.2796
  675.0000    89.5498    10.8812    11.2781
  675.5000    90.7137    10.7702    11.2809
  676.0000    94.5674    10.7702    11.0723
  676.5000    98.3463    10.7702    11.0735
  677.0000    98.0919    10.7702    11.0615
  677.5000    95.9071    10.7702    11.0540
  678.0000    93.7089    10.7702    11.0463
  678.5000    91.5820    10.7702    11.0387
  679.0000    92.1351    10.7702    11.0311
  679.5000    92.5480    10.7702    11.0235
  680.0000    93.4037    10.7702    11.0159
  680.5000    94.7395    10.7702    11.0083
  681.0000    96.1017    10.7702    11.0007
  681.5000    96.5110    10.7702    10.9932
  682.0000    96.6923    10.7702    10.9856
  682.5000    97.1232    10.7702    10.9781
  683.0000    97.9099    10.7702    10.9705
  683.5000    97.5869    10.7702    10.9934
  684.0000    96.9970    10.7702    11.0191
  684.5000    98.3309    10.7702    11.0447
  685.0000   101.1231    10.7702    11.0704
  685.5000   100.7496    10.7702    11.0961
  686.0000    97.1211    10.7702    11.1219
  686.5000    93.5433    10.7704    11.1477
  687.0000    93.3670    10.7596    11.1756
  687.5000    95.2342    10.7446    11.1250
  688.0000    96.6995    10.7296    11.0704
  688.5000    95.8895    10.7146    11.0160
  689.0000    95.1177    10.6996    10.9620
  689.5000    94.3402    10.6843    10.9081
  690.0000    93.9898    10.6692    10.8526
  690.5000    97.4969    10.6046    10.7926
  691.0000   100.9058    10.5452    10.7332
  691.5000   100.3509    10.4856    10.6740
  692.0000    99.1042    10.4264    10.6151
  692.5000    96.8727    10.3675    10.5566
  693.0000    94.6139    10.3089    10.4983
  693.5000    94.5885    10.2504    10.4404
  694.0000    95.8806    10.1895    10.3795
  694.5000    98.1206    10.1895    10.3795
  695.0000   100.3442    10.1895    10.4238
  695.5000   102.5670    10.1898    10.4812
  696.0000   104.7988    10.1918    10.5389
  696.5000   107.0256    10.1810    10.5969
  697.0000   106.8452    10.2840    10.6552
  697.5000   104.0747    10.6600    10.7702
  698.0000   101.0094    11.0831    11.2274
  698.5000    99.3460    11.6565    11.8609
  699.0000    97.8173    12.2980    12.5970
  699.5000    93.1161    12.9748    13.6149
  700.0000    85.2889    13.6888    14.7156
  700.5000    76.7797    14.4421    15.9094
  701.0000    73.7834    15.2369    17.2460
  701.5000    74.1965    16.0754    17.6460
  702.0000    73.4401    16.7804    17.7751
  702.5000    72.3775    16.7136    17.9013
  703.0000    72.8375    16.4192    18.0675
  703.5000    75.8328    16.1300    17.4994
  704.0000    79.0955    15.7296    17.1167
  704.5000    80.3076    15.6857    16.7423
  705.0000    79.4449    15.6016    16.3761
  705.5000    78.6647    15.5183    16.0179
  706.0000    79.2985    15.4353    15.8331
  706.5000    79.9583    15.3527    15.7666
  707.0000    80.6177    15.2705    15.6989
  707.5000    81.2655    15.1888    15.6315
  708.0000    82.4332    15.1076    15.5643
  708.5000    83.8265    15.0267    15.4974
  709.0000    83.2365    14.9463    15.4413
  709.5000    82.4385    14.8879    15.4414
  710.0000    84.3590    14.7499    15.3705
  710.5000    87.9451    14.6511    15.2517
  711.0000    90.8187    14.5617    15.1345
  711.5000    89.8292    14.4719    15.0182
  712.0000    85.3848    14.3828    14.9027
  712.5000    82.2523    14.2097    14.7882
  713.0000    84.7900    14.1587    14.6746
  713.5000    87.4302    14.0683    14.5618
  714.0000    85.1897    13.9785    14.4602
  714.5000    83.0146    13.8893    14.3950
  715.0000    83.9751    13.8006    14.3302
  715.5000    86.6386    13.7123    14.2657
  716.0000    89.2034    13.6238    14.2097
  716.5000    88.3322    13.5688    14.2133
  717.0000    83.7563    13.6908    14.0733
  717.5000    79.1863    13.9088    14.2635
  718.0000    77.0550    14.1303    14.5065
  718.5000    78.1507    14.3555    14.7487
  719.0000    79.9180    14.5837    15.0820
  719.5000    81.6830    14.8842    15.4997
  720.0000    81.9842    14.7942    15.8756
  720.5000    81.4598    14.6303    15.4869
  721.0000    82.7547    14.4681    15.0844
  721.5000    84.5318    14.2097    14.6925
  722.0000    86.3327    13.8213    14.3107
  722.5000    89.3600    13.6618    13.9388
  723.0000    93.2641    13.4212    13.5747
  723.5000    95.6008    13.1846    13.1994
  724.0000    94.2683    12.9514    13.0678
  724.5000    90.5832    12.7167    12.9546
  725.0000    87.8398    12.7193    13.0759
  725.5000    86.2856    12.7184    13.2006
  726.0000    86.3400    12.7187    13.3199
  726.5000    87.6984    12.7185    13.2391
  727.0000    90.0110    12.7182    13.1453
  727.5000    92.9050    12.6185    13.0525
