~VERSION INFORMATION
 VERS.                2.0:   CWLS LOG ASCII STANDARD - VERSION 2.0
 WRAP.                 NO:   ONE LINE PER DEPTH STEP
~WELL INFORMATION
#MNEM.UNIT      DATA TYPE    INFORMATION
#----------   ------------   ------------------------------
 STRT.F          160.0000:   START DEPTH
 STOP.F         1181.5000:   STOP DEPTH
 STEP.F            0.5000:   STEP LENGTH
 NULL.          -999.2500:   NO VALUE
 COMP.            US NAVY:   COMPANY
 WELL. RES 3 TEAPOT DOM #71-SX-14:   WELL
 FLD .             TEAPOT:   FIELD
 LOC .      S14 T38N R78W:   LOCATION
 CNTY.            NATRONA:   COUNTY
 STAT.            WYOMING:   STATE
 CTRY. UNITED STATES OF AMERICA:   COUNTRY
 SRVC.       Schlumberger:   SERVICE COMPANY
 DATE.        23-AUG-1959:   LOGDATE
 API .       490250632200:   API NUMBER
~CURVE INFORMATION
#MNEM.UNIT       API CODE    CURVE DESCRIPTION
#----------   ------------   ------------------------------
 DEPT.F                  :   
 SPR .MV     05 010 01 00:   SPONTANEOUS POTENTIAL FROM RES.
 IL  .OHMM   05 120 00 00:   INDUCTION LOG
 ASN .OHMM   05 041 16 00:   AMPLIFIED SHORT NORMAL 16"
 CIL .MMHO   05 110 00 00:   CONDUCTIVITY INDUCTION LOG
~PARAMETER INFORMATION
#MNEM.UNIT          VALUE    DESCRIPTION
#----------   ------------   ------------------------------
 PD  .                 GL:   PERMANENT DATUM
 EPD .F              5259:   ELEVATION PERMANENT DATUM
 LMF .                 KB:   LOG MEASURED FROM
 DAPD.F                 4:   FEET ABOVE PERMANENT DATUM
 DMF .                 KB:   DRILLING MEASURED FROM
 EKB .F              5263:   KELLING BUSHING
 EGL .F              5259:   GROUND LEVEL
 DATE.            8-23-59:   RUN DATE
 RUN .                  1:   RUN NUMBER
 DD  .F              1190:   DEPTH DRILLER
 DL  .F              1186:   DEPTH LOGGER
 BLI .F              1180:   BOTTOM LOG INTERVAL
 TLI .F               150:   TOP LOG INTERVAL
 CBD .F                17:   CASING BOTTOM DRILLER
 BS  .IN             6.75:   BIT SIZE
 BSD .F              1190:   BIT SIZE AT DEPTH
 DFT .                GEL:   DRILLING FLUID TYPE
 DFD .                9.5:   DRILLING FLUID DENSITY
 DFV .                 52:   DRILLING FLUID VISCOSITY
 MSS .           FLOWLINE:   MUD SAMPLE SOURCE
 RMS .OHMM            2.6:   RESISTIVITY MUD SAMPLE
 MST .F                62:   MUD SAMPLE TEMPERATURE
 MFSS.                  M:   MUD FILTRATE SAMPLE SOURCE
 MCSS.                  M:   MUD CAKE SAMPLE SOURCE
 RMB .OHMM            2.2:   RESISTIVITY MUD AT BHT
 BHT .F                80:   BOTTOM HOLE TEMPERATURE
 TCS .HRS               1:   TIME CURCULATED STOPPED
 MRT .F                80:   MAXIMUM RECORDED TEMPERATURE
 LUN .               2523:   LOGGING UNIT NUMBER
 LUL .               CSPR:   LOGGING UNIT LOCATION
 ENGI.             ATWOOD:   RECORDING ENGINEER
 WITN.             MARTIN:   WITNESSED BY
 CLNT.            A2DTECH:   CLIENT CODE
 ORIG.     1", 2.5" PRINT:   ORIGIN OF DATA
 UWI .       490250632200:   UNIQUE WELL ID
 DICO. A2D Technologies, Inc.:   DIGITIZING COMPANY
~OTHER INFORMATION
~A   DEPT      SPR           IL        ASN      CIL   
# ...
  233.0000   -63.7529     7.1217     7.2872   182.5195
  233.5000   -63.7923     7.2404     7.4134   178.4109
  234.0000   -63.8260     7.3579     7.5396   174.3039
  234.5000   -63.8628     7.4781     7.6656   170.2011
  235.0000   -63.8982     7.5949     7.7948   167.2693
  235.5000   -63.9337     7.7108     7.8824   165.5071
  236.0000   -63.9697     7.8439     7.9208   163.7473
  236.5000   -64.0052     7.8144     7.9626   161.9898
  237.0000   -64.0400     7.6220     8.0257   161.1129
  237.5000   -64.0782     7.4468     7.8945   163.0350
  238.0000   -64.1051     7.2714     7.5773   166.7315
  238.5000   -64.0977     7.0909     7.2809   170.4280
  239.0000   -63.9634     6.9153     6.9658   174.1245
  239.5000   -63.8410     6.7390     6.8131   177.8210
  240.0000   -63.7113     6.5525     6.8238   181.5175
  240.5000   -63.5852     6.4639     6.8083   185.2140
  241.0000   -63.4583     6.4729     6.7941   188.9105
  241.5000   -63.3310     6.4715     6.7920   192.6622
  242.0000   -63.2041     6.4706     6.7739   194.0706
  242.5000   -63.0771     6.4720     6.7376   193.1830
  243.0000   -62.9499     6.4713     6.7007   192.2892
  243.5000   -62.8228     6.4713     6.6819   191.3935
  244.0000   -62.6969     6.4730     6.7063   190.5005
  244.5000   -62.5674     6.4569     6.7543   189.6144
  245.0000   -62.4433     6.4231     6.8096   190.0778
  245.5000   -62.3288     6.3911     6.7748   191.8288
  246.0000   -62.3600     6.3590     6.6521   193.5798
  246.5000   -62.3919     6.3265     6.5389   195.3307
  247.0000   -62.4301     6.2944     6.4190   197.0817
  247.5000   -62.4648     6.2621     6.3601   198.8327
  248.0000   -62.5004     6.2299     6.3660   199.7082
  248.5000   -62.5364     6.1976     6.3675   199.7082
  249.0000   -62.5716     6.1653     6.3470   199.7082
  249.5000   -62.6081     6.1335     6.3275   199.7082
  250.0000   -62.6429     6.0976     6.3335   199.7082
  250.5000   -62.6763     6.0579     6.2915   199.7082
  251.0000   -62.6802     6.0185     6.2025   200.6931
  251.5000   -62.6779     5.9790     6.1190   202.6629
  252.0000   -62.6718     5.9398     6.0357   204.6328
  252.5000   -62.5385     5.8998     5.9493   206.6026
  253.0000   -62.3991     5.8608     5.8665   208.5725
  253.5000   -62.2545     5.8222     5.7842   210.5423
  254.0000   -62.1133     5.7778     5.6880   212.5122
  254.5000   -61.9706     5.7877     5.7235   214.4820
  255.0000   -61.8283     5.8517     5.8925   215.4669
  255.5000   -61.6871     5.9101     6.0462   213.7159
  256.0000   -61.5419     5.9690     6.1998   210.2140
  256.5000   -61.4043     6.0283     6.3646   206.7121
  257.0000   -61.2591     6.0881     6.4450   203.2101
  257.5000   -61.2512     6.1467     6.4110   199.7082
  258.0000   -61.2480     6.2048     6.3543   196.2062
  258.5000   -61.2509     6.2707     6.3285   192.7043
  259.0000   -61.2494     6.2621     6.3297   190.9533
  259.5000   -61.2510     6.1790     6.3333   192.0789
  260.0000   -61.2490     6.1047     6.2941   194.3302
  260.5000   -61.2463     6.0279     6.2116   196.5814
  261.0000   -61.1440     5.9520     6.1345   198.8327
  261.5000   -61.0265     5.8781     6.0574   201.0839
  262.0000   -60.9074     5.7911     5.9744   203.3352
  262.5000   -60.7868     5.8220     5.9368   205.5864
  263.0000   -60.6730     5.9707     5.9382   206.7121
  263.5000   -60.5448     6.1071     5.9668   206.7121
  264.0000   -60.5368     6.2443     6.1044   205.8366
  264.5000   -60.5336     6.3829     6.3104   202.5437
  265.0000   -60.5364     6.5220     6.5073   197.5563
  265.5000   -60.5353     6.6590     6.7038   192.5618
  266.0000   -60.5355     6.7949     6.9123   187.5622
  266.5000   -60.5357     6.9463     7.0169   182.5618
  267.0000   -60.5356     6.9508     6.9500   177.5671
  267.5000   -60.5357     6.8083     6.8302   175.0655
  268.0000   -60.5357     6.6815     6.7161   175.0609
  268.5000   -60.5358     6.5538     6.6036   178.3574
  269.0000   -60.5358     6.4229     6.4505   184.9527
  269.5000   -60.5359     6.2944     6.2538   191.5562
  270.0000   -60.5358     6.1658     6.0639   198.1628
  270.5000   -60.5358     6.0351     5.8735   204.7722
  271.0000   -60.5366     5.9072     5.6723   211.3833
  271.5000   -60.5349     5.7801     5.5776   217.9901
  272.0000   -60.5348     5.6395     5.5818   224.5866
  272.5000   -60.4543     5.6257     5.6334   227.8781
  273.0000   -60.3466     5.7386     5.7443   224.7091
  273.5000   -60.2393     5.8381     5.8511   218.3681
  274.0000   -60.1333     5.9384     5.9565   212.0188
  274.5000   -60.0261     6.0412     6.0638   205.6727
  275.0000   -59.9197     6.1419     6.1702   199.3386
  275.5000   -59.8129     6.2435     6.2766   194.8591
  276.0000   -59.7056     6.3451     6.3827   192.2665
  276.5000   -59.6004     6.4467     6.4913   189.6401
  277.0000   -59.4931     6.5475     6.5772   187.0136
  277.5000   -59.4620     6.6500     6.6396   184.3872
  278.0000   -59.4634     6.7505     6.7062   181.7607
  278.5000   -59.4650     6.8503     6.7706   179.1342
  279.0000   -59.4634     6.9612     6.8338   176.5078
  279.5000   -59.5252     6.9675     6.9086   175.1945
  280.0000   -59.6158     6.8693     6.8780   175.1945
  280.5000   -59.7051     6.7821     6.7422   176.0700
  281.0000   -59.7934     6.6944     6.6176   179.4626
  281.5000   -59.8830     6.6044     6.4923   184.4966
  282.0000   -59.9717     6.5163     6.3650   189.5306
  282.5000   -60.0601     6.4274     6.2387   194.5647
  283.0000   -60.1504     6.3385     6.1133   199.5987
  283.5000   -60.1799     6.2496     5.9866   204.6328
  284.0000   -60.1833     6.1615     5.8567   209.6668
  284.5000   -60.1324     6.0715     5.7774   214.7009
  285.0000   -60.0475     5.9838     5.7375   218.0934
  285.5000   -59.9684     5.8968     5.7900   216.8288
  286.0000   -59.8903     5.7977     5.9405   212.5486
  286.5000   -59.8106     5.8124     6.0817   208.2685
  287.0000   -59.7316     5.9411     6.2223   203.9883
  287.5000   -59.6525     6.0578     6.3659   199.7082
  288.0000   -59.5743     6.1751     6.5074   195.4207
  288.5000   -59.4931     6.2944     6.6482   191.1225
  289.0000   -59.4619     6.4128     6.7947   186.8255
  289.5000   -59.4648     6.5307     6.8884   182.5328
  290.0000   -59.4641     6.6481     6.8691   179.5113
  290.5000   -59.4649     6.7723     6.8035   177.7632
  291.0000   -59.4646     6.8314     6.7426   177.5576
  291.5000   -59.4625     6.8253     6.6776   178.9154
  292.0000   -59.4727     6.8264     6.6469   180.2286
  292.5000   -59.3791     6.8264     6.6455   181.5418
  293.0000   -59.2044     6.8260     6.6910   182.1984
  293.5000   -59.0414     6.8270     6.7872   181.0101
  294.0000   -58.8787     6.8227     6.8793   178.6333
  294.5000   -58.7132     6.8640     6.9714   176.2566
  295.0000   -58.5498     6.9509     7.0615   173.8798
  295.5000   -58.3854     7.0330     7.1815   171.5031
  296.0000   -58.2211     7.1154     7.3317   169.1264
  296.5000   -58.0575     7.1986     7.4801   166.7496
  297.0000   -57.8923     7.2812     7.6269   164.3729
  297.5000   -57.7292     7.3640     7.7737   161.9961
  298.0000   -57.5660     7.4468     7.9290   159.6194
  298.5000   -57.3945     7.5296     8.0025   157.2426
  299.0000   -57.3151     7.6125     7.9954   154.8659
  299.5000   -57.3186     7.6951     7.9971   152.4892
  300.0000   -57.3620     7.7782     7.9947   150.1124
  300.5000   -57.4546     7.8611     8.0257   148.9300
  301.0000   -57.5439     7.9428     8.0932   148.9300
  301.5000   -57.6316     8.0291     8.1570   148.9300
  302.0000   -57.7221     8.0742     8.2192   148.9300
  302.5000   -57.8104     8.0331     8.2856   148.9300
  303.0000   -57.8984     7.9562     8.3245   149.8580
  303.5000   -57.9933     7.8833     8.2503   150.6809
  304.0000   -58.0401     7.8092     8.1016   151.1537
  304.5000   -58.0342     7.7350     7.9615   152.0336
  305.0000   -58.0419     7.6612     7.8192   153.9453
  305.5000   -57.9710     7.5870     7.6767   156.7105
