~VERSION INFORMATION
 VERS.                2.0:   CWLS LOG ASCII STANDARD - VERSION 2.0
 WRAP.                 NO:   ONE LINE PER DEPTH STEP
~WELL INFORMATION
#MNEM.UNIT      DATA TYPE    INFORMATION
#----------   ------------   ------------------------------
 STRT.F          672.0000:   START DEPTH
 STOP.F         2343.5000:   STOP DEPTH
 STEP.F            0.5000:   STEP LENGTH
 NULL.          -999.2500:   NO VALUE
 COMP. FENIX & SCISSON INC:   COMPANY
 WELL.   23 SHX-33 #23-33:   WELL
 FLD .             TEAPOT:   FIELD
 LOC .      S33 T39N R78W:   LOCATION
 CNTY.            NATRONA:   COUNTY
 STAT.            WYOMING:   STATE
 CTRY. UNITED STATES OF AMERICA:   COUNTRY
 SRVC.            Unknown:   SERVICE COMPANY
 DATE.        01-MAY-1978:   LOGDATE
 API .       490251062700:   API NUMBER
~CURVE INFORMATION
#MNEM.UNIT       API CODE    CURVE DESCRIPTION
#----------   ------------   ------------------------------
 DEPT.F                  :   
 IL  .OHMM   05 120 00 00:   INDUCTION LOG
 CIL .MMHO   05 110 00 00:   CONDUCTIVITY INDUCTION LOG
 CALD.IN     45 280 60 00:   CALIPER FROM DENSITY LOG
 GRD .GAPI   45 310 01 00:   GAMMA RAY FROM DENSITY LOG
 DPHI.DEC    45 890 12 00:   DENSITY POROSITY SANDSTONE
 RHOB.G/C3   45 350 01 00:   BULK DENSITY
 CORR.G/C3   45 356 01 00:   DENSITY CORRECTION
~PARAMETER INFORMATION
#MNEM.UNIT          VALUE    DESCRIPTION
#----------   ------------   ------------------------------
 PD  .                 GL:   PERMANENT DATUM
 EPD .F              5163:   ELEVATION PERMANENT DATUM
 LMF .                 KB:   LOG MEASURED FROM
 DAPD.F                10:   FEET ABOVE PERMANENT DATUM
 DMF .                 KB:   DRILLING MEASURED FROM
 EKB .F              5173:   KELLING BUSHING
 EGL .F              5163:   GROUND LEVEL
 DATE.           5-1-1978:   RUN DATE
 RUN .                  1:   RUN NUMBER
 DD  .F              2331:   DEPTH DRILLER
 DL  .F              2260:   DEPTH LOGGER
 BLI .F              2250:   BOTTOM LOG INTERVAL
 TLI .F               690:   TOP LOG INTERVAL
 CS  .IN            9.625:   CASING SIZE
 CBD .F               683:   CASING BOTTOM DRILLER
 CBL .F               690:   CASING BOTTOM LOGGER
 BS  .IN             8.75:   BIT SIZE
 BSD .F              2331:   BIT SIZE AT DEPTH
 DFT .                OIL:   DRILLING FLUID TYPE
 BHT .F               104:   BOTTOM HOLE TEMPERATURE
 TCS .HRS               5:   TIME CURCULATED STOPPED
 MRT .F               104:   MAXIMUM RECORDED TEMPERATURE
 LUN .               2958:   LOGGING UNIT NUMBER
 LUL .               CASP:   LOGGING UNIT LOCATION
 ENGI.             MILLER:   RECORDING ENGINEER
 WITN.           MCGINLEY:   WITNESSED BY
 CLNT.            A2DTECH:   CLIENT CODE
 ORIG.       2", 5" PRINT:   ORIGIN OF DATA
 UWI .       490251062700:   UNIQUE WELL ID
 DICO. A2D Technologies, Inc.:   DIGITIZING COMPANY
~OTHER INFORMATION
~A   DEPT       IL        CIL       CALD         GRD      DPHI       RHOB       CORR   
# ...
 1855.0000     6.8959   135.8586    10.7589   124.6557    -0.0278     2.5830     0.1014
 1855.5000     6.9032   135.8586    10.7308   123.0516    -0.0261     2.5873     0.0948
 1856.0000     6.9105   135.8563    10.8732   117.4393    -0.0228     2.5916     0.0856
 1856.5000     6.9178   135.8600    11.2878   116.5837    -0.0203     2.5920     0.0754
 1857.0000     6.9251   136.3851    12.0239   117.6762    -0.0222     2.5840     0.0648
 1857.5000     6.9295   136.9135    10.5511   119.8569    -0.0287     2.5767     0.0636
 1858.0000     6.9283   137.4406    10.6019   122.0494    -0.0352     2.5830     0.0790
 1858.5000     6.9010   137.9673    10.8999   123.5064    -0.0417     2.5931     0.0954
 1859.0000     6.8731   138.4939    11.2955   120.9890    -0.0440     2.6033     0.1008
 1859.5000     6.8450   139.5253    10.7381   117.9784    -0.0403     2.6135     0.1010
 1860.0000     6.8185   142.0707    10.6847   119.1356    -0.0359     2.6181     0.1020
 1860.5000     6.7260   144.6162    10.6510   120.4096    -0.0317     2.6076     0.1029
 1861.0000     6.6050   145.8594    10.6685   120.2774    -0.0328     2.5950     0.1110
 1861.5000     6.4812   145.6473    10.7232   120.1661    -0.0341     2.5959     0.1261
 1862.0000     6.4448   145.4352    10.7542   120.0657    -0.0319     2.6001     0.1417
 1862.5000     6.4442   145.2209    10.7112   120.3413    -0.0297     2.5941     0.1446
 1863.0000     6.4446   145.0064    10.6672   121.1324    -0.0333     2.5895     0.1447
 1863.5000     6.4453   145.7345    10.6153   121.9182    -0.0369     2.5887     0.1446
 1864.0000     6.4346   147.2765    10.6069   121.4431    -0.0374     2.5920     0.1447
 1864.5000     6.3737   148.8156    10.6184   120.8145    -0.0342     2.6031     0.1426
 1865.0000     6.3127   150.3547    10.6304   122.6931    -0.0394     2.6119     0.1386
 1865.5000     6.2534   151.8938    10.6422   126.1057    -0.0501     2.5947     0.1339
 1866.0000     6.1938   153.4329    10.6548   127.9109    -0.0473     2.6154     0.1285
 1866.5000     6.1342   154.9734    10.6263   127.8022    -0.0467     2.6281     0.1231
 1867.0000     6.0745   156.5112    10.5893   127.3364    -0.0486     2.6188     0.1177
 1867.5000     6.0149   158.0808    10.5523   126.9307    -0.0504     2.6206     0.1123
 1868.0000     5.9557   158.0808    10.5156   126.4812    -0.0512     2.6223     0.1068
 1868.5000     5.9227   158.0808    10.5200   128.0762    -0.0498     2.6240     0.1048
 1869.0000     5.9459   158.0808    10.5989   130.5806    -0.0467     2.6257     0.1027
 1869.5000     5.9589   158.0808    10.5842   131.1304    -0.0435     2.6278     0.1029
 1870.0000     5.9697   158.0808    10.4899   131.2507    -0.0400     2.6202     0.0980
 1870.5000     6.0067   157.0424    10.3961   131.9344    -0.0413     2.6116     0.0866
 1871.0000     6.0271   156.0242    10.3943   132.3911    -0.0432     2.6077     0.0786
 1871.5000     6.0456   155.0061    10.4820   131.4283    -0.0473     2.6086     0.0778
 1872.0000     6.0644   154.0404    10.5700   123.3727    -0.0502     2.6117     0.0768
 1872.5000     6.0832   153.6754    10.6580   119.1208    -0.0473     2.6221     0.0759
 1873.0000     6.1020   153.3283    10.7332   121.3674    -0.0445     2.6285     0.0749
 1873.5000     6.1208   152.9812    10.6884   124.0395    -0.0508     2.6192     0.0740
 1874.0000     6.1396   152.6341    10.6450   126.7284    -0.0460     2.6123     0.0731
 1874.5000     6.1584   152.2870    10.6018   129.4019    -0.0403     2.6243     0.0718
 1875.0000     6.1772   151.9397    10.5584   131.3061    -0.0345     2.6152     0.0711
 1875.5000     6.1960   151.5924    10.5190   128.8253    -0.0310     2.6055     0.0710
 1876.0000     6.2147   151.2414    10.5510   125.6889    -0.0283     2.5959     0.0709
 1876.5000     6.2337   151.1192    10.5853   123.9993    -0.0261     2.5775     0.0739
 1877.0000     6.2130   151.4586    10.6193   124.7660    -0.0257     2.5757     0.0801
 1877.5000     6.1580   151.7980    10.6526   125.5113    -0.0261     2.5851     0.0862
 1878.0000     6.1028   152.8130    10.6766   126.1683    -0.0265     2.5794     0.0912
 1878.5000     6.0474   155.1153    10.6977   126.3575    -0.0262     2.5904     0.0890
 1879.0000     5.9922   157.4200    10.7211   126.3464    -0.0258     2.5879     0.0862
 1879.5000     5.9369   159.7244    10.7341   126.3226    -0.0253     2.5814     0.0834
 1880.0000     5.8816   162.0274    10.7246   126.2967    -0.0248     2.5751     0.0806
 1880.5000     5.8263   164.3304    10.7151   126.2713    -0.0244     2.5724     0.0777
 1881.0000     5.7711   166.6335    10.7058   126.2459    -0.0239     2.5859     0.0748
 1881.5000     5.7158   168.9365    10.6989   126.2202    -0.0212     2.5882     0.0720
 1882.0000     5.6605   171.2121    10.7988   126.1940    -0.0178     2.5827     0.0693
 1882.5000     5.6052   171.0766    11.0048   126.1708    -0.0224     2.5621     0.0671
 1883.0000     5.5500   170.9426    10.9789   126.2972    -0.0282     2.5678     0.0698
 1883.5000     5.4942   170.8086    10.9376   126.5647    -0.0341     2.5756     0.0732
 1884.0000     5.4750   170.6746    10.8961   126.6980    -0.0360     2.5928     0.0766
 1884.5000     5.4747   170.5407    11.0122   127.1938    -0.0332     2.6059     0.0791
 1885.0000     5.4747   170.4067    11.1248   128.5387    -0.0298     2.6024     0.0793
 1885.5000     5.4748   170.2619    11.5503   131.2502    -0.0265     2.5989     0.0796
 1886.0000     5.4748   170.7813    12.0137   133.8919    -0.0152     2.5925     0.0799
 1886.5000     5.4748   171.9804    12.2680   134.7618    -0.0030     2.5805     0.0802
 1887.0000     5.4748   173.1912    11.0443   130.3460     0.0093     2.5592     0.0804
 1887.5000     5.4752   174.4013    10.9259   126.7494     0.0263     2.5380     0.0808
 1888.0000     5.4755   177.0100    10.7730   124.6040     0.0096     2.5175     0.0808
 1888.5000     5.4491   183.9403    10.6748   131.1068     0.0180     2.4880     0.1022
 1889.0000     5.2280   197.5628    10.6789   138.0583    -0.0342     2.5597     0.1167
 1889.5000     5.0050   210.3877    10.6857   125.9579    -0.0371     2.5103     0.0900
 1890.0000     4.7820   215.3164    10.6928   118.7648    -0.0298     2.5639     0.0740
 1890.5000     4.5559   219.8215    10.6998   119.0827    -0.0228     2.6035     0.0676
 1891.0000     4.4622   220.7071    10.7069   123.3728    -0.0301     2.5805     0.0632
 1891.5000     4.4644   220.7071    10.7149   126.4632    -0.0214     2.5946     0.0612
 1892.0000     4.4339   218.4602    10.6805   128.6215    -0.0095     2.5868     0.0611
 1892.5000     4.4250   214.5006    10.6327   128.9484    -0.0047     2.5731     0.0619
 1893.0000     4.4854   205.0135    10.5847   129.1765    -0.0039     2.5592     0.0675
 1893.5000     4.6508   193.9832    10.5367   126.4031    -0.0059     2.5465     0.0833
 1894.0000     4.8715   182.9529    10.4887   123.1866    -0.0032     2.5513     0.0993
 1894.5000     5.1857   171.9226    10.4407   119.9139     0.0004     2.5566     0.1153
 1895.0000     5.5000   161.1111    10.3921   119.5667     0.0039     2.5474     0.1316
 1895.5000     5.7923   161.8034    10.3778   122.5752     0.0057     2.5364     0.1456
 1896.0000     5.8180   162.4821    10.3867   125.7729    -0.0147     2.5294     0.1634
 1896.5000     5.7548   163.1313    10.4044   128.9983    -0.0181     2.5568     0.1765
 1897.0000     5.6969   168.4444    10.4221   130.0867    -0.0215     2.5671     0.1601
 1897.5000     5.6387   173.5354    10.4398   128.7494    -0.0257     2.5786     0.1441
 1898.0000     5.5805   174.6808    10.4575   127.4276    -0.0309     2.5945     0.1282
 1898.5000     5.5223   175.1899    10.4751   126.1761    -0.0361     2.5906     0.1117
 1899.0000     5.4639   174.8061    10.4928   126.6146    -0.0413     2.5887     0.1069
 1899.5000     5.4344   174.3001    10.5104   127.1718    -0.0459     2.6017     0.1067
 1900.0000     5.4504   173.7910    10.5282   127.7317    -0.0373     2.6158     0.1022
