~VERSION INFORMATION
 VERS.                2.0:   CWLS LOG ASCII STANDARD - VERSION 2.0
 WRAP.                 NO:   ONE LINE PER DEPTH STEP
~WELL INFORMATION
#MNEM.UNIT      DATA TYPE    INFORMATION
#----------   ------------   ------------------------------
 STRT.F           28.0000:   START DEPTH
 STOP.F          791.0000:   STOP DEPTH
 STEP.F            0.5000:   STEP LENGTH
 NULL.          -999.2500:   NO VALUE
 COMP. LAWRENCE/ALLISON INC:   COMPANY
 WELL.    34-61 SX #11-11:   WELL
 FLD .             TEAPOT:   FIELD
 LOC .      S11 T38N R78W:   LOCATION
 CNTY.            NATRONA:   COUNTY
 STAT.            WYOMING:   STATE
 CTRY. UNITED STATES OF AMERICA:   COUNTRY
 SRVC.           Gearhart:   SERVICE COMPANY
 DATE.        29-JUL-1987:   LOGDATE
 API .       490251112500:   API NUMBER
~CURVE INFORMATION
#MNEM.UNIT       API CODE    CURVE DESCRIPTION
#----------   ------------   ------------------------------
 DEPT.F                  :   
 GRR .GAPI   07 310 01 00:   GAMMA RAY FROM RESISTIVITY
 RILD.OHMM   07 120 46 00:   RESISTIVITY INDUCTION LOG DEEP
 RILM.OHMM   07 120 44 00:   RESISTIVITY INDUCTION LOG MEDIUM
 RLL .OHMM   07 220 00 00:   RESISTIVITY LATEROLOG
~PARAMETER INFORMATION
#MNEM.UNIT          VALUE    DESCRIPTION
#----------   ------------   ------------------------------
 PD  .                 GL:   PERMANENT DATUM
 EPD .F              5172:   ELEVATION PERMANENT DATUM
 LMF .                 KB:   LOG MEASURED FROM
 DAPD.F                 7:   FEET ABOVE PERMANENT DATUM
 DMF .                 KB:   DRILLING MEASURED FROM
 EKB .F              5180:   KELLING BUSHING
 EDF .F              5178:   DRILLING FLOOR
 EGL .F              5172:   GROUND LEVEL
 DATE.        29-JUL-1987:   RUN DATE
 RUN .                  1:   RUN NUMBER
 DD  .F               793:   DEPTH DRILLER
 DL  .F               792:   DEPTH LOGGER
 BLI .F               791:   BOTTOM LOG INTERVAL
 TLI .F                30:   TOP LOG INTERVAL
 CS  .IN            8.625:   CASING SIZE
 CBL .F                50:   CASING BOTTOM LOGGER
 BS  .IN            7.875:   BIT SIZE
 BSD .F               793:   BIT SIZE AT DEPTH
 DFT .                MUD:   DRILLING FLUID TYPE
 DFD .                0.5:   DRILLING FLUID DENSITY
 MSS .           FLOWLINE:   MUD SAMPLE SOURCE
 RMS .OHMM           1.92:   RESISTIVITY MUD SAMPLE
 MST .F                71:   MUD SAMPLE TEMPERATURE
 RMF .OHMM            1.4:   RESISTIVITY MUD FILTRATE SAMPLE
 MFST.F                72:   MUD FILTRATE SAMPLE TEMPERATURE
 RMC .OHMM            2.2:   RESISTIVITY MUD CAKE
 MCST.F                72:   MUD CAKE SAMPLE TEMPERATURE
 MFSS.              CHART:   MUD FILTRATE SAMPLE SOURCE
 MCSS.              CHART:   MUD CAKE SAMPLE SOURCE
 TCS .HRS            2200:   TIME CURCULATED STOPPED
 MRT .F                60:   MAXIMUM RECORDED TEMPERATURE
 LUN .               7397:   LOGGING UNIT NUMBER
 LUL .           GILLETTE:   LOGGING UNIT LOCATION
 ENGI.         WEATHERMON:   RECORDING ENGINEER
 WITN.             STRONG:   WITNESSED BY
 CLNT.            A2DTECH:   CLIENT CODE
 ORIG.           5" PRINT:   ORIGIN OF DATA
 UWI .       490251112500:   UNIQUE WELL ID
 DICO. A2D Technologies, Inc.:   DIGITIZING COMPANY
~OTHER INFORMATION
~A   DEPT      GRR       RILD       RILM        RLL   
# ...
  247.0000    84.3670     7.4267     7.5444     7.5153
  247.5000    86.2283     7.2691     7.3848     7.3530
  248.0000    85.9093     7.1653     7.1791     7.2009
  248.5000    81.9397     7.0132     6.9784     7.0488
  249.0000    79.8048     6.9131     6.8801     6.9490
  249.5000    80.1165     6.8629     6.8315     6.8506
  250.0000    82.5688     6.8612     6.8315     6.8989
  250.5000    85.3547     6.8598     6.8306     6.8497
  251.0000    86.5443     6.9072     6.9272     6.9471
  251.5000    87.1560     6.9549     6.9755     7.0458
  252.0000    87.4618     6.8614     7.0739     7.0954
  252.5000    87.1560     6.9102     7.1235     7.1456
  253.0000    85.9327     7.0105     7.2240     7.1960
  253.5000    84.0979     7.1164     7.2746     7.2467
  254.0000    82.2630     7.2103     7.3252     7.2977
  254.5000    80.7339     7.2616     7.3762     7.3492
  255.0000    80.4281     7.3132     7.4805     7.4062
  255.5000    82.5688     7.3132     7.5327     7.4532
  256.0000    84.4037     7.4176     7.5314     7.5590
  256.5000    83.7920     7.5234     7.5842     7.6124
  257.0000    82.2630     7.5234     7.6371     7.6662
  257.5000    81.6514     7.6353     7.6904     7.7751
  258.0000    83.7920     7.7397     7.7441     7.8299
  258.5000    86.5443     7.7947     7.7981     7.8851
  259.0000    85.0153     7.9059     7.8523     7.9972
  259.5000    82.2079     7.8501     7.9070     7.9916
  260.0000    79.5107     7.7947     7.9059     7.8833
  260.5000    80.7339     7.7397     7.8487     7.7717
  261.0000    82.2630     7.6308     7.7371     7.6617
  261.5000    82.2630     7.6308     7.6271     7.6070
  262.0000    82.5688     7.5234     7.5187     7.5527
  262.5000    83.1804     7.4703     7.4645     7.4457
  263.0000    86.2385     7.4176     7.3584     7.3926
  263.5000    89.6024     7.3132     7.3054     7.3398
  264.0000    92.3792     7.2616     7.2528     7.2358
  264.5000    93.2722     7.1594     7.2518     7.1841
  265.0000    92.0489     7.1088     7.2506     7.1328
  265.5000    91.4373     7.1088     7.2496     7.1323
  266.0000    90.5199     7.1594     7.3001     7.1318
  266.5000    89.6024     7.1594     7.2991     7.1313
  267.0000    88.6850     7.1594     7.2981     7.1816
  267.5000    87.7676     7.2103     7.2971     7.2323
  268.0000    87.7676     7.2103     7.3481     7.2317
  268.5000    87.4618     7.2616     7.3993     7.3346
  269.0000    86.2385     7.3132     7.4509     7.4389
  269.5000    88.0734     7.3652     7.5029     7.7069
  270.0000    91.7431     7.4176     7.5016     7.9282
  270.5000    92.9664     7.4176     7.5005     8.2140
  271.0000    88.6850     7.4703     7.5531     8.3310
  271.5000    84.4037     7.4703     7.5518     8.3303
  272.0000    83.0336     7.5234     7.6048     8.1542
  272.5000    87.4618     7.5234     7.6035     7.9819
  273.0000    90.8624     7.5234     7.6024     7.8689
  273.5000    92.3547     7.5234     7.6014     7.8127
  274.0000    85.3211     7.5769     7.6003     7.8121
  274.5000    82.5688     7.6308     7.5990     7.9232
  275.0000    80.4281     7.6850     7.6523     8.0359
  275.5000    81.3456     7.7397     7.8154     8.0927
  276.0000    84.0979     7.8501     7.9260     8.1496
  276.5000    86.2385     7.9621     8.0383     8.2071
  277.0000    88.0734     8.0758     8.1520     8.3238
  277.5000    88.9908     8.1910     8.2086     8.3232
  278.0000    89.2966     8.2493     8.3247     8.3321
  278.5000    89.2966     8.3670     8.3828     8.3813
  279.0000    89.9083     8.4265     8.4412     8.4404
  279.5000    92.9664     8.4864     8.5001     8.4397
  280.0000    95.7187     8.4864     8.5594     8.4994
  280.5000    96.0245     8.4864     8.6191     8.5591
  281.0000    94.1896     8.5467     8.6793     8.5585
  281.5000    93.2722     8.6075     8.7398     8.6189
  282.0000    92.3302     8.7303     8.8005     8.6797
  282.5000    89.1590     8.7924     8.8619     8.7502
  283.0000    85.9327     8.9179     8.9262     8.8652
  283.5000    84.7095     8.9908     9.0499     8.9913
  284.0000    84.4037     9.1094     9.1776     9.1192
  284.5000    85.6269     9.1742     9.2419     9.2489
  285.0000    86.5443     9.3051     9.3726     9.3141
  285.5000    87.4618     9.3051     9.5048     9.4466
  286.0000    87.7676     9.4379     9.5715     9.5130
  286.5000    87.4526     9.4379     9.6382     9.5801
  287.0000    86.1101     9.5726     9.7052     9.7163
  287.5000    82.5688     9.6464     9.7729     9.8544
  288.0000    80.7339     9.7782     9.9111     9.9945
  288.5000    81.3456     9.9883    10.0512    10.1367
  289.0000    83.7920    10.2029    10.1934    10.2808
  289.5000    86.5443    10.4220    10.4107    10.4272
  290.0000    88.9908    10.5708    10.5579    10.6507
  290.5000    89.9083    10.6459    10.7072    10.6499
  291.0000    89.9022    10.5708    10.6301    10.5724
  291.5000    88.0337    10.4949    10.4790    10.4242
  292.0000    85.9327    10.2754    10.3300    10.2764
  292.5000    84.7095    10.1308    10.1831    10.1309
  293.0000    85.0153     9.9883    10.0383    10.0586
  293.5000    85.6269     9.9178     9.9657     9.9868
  294.0000    87.4618     9.8478     9.8940     9.9155
  294.5000    88.6850     9.7782     9.8926     9.8447
  295.0000    86.8502     9.7782     9.8213     9.8440
  295.5000    85.3180     9.7782     9.8200     9.8433
  296.0000    85.0153     9.7782     9.8186     9.7730
  296.5000    85.6269     9.7782     9.8871     9.7722
  297.0000    87.1560     9.8478     9.8858     9.7715
  297.5000    89.2966     9.7092     9.8750     9.7708
  298.0000    91.4373     9.7092     9.7435     9.7702
  298.5000    92.9664     9.7092     9.7422     9.7695
  299.0000    89.6024     9.7092     9.6720     9.7688
  299.5000    85.0153     9.7092     9.6024     9.7681
  300.0000    80.4281     9.7092     9.6012     9.7675
  300.5000    79.5166     9.5726     9.5998     9.7355
  301.0000    83.8053     9.5726     9.5984     9.7035
  301.5000    87.4809     9.5726     9.5971     9.6716
  302.0000    86.2635     9.5726     9.5955     9.6396
  302.5000    84.4345     9.5726     9.5942     9.5583
  303.0000    84.4404     9.5726     9.5929     9.5576
  303.5000    85.1458     9.5726     9.5916     9.5570
  304.0000    87.8175     9.5726     9.5903     9.5563
  304.5000    89.0467     9.5726     9.5889     9.4879
  305.0000    90.2758     9.5050     9.5196     9.4873
  305.5000    92.4223     9.4379     9.4510     9.4196
  306.0000    93.6514     9.3713     9.3167     9.3523
  306.5000    93.3140     9.2394     9.2496     9.2856
  307.0000    92.4399     9.1742     9.1181     9.2849
  307.5000    92.1400     9.1084     9.0524     9.2078
  308.0000    92.1474     8.9813     8.9235     9.0880
  308.5000    92.1532     8.8549     8.7966     8.9593
  309.0000    92.1591     8.6687     8.6103     8.7700
  309.5000    92.4709     8.4864     8.4280     8.5847
  310.0000    95.2304     8.2493     8.2495     8.4033
  310.5000    94.9305     8.0758     8.0747     8.1484
  311.0000    93.7131     7.8501     7.8476     7.8265
  311.5000    92.1900     7.7397     7.7911     7.7157
  312.0000    90.0550     7.7397     7.8455     7.6606
  312.5000    89.4494     7.7947     7.8444     7.7146
  313.0000    89.4568     7.9059     7.9554     7.8801
  313.5000    87.6278     8.0188     8.0723     8.1160
  314.0000    84.5756     8.1941     8.2988     8.3391
  314.5000    82.1349     8.3079     8.4159     8.4577
  315.0000    82.4466     8.4265     8.5349     8.5175
  315.5000    82.7778     8.4864     8.5338     8.5167
  316.0000    84.9063     8.5467     8.5934     8.5768
  316.5000    83.0773     8.5467     8.5921     8.5762
  317.0000    81.5542     8.5467     8.5300     8.5755
  317.5000    82.1717     8.6075     8.5898     8.5749
  318.0000    83.7066     8.6075     8.5884     8.5743
  318.5000    85.2415     8.6075     8.5265     8.4529
  319.0000    83.1082     8.4265     8.4651     8.3332
  319.5000    81.2792     8.3670     8.3448     8.2736
