~VERSION INFORMATION
 VERS.                2.0:   CWLS LOG ASCII STANDARD - VERSION 2.0
 WRAP.                 NO:   ONE LINE PER DEPTH STEP
~WELL INFORMATION
#MNEM.UNIT      DATA TYPE    INFORMATION
#----------   ------------   ------------------------------
 STRT.F           26.0000:   START DEPTH
 STOP.F          484.0000:   STOP DEPTH
 STEP.F            0.5000:   STEP LENGTH
 NULL.          -999.2500:   NO VALUE
 COMP.    FENIX & SCISSON:   COMPANY
 WELL.        NPR #44-S-3:   WELL
 FLD .              NPR-3:   FIELD
 LOC .       S3 T38N R78W:   LOCATION
 CNTY.            NATRONA:   COUNTY
 STAT.            WYOMING:   STATE
 CTRY. UNITED STATES OF AMERICA:   COUNTRY
 SRVC.              Welex:   SERVICE COMPANY
 DATE.        22-APR-1977:   LOGDATE
 API .       490251034000:   API NUMBER
~CURVE INFORMATION
#MNEM.UNIT       API CODE    CURVE DESCRIPTION
#----------   ------------   ------------------------------
 DEPT.F                  :   
 SPR .MV     07 010 01 00:   SPONTANEOUS POTENTIAL
 ILD .OHMM   07 120 46 00:   INDUCTION LOG DEEP
 ILM .OHMM   07 120 44 00:   INDUCTION LOG MEDIUM
 SGRD.OHMM   07 221 05 00:   SHALLOW SHORT GUARD RESISTIVITY
 GRD .GAPI   45 310 01 00:   GAMMA RAY FROM DENSITY LOG
 CALD.IN     45 280 60 00:   CALIPER FROM DENSITY LOG
 CORR.G/C3   45 356 01 00:   DENSITY CORRECTION
 RHOB.G/C3   45 350 01 00:   BULK DENSITY
 DPHI.DEC    45 890 12 00:   DENSITY POROSITY SANDSTONE
~PARAMETER INFORMATION
#MNEM.UNIT          VALUE    DESCRIPTION
#----------   ------------   ------------------------------
 PD  .                 GL:   PERMANENT DATUM
 EPD .F              5160:   ELEVATION PERMANENT DATUM
 LMF .                 GL:   LOG MEASURED FROM
 DMF .                 GL:   DRILLING MEASURED FROM
 EGL .F              5160:   GROUND LEVEL
 DATE.        22-APR-1977:   RUN DATE
 RUN .                  1:   RUN NUMBER
 DD  .F               490:   DEPTH DRILLER
 DL  .F               486:   DEPTH LOGGER
 BLI .F               484:   BOTTOM LOG INTERVAL
 TLI .F                30:   TOP LOG INTERVAL
 CS  .IN            8.625:   CASING SIZE
 CBD .F                40:   CASING BOTTOM DRILLER
 CBL .F                38:   CASING BOTTOM LOGGER
 BS  .IN            7.875:   BIT SIZE
 BSD .F               490:   BIT SIZE AT DEPTH
 DFT .            KCL GEL:   DRILLING FLUID TYPE
 DFD .                8.8:   DRILLING FLUID DENSITY
 DFV .                 36:   DRILLING FLUID VISCOSITY
 DFPH.                8.0:   DRILLING FLUID PH
 DFL .                6.4:   DRILLING FLUID LOSS
 MSS .            MUD PIT:   MUD SAMPLE SOURCE
 RMS .OHMM            .36:   RESISTIVITY MUD SAMPLE
 MST .F                60:   MUD SAMPLE TEMPERATURE
 RMF .OHMM            .30:   RESISTIVITY MUD FILTRATE SAMPLE
 MFST.F                60:   MUD FILTRATE SAMPLE TEMPERATURE
 RMC .OHMM            .42:   RESISTIVITY MUD CAKE
 MCST.F                60:   MUD CAKE SAMPLE TEMPERATURE
 MFSS.               MEAS:   MUD FILTRATE SAMPLE SOURCE
 MCSS.               MEAS:   MUD CAKE SAMPLE SOURCE
 RMB .OHMM            .30:   RESISTIVITY MUD AT BHT
 BHT .F                70:   BOTTOM HOLE TEMPERATURE
 TCS .HRS            0200:   TIME CURCULATED STOPPED
 MRT .F                70:   MAXIMUM RECORDED TEMPERATURE
 LUN .               8611:   LOGGING UNIT NUMBER
 LUL .             CASPER:   LOGGING UNIT LOCATION
 ENGI.          T. JOYNER:   RECORDING ENGINEER
 WITN.           ROB LYON:   WITNESSED BY
 CLNT.            A2DTECH:   CLIENT CODE
 ORIG.           5" PRINT:   ORIGIN OF DATA
 UWI .       490251034000:   UNIQUE WELL ID
 DICO. A2D Technologies, Inc.:   DIGITIZING COMPANY
~OTHER INFORMATION
~A   DEPT      SPR        ILD        ILM       SGRD        GRD       CALD       CORR       RHOB       DPHI   
# ...
  281.5000   -45.7674     8.1768     8.4291    11.1755   119.4704     7.7353    -0.0025     2.4794     0.1036
  282.0000   -45.7614     8.0124     8.6105    11.8285   122.0186     7.7073    -0.0024     2.4758     0.1060
  282.5000   -45.9054     7.7457     8.7353    12.5829   120.8476     7.7088    -0.0007     2.4737     0.1086
  283.0000   -45.8980     7.4353     8.8618    13.0415   121.4597     7.7252    -0.0006     2.4738     0.1113
  283.5000   -45.8920     7.0881     8.8667    13.3126   122.1172     7.7267    -0.0005     2.4709     0.1121
  284.0000   -45.8861     6.7107     8.3364    13.2155   119.8607     7.7283    -0.0018     2.4673     0.1136
  284.5000   -45.8802     6.3533     7.7301    13.0261   115.5693     7.7298    -0.0032     2.4607     0.1156
  285.0000   -45.8742     6.1835     7.0695    12.3722   114.8389     7.7314    -0.0046     2.4503     0.1201
  285.5000   -45.7199     6.0175     6.5101     9.1451   117.3879     7.7329    -0.0089     2.4414     0.1239
  286.0000   -45.4173     5.8981     6.2060     5.4257   120.9799     7.7345    -0.0102     2.4296     0.1308
  286.5000   -45.1146     5.8204     5.9984     5.0299   122.9378     7.7360    -0.0101     2.4118     0.1358
  287.0000   -44.6636     5.9456     6.1275     9.1210   123.9968     7.7376    -0.0084     2.4290     0.1307
  287.5000   -44.0642     6.1580     6.6614    14.0091   125.1858     7.7239    -0.0065     2.4523     0.1160
  288.0000   -43.4648     6.5115     7.6008    14.6085   124.7473     7.7256    -0.0021     2.4747     0.1050
  288.5000   -42.8654     6.8380     8.6728    14.2144   118.7582     7.7272    -0.0019     2.4778     0.1031
  289.0000   -41.9692     7.2807     9.6260    14.6206   111.3725     7.7139    -0.0003     2.4727     0.1067
  289.5000   -41.3698     7.9694    10.3924    14.7281   110.3443     7.7155    -0.0016     2.4712     0.1061
  290.0000   -40.9188     8.5442    10.8387    14.6327   116.2738     7.7170    -0.0015     2.4751     0.1054
  290.5000   -40.4678     9.0348    11.2262    14.5364   114.6565     7.7186    -0.0029     2.4782     0.1069
  291.0000   -39.8684     9.4225    11.4678    14.3441   113.9242     7.7201    -0.0042     2.4708     0.1110
  291.5000   -39.2690     9.8267    11.6340    14.2497   117.1910     7.7217    -0.0040     2.4582     0.1146
  292.0000   -38.6696    10.1077    11.6404    14.1574   119.5653     7.7233    -0.0039     2.4575     0.1163
  292.5000   -38.0702    10.4688    11.6469    14.0656   116.9149     7.7248    -0.0037     2.4576     0.1178
  293.0000   -37.4708    10.9937    11.7342    14.1705   116.3330     7.7264    -0.0021     2.4570     0.1184
  293.5000   -36.8714    11.7055    11.9868    14.5739   114.8636     7.7279    -0.0004     2.4526     0.1189
  294.0000   -36.2719    12.5498    13.2125    17.3313   107.9208     7.7323     0.0012     2.4415     0.1228
  294.5000   -35.6726    13.4550    14.2646    21.0417   102.1614     7.7462     0.0014     2.4311     0.1266
  295.0000   -35.0731    14.5256    15.1889    23.5130    99.3606     7.7625     0.0015     2.4245     0.1299
  295.5000   -34.3254    15.7900    16.0617    23.3606    93.8971     7.7641     0.0017     2.4179     0.1331
  296.0000   -33.5776    16.8124    16.8676    24.6995    86.9543     7.7656     0.0018     2.4112     0.1364
  296.5000   -32.8298    17.6553    17.9606    26.7055    80.6032     7.7375     0.0035     2.4240     0.1387
  297.0000   -32.2304    18.4128    18.8618    25.5716    79.2817     7.7243     0.0021     2.4099     0.1411
  297.5000   -31.6310    19.0706    19.6717    27.8149    81.0667     7.7258     0.0023     2.3936     0.1545
  298.0000   -31.0316    19.4808    20.5163    29.4090    85.3665     7.7422     0.0024     2.3817     0.1616
  298.5000   -30.5806    20.1767    21.2498    27.4555    87.2995     7.7438     0.0010     2.3751     0.1658
  299.0000   -30.1296    20.6107    21.5577    28.0426    88.0490     7.7453     0.0012     2.3714     0.1681
  299.5000   -29.8269    20.6221    21.8700    31.1202    86.7275     7.7469     0.0014     2.3700     0.1663
  300.0000   -29.6741    20.0432    21.8833    32.6331    83.9267     7.7640     0.0015     2.3764     0.1639
  300.5000   -29.7568    19.3877    21.5961    30.5135    80.9780     7.7794     0.0016     2.3799     0.1621
  301.0000   -29.8050    20.0692    21.3094    28.6883    78.3251     7.7809    -0.0013     2.3800     0.1597
  301.5000   -29.9445    20.3485    20.8881    26.2364    76.2640     7.7528    -0.0041     2.3853     0.1590
  302.0000   -29.9334    20.0692    23.5081    26.6164    74.0549     7.7391    -0.0040     2.3921     0.1581
  302.5000   -29.9245    19.2542    26.4527    29.5416    76.8754     7.7258    -0.0039     2.3981     0.1524
  303.0000   -29.7673    17.0025    19.5257    30.3827    79.4001     7.7276    -0.0038     2.4056     0.1434
  303.5000   -29.6101    15.2952    19.9504    29.7794    84.8833     7.7439    -0.0037     2.4162     0.1383
  304.0000   -29.6012    16.1685    20.0981    29.5864    88.1476     7.7454    -0.0035     2.4237     0.1350
  304.5000   -29.4440    18.1891    18.5121    29.6068    89.9301     7.7469    -0.0034     2.4221     0.1377
  305.0000   -29.2867    17.2138    18.1404    29.6231    86.8360     7.7632    -0.0018     2.4208     0.1386
  305.5000   -29.1295    17.9467    19.3201    29.6394    85.8103     7.7795    -0.0017     2.4209     0.1376
  306.0000   -28.9723    19.1030    20.0090    29.6558    84.0450     7.7807     0.0000     2.4194     0.1397
  306.5000   -28.9634    19.6428    19.3410    29.8780    82.2797     7.7674     0.0001     2.4156     0.1436
  307.0000   -28.8062    20.1978    21.0306    31.8139    80.5145     7.7540     0.0002     2.4037     0.1483
  307.5000   -28.5006    20.9127    23.8327    35.5553    78.7492     7.7407     0.0003     2.3988     0.1495
  308.0000   -28.3433    22.1067    27.0083    36.5676    77.7211     7.7274    -0.0026     2.3973     0.1524
  308.5000   -28.0377    23.5310    31.2484    36.0852    81.8754     7.7289    -0.0040     2.3907     0.1584
  309.0000   -27.7321    24.3638    33.5063    37.1228    85.2876     7.7156    -0.0053     2.3811     0.1605
  309.5000   -27.2782    25.2261    30.4336    38.4499    88.6999     7.7023    -0.0067     2.3781     0.1595
  310.0000   -27.1209    25.9389    26.7033    37.4216    87.6742     7.6593    -0.0066     2.3864     0.1571
  310.5000   -26.9659    25.7655    26.3528    34.6951    88.5717     7.6608    -0.0065     2.3820     0.1607
  311.0000   -27.1054    25.5919    26.1871    34.2375    90.0608     7.6623    -0.0064     2.3828     0.1598
  311.5000   -27.3911    24.9002    22.5058    33.3264    88.4435     7.6045    -0.0047     2.3896     0.1532
  312.0000   -27.6812    23.8932    18.9447    31.5503    86.6782     7.5616    -0.0046     2.4024     0.1488
  312.5000   -27.9668    22.7690    16.7380    30.0761    87.8715     7.5186    -0.0045     2.4069     0.1452
  313.0000   -28.2547    21.5481    15.4147    29.6753    89.2127     7.5498    -0.0029     2.4085     0.1429
  313.5000   -28.2458    20.2522    16.6746    29.9018    89.5159     7.5957    -0.0012     2.4063     0.1456
  314.0000   -28.3875    19.7028    18.7838    29.9183    87.4573     7.6713    -0.0011     2.4004     0.1477
  314.5000   -28.6732    19.4372    21.9208    29.9348    86.2837     7.7024    -0.0025     2.4079     0.1441
  315.0000   -28.8127    19.4412    24.6282    30.1591    85.1101     7.7335    -0.0024     2.4050     0.1462
  315.5000   -28.8038    19.7160    26.3634    30.3851    84.0845     7.7350    -0.0023     2.4028     0.1473
  316.0000   -29.0917    19.7201    25.9220    29.3687    83.2068     7.7365    -0.0039     2.4089     0.1431
  316.5000   -29.3796    19.3192    23.9371    28.7811    82.4770     7.7232    -0.0050     2.4067     0.1461
  317.0000   -29.3707    18.9265    23.2985    28.7975    83.9661     7.7247    -0.0049     2.4038     0.1464
  317.5000   -29.5104    18.6695    22.9891    29.0133    85.7512     7.7262    -0.0033     2.4031     0.1463
