~VERSION INFORMATION
 VERS.                2.0:   CWLS LOG ASCII STANDARD - VERSION 2.0
 WRAP.                 NO:   ONE LINE PER DEPTH STEP
~WELL INFORMATION
#MNEM.UNIT      DATA TYPE    INFORMATION
#----------   ------------   ------------------------------
 STRT.F         1005.5000:   START DEPTH
 STOP.F         2315.0000:   STOP DEPTH
 STEP.F            0.5000:   STEP LENGTH
 NULL.          -999.2500:   NO VALUE
 COMP. LAWRENCE/ALLISON INC:   COMPANY
 WELL.  32 SHX 15 #32 -15:   WELL
 FLD .             TEAPOT:   FIELD
 LOC .      S15 T38N R78W:   LOCATION
 CNTY.            NATRONA:   COUNTY
 STAT.            WYOMING:   STATE
 CTRY. UNITED STATES OF AMERICA:   COUNTRY
 SRVC.            Unknown:   SERVICE COMPANY
 DATE.        10-SEP-1988:   LOGDATE
 API .       490251124500:   API NUMBER
~CURVE INFORMATION
#MNEM.UNIT       API CODE    CURVE DESCRIPTION
#----------   ------------   ------------------------------
 DEPT.F                  :   
 ROP .MIN/FT 91 810 01 00:   RATE OF DRILLING PENETRATION
 TGAS.UNITS  91 830 01 00:   TOTAL GAS FROM HOTWIRE
~PARAMETER INFORMATION
#MNEM.UNIT          VALUE    DESCRIPTION
#----------   ------------   ------------------------------
 EKB .F              5259:   KELLING BUSHING
 EGL .F              5249:   GROUND LEVEL
 DATE.        10-SEP-1988:   RUN DATE
 RUN .                  1:   RUN NUMBER
 DD  .F              2316:   DEPTH DRILLER
 TLI .F              1005:   TOP LOG INTERVAL
 CS  .IN                7:   CASING SIZE
 CBD .F               991:   CASING BOTTOM DRILLER
 ENGI. R. HUSK/D. PETERSON:   RECORDING ENGINEER
 CLNT.            A2DTECH:   CLIENT CODE
 ORIG.           5" PRINT:   ORIGIN OF DATA
 UWI .       490251124500:   UNIQUE WELL ID
 DICO. A2D Technologies, Inc.:   DIGITIZING COMPANY
~OTHER INFORMATION
~A  DEPT         ROP       TGAS 
# ...
 1491.5000     0.3273     7.4769
 1492.0000     0.3378     7.5096
 1492.5000     0.3484     7.5451
 1493.0000     0.3802     7.5778
 1493.5000     0.3908     7.6133
 1494.0000     0.4225     7.2198
 1494.5000     0.4331     6.8208
 1495.0000     0.4331     6.8672
 1495.5000     0.4332     6.8999
 1496.0000     0.4226     6.9354
 1496.5000     0.4226     6.9681
 1497.0000     0.4227     7.0009
 1497.5000     0.4227     7.0363
 1498.0000     0.4227     7.0690
 1498.5000     0.4228     7.1045
 1499.0000     0.4016     7.1373
 1499.5000     0.3911     7.1727
 1500.0000     0.3911     7.2055
 1500.5000     0.3806     6.8038
 1501.0000     0.3489     6.7178
 1501.5000     0.3383     6.5513
 1502.0000     0.3172     6.3849
 1502.5000     0.2961     6.2184
 1503.0000     0.2961     6.0520
 1503.5000     0.2962     5.8856
 1504.0000     0.2962     5.7191
 1504.5000     0.3279     5.5527
 1505.0000     0.3597     5.3862
 1505.5000     0.3808     5.2198
 1506.0000     0.4232     5.0534
 1506.5000     0.4232     4.8869
 1507.0000     0.4021     4.7205
 1507.5000     0.3809     4.5540
 1508.0000     0.3493     4.3876
 1508.5000     0.3810     4.2212
 1509.0000     0.3916     4.0547
 1509.5000     0.4233     3.8883
 1510.0000     0.4339     3.7218
 1510.5000     0.4445     3.5656
 1511.0000     0.4234     3.5758
 1511.5000     0.3917     3.5930
 1512.0000     0.3812     3.6158
 1512.5000     0.3706     3.6386
 1513.0000     0.3495     3.6614
 1513.5000     0.3496     3.6842
 1514.0000     0.3496     3.7069
 1514.5000     0.3707     3.7297
 1515.0000     0.3813     3.7525
 1515.5000     0.3919     3.7753
 1516.0000     0.3920     3.7980
 1516.5000     0.3814     3.8208
 1517.0000     0.3392     3.8436
 1517.5000     0.2969     3.8664
 1518.0000     0.2969     3.8892
 1518.5000     0.3075     3.9119
 1519.0000     0.3393     3.9347
 1519.5000     0.3393     3.9575
 1520.0000     0.3499     3.9803
 1520.5000     0.3499     4.0030
 1521.0000     0.3605     4.0258
 1521.5000     0.3605     4.0486
 1522.0000     0.3500     4.0714
 1522.5000     0.3606     4.0942
 1523.0000     0.3818     4.1169
 1523.5000     0.3818     4.1397
 1524.0000     0.3924     4.1625
 1524.5000     0.3924     4.1853
 1525.0000     0.3502     4.2080
 1525.5000     0.3502     4.2308
 1526.0000     0.3396     4.2536
 1526.5000     0.3397     4.2764
 1527.0000     0.3397     4.2991
 1527.5000     0.3291     4.3219
 1528.0000     0.3080     4.3447
 1528.5000     0.2975     4.3675
 1529.0000     0.2658     4.3903
 1529.5000     0.2553     4.4130
 1530.0000     0.2553     4.4358
 1530.5000     0.2659     4.4586
 1531.0000     0.2976     4.4814
 1531.5000     0.3082     4.5041
 1532.0000     0.3400     4.5269
 1532.5000     0.3506     4.5497
 1533.0000     0.3612     4.5725
 1533.5000     0.3718     4.5953
 1534.0000     0.3824     4.6180
 1534.5000     0.3824     4.6408
 1535.0000     0.3824     4.6636
 1535.5000     0.3824     4.6864
 1536.0000     0.3825     4.7091
 1536.5000     0.3825     4.7319
 1537.0000     0.3825     4.7547
 1537.5000     0.3825     4.7775
 1538.0000     0.3826     4.8003
 1538.5000     0.3826     4.8230
 1539.0000     0.3826     4.8458
 1539.5000     0.3826     4.8686
 1540.0000     0.3827     4.8914
 1540.5000     0.3510     4.9141
 1541.0000     0.2982     4.9369
 1541.5000     0.2453     4.9597
 1542.0000     0.2136     4.9825
 1542.5000     0.3299     5.0053
 1543.0000     0.3828     5.0280
 1543.5000     0.4251     5.0508
 1544.0000     0.4569     5.0736
 1544.5000     0.4675     5.0964
 1545.0000     0.4358     5.1191
 1545.5000     0.4252     5.1419
 1546.0000     0.3935     5.1647
 1546.5000     0.3830     5.1875
 1547.0000     0.3725     5.2103
 1547.5000     0.3513     5.2330
 1548.0000     0.3514     5.2558
 1548.5000     0.3514     5.2786
 1549.0000     0.3514     5.3014
 1549.5000     0.3409     5.3241
 1550.0000     0.3303     5.3469
 1550.5000     0.2987     5.3697
 1551.0000     0.2987     5.3925
 1551.5000     0.2881     5.4153
 1552.0000     0.2987     5.4380
 1552.5000     0.3410     5.4608
 1553.0000     0.3728     5.4836
 1553.5000     0.3940     5.5064
 1554.0000     0.4257     5.5291
 1554.5000     0.4363     5.5519
 1555.0000     0.4469     5.5747
 1555.5000     0.4575     5.5975
 1556.0000     0.4258     5.6202
 1556.5000     0.3941     5.6430
 1557.0000     0.3836     5.6658
 1557.5000     0.3519     5.6886
 1558.0000     0.3413     5.7114
 1558.5000     0.3096     5.7341
 1559.0000     0.2991     5.7569
 1559.5000     0.2886     5.7797
 1560.0000     0.2780     5.8025
 1560.5000     0.2780     5.8252
 1561.0000     0.2886     5.8480
 1561.5000     0.2992     5.8708
 1562.0000     0.2993     5.8936
 1562.5000     0.3099     5.9164
 1563.0000     0.3416     5.9391
 1563.5000     0.3733     5.9619
 1564.0000     0.3839     5.9847
 1564.5000     0.4051     6.0075
 1565.0000     0.3946     6.0302
 1565.5000     0.3946     6.0530
 1566.0000     0.3840     6.0758
 1566.5000     0.3523     6.0986
 1567.0000     0.3524     6.1214
 1567.5000     0.3524     6.1441
 1568.0000     0.3419     6.1669
 1568.5000     0.3525     6.1897
 1569.0000     0.3525     6.2125
 1569.5000     0.3631     6.2352
 1570.0000     0.3737     6.2580
 1570.5000     0.3737     6.2808
 1571.0000     0.3737     6.3036
 1571.5000     0.3632     6.3264
 1572.0000     0.3526     6.3491
 1572.5000     0.3527     6.3719
 1573.0000     0.3527     6.3947
 1573.5000     0.3527     6.4175
 1574.0000     0.3845     6.4402
 1574.5000     0.3951     6.4630
 1575.0000     0.4268     6.4858
 1575.5000     0.4374     6.5086
 1576.0000     0.4691     6.5314
 1576.5000     0.4692     6.5541
 1577.0000     0.4375     6.5769
 1577.5000     0.3952     6.5997
 1578.0000     0.3530     6.6225
 1578.5000     0.3424     6.6452
 1579.0000     0.3107     6.6680
 1579.5000     0.3002     6.6908
 1580.0000     0.3002     6.7136
 1580.5000     0.3002     6.7364
 1581.0000     0.3003     6.7591
 1581.5000     0.3003     6.7819
 1582.0000     0.3320     6.8047
 1582.5000     0.3426     6.8275
 1583.0000     0.3638     6.8502
 1583.5000     0.3850     6.8730
 1584.0000     0.3956     6.8958
 1584.5000     0.4273     6.9186
 1585.0000     0.4273     6.9414
 1585.5000     0.4485     6.9641
 1586.0000     0.4697     6.9869
 1586.5000     0.4380     7.0097
 1587.0000     0.3852     7.0325
 1587.5000     0.3429     7.0552
 1588.0000     0.3429     7.0780
 1588.5000     0.3747     7.1008
 1589.0000     0.4064     7.1236
 1589.5000     0.4276     7.1463
 1590.0000     0.4382     7.1691
 1590.5000     0.3853     7.1919
 1591.0000     0.3431     7.2147
 1591.5000     0.3008     7.2375
 1592.0000     0.3008     7.2602
 1592.5000     0.3009     7.2830
 1593.0000     0.3115     7.3058
 1593.5000     0.3326     7.3286
 1594.0000     0.3432     7.3513
 1594.5000     0.3433     7.3741
 1595.0000     0.3539     7.3969
 1595.5000     0.3539     7.4197
 1596.0000     0.3539     7.4425
 1596.5000     0.3434     7.4652
 1597.0000     0.3328     7.4880
 1597.5000     0.3117     7.5108
 1598.0000     0.3434     7.5336
 1598.5000     0.3540     7.5563
 1599.0000     0.3752     7.5791
 1599.5000     0.3858     7.6019
 1600.0000     0.3858     7.6228
 1600.5000     0.3964     7.6183
 1601.0000     0.4282     7.6141
 1601.5000     0.4388     7.6099
 1602.0000     0.4705     7.6057
 1602.5000     0.4600     7.6015
 1603.0000     0.4389     7.5973
 1603.5000     0.4389     7.5931
 1604.0000     0.4283     7.5889
 1604.5000     0.3966     7.5847
 1605.0000     0.3861     7.5805
 1605.5000     0.3544     7.5763
 1606.0000     0.3439     7.5721
 1606.5000     0.3173     7.5679
 1607.0000     0.3072     7.5637
 1607.5000     0.2970     7.5595
 1608.0000     0.2868     7.5553
 1608.5000     0.2874     7.5511
 1609.0000     0.2984     7.5469
 1609.5000     0.3094     7.5427
 1610.0000     0.3415     7.5385
 1610.5000     0.3631     7.5342
 1611.0000     0.3635     7.5300
 1611.5000     0.3956     7.5258
 1612.0000     0.3961     7.5216
 1612.5000     0.3965     7.5174
