~VERSION INFORMATION
 VERS.                2.0:   CWLS LOG ASCII STANDARD - VERSION 2.0
 WRAP.                 NO:   ONE LINE PER DEPTH STEP
~WELL INFORMATION
#MNEM.UNIT      DATA TYPE    INFORMATION
#----------   ------------   ------------------------------
 STRT.F           36.0000:   START DEPTH
 STOP.F         2324.5000:   STOP DEPTH
 STEP.F            0.5000:   STEP LENGTH
 NULL.          -999.2500:   NO VALUE
 COMP. FENIX & SCISSON INC:   COMPANY
 WELL.           SX #57-3:   WELL
 FLD .             TEAPOT:   FIELD
 LOC .       S3 T38N R78W:   LOCATION
 CNTY.            NATRONA:   COUNTY
 STAT.            WYOMING:   STATE
 CTRY. UNITED STATES OF AMERICA:   COUNTRY
 SRVC.           BIRDWELL:   SERVICE COMPANY
 DATE.        15-JUN-1978:   LOGDATE
 API .       490251028800:   API NUMBER
~CURVE INFORMATION
#MNEM.UNIT       API CODE    CURVE DESCRIPTION
#----------   ------------   ------------------------------
 DEPT.F                  :   
 CALD.IN     45 280 60 00:   CALIPER FROM DENSITY LOG
 GRD .GAPI   45 310 01 00:   GAMMA RAY FROM DENSITY LOG
 CORR.G/C3   45 356 01 00:   DENSITY CORRECTION
 RHOB.G/C3   45 350 01 00:   BULK DENSITY
 DPHI.DEC    45 890 12 00:   DENSITY POROSITY SANDSTONE
 SPR .MV     07 010 01 00:   SPONTANEOUS POTENTIAL
 ILD .OHMM   07 120 46 00:   INDUCTION LOG DEEP
 ILM .OHMM   07 120 44 00:   INDUCTION LOG MEDIUM
 SGRD.OHMM   07 220 05 00:   SHALLOW GUARD RESISTIVITY
~PARAMETER INFORMATION
#MNEM.UNIT          VALUE    DESCRIPTION
#----------   ------------   ------------------------------
 PD  .                 GL:   PERMANENT DATUM
 EPD .F              5184:   ELEVATION PERMANENT DATUM
 LMF .                 KB:   LOG MEASURED FROM
 DAPD.F                10:   FEET ABOVE PERMANENT DATUM
 DMF .                 KB:   DRILLING MEASURED FROM
 EKB .F              5184:   KELLING BUSHING
 EGL .F              5184:   GROUND LEVEL
 DATE.            6-15-78:   RUN DATE
 RUN .                  1:   RUN NUMBER
 DD  .F              2340:   DEPTH DRILLER
 DL  .F              2324:   DEPTH LOGGER
 BLI .F              2324:   BOTTOM LOG INTERVAL
 TLI .F                50:   TOP LOG INTERVAL
 CS  .IN            9.625:   CASING SIZE
 CBD .F               600:   CASING BOTTOM DRILLER
 CBL .F               601:   CASING BOTTOM LOGGER
 BS  .IN             8.75:   BIT SIZE
 BSD .F              2340:   BIT SIZE AT DEPTH
 DFT .           AIR MIST:   DRILLING FLUID TYPE
 BHT .F                68:   BOTTOM HOLE TEMPERATURE
 MRT .F                68:   MAXIMUM RECORDED TEMPERATURE
 LUN .               2958:   LOGGING UNIT NUMBER
 LUL .               CASP:   LOGGING UNIT LOCATION
 ENGI.           REYNOLDS:   RECORDING ENGINEER
 WITN.           MCGINLEY:   WITNESSED BY
 CLNT.            A2DTECH:   CLIENT CODE
 ORIG.   2" 2.5" 5" PRINT:   ORIGIN OF DATA
 UWI .       490251028800:   UNIQUE WELL ID
 DICO. A2D Technologies, Inc.:   DIGITIZING COMPANY
~OTHER INFORMATION
~A   DEPT       CALD      GRD        CORR      RHOB         DPHI      SPR        ILD        ILM       SGRD   
# ...
  182.0000     7.8579   121.8784     0.0469     2.4715     0.1055   -46.2437     5.5565     6.3037     8.7513
  182.5000     7.8606   125.2603     0.0454     2.4604     0.1116   -46.4314     5.3917     6.3172     9.0906
  183.0000     7.8633   128.4546     0.0438     2.4484     0.1182   -46.6182     5.2316     6.2422     9.2192
  183.5000     7.8661   130.0997     0.0424     2.4351     0.1260   -46.8065     5.0808     6.0485     9.2192
  184.0000     7.8688   132.0863     0.0424     2.4218     0.1339   -46.8982     4.9352     5.6523     8.8875
  184.5000     7.8716   129.4730     0.0421     2.4084     0.1391   -46.8982     4.7937     5.2809     6.1587
  185.0000     7.8745   129.1974     0.0413     2.4151     0.1320   -46.8024     4.6563     4.9693     4.4502
  185.5000     7.8710   128.6108     0.0406     2.4273     0.1253   -46.6060     4.5228     5.0637     7.1217
  186.0000     7.8658   124.9039     0.0399     2.4385     0.1203   -46.4110     4.4487     5.1780     6.9915
  186.5000     7.8604   121.2370     0.0391     2.4376     0.1220   -46.2152     4.4483     5.2949     7.9548
  187.0000     7.8551   120.8500     0.0384     2.4354     0.1237   -46.0196     4.5987     5.4141     5.1575
  187.5000     7.8498   121.4742     0.0368     2.4401     0.1199   -45.8239     4.7793     5.5351     8.3301
  188.0000     7.8445   123.8605     0.0352     2.4461     0.1124   -45.6281     4.9679     5.7080     8.8039
  188.5000     7.8392   127.0287     0.0337     2.4522     0.1127   -45.4323     5.1638     5.9372     7.1217
  189.0000     7.8354   127.5578     0.0323     2.4582     0.1131   -45.2394     5.3675     6.2179     7.7980
  189.5000     7.8360   124.1329     0.0319     2.4643     0.1090   -45.0973     5.5791     6.5118     8.9570
  190.0000     7.8366   120.8014     0.0306     2.4703     0.1036   -45.1004     5.7991     6.8197     9.7436
  190.5000     7.8371   118.9088     0.0292     2.4724     0.1033   -45.0999     6.0277     7.1420    10.0237
  191.0000     7.8377   121.1184     0.0284     2.4675     0.1089   -45.0999     6.2018     7.3291    10.2953
  191.5000     7.8382   122.8351     0.0288     2.4628     0.1110   -45.0997     6.4018     7.4934    10.5744
  192.0000     7.8388   124.1909     0.0292     2.4580     0.1123   -45.1004     6.6224     7.6614    10.7836
  192.5000     7.8393   123.0324     0.0296     2.4532     0.1135   -45.1306     6.8505     7.8334    10.7836
  193.0000     7.8399   120.6430     0.0300     2.4559     0.1149   -45.2559     6.9915     8.0102    10.6442
  193.5000     7.8404   120.5349     0.0303     2.4596     0.1131   -45.3761     6.9482     8.1027    10.5156
  194.0000     7.8410   121.7955     0.0335     2.4632     0.1104   -45.4964     6.8843     7.9548    10.3886
  194.5000     7.8416   123.0552     0.0375     2.4670     0.1076   -45.6156     6.8210     7.7910    10.2977
  195.0000     7.8421   124.1174     0.0416     2.4712     0.1049   -45.6937     6.7583     7.6418    10.1289
  195.5000     7.8427   123.9137     0.0456     2.4755     0.1021   -45.5435     6.6766     7.4955     9.9403
  196.0000     7.8432   123.6493     0.0484     2.4800     0.0992   -45.4022     6.5136     7.3520     9.7549
  196.5000     7.8438   126.9446     0.0483     2.4800     0.0990   -45.3219     6.2820     7.2112     9.5730
  197.0000     7.8443   130.6254     0.0467     2.4796     0.0996   -45.4221     6.0586     7.0731     9.3931
  197.5000     7.8449   131.9784     0.0449     2.4789     0.1028   -45.5156     5.8432     6.9376     9.2350
  198.0000     7.8454   133.2019     0.0431     2.4669     0.1083   -45.6094     5.6355     6.8072     8.9861
  198.5000     7.8460   133.8564     0.0413     2.4558     0.1133   -45.7032     5.4351     6.6017     8.7480
  199.0000     7.8465   132.3653     0.0396     2.4590     0.1143   -45.7984     5.2418     6.3329     8.5154
  199.5000     7.8471   130.9068     0.0378     2.4498     0.1167   -45.8989     5.1102     6.0750     8.2890
  200.0000     7.8476   130.2067     0.0360     2.4403     0.1205   -45.7677     5.0157     5.8277     8.0792
  200.5000     7.8482   131.5824     0.0344     2.4317     0.1244   -45.6187     5.0148     5.7080     6.0303
  201.0000     7.8488   130.8933     0.0343     2.4368     0.1251   -45.4696     5.0183     5.8745     5.2333
  201.5000     7.8493   127.9243     0.0386     2.4524     0.1127   -45.3216     5.0623     6.0646     7.2392
  202.0000     7.8499   123.2635     0.0445     2.4904     0.0987   -45.1728     5.1741     6.2608     8.9873
  202.5000     7.8504   125.3431     0.0500     2.4851     0.0916   -45.0695     5.3875     6.4635    10.0327
  203.0000     7.8510   128.1816     0.0455     2.4762     0.1043   -45.0055     5.6097     6.6717    10.0844
  203.5000     7.8515   128.7841     0.0403     2.4671     0.1079   -44.9428     5.8410     6.9298    10.2166
  204.0000     7.8521   125.2238     0.0350     2.4580     0.1120   -44.8802     6.0821     7.1426    10.4894
  204.5000     7.8526   127.7791     0.0298     2.4520     0.1160   -44.8176     6.3343     7.5964    10.3017
  205.0000     7.8532   132.2727     0.0264     2.4579     0.1138   -44.7550     6.6153     7.5634     9.9249
  205.5000     7.8537   136.1505     0.0304     2.4716     0.1074   -44.6903     6.6505     7.5001    10.0450
  206.0000     7.8543   135.4603     0.0374     2.4853     0.0992   -44.6251     6.6868     7.4576    10.2797
  206.5000     7.8548   134.8889     0.0396     2.4887     0.0944   -44.5583     6.7186     7.7362    10.5199
  207.0000     7.8552   134.5869     0.0352     2.4827     0.0986   -44.4914     6.7505     7.9266    10.6846
  207.5000     7.8556   135.4908     0.0308     2.4766     0.1020   -44.4244     6.7825     8.1028    10.4552
  208.0000     7.8560   136.2326     0.0266     2.4705     0.1060   -44.3577     6.8147     7.6668    10.2013
  208.5000     7.8564   134.9715     0.0303     2.4714     0.1031   -44.3021     6.8471     7.8364    10.2565
  209.0000     7.8567   134.6016     0.0342     2.4830     0.0970   -44.3321     6.8796     8.1648    10.3562
  209.5000     7.8571   137.4933     0.0382     2.4946     0.0909   -44.3611     6.9272     8.2536    10.4577
  210.0000     7.8575   139.7325     0.0421     2.5059     0.0848   -44.3897     6.9131     8.0962    10.5865
  210.5000     7.8579   140.5013     0.0442     2.5053     0.0851   -44.4183     6.8858     7.9548    10.5474
  211.0000     7.8583   139.5057     0.0439     2.5011     0.0865   -44.4470     6.8589     7.9548    10.4755
  211.5000     7.8586   138.5352     0.0437     2.4969     0.0879   -44.4756     6.8321     8.0795    10.4040
  212.0000     7.8590   137.4885     0.0434     2.4932     0.0892   -44.5042     6.8054     8.1787    10.3331
  212.5000     7.8594   134.5137     0.0431     2.4971     0.0879   -44.5329     6.7788     7.9391    10.2626
  213.0000     7.8597   131.6335     0.0428     2.5012     0.0866   -44.5615     6.7523     7.7378    10.2032
  213.5000     7.8601   128.7762     0.0425     2.5051     0.0854   -44.5901     6.7259     8.0108    10.2032
  214.0000     7.8605   126.3025     0.0419     2.5023     0.0845   -44.6187     6.6997     8.1028    10.6846
  214.5000     7.8609   127.2038     0.0411     2.4961     0.0891   -44.6470     6.6735     8.0402    10.7836
  215.0000     7.8612   128.2232     0.0404     2.4902     0.0935   -44.6758     6.6474     7.9548    10.6583
  215.5000     7.8616   130.4189     0.0397     2.4844     0.0979   -44.7335     6.6214     7.9463    10.4955
  216.0000     7.8620   133.9016     0.0389     2.4788     0.1023   -44.9524     6.5044     7.8941    10.3351
  216.5000     7.8624   138.0350     0.0382     2.4716     0.1055   -45.1709     6.3618     7.7086    10.1096
  217.0000     7.8628   142.1382     0.0375     2.4666     0.1084   -45.3883     6.2223     7.4111    10.1855
  217.5000     7.8631   144.4101     0.0367     2.4631     0.1099   -45.6080     6.0858     7.1253    10.3208
  218.0000     7.8635   141.3083     0.0350     2.4502     0.1155   -45.6541     5.9524     6.8500    10.4894
