~VERSION INFORMATION
 VERS.                2.0:   CWLS LOG ASCII STANDARD - VERSION 2.0
 WRAP.                 NO:   ONE LINE PER DEPTH STEP
~WELL INFORMATION
#MNEM.UNIT      DATA TYPE    INFORMATION
#----------   ------------   ------------------------------
 STRT.F           20.0000:   START DEPTH
 STOP.F          964.0000:   STOP DEPTH
 STEP.F            0.5000:   STEP LENGTH
 NULL.          -999.2500:   NO VALUE
 COMP. FENIX & SCISSON INC:   COMPANY
 WELL.    NPR-3 SX #58-11:   WELL
 FLD .             TEAPOT:   FIELD
 LOC .      S11 T38N R78W:   LOCATION
 CNTY.            NATRONA:   COUNTY
 STAT.            WYOMING:   STATE
 CTRY. UNITED STATES OF AMERICA:   COUNTRY
 SRVC.            Unknown:   SERVICE COMPANY
 DATE.        09-MAR-1978:   LOGDATE
 API .       490251060100:   API NUMBER
~CURVE INFORMATION
#MNEM.UNIT       API CODE    CURVE DESCRIPTION
#----------   ------------   ------------------------------
 DEPT.F                  :   
 SPR .MV     05 010 01 00:   SPONTANEOUS POTENTIAL FROM RES.
 SN  .OHMM   05 040 16 00:   SHORT NORMAL 16"
 ILD .OHMM   05 120 46 00:   INDUCTION LOG DEEP
 CALD.IN     45 280 60 00:   CALIPER
 GRD .GAPI   45 310 01 00:   GAMMA RAY FROM DENSITY LOG
 CORR.G/C3   45 356 01 00:   DENSITY CORRECTION
 RHOB.G/C3   45 350 01 00:   BULK DENSITY
 DPHI.DEC    45 890 12 00:   DENSITY POROSITY SANDSTONE
~PARAMETER INFORMATION
#MNEM.UNIT          VALUE    DESCRIPTION
#----------   ------------   ------------------------------
 PD  .                 GL:   PERMANENT DATUM
 EPD .F              5219:   ELEVATION PERMANENT DATUM
 LMF .                 KB:   LOG MEASURED FROM
 DAPD.F                 4:   FEET ABOVE PERMANENT DATUM
 DMF .                 KB:   DRILLING MEASURED FROM
 EKB .F              5223:   KELLING BUSHING
 EGL .F              5219:   GROUND LEVEL
 DATE.           3-9-1978:   RUN DATE
 RUN .                  1:   RUN NUMBER
 DD  .F               963:   DEPTH DRILLER
 DL  .F               966:   DEPTH LOGGER
 BLI .F               960:   BOTTOM LOG INTERVAL
 TLI .F                80:   TOP LOG INTERVAL
 CS  .IN            8.625:   CASING SIZE
 CBD .F                40:   CASING BOTTOM DRILLER
 BS  .IN            7.875:   BIT SIZE
 BSD .F               963:   BIT SIZE AT DEPTH
 DFT .         LIGNO SULF:   DRILLING FLUID TYPE
 DFD .                8.6:   DRILLING FLUID DENSITY
 DFV .                 30:   DRILLING FLUID VISCOSITY
 DFPH.               10.5:   DRILLING FLUID PH
 DFL .                4.8:   DRILLING FLUID LOSS
 MSS .          FLOW LINE:   MUD SAMPLE SOURCE
 RMS .OHMM            1.7:   RESISTIVITY MUD SAMPLE
 MST .F                60:   MUD SAMPLE TEMPERATURE
 RMF .OHMM            1.5:   RESISTIVITY MUD FILTRATE SAMPLE
 MFST.F                74:   MUD FILTRATE SAMPLE TEMPERATURE
 RMC .OHMM            2.8:   RESISTIVITY MUD CAKE
 MCST.F                68:   MUD CAKE SAMPLE TEMPERATURE
 MFSS.               MEAS:   MUD FILTRATE SAMPLE SOURCE
 MCSS.               MEAS:   MUD CAKE SAMPLE SOURCE
 RMB .OHMM           1.38:   RESISTIVITY MUD AT BHT
 BHT .F                74:   BOTTOM HOLE TEMPERATURE
 TCS .HRS               4:   TIME CURCULATED STOPPED
 MRT .F                74:   MAXIMUM RECORDED TEMPERATURE
 LUN .               2958:   LOGGING UNIT NUMBER
 LUL .               CASP:   LOGGING UNIT LOCATION
 ENGI.             MILLER:   RECORDING ENGINEER
 WITN.         HARRINGTON:   WITNESSED BY
 CLNT.            A2DTECH:   CLIENT CODE
 ORIG.      2" , 5" PRINT:   ORIGIN OF DATA
 UWI .       490251060100:   UNIQUE WELL ID
 DICO. A2D Technologies, Inc.:   DIGITIZING COMPANY
~OTHER INFORMATION
~A   DEPT      SPR         SN        ILD       CALD         GRD      CORR       RHOB       DPHI   
# ...
   60.5000  -999.2500  -999.2500     4.4407     7.9785    90.8260     0.0439     2.3278     0.2053
   61.0000  -999.2500  -999.2500     4.6069     7.9746    91.1490     0.0555     2.3103     0.2155
   61.5000  -999.2500  -999.2500     4.6698     7.9708    89.9266     0.1065     2.2857     0.2288
   62.0000  -999.2500  -999.2500     4.7112     7.9669    89.4143     0.0723     2.2975     0.2114
   62.5000  -999.2500  -999.2500     4.7530     7.9631    93.0132     0.0269     2.3524     0.1862
   63.0000  -999.2500  -999.2500     4.7951     7.9592    96.6295     0.0264     2.3799     0.1610
   63.5000  -999.2500  -999.2500     4.8369     7.9554    97.5035     0.0244     2.3989     0.1469
   64.0000  -999.2500  -999.2500     4.9088     7.9515    98.1353     0.0211     2.4314     0.1437
   64.5000  -999.2500  -999.2500     5.0983     7.9477    97.5360     0.0194     2.4242     0.1421
   65.0000  -999.2500  -999.2500     5.0940     7.9439    95.8727     0.0168     2.4253     0.1433
   65.5000  -999.2500  -999.2500     5.1415     7.9400    94.2982     0.0143     2.4261     0.1470
   66.0000  -999.2500  -999.2500     5.2252     7.9362    94.2173     0.0127     2.4254     0.1507
   66.5000  -999.2500  -999.2500     5.2984     7.9323    94.1624     0.0130     2.4112     0.1523
   67.0000  -999.2500  -999.2500     5.3733     7.9285    94.4460     0.0129     2.4108     0.1520
   67.5000  -999.2500  -999.2500     5.4492     7.9246    94.7515     0.0127     2.4103     0.1517
   68.0000  -999.2500  -999.2500     5.5262     7.9208    95.9009     0.0153     2.4071     0.1573
   68.5000  -999.2500  -999.2500     5.6042     7.9169    97.4753     0.0225     2.4013     0.1525
   69.0000  -999.2500  -999.2500     5.6834     7.9131    99.2315     0.0298     2.4027     0.1502
   69.5000  -999.2500  -999.2500     5.6937     7.9092    99.4863     0.0331     2.4173     0.1477
   70.0000  -999.2500  -999.2500     5.5843     7.9054    98.3396     0.0328     2.4142     0.1503
   70.5000  -999.2500  -999.2500     5.4995     7.9015    96.1598     0.0328     2.4100     0.1525
   71.0000  -999.2500  -999.2500     5.4159     7.8977    94.6363     0.0328     2.4076     0.1547
   71.5000  -999.2500  -999.2500     5.3371     7.8938    95.3154     0.0328     2.4053     0.1525
   72.0000  -999.2500  -999.2500     5.2553     7.8900    96.1275     0.0328     2.4044     0.1545
   72.5000  -999.2500  -999.2500     5.1597     7.8861    97.0136     0.0327     2.4046     0.1588
   73.0000  -999.2500  -999.2500     5.0658     7.8823    98.9384     0.0340     2.4012     0.1604
   73.5000  -999.2500  -999.2500     4.9733     7.8784    99.0782     0.0373     2.3966     0.1625
   74.0000  -999.2500  -999.2500     4.8827     7.8745    96.5103     0.0408     2.3926     0.1656
   74.5000  -999.2500  -999.2500     4.8658     7.8709    95.6666     0.0442     2.3907     0.1691
   75.0000  -999.2500  -999.2500     4.9176     7.8666    96.9041     0.0494     2.3913     0.1721
   75.5000  -999.2500  -999.2500     5.0484     7.8632    97.4059     0.0660     2.3778     0.1748
   76.0000  -999.2500  -999.2500     5.1827     7.8614    96.7085     0.0855     2.3785     0.1763
   76.5000  -999.2500  -999.2500     5.3205     7.8794    96.0701     0.0754     2.3985     0.1493
   77.0000  -999.2500  -999.2500     5.4620     7.8944    95.7689     0.0595     2.4343     0.1383
   77.5000  -999.2500  -999.2500     5.6072     7.9106    95.7997     0.0415     2.4486     0.1303
   78.0000  -999.2500  -999.2500     5.7562     7.9264    95.8227     0.0307     2.4427     0.1414
   78.5000  -999.2500  -999.2500     5.8483     7.9421    95.7330     0.0282     2.4277     0.1420
   79.0000  -999.2500  -999.2500     5.7876     7.9577    96.4422     0.0248     2.4265     0.1429
   79.5000  -999.2500  -999.2500     5.7395     7.9743    97.6871     0.0212     2.4266     0.1471
   80.0000   -39.6208  -999.2500     5.6918     7.9784    98.5782     0.0237     2.4222     0.1546
   80.5000   -39.6208  -999.2500     5.6413     7.9735    98.3455     0.0269     2.4101     0.1576
   81.0000   -39.5210     0.4406     5.6348     7.9696    98.1657     0.0304     2.4037     0.1556
   81.5000   -39.4159     0.4406     5.6275     7.9657    97.2825     0.0336     2.4059     0.1528
   82.0000   -39.3292     0.4406     5.6202     7.9616    95.1014     0.0364     2.4070     0.1476
   82.5000   -39.2817     0.4411     5.6131     7.9576    93.4096     0.0327     2.4235     0.1441
   83.0000   -41.7725     0.4406     5.6065     7.9536    92.6356     0.0293     2.4233     0.1452
   83.5000   -46.0123     0.4406     5.5931     7.9496    87.8107     0.0252     2.4220     0.1464
   84.0000   -53.5170     0.4415     5.5873     7.9456    83.8294     0.0263     2.4196     0.1455
   84.5000   -45.0077     0.4353     5.6816     7.9416    79.3298     0.0281     2.4201     0.1424
   85.0000   -61.3633     0.4406     5.8238     7.9376    77.7234     0.0270     2.4258     0.1392
   85.5000   -18.4182     2.5489     5.9696     7.9336    77.7837     0.0221     2.4311     0.1358
   86.0000   -69.3613     0.1468     6.0309     7.9296    77.4485     0.0180     2.4364     0.1396
   86.5000   -99.9002     0.1326     6.0580     7.9256    73.3709     0.0134     2.4337     0.1439
   87.0000   -55.4391     0.3386     6.0852     7.9216    70.7591     0.0158     2.4290     0.1456
   87.5000   -33.7476     0.2518     6.1125     7.9176    72.4311     0.0195     2.4245     0.1445
   88.0000   -34.9351     0.2094     6.1399     7.9136    77.9811     0.0187     2.4226     0.1453
   88.5000   -36.2471     0.1847     6.1675     7.9096    80.0685     0.0133     2.4262     0.1390
   89.0000   -37.4154     0.1629     6.1952     7.9056    77.4976     0.0091     2.4295     0.1401
   89.5000   -37.2353     0.1437     6.2230     7.9016    75.5245     0.0090     2.4311     0.1398
   90.0000   -37.0271     0.1209     6.2447     7.8976    73.8842     0.0089     2.4321     0.1373
   90.5000   -36.8162     0.1214     6.2447     7.8936    76.3363     0.0092     2.4296     0.1395
   91.0000   -36.6256     0.1226     6.2447     7.8896    79.4056     0.0165     2.4247     0.1429
   91.5000   -36.5499     0.1239     6.2447     7.8856    82.1411     0.0205     2.4247     0.1378
   92.0000   -36.4730     0.1252     6.2447     7.8817    81.1960     0.0174     2.4341     0.1349
   92.5000   -36.2546     0.1265     6.2447     7.8775    80.0756     0.0151     2.4354     0.1406
   93.0000   -35.6025     0.1278     6.2447     7.8739    78.1252     0.0133     2.4249     0.1461
   93.5000   -35.0193     0.1301     6.2448     7.8696    75.9256     0.0172     2.4150     0.1521
   94.0000   -34.6781     0.1331     6.2458     7.8648    74.2974     0.0207     2.4105     0.1572
   94.5000   -34.3561     0.1362     6.2099     7.8643    75.1327     0.0243     2.4061     0.1544
   95.0000   -34.0351     0.1394     6.1651     7.8323    76.3510     0.0280     2.4028     0.1524
   95.5000   -33.7154     0.1420     6.1206     7.7794    77.0285     0.0288     2.4075     0.1481
   96.0000   -33.3953     0.1452     6.0740     7.7312    76.8322     0.0284     2.4143     0.1444
   96.5000   -33.2349     0.1495     6.0644     7.6752    76.7190     0.0235     2.4210     0.1406
   97.0000   -33.2342     0.1561     6.0540     7.6976    76.5805     0.0194     2.4262     0.1423
   97.5000   -33.2333     0.1702     6.0436     7.7769    75.1165     0.0144     2.4242     0.1453
   98.0000   -33.2334     0.1924     6.0334     7.8496    73.2404     0.0152     2.4212     0.1430
   98.5000   -33.2336     0.2069     6.0231     7.9219    71.2989     0.0202     2.4233     0.1406
   99.0000   -33.2336     0.2261     6.0182     7.9791    70.5699     0.0247     2.4268     0.1406
   99.5000   -33.2334     0.2552     6.1838     7.9778    70.5182     0.0291     2.4252     0.1386
  100.0000   -33.2333     0.2882     6.3122     7.9780    71.5402     0.0327     2.4368     0.1369
  100.5000   -33.2023     0.3838     6.4433     7.9763    73.4661     0.0313     2.4420     0.1353
