~VERSION INFORMATION
 VERS.                2.0:   CWLS LOG ASCII STANDARD - VERSION 2.0
 WRAP.                 NO:   ONE LINE PER DEPTH STEP
~WELL INFORMATION
#MNEM.UNIT      DATA TYPE    INFORMATION
#----------   ------------   ------------------------------
 STRT.F           16.0000:   START DEPTH
 STOP.F          430.0000:   STOP DEPTH
 STEP.F            0.5000:   STEP LENGTH
 NULL.          -999.2500:   NO VALUE
 COMP. LAWRENCE/ALLISON INC:   COMPANY
 WELL.  NPR 3 #52-66-1-10:   WELL
 FLD .             TEAPOT:   FIELD
 LOC .      S10 T38N R78W:   LOCATION
 CNTY.            NATRONA:   COUNTY
 STAT.            WYOMING:   STATE
 CTRY. UNITED STATES OF AMERICA:   COUNTRY
 SRVC.           Gearhart:   SERVICE COMPANY
 DATE.        25-MAY-1988:   LOGDATE
 API .       490251121100:   API NUMBER
~CURVE INFORMATION
#MNEM.UNIT       API CODE    CURVE DESCRIPTION
#----------   ------------   ------------------------------
 DEPT.F                  :   
 RILD.OHMM   07 120 46 00:   INDUCTION LOG DEEP RESISTIVITY
 GRR .GAPI   07 310 01 00:   GAMMA RAY FROM RES. LOG.
 RILM.OHMM   07 120 44 00:   INDUCTION LOG MEDIUM RESISTIVITY
~PARAMETER INFORMATION
#MNEM.UNIT          VALUE    DESCRIPTION
#----------   ------------   ------------------------------
 PD  .                 GL:   PERMANENT DATUM
 EPD .F              5169:   ELEVATION PERMANENT DATUM
 LMF .                 KB:   LOG MEASURED FROM
 DAPD.F                 5:   FEET ABOVE PERMANENT DATUM
 DMF .                 KB:   DRILLING MEASURED FROM
 EKB .F              5174:   KELLING BUSHING
 EGL .F              5169:   GROUND LEVEL
 DATE.            5-25-88:   RUN DATE
 RUN .                  1:   RUN NUMBER
 DD  .F               440:   DEPTH DRILLER
 DL  .F               437:   DEPTH LOGGER
 BLI .F               429:   BOTTOM LOG INTERVAL
 TLI .F                44:   TOP LOG INTERVAL
 CS  .IN            8.625:   CASING SIZE
 CBD .F                45:   CASING BOTTOM DRILLER
 CBL .F                44:   CASING BOTTOM LOGGER
 BS  .IN            7.875:   BIT SIZE
 BSD .F               440:   BIT SIZE AT DEPTH
 DFT .                AIR:   DRILLING FLUID TYPE
 TCS .HRS            0900:   TIME CURCULATED STOPPED
 TLAB.HRS            1048:   TIME LOGGER AT BOTTOM
 LUN .               7597:   LOGGING UNIT NUMBER
 LUL .           GILLETTE:   LOGGING UNIT LOCATION
 ENGI.             SLATKY:   RECORDING ENGINEER
 WITN.             STRONG:   WITNESSED BY
 CLNT.            A2DTECH:   CLIENT CODE
 ORIG.       2", 5" PRINT:   ORIGIN OF DATA
 UWI .       490251121100:   UNIQUE WELL ID
 DICO. A2D Technologies, Inc.:   DIGITIZING COMPANY
~OTHER INFORMATION
~A   DEPT     RILD         GRR      RILM   
   16.0000  -999.2500    59.1919  -999.2500
   16.5000  -999.2500    59.6346  -999.2500
   17.0000  -999.2500    61.7044  -999.2500
   17.5000  -999.2500    63.0069  -999.2500
   18.0000  -999.2500    64.6619  -999.2500
   18.5000  -999.2500    65.0201  -999.2500
   19.0000  -999.2500    64.6979  -999.2500
   19.5000  -999.2500    64.7529  -999.2500
   20.0000  -999.2500    65.6688  -999.2500
   20.5000  -999.2500    66.5521  -999.2500
   21.0000  -999.2500    67.1773  -999.2500
   21.5000  -999.2500    65.8551  -999.2500
   22.0000  -999.2500    64.1959  -999.2500
   22.5000  -999.2500    64.4435  -999.2500
   23.0000  -999.2500    66.1536  -999.2500
   23.5000  -999.2500    67.8685  -999.2500
   24.0000  -999.2500    69.4636  -999.2500
   24.5000  -999.2500    70.0199  -999.2500
   25.0000  -999.2500    69.4177  -999.2500
   25.5000  -999.2500    68.8967  -999.2500
   26.0000  -999.2500    69.2980  -999.2500
   26.5000  -999.2500    71.0725  -999.2500
   27.0000  -999.2500    72.6209  -999.2500
   27.5000  -999.2500    72.9732  -999.2500
   28.0000  -999.2500    73.3531  -999.2500
   28.5000  -999.2500    73.7648  -999.2500
   29.0000  -999.2500    74.9144  -999.2500
   29.5000  -999.2500    76.4060  -999.2500
   30.0000  -999.2500    77.7561  -999.2500
   30.5000  -999.2500    79.1002  -999.2500
   31.0000  -999.2500    80.2511  -999.2500
   31.5000  -999.2500    79.4446  -999.2500
   32.0000  -999.2500    78.4880  -999.2500
   32.5000  -999.2500    77.9517  -999.2500
   33.0000  -999.2500    78.8294  -999.2500
   33.5000  -999.2500    79.6532  -999.2500
   34.0000  -999.2500    80.2190  -999.2500
   34.5000  -999.2500    79.8032  -999.2500
   35.0000  -999.2500    79.2842  -999.2500
   35.5000  -999.2500    78.7600  -999.2500
   36.0000  -999.2500    78.2574  -999.2500
   36.5000  -999.2500    78.9500  -999.2500
   37.0000  -999.2500    80.5164  -999.2500
   37.5000  -999.2500    82.0471  -999.2500
   38.0000  -999.2500    82.3688  -999.2500
   38.5000  -999.2500    80.5657  -999.2500
   39.0000  -999.2500    78.7484  -999.2500
   39.5000  -999.2500    79.4864  -999.2500
   40.0000  -999.2500    81.3793  -999.2500
   40.5000  -999.2500    82.8657  -999.2500
   41.0000  -999.2500    81.2198  -999.2500
   41.5000  -999.2500    79.5754  -999.2500
   42.0000  -999.2500    78.9776  -999.2500
   42.5000  -999.2500    83.1705  -999.2500
   43.0000  -999.2500    90.6489  -999.2500
   43.5000     4.7345   101.6082    42.9558
   44.0000     3.0420   112.5654    28.9664
   44.5000     2.0834   119.6467    11.4426
   45.0000     1.8918   123.9145     4.5202
   45.5000     2.1901   126.2514     3.0336
   46.0000     4.0258   126.3341     2.5213
   46.5000     8.2834   125.5333     2.7467
   47.0000    15.9655   123.9220     3.6323
   47.5000    19.9673   122.2020     5.0561
   48.0000    12.7327   120.5058     7.0525
   48.5000     7.6653   119.4716    10.0662
   49.0000     7.3864   119.9781    10.0127
   49.5000     7.3864   120.4316     9.0027
   50.0000     7.8248   119.2367     8.1767
   50.5000     8.6116   116.4304     7.5201
   51.0000     9.4775   114.1188     7.4872
   51.5000    10.2160   115.7525     7.4552
   52.0000     9.9875   117.4058     7.3864
   52.5000     9.7199   118.2838     8.1088
   53.0000     9.4595   116.8556     8.6693
   53.5000     9.3986   116.8486     8.9170
   54.0000     9.6842   117.6561     9.0932
   54.5000     9.9317   117.3113     9.3870
   55.0000    10.1855   116.2424     9.6902
   55.5000    10.4458   114.9992    10.0032
   56.0000    10.7127   115.6652    10.3263
   56.5000    10.9864   115.6687    10.6599
   57.0000    11.2658   112.9289    11.0053
   57.5000    11.5620   110.4307    11.3576
   58.0000    11.7746   108.7244    11.5628
   58.5000    11.8941   107.5221    11.6618
   59.0000    12.0095   107.7359    11.7646
   59.5000    12.1260   108.8801    11.8683
   60.0000    12.2437   109.3292    11.9730
   60.5000    12.4104   107.7036    12.0785
   61.0000    12.3478   106.1975    12.1826
   61.5000    12.2439   106.4738    12.0673
   62.0000    12.1410   109.5774    11.9302
   62.5000    12.0388   112.6581    11.7945
   63.0000    11.9375   114.1468    11.6604
   63.5000    11.8371   112.7001    11.5278
   64.0000    11.7375   110.7831    11.3963
   64.5000    11.6310   109.5275    11.2679
   65.0000    11.6793   109.1422    11.2078
   65.5000    11.7458   108.0514    11.2517
   66.0000    11.8127   105.3828    11.3091
   66.5000    11.8486   102.9214    11.3667
   67.0000    11.7503   103.7610    11.4174
   67.5000    11.6838   104.4268    11.4174
   68.0000    11.6310   103.8379    11.2289
   68.5000    11.5237   103.2574    11.0918
   69.0000    11.3673   102.4974    10.9563
   69.5000    11.2205   102.5287    10.8225
   70.0000    11.0756   103.7249    10.6903
   70.5000    10.9326   105.6432    10.5597
   71.0000    10.7914   106.4495    10.4308
   71.5000    10.6521   106.2455    10.3034
   72.0000    10.5145   105.0673    10.1776
   72.5000    10.3787   105.1221    10.0533
   73.0000    10.2447   106.5263     9.9276
   73.5000    10.1217   107.6106     9.8902
   74.0000    10.0978   106.9761     9.8530
   74.5000    10.0758   106.3756     9.8159
   75.0000    10.0538   106.1789     9.7789
   75.5000    10.0317   106.4296     9.7421
   76.0000    10.0097   106.6757     9.7054
   76.5000     9.9878   106.7214     9.6689
   77.0000     9.9659   105.9153     9.6325
   77.5000     9.9441   104.6522     9.5962
   78.0000     9.9223   103.9968     9.5601
   78.5000     9.9005   105.2123     9.5241
   79.0000     9.8790   106.3806     9.4861
   79.5000     9.8572   107.3184     9.4104
   80.0000     9.8453   105.5686     9.3119
   80.5000     9.8938   103.1014     9.3401
   81.0000     9.9292   100.6061     9.3687
   81.5000     9.9648    99.2200     9.3971
   82.0000    10.0005   100.3727     9.4255
   82.5000    10.0284   101.5448     9.4540
   83.0000     9.7728   102.7100     9.4861
   83.5000     9.6168   104.7184     9.2730
   84.0000     9.4632   107.3791     9.0358
   84.5000     9.2533   110.0685     8.8048
   85.0000     9.0054   110.7427     8.5796
   85.5000     8.7641   110.0820     8.3602
   86.0000     8.5293   109.4327     8.1462
   86.5000     8.3008   108.6306     7.9381
   87.0000     8.0785   107.7886     7.7367
   87.5000     7.9548   106.9339     7.7709
   88.0000     8.1037   106.1188     7.8260
   88.5000     8.1919   107.6701     7.8814
   89.0000     8.2812   109.4337     7.9373
   89.5000     8.3715   109.1669     7.9936
   90.0000     8.4627   108.5401     8.0503
   90.5000     8.5549   110.5994     8.1073
   91.0000     8.6481   112.5249     8.1648
   91.5000     8.7423   110.4778     8.2280
   92.0000     8.8376   108.3485     8.3177
   92.5000     8.8903   107.3819     8.3319
   93.0000     8.8619   109.6921     8.3320
   93.5000     8.8394   111.9417     8.3320
   94.0000     8.8170   114.2193     8.4165
   94.5000     8.8083   113.5995     8.5058
   95.0000     8.9047   112.4419     8.5962
   95.5000     8.9986   111.2683     8.6875
   96.0000     9.0939   110.1175     8.7796
   96.5000     9.2257   110.1854     8.8729
   97.0000     9.1865   112.9928     8.8903
   97.5000     9.1210   115.8269     8.8148
   98.0000     9.0568   117.8641     8.7272
   98.5000     8.9930   118.2752     8.6405
   99.0000     8.9297   118.7264     8.5546
   99.5000     8.8668   119.1526     8.4696
  100.0000     8.8045   118.7888     8.4095
  100.5000     8.7271   117.5224     8.4889
  101.0000     8.7870   116.4343     8.5619
  101.5000     8.8674   115.4699     8.6355
  102.0000     8.9486   114.4261     8.7098
  102.5000     9.0306   111.5735     8.7848
  103.0000     9.1133   109.2225     8.8604
  103.5000     9.1967   110.7000     8.9366
  104.0000     9.3119   113.4481     9.0134
  104.5000     9.2410   114.2326     9.0566
  105.0000     9.1303   112.6395     8.9006
  105.5000     9.0210   111.0684     8.7941
  106.0000     8.9130   110.1456     8.6888
  106.5000     8.8063   112.0218     8.5847
