~VERSION INFORMATION
 VERS.                2.0:   CWLS LOG ASCII STANDARD - VERSION 2.0
 WRAP.                 NO:   ONE LINE PER DEPTH STEP
~WELL INFORMATION
#MNEM.UNIT      DATA TYPE    INFORMATION
#----------   ------------   ------------------------------
 STRT.F           31.0000:   START DEPTH
 STOP.F          590.0000:   STOP DEPTH
 STEP.F            0.1000:   STEP LENGTH
 NULL.          -999.2500:   NO VALUE
 COMP. LAWRENCE/ALLISON INC:   COMPANY
 WELL. NPR 3 73-61 SX #3-3:   WELL
 FLD .             TEAPOT:   FIELD
 LOC .       S3 T38N R78W:   LOCATION
 CNTY.            NATRONA:   COUNTY
 STAT.            WYOMING:   STATE
 CTRY. UNITED STATES OF AMERICA:   COUNTRY
 SRVC.           Gearhart:   SERVICE COMPANY
 DATE.        14-AUG-1988:   LOGDATE
 API .       490251124200:   API NUMBER
~CURVE INFORMATION
#MNEM.UNIT       API CODE    CURVE DESCRIPTION
#----------   ------------   ------------------------------
 DEPT.F                  :   
 GRR .GAPI   07 310 01 00:   GAMMA RAY
 RILD.OHMM   07 120 46 00:   INDUCTION LOG DEEP RESISTIVITY
 RILM.OHMM   07 120 44 00:   INDUCTION LOG MEDIUM RESISTIVITY
~PARAMETER INFORMATION
#MNEM.UNIT          VALUE    DESCRIPTION
#----------   ------------   ------------------------------
 PD  .                 GL:   PERMANENT DATUM
 EPD .F              5136:   ELEVATION PERMANENT DATUM
 LMF .                 KB:   LOG MEASURED FROM
 DAPD.F                10:   FEET ABOVE PERMANENT DATUM
 DMF .                 KB:   DRILLING MEASURED FROM
 EKB .F              5146:   KELLING BUSHING
 EDF .F              5144:   DRILLING FLOOR
 EGL .F              5136:   GROUND LEVEL
 DATE.        14-AUG-1988:   RUN DATE
 RUN .                  1:   RUN NUMBER
 DD  .F               597:   DEPTH DRILLER
 DL  .F               598:   DEPTH LOGGER
 BLI .F               590:   BOTTOM LOG INTERVAL
 TLI .F                50:   TOP LOG INTERVAL
 CS  .IN            9.625:   CASING SIZE
 CBD .F                50:   CASING BOTTOM DRILLER
 CBL .F                50:   CASING BOTTOM LOGGER
 BS  .IN             8.75:   BIT SIZE
 BSD .F               597:   BIT SIZE AT DEPTH
 DFT .                AIR:   DRILLING FLUID TYPE
 TCS .HRS            1930:   TIME CURCULATED STOPPED
 TLAB.HRS            2030:   TIME LOGGER AT BOTTOM
 MRT .F                70:   MAXIMUM RECORDED TEMPERATURE
 LUN .               7597:   LOGGING UNIT NUMBER
 LUL .           GILLETTE:   LOGGING UNIT LOCATION
 ENGI.         WEATHERMON:   RECORDING ENGINEER
 WITN.             STRONG:   WITNESSED BY
 CLNT.            A2DTECH:   CLIENT CODE
 ORIG.           5" PRINT:   ORIGIN OF DATA
 UWI .       490251124200:   UNIQUE WELL ID
 DICO. A2D Technologies, Inc.:   DIGITIZING COMPANY
~OTHER INFORMATION
~A   DEPT       GRR      RILD       RILM   
# ...
  122.0000   113.1521     7.4026     6.9387
  122.1000   112.9084     7.4364     6.9380
  122.2000   112.5741     7.4356     6.9733
  122.3000   112.0482     7.4756     7.0125
  122.4000   111.2510     7.5174     7.0518
  122.5000   110.5741     7.5595     7.0914
  122.6000   109.8370     7.6018     7.1302
  122.7000   109.0998     7.6417     7.1295
  122.8000   108.3625     7.6409     7.1616
  122.9000   107.6306     7.6767     7.1781
  123.0000   107.1400     7.6929     7.1921
  123.1000   106.6497     7.7092     7.2269
  123.2000   106.1592     7.7524     7.2261
  123.3000   105.7543     7.7984     7.2633
  123.4000   105.5404     7.7978     7.3040
  123.5000   105.5441     7.8287     7.3253
  123.6000   105.9897     7.8507     7.3247
  123.7000   106.8185     7.8619     7.3241
  123.8000   107.8089     7.9059     7.3233
  123.9000   108.7435     7.9583     7.3228
  124.0000   109.4864     7.9578     7.3467
  124.1000   109.9831     7.9838     7.3726
  124.2000   110.6708     8.0118     7.3720
  124.3000   111.1421     8.0176     7.3713
  124.4000   111.4725     8.0661     7.3708
  124.5000   111.9436     8.0655     7.3701
  124.6000   112.2239     8.0966     7.3695
  124.7000   112.4431     8.1203     7.3797
  124.8000   112.6929     8.1196     7.4196
  124.9000   112.9427     8.1190     7.4188
  125.0000   113.1420     8.1653     7.4527
  125.1000   113.1451     8.1741     7.4945
  125.2000   113.1481     8.1734     7.5366
  125.3000   113.1511     8.1727     7.5854
  125.4000   113.1541     8.1720     7.6775
  125.5000   113.1571     8.1713     7.7176
  125.6000   113.1601     8.1707     7.7297
  125.7000   113.1636     8.1700     7.7505
  125.8000   113.1662     8.1693     7.7939
  125.9000   113.1692     8.1687     7.8357
  126.0000   113.1722     8.1680     7.8349
  126.1000   113.1753     8.1673     7.8710
  126.2000   113.1784     8.1666     7.8883
  126.3000   113.1813     8.1659     7.8877
  126.4000   113.0031     8.1653     7.8870
  126.5000   112.8852     8.1645     7.8863
  126.6000   112.8177     8.1638     7.8857
  126.7000   112.5889     8.1632     7.8850
  126.8000   112.5926     8.1625     7.8844
  126.9000   112.5951     8.1618     7.8717
  127.0000   112.4471     8.1612     7.8286
  127.1000   112.2991     8.1605     7.8278
  127.2000   112.3021     8.1599     7.7906
  127.3000   112.3053     8.1591     7.7459
  127.4000   112.0766     8.1585     7.7014
  127.5000   111.8328     8.1578     7.6570
  127.6000   111.5891     8.1571     7.6105
  127.7000   111.3455     8.1563     7.5693
  127.8000   111.1017     8.1557     7.5259
  127.9000   110.8132     8.1551     7.5038
  128.0000   110.6143     8.1544     7.4915
  128.1000   110.2246     8.1537     7.4484
  128.2000   109.8248     8.1530     7.3985
  128.3000   109.5811     8.1524     7.3980
  128.4000   109.3175     8.1517     7.3974
  128.5000   108.8670     8.1746     7.3804
  128.6000   108.5479     8.2070     7.3450
  128.7000   108.1884     8.2064     7.3444
  128.8000   107.6979     8.2056     7.3438
  128.9000   107.2077     8.2440     7.3432
  129.0000   106.7170     8.2614     7.3637
  129.1000   106.4230     8.2607     7.3931
  129.2000   106.1793     8.2677     7.3925
  129.3000   105.9356     8.3168     7.3917
  129.4000   105.6920     8.3161     7.4266
  129.5000   105.4233     8.3154     7.4420
  129.6000   105.6475     8.3379     7.4583
  129.7000   106.3956     8.3845     7.5001
  129.8000   107.3859     8.4295     7.5441
  129.9000   108.4315     8.4287     7.5845
  130.0000   109.6677     8.4672     7.6271
  130.1000   110.4106     8.5146     7.6698
  130.2000   110.9626     8.5444     7.7129
  130.3000   111.5953     8.5506     7.7562
  130.4000   112.1773     8.6024     7.8063
  130.5000   112.4521     8.6466     7.8813
  130.6000   113.0094     8.6950     7.9423
  130.7000   113.0121     8.7436     8.0053
  130.8000   113.0151     8.7926     8.0876
  130.9000   112.9123     8.8407     8.1347
  131.0000   112.6687     8.8399     8.1786
  131.1000   112.4200     8.8792     8.2592
  131.2000   112.1813     8.9290     8.3282
  131.3000   111.7512     8.9789     8.3891
  131.4000   111.3917     9.0291     8.4805
  131.5000   111.1480     9.0848     8.5350
  131.6000   110.8840     9.1305     8.6177
  131.7000   110.3237     9.1816     8.7154
  131.8000   110.3263     9.2330     8.7935
  131.9000   110.1732     9.2847     8.8524
  132.0000   110.0302     9.3366     8.9560
  132.1000   109.9879     9.4422     9.0046
  132.2000   109.7343     9.4654     9.0937
  132.3000   109.7372     9.4942     9.1693
  132.4000   109.5589     9.5651     9.2207
  132.5000   109.4410     9.6621     9.2724
  132.6000   109.4441     9.6611     9.3318
  132.7000   109.4622     9.7085     9.3769
  132.8000   109.7528     9.7268     9.4295
  132.9000   109.7553     9.7497     9.4823
  133.0000   109.9094     9.8042     9.5355
  133.1000   110.1592     9.8602     9.5904
  133.2000   110.4088     9.8594     9.6429
  133.3000   110.6739     9.9009     9.6970
  133.4000   110.9083     9.9563     9.7513
  133.5000   111.3343     9.9945     9.8060
  133.6000   111.8308     9.9984     9.8562
  133.7000   112.3927    10.0624     9.8552
  133.8000   113.1361    10.0616     9.9031
  133.9000   114.0157    10.0970     9.9586
  134.0000   114.6224    10.1535     9.9905
  134.1000   115.2195    10.1998    10.0011
  134.2000   115.7159    10.1987    10.0583
  134.3000   116.2478    10.2535    10.1136
  134.4000   117.0516    10.2680    10.1266
  134.5000   117.5075    10.2672    10.1568
  134.6000   118.0039    10.2830    10.1953
  134.7000   118.5004    10.3370    10.2000
  134.8000   118.9970    10.3359    10.2645
  134.9000   119.4883    10.3843    10.2638
  135.0000   119.7381    10.4062    10.3010
  135.1000   119.9878    10.4283    10.3335
  135.2000   120.0966    10.4771    10.3326
  135.3000   120.1852    10.4760    10.3318
  135.4000   120.4350    10.4752    10.3890
  135.5000   120.7103    10.4744    10.4019
  135.6000   120.7130    10.5026    10.4011
  135.7000   120.7160    10.5455    10.4002
  135.8000   120.7191    10.5446    10.4053
  135.9000   120.6666    10.5436    10.4707
  136.0000   120.4230    10.5429    10.4700
  136.1000   120.1793    10.5420    10.4691
  136.2000   119.9356    10.5411    10.4682
  136.3000   119.4198    10.5402    10.4673
  136.4000   118.8438    10.5393    10.4665
  136.5000   118.5751    10.5385    10.4656
  136.6000   118.0245    10.5376    10.5108
  136.7000   117.5941    10.5367    10.5367
  136.8000   116.9425    10.5358    10.5358
  136.9000   116.2053    10.5350    10.5349
  137.0000   115.5186    10.5341    10.5340
  137.1000   115.0182    10.5332    10.5332
  137.2000   114.5378    10.5323    10.5323
  137.3000   113.8609    10.5314    10.5314
  137.4000   113.1237    10.5233    10.5306
  137.5000   112.3112    10.4568    10.5297
  137.6000   111.2460    10.4561    10.4693
  137.7000   108.9944    10.4552    10.4552
  137.8000   107.7278    10.4543    10.4543
  137.9000   106.2506    10.4534    10.4534
  138.0000   104.8741    10.4526    10.4459
  138.1000   103.5978    10.3928    10.3794
  138.2000   102.0605    10.3786    10.3786
  138.3000   101.1167    10.3455    10.3778
  138.4000   100.4955    10.3051    10.3505
  138.5000   100.1309    10.3043    10.3043
  138.6000    99.9577    10.3033    10.3030
  138.7000    99.9758    10.2515    10.2439
  138.8000   100.2664    10.2305    10.2305
  138.9000   100.4753    10.2049    10.1970
  139.0000   101.0272    10.1581    10.1385
  139.1000   101.7704    10.1573    10.0802
  139.2000   102.4733    10.1564    10.0164
  139.3000   103.0002    10.1123     9.9647
  139.4000   104.6240    10.0846     9.9075
  139.5000   106.0021    10.0663     9.8506
  139.6000   107.2388    10.0086     9.7940
  139.7000   108.6060     9.9430     9.7377
  139.8000   110.3063     9.9423     9.6817
  139.9000   111.4779     9.9060     9.6262
  140.0000   112.6888     9.8492     9.5709
  140.1000   113.8801     9.7928     9.4973
