~VERSION INFORMATION
 VERS.                2.0:   CWLS LOG ASCII STANDARD - VERSION 2.0
 WRAP.                 NO:   ONE LINE PER DEPTH STEP
~WELL INFORMATION
#MNEM.UNIT      DATA TYPE    INFORMATION
#----------   ------------   ------------------------------
 STRT.F           34.0000:   START DEPTH
 STOP.F          614.0000:   STOP DEPTH
 STEP.F            0.5000:   STEP LENGTH
 NULL.          -999.2500:   NO VALUE
 COMP. FENIX & SCISSON INC:   COMPANY
 WELL.      71-SX-3 #71-3:   WELL
 FLD .             TEAPOT:   FIELD
 LOC .       S3 T38N R78W:   LOCATION
 CNTY.            NATRONA:   COUNTY
 STAT.            WYOMING:   STATE
 CTRY. UNITED STATES OF AMERICA:   COUNTRY
 SRVC.              Welex:   SERVICE COMPANY
 DATE.        10-MAR-1977:   LOGDATE
 API .       490251028900:   API NUMBER
~CURVE INFORMATION
#MNEM.UNIT       API CODE    CURVE DESCRIPTION
#----------   ------------   ------------------------------
 DEPT.F                  :   
 CALD.IN     45 280 60 00:   CALIPER
 GRD .GAPI   45 310 01 00:   GAMMA RAY FROM DENSITY LOG
 RHOB.G/C3   45 350 01 00:   BULK DENSITY
 DPHI.DEC    45 890 12 00:   DENSITY POROSITY SANDSTONE
 CORR.G/C3   45 356 01 00:   DENSITY CORRECTION
 SGRD.OHMM   07 220 05 00:   SHALLOW RESISTIVITY
 ILD .OHMM   07 120 46 00:   INDUCTION LOG DEEP
 ILM .OHMM   07 120 44 00:   INDUCTION LOG MEDIUM
 SPR .MV     07 010 01 00:   SPONTANEOUS POTENTIAL
~PARAMETER INFORMATION
#MNEM.UNIT          VALUE    DESCRIPTION
#----------   ------------   ------------------------------
 PD  .                 GL:   PERMANENT DATUM
 EPD .F              5117:   ELEVATION PERMANENT DATUM
 LMF .                 GL:   LOG MEASURED FROM
 DMF .                 GL:   DRILLING MEASURED FROM
 EGL .F              5117:   GROUND LEVEL
 DATE.          3-10-1977:   RUN DATE
 RUN .                  1:   RUN NUMBER
 DD  .F               630:   DEPTH DRILLER
 DL  .F               619:   DEPTH LOGGER
 BLI .F               617:   BOTTOM LOG INTERVAL
 TLI .F                34:   TOP LOG INTERVAL
 CS  .IN            8.625:   CASING SIZE
 CBD .F                40:   CASING BOTTOM DRILLER
 CBL .F                41:   CASING BOTTOM LOGGER
 BS  .IN            7.875:   BIT SIZE
 BSD .F               630:   BIT SIZE AT DEPTH
 DFT .            KCL MUD:   DRILLING FLUID TYPE
 DFD .                  9:   DRILLING FLUID DENSITY
 DFV .                 33:   DRILLING FLUID VISCOSITY
 MSS .            MUD PIT:   MUD SAMPLE SOURCE
 RMS .OHMM           2.33:   RESISTIVITY MUD SAMPLE
 MST .F                57:   MUD SAMPLE TEMPERATURE
 RMF .OHMM           1.83:   RESISTIVITY MUD FILTRATE SAMPLE
 MFST.F                57:   MUD FILTRATE SAMPLE TEMPERATURE
 RMC .OHMM           2.53:   RESISTIVITY MUD CAKE
 MCST.F                57:   MUD CAKE SAMPLE TEMPERATURE
 MFSS.           FANN KIT:   MUD FILTRATE SAMPLE SOURCE
 MCSS.           FANN KIT:   MUD CAKE SAMPLE SOURCE
 RMB .OHMM            2.1:   RESISTIVITY MUD AT BHT
 BHT .F                63:   BOTTOM HOLE TEMPERATURE
 TCS .HRS             1.5:   TIME CURCULATED STOPPED
 MRT .F                63:   MAXIMUM RECORDED TEMPERATURE
 LUN .               8611:   LOGGING UNIT NUMBER
 LUL .           GILLETTE:   LOGGING UNIT LOCATION
 ENGI.               DOAK:   RECORDING ENGINEER
 WITN.              BURKE:   WITNESSED BY
 CLNT.            A2DTECH:   CLIENT CODE
 ORIG.       2", 5" PRINT:   ORIGIN OF DATA
 UWI .       490251028900:   UNIQUE WELL ID
 DICO. A2D Technologies, Inc.:   DIGITIZING COMPANY
~OTHER INFORMATION
~A   DEPT     CALD        GRD       RHOB       DPHI       CORR       SGRD        ILD        ILM        SPR   
# ...
  399.0000     7.7207   109.7906     2.4884     0.0970     0.0589     9.1744     6.8504     7.7366   -44.6360
  399.5000     7.6892   106.6418     2.4931     0.0938     0.0613     9.2216     6.8897     7.8557   -44.5201
  400.0000     7.6866   105.4075     2.4980     0.0901     0.0637     9.2688     6.9293     7.9766   -44.4047
  400.5000     7.7322   109.9643     2.5030     0.0865     0.0658     9.3162     6.9691     8.0875   -44.4081
  401.0000     7.7776   108.7000     2.5075     0.0856     0.0654     9.3637     7.0091     7.9948   -44.5308
  401.5000     7.8229   107.0654     2.5041     0.0876     0.0649     9.4008     7.0493     7.8926   -44.6532
  402.0000     7.8755   105.0440     2.4973     0.0909     0.0644     9.4368     7.1110     7.7916   -44.7766
  402.5000     7.8607   101.8680     2.4906     0.0953     0.0639     9.4554     7.0796     7.6919   -44.9056
  403.0000     7.8458    96.8634     2.4846     0.0997     0.0653     9.4554     7.0151     7.5935   -44.8715
  403.5000     7.8312    91.9168     2.4844     0.1004     0.0673     8.8077     6.9512     7.4454   -44.7777
  404.0000     7.8166    88.2133     2.4880     0.0987     0.0692     8.3904     6.8878     7.4968   -44.6819
  404.5000     7.8021    88.5880     2.4930     0.0951     0.0711     8.7222     6.7938     7.6075   -44.5862
  405.0000     7.7875    92.1115     2.4974     0.0926     0.0719     8.9916     6.7237     7.7197   -44.4912
  405.5000     7.7729    97.6710     2.4972     0.1039     0.0682     9.2706     6.6588     7.8336   -44.3965
  406.0000     7.7583   103.2474     2.4699     0.1199     0.0644     9.5580     6.5939     7.9492   -44.3824
  406.5000     7.7438   108.8219     2.4323     0.1360     0.0606     9.8541     6.4865     8.0135   -44.4579
  407.0000     7.7292   113.7917     2.4006     0.1532     0.0568     9.9589     6.1997     7.7726   -44.5333
  407.5000     7.7146   113.1887     2.3938     0.1501     0.0530    10.0838     5.9417     7.5494   -44.6093
  408.0000     7.6999    95.9575     2.4301     0.1255     0.0531     9.8180     5.6945     7.0389   -44.6851
  408.5000     7.6854    83.2299     2.4724     0.1048     0.0556     8.3871     5.4575     6.3543   -44.7548
  409.0000     7.6764    83.4572     2.4860     0.0990     0.0581     6.6479     5.2304     5.7362   -44.8065
  409.5000     7.6983    87.9849     2.4871     0.0963     0.0606     5.2504     5.0609     5.1076   -44.8583
  410.0000     7.7198    92.4548     2.4920     0.0933     0.0600     5.8966     5.1790     5.3675   -44.9102
  410.5000     7.7412    95.8927     2.4968     0.0903     0.0561     9.5668     5.4702     6.4461   -44.9624
  411.0000     7.7626    93.4056     2.5000     0.0883     0.0525    10.4615     5.7778     6.8031   -45.0140
  411.5000     7.7840    90.3627     2.5033     0.0888     0.0541    10.4615     6.1027     7.1065   -45.0622
  412.0000     7.8054    87.3309     2.5098     0.0862     0.0564    10.4959     6.4458     7.7370   -45.1192
  412.5000     7.8268    87.0323     2.5162     0.0806     0.0587    10.6654     6.8083     8.4235   -44.9173
  413.0000     7.8483    89.2991     2.5185     0.0780     0.0609    10.8376     7.1912     8.9480   -44.9371
  413.5000     7.8700    90.8830     2.5168     0.0797     0.0632    11.0127     7.5955     9.1313   -44.9404
  414.0000     7.8738    88.4674     2.5162     0.0786     0.0655    11.1567     7.9645     9.2594   -44.9374
  414.5000     7.8738    80.0065     2.5177     0.0777     0.0677    11.0761     8.0942     9.3893   -44.8727
  415.0000     7.8737    69.2508     2.5105     0.0809     0.0700    11.0087     8.2260     9.5210   -44.5711
  415.5000     7.8750    58.4091     2.5000     0.0874     0.0723    10.9535     8.3600     9.7563   -44.2751
  416.0000     7.8462    47.5659     2.4887     0.0954     0.0736    10.5689     8.7796    10.4967   -43.9793
  416.5000     7.8159    36.7025     2.4704     0.1052     0.0727    10.1769     9.3084    11.3639   -43.6829
  417.0000     7.7852    26.4499     2.4513     0.1169     0.0718    10.3658     9.8691    11.1524   -43.3889
  417.5000     7.7235    24.3364     2.4304     0.1286     0.0708    11.4687    10.3658    11.5194   -43.1434
  418.0000     7.6462    22.8813     2.4131     0.1403     0.0700    15.6004    11.1474    12.5041   -43.1026
  418.5000     7.5682    25.6343     2.4066     0.1489     0.0727    21.7967    12.0155    13.5781   -43.0559
  419.0000     7.4909    28.7611     2.4057     0.1467     0.0759    25.3045    12.9540    14.7443   -43.0088
  419.5000     7.4501    31.5524     2.4020     0.1492     0.0790    27.2541    13.9680    16.0106   -42.9619
  420.0000     7.5375    29.1121     2.3776     0.1662     0.0814    25.0723    15.0598    17.4454   -42.9150
  420.5000     7.6185    25.2157     2.3507     0.1831     0.0773    32.2267    16.2377    18.4697   -42.8681
  421.0000     7.6992    21.2789     2.3281     0.1927     0.0732    37.5390    17.2475    18.8973   -42.8210
  421.5000     7.7724    17.3262     2.3167     0.2015     0.0690    21.4274    17.7881    19.3348   -42.7727
  422.0000     7.7691    16.2460     2.3116     0.2022     0.0683    23.9543    18.0135    19.7824   -42.7953
  422.5000     7.7642    20.6939     2.3312     0.1903     0.0721    25.9898    18.2420    20.0921   -42.8314
  423.0000     7.7595    21.3004     2.3438     0.1822     0.0759    21.8250    18.5003    20.6640   -42.8683
  423.5000     7.7550    20.6255     2.3362     0.1872     0.0771    34.2486    18.4933    21.2041   -42.9046
  424.0000     7.7483    20.4035     2.3284     0.1933     0.0742    48.1136    18.8384    20.9628   -42.9403
  424.5000     7.7409    27.2036     2.3218     0.1961     0.0715    24.1472    19.1027    20.8446   -42.9205
  425.0000     7.7335    30.1233     2.3250     0.1937     0.0687    31.1677    19.3707    21.7782   -42.8133
  425.5000     7.7263    28.6703     2.3314     0.1909     0.0679    28.4920    19.7283    22.5217   -42.7070
  426.0000     7.7190    32.9898     2.3407     0.1849     0.0722    37.8648    19.7120    23.0625   -42.6004
  426.5000     7.6991    38.3866     2.3572     0.1777     0.0810    53.2328    19.6788    22.7951   -42.4937
  427.0000     7.5742    35.4479     2.3671     0.1699     0.0897    39.5780    19.6460    22.4989   -42.3865
  427.5000     7.4476    30.8841     2.3478     0.1801     0.0971    29.0206    19.6138    22.2299   -42.2775
  428.0000     7.3218    26.3384     2.3208     0.2003     0.0900    34.0915    19.5817    21.6620   -42.1880
  428.5000     7.2077    21.6980     2.2939     0.2175     0.0773    27.2405    19.5456    21.0338   -42.6002
  429.0000     7.2476    20.4050     2.2766     0.2244     0.0649    23.9262    19.7682    20.4649   -42.9363
  429.5000     7.3577    24.3323     2.2893     0.2171     0.0672    22.4352    20.2502    21.4066   -42.7056
  430.0000     7.4695    27.6094     2.3096     0.2050     0.0710    34.8296    20.7440    22.3274   -42.6037
  430.5000     7.5796    30.8724     2.3304     0.1910     0.0749    65.1635    21.4274    23.2878   -42.7091
  431.0000     7.6521    34.1680     2.3427     0.1852     0.0786    47.6733    21.3904    24.2895   -42.8106
  431.5000     7.6434    34.5447     2.3449     0.1828     0.0824    49.9030    21.3089    25.2829   -42.9126
  432.0000     7.6364    32.6764     2.3459     0.1805     0.0857    39.6173    21.2314    24.4087   -43.0145
  432.5000     7.6359    31.1444     2.3471     0.1784     0.0840    40.7106    21.1659    23.6029   -43.1169
  433.0000     7.6533    34.6200     2.3454     0.1874     0.0805    32.8291    21.0885    22.8515   -43.1601
  433.5000     7.6707    38.3322     2.3231     0.1990     0.0738    29.5591    21.0118    22.4352   -43.1605
  434.0000     7.6881    42.3944     2.3030     0.2062     0.0672    33.0061    20.9356    22.1426   -43.1606
  434.5000     7.7054    40.4467     2.3089     0.1981     0.0605    26.7164    20.8596    22.0380   -43.1605
  435.0000     7.7228    37.3421     2.3170     0.2000     0.0539    29.2819    20.6821    21.9339   -43.1605
