~VERSION INFORMATION
 VERS.                2.0:   CWLS LOG ASCII STANDARD - VERSION 2.0
 WRAP.                 NO:   ONE LINE PER DEPTH STEP
~WELL INFORMATION
#MNEM.UNIT      DATA TYPE    INFORMATION
#----------   ------------   ------------------------------
 STRT.F           40.0000:   START DEPTH
 STOP.F          512.0000:   STOP DEPTH
 STEP.F            0.5000:   STEP LENGTH
 NULL.          -999.2500:   NO VALUE
 COMP. LAWRENCE/ALLISON INC:   COMPANY
 WELL.   65-21 SX F1 #3-3:   WELL
 FLD .             TEAPOT:   FIELD
 LOC .       S3 T38N R78W:   LOCATION
 CNTY.            NATRONA:   COUNTY
 STAT.            WYOMING:   STATE
 CTRY. UNITED STATES OF AMERICA:   COUNTRY
 SRVC.       Schlumberger:   SERVICE COMPANY
 DATE.        14-JUL-1982:   LOGDATE
 API .       490251089600:   API NUMBER
~CURVE INFORMATION
#MNEM.UNIT       API CODE    CURVE DESCRIPTION
#----------   ------------   ------------------------------
 DEPT.F                  :   
 CALD.IN     45 280 60 00:   CALIPER FROM DENSITY LOG
 CORR.G/C3   45 356 01 00:   DENSITY CORRECTION
 DPHI.DEC    45 890 12 00:   DENSITY POROSITY SANDSTONE
 GRD .GAPI   45 310 01 00:   GAMMA RAY FROM DENSITY LOG
 RHOB.G/C3   45 350 01 00:   BULK DENSITY
~PARAMETER INFORMATION
#MNEM.UNIT          VALUE    DESCRIPTION
#----------   ------------   ------------------------------
 PD  .                 GL:   PERMANENT DATUM
 EPD .F              5155:   ELEVATION PERMANENT DATUM
 LMF .                 KB:   LOG MEASURED FROM
 DAPD.F                 9:   FEET ABOVE PERMANENT DATUM
 DMF .                 KB:   DRILLING MEASURED FROM
 EKB .F              5164:   KELLING BUSHING
 EDF .F            5162.5:   DRILLING FLOOR
 EGL .F              5155:   GROUND LEVEL
 DATE.        14-JUL-1982:   RUN DATE
 RUN .                  1:   RUN NUMBER
 DD  .F               500:   DEPTH DRILLER
 DL  .F               515:   DEPTH LOGGER
 BLI .F               512:   BOTTOM LOG INTERVAL
 TLI .F                50:   TOP LOG INTERVAL
 CS  .IN           13.375:   CASING SIZE
 CBD .F                50:   CASING BOTTOM DRILLER
 CBL .F                50:   CASING BOTTOM LOGGER
 BS  .IN            12.25:   BIT SIZE
 BSD .F               500:   BIT SIZE AT DEPTH
 DFT .                KCL:   DRILLING FLUID TYPE
 TCS .HRS            0600:   TIME CURCULATED STOPPED
 TLAB.HRS            1000:   TIME LOGGER AT BOTTOM
 LUN .               8035:   LOGGING UNIT NUMBER
 LUL .             CASPER:   LOGGING UNIT LOCATION
 ENGI.            PERARIS:   RECORDING ENGINEER
 WITN.             TAYLOR:   WITNESSED BY
 CLNT.            A2DTECH:   CLIENT CODE
 ORIG.         2.5" PRINT:   ORIGIN OF DATA
 UWI .       490251089600:   UNIQUE WELL ID
 DICO. A2D Technologies, Inc.:   DIGITIZING COMPANY
~OTHER INFORMATION
~A   DEPT     CALD       CORR       DPHI         GRD      RHOB   
# ...
  162.0000    12.4251     0.0050     0.1453    89.4538     2.4324
  162.5000    12.4254     0.0103     0.1441    86.6978     2.4354
  163.0000    12.4257     0.0164     0.1433    84.5772     2.4355
  163.5000    12.3484     0.0247     0.1430    86.1560     2.4348
  164.0000    12.0597     0.0277     0.1451    88.3642     2.4288
  164.5000    12.0385     0.0262     0.1482    90.0858     2.4211
  165.0000    12.2408     0.0216     0.1518    90.8731     2.4148
  165.5000    12.3636     0.0185     0.1591    91.3265     2.4105
  166.0000    12.4420     0.0170     0.1616    90.0925     2.4078
  166.5000    12.4875     0.0185     0.1622    88.4620     2.4088
  167.0000    12.5177     0.0215     0.1592    86.4463     2.4155
  167.5000    12.5180     0.0215     0.1549    84.3918     2.4241
  168.0000    12.5183     0.0230     0.1519    83.0508     2.4318
  168.5000    12.5484     0.0245     0.1483    84.2050     2.4357
  169.0000    12.5188     0.0230     0.1464    86.0026     2.4335
  169.5000    12.5191     0.0228     0.1499    87.3525     2.4258
  170.0000    12.5194     0.0214     0.1538    88.7024     2.4245
  170.5000    12.5197     0.0251     0.1473    88.7089     2.4380
  171.0000    12.4901     0.0313     0.1388    86.9245     2.4486
  171.5000    12.4606     0.0375     0.1334    86.0355     2.4546
  172.0000    12.4310     0.0411     0.1320    86.0421     2.4561
  172.5000    12.4015     0.0379     0.1403    85.6009     2.4394
  173.0000    12.3657     0.0348     0.1470    83.3687     2.4302
  173.5000    12.3125     0.0410     0.1482    81.5679     2.4332
  174.0000    12.2736     0.0464     0.1439    80.6953     2.4453
  174.5000    12.1828     0.0463     0.1393    83.0515     2.4499
  175.0000    12.1517     0.0384     0.1375    85.8582     2.4468
  175.5000    12.2204     0.0197     0.1491    88.1620     2.4270
  176.0000    12.4346     0.0106     0.1613    90.2388     2.4057
  176.5000    12.5105     0.0076     0.1698    91.0276     2.3935
  177.0000    12.5535     0.0075     0.1716    89.8254     2.3920
  177.5000    12.5538     0.0090     0.1668    86.6679     2.3986
  178.0000    12.5541     0.0105     0.1619    85.4836     2.4107
  178.5000    12.5544     0.0136     0.1553    85.2336     2.4200
  179.0000    12.5547     0.0166     0.1510    85.2403     2.4271
  179.5000    12.5549     0.0151     0.1486    85.4963     2.4298
  180.0000    12.5552     0.0090     0.1535    86.1506     2.4229
  180.5000    12.5555     0.0092     0.1510    87.0527     2.4222
  181.0000    12.5547     0.0198     0.1454    87.1985     2.4328
  181.5000    12.5263     0.0258     0.1412    86.6180     2.4415
  182.0000    12.5266     0.0271     0.1420    85.7291     2.4449
  182.5000    12.5211     0.0195     0.1502    84.8402     2.4249
  183.0000    12.4901     0.0237     0.1560    84.7836     2.4137
  183.5000    12.4080     0.0310     0.1505    85.7488     2.4228
  184.0000    12.4187     0.0347     0.1457    86.6509     2.4366
  184.5000    12.4504     0.0314     0.1431    86.6575     2.4426
  185.0000    12.4821     0.0236     0.1424    85.7685     2.4416
  185.5000    12.4988     0.0121     0.1448    86.3261     2.4325
  186.0000    12.5290     0.0027     0.1491    88.5761     2.4218
  186.5000    12.5293    -0.0019     0.1572    89.8918     2.4096
  187.0000    12.5296     0.0005     0.1640    90.2731     2.4005
  187.5000    12.5597     0.0027     0.1677    89.6082     2.3974
  188.0000    12.5600     0.0072     0.1659    88.2328     2.4004
  188.5000    12.5603     0.0087     0.1647    86.5604     2.4034
  189.0000    12.5606     0.0102     0.1665    85.0344     2.3988
  189.5000    12.5609     0.0102     0.1714    83.4007     2.3791
  190.0000    12.5313     0.0041     0.1824    83.1194     2.3729
  190.5000    12.5615     0.0010     0.1800    84.9560     2.3866
  191.0000    12.5618     0.0010     0.1672    86.7925     2.4050
  191.5000    12.5621     0.0010     0.1532    88.5439     2.4218
  192.0000    12.5624     0.0040     0.1478    88.9982     2.4294
  192.5000    12.5627     0.0056     0.1460    88.1092     2.4336
  193.0000    12.5630     0.0071     0.1479    85.4293     2.4333
  193.5000    12.5633     0.0070     0.1510    84.4366     2.4277
  194.0000    12.5636     0.0068     0.1601    85.8902     2.4153
  194.5000    12.5639     0.0036     0.1650    87.2400     2.4072
  195.0000    12.5642     0.0005     0.1657    87.6944     2.4041
  195.5000    12.5645    -0.0026     0.1638    87.2530     2.4061
  196.0000    12.5823    -0.0011     0.1582    86.8119     2.4166
  196.5000    12.5950     0.0030     0.1496    85.9230     2.4307
  197.0000    12.5953     0.0060     0.1433    85.4492     2.4393
  197.5000    12.6254     0.0091     0.1401    84.5410     2.4439
  198.0000    12.6257     0.0130     0.1391    83.5612     2.4469
  198.5000    12.6260     0.0153     0.1366    82.2769     2.4518
  199.0000    12.6263     0.0199     0.1302    81.4783     2.4605
  199.5000    12.6266     0.0220     0.1280    81.6157     2.4636
  200.0000    12.6269     0.0178     0.1340    82.0886     2.4532
  200.5000    12.5977     0.0083     0.1384    83.0045     2.4422
  201.0000    12.5985     0.0053     0.1420    83.2917     2.4422
  201.5000    12.5993     0.0022     0.1419    81.3120     2.4421
  202.0000    12.6000     0.0022     0.1394    81.2716     2.4424
  202.5000    12.6007     0.0067     0.1363    81.7388     2.4472
  203.0000    12.6015     0.0097     0.1332    82.2060     2.4533
  203.5000    12.6022     0.0128     0.1303    82.4194     2.4577
  204.0000    12.5730     0.0143     0.1297    81.9761     2.4604
  204.5000    12.5439     0.0127     0.1260    82.4292     2.4623
  205.0000    12.5148     0.0096     0.1187    83.7769     2.4726
  205.5000    12.5565     0.0081     0.1137    84.6768     2.4875
  206.0000    12.6060     0.0081     0.1122    85.1289     2.4943
  206.5000    12.6197     0.0096     0.1164    83.7901     2.4958
  207.0000    12.6373     0.0079     0.1268    82.4512     2.4809
  207.5000    12.6381     0.0035     0.1348    82.0075     2.4541
  208.0000    12.6388     0.0065     0.1379    81.5642     2.4476
  208.5000    12.6396     0.0082     0.1375    81.5239     2.4467
  209.0000    12.6404     0.0095     0.1365    82.9166     2.4489
  209.5000    12.6412     0.0110     0.1367    84.2643     2.4497
  210.0000    12.6419     0.0125     0.1382    85.6119     2.4497
  210.5000    12.6426     0.0128     0.1401    86.0791     2.4489
  211.0000    12.6434     0.0139     0.1425    86.5463     2.4458
  211.5000    12.6441     0.0154     0.1471    86.9687     2.4403
  212.0000    12.6448     0.0154     0.1570    86.4657     2.4269
  212.5000    12.6456     0.0169     0.1682    83.9179     2.4071
  213.0000    12.6463     0.0211     0.1805    80.5343     2.3858
  213.5000    12.6471     0.0266     0.2065    78.8224     2.3509
  214.0000    12.6179     0.0305     0.2350    78.9313     2.3037
  214.5000    12.6187     0.0268     0.2605    78.9358     2.2445
  215.0000    12.6194     0.0144     0.2982    78.9403     2.2156
  215.5000    12.6201     0.0052     0.3000    75.6313     2.1715
  216.0000    12.6209    -0.0017     0.2945    69.1881     2.1694
  216.5000    12.6216    -0.0021     0.2733    68.5955     2.1852
  217.0000    12.6224     0.0000     0.2520    71.9433     2.2247
  217.5000    12.6231    -0.0046     0.2374    77.1716     2.2627
  218.0000    12.6239    -0.0061     0.2131    81.0268     2.2824
  218.5000    12.6246    -0.0031     0.1967    81.8522     2.3113
  219.0000    12.6254     0.0029     0.1790    80.3203     2.3386
  219.5000    12.6261     0.0090     0.1578    81.6680     2.3842
  220.0000    12.6269     0.0150     0.1480    83.4634     2.4207
  220.5000    12.6276     0.0181     0.1450    84.8111     2.4314
  221.0000    12.6284     0.0196     0.1438    86.1588     2.4374
  221.5000    12.6291     0.0195     0.1419    86.6110     2.4406
  222.0000    12.6299     0.0150     0.1401    85.7198     2.4451
  222.5000    12.6306     0.0119     0.1401    86.1720     2.4465
