~VERSION INFORMATION
 VERS.                2.0:   CWLS LOG ASCII STANDARD - VERSION 2.0
 WRAP.                 NO:   ONE LINE PER DEPTH STEP
~WELL INFORMATION
#MNEM.UNIT      DATA TYPE    INFORMATION
#----------   ------------   ------------------------------
 STRT.F           28.5000:   START DEPTH
 STOP.F          781.0000:   STOP DEPTH
 STEP.F            0.5000:   STEP LENGTH
 NULL.          -999.2500:   NO VALUE
 COMP. FENIX & SCISSON INC:   COMPANY
 WELL. NPR 3 23 SX 14 #23-14:   WELL
 FLD .        TEAPOT DOME:   FIELD
 LOC .      S14 T38N R78W:   LOCATION
 CNTY.            NATRONA:   COUNTY
 STAT.            WYOMING:   STATE
 CTRY. UNITED STATES OF AMERICA:   COUNTRY
 SRVC.            Unknown:   SERVICE COMPANY
 DATE.        13-MAY-1978:   LOGDATE
 API .       490251063400:   API NUMBER
~CURVE INFORMATION
#MNEM.UNIT       API CODE    CURVE DESCRIPTION
#----------   ------------   ------------------------------
 DEPT.F                  :   
 RHOB.G/C3   45 350 01 00:   BULK DENSITY
 DPHI.DEC    45 890 12 00:   DENSITY POROSITY SANDSTONE
 GRD .GAPI   45 310 01 00:   GAMMA RAY FROM DENSITY LOG
 CALD.IN     45 280 60 00:   CALIPER FROM DENSITY LOG
 CORR.G/C3   45 356 01 00:   DENSITY CORRECTION
 SN  .OHMM   05 040 16 00:   SHORT NORMAL 16"
 SPR .MV     05 010 01 00:   SPONTANEOUS POTENTIAL FROM RES.
 ILD .OHMM   05 120 46 00:   INDUCTION LOG DEEP
~PARAMETER INFORMATION
#MNEM.UNIT          VALUE    DESCRIPTION
#----------   ------------   ------------------------------
 PD  .                 GL:   PERMANENT DATUM
 EPD .F              5202:   ELEVATION PERMANENT DATUM
 LMF .                 KB:   LOG MEASURED FROM
 DMF .                 KB:   DRILLING MEASURED FROM
 EKB .F              5206:   KELLING BUSHING
 EGL .F              5202:   GROUND LEVEL
 DATE.          5-13-1978:   RUN DATE
 RUN .                  1:   RUN NUMBER
 DD  .F               785:   DEPTH DRILLER
 DL  .F               776:   DEPTH LOGGER
 BLI .F               770:   BOTTOM LOG INTERVAL
 TLI .F                50:   TOP LOG INTERVAL
 CS  .IN            8.625:   CASING SIZE
 CBD .F                40:   CASING BOTTOM DRILLER
 CBL .F                40:   CASING BOTTOM LOGGER
 BS  .IN            7.875:   BIT SIZE
 BSD .F               785:   BIT SIZE AT DEPTH
 DFT .                KCL:   DRILLING FLUID TYPE
 DFD .                8.6:   DRILLING FLUID DENSITY
 DFV .                 30:   DRILLING FLUID VISCOSITY
 DFPH.                 10:   DRILLING FLUID PH
 DFL .                 14:   DRILLING FLUID LOSS
 MSS .           FLOWLINE:   MUD SAMPLE SOURCE
 RMS .OHMM             .4:   RESISTIVITY MUD SAMPLE
 MST .F                69:   MUD SAMPLE TEMPERATURE
 RMF .OHMM            .36:   RESISTIVITY MUD FILTRATE SAMPLE
 MFST.F                72:   MUD FILTRATE SAMPLE TEMPERATURE
 RMC .OHMM            .56:   RESISTIVITY MUD CAKE
 MCST.F                73:   MUD CAKE SAMPLE TEMPERATURE
 MFSS.               MEAS:   MUD FILTRATE SAMPLE SOURCE
 RMB .OHMM            .35:   RESISTIVITY MUD AT BHT
 BHT .F                79:   BOTTOM HOLE TEMPERATURE
 TCS .HRS               2:   TIME CURCULATED STOPPED
 MRT .F                79:   MAXIMUM RECORDED TEMPERATURE
 LUN .               3006:   LOGGING UNIT NUMBER
 LUL .              CASP.:   LOGGING UNIT LOCATION
 ENGI.             MILLER:   RECORDING ENGINEER
 WITN.           MCGINLEY:   WITNESSED BY
 CLNT.            A2DTECH:   CLIENT CODE
 ORIG.           5" PRINT:   ORIGIN OF DATA
 UWI .       490251063400:   UNIQUE WELL ID
 DICO. A2D Technologies, Inc.:   DIGITIZING COMPANY
~OTHER INFORMATION
~A   DEPT     RHOB       DPHI         GRD      CALD       CORR         SN        SPR        ILD   
# ...
  595.5000     2.4045     0.1454    61.6530     7.5992     0.0413    10.1407   -60.4875     9.1642
  596.0000     2.4109     0.1457    61.2833     7.6014     0.0415    10.1459   -60.4704     9.1770
  596.5000     2.4083     0.1471    61.2972     7.6037     0.0417    10.1511   -60.4532     9.1829
  597.0000     2.4050     0.1490    61.2963     7.6060     0.0419    10.1561   -60.4360     9.1112
  597.5000     2.4075     0.1492    61.2789     7.6082     0.0430    10.1587   -60.4188     9.0586
  598.0000     2.4161     0.1412    61.4016     7.6060     0.0481    10.1322   -60.4017     9.0063
  598.5000     2.4246     0.1332    64.3173     7.5842     0.0521    10.1128   -60.3844     8.9544
  599.0000     2.4304     0.1309    67.2853     7.5629     0.0517    10.0934   -60.3668     8.9027
  599.5000     2.4354     0.1286    67.5992     7.5417     0.0514    10.0741   -60.3503     8.8513
  600.0000     2.4402     0.1263    64.3195     7.5204     0.0510    10.0548   -60.3715     8.8003
  600.5000     2.4445     0.1242    62.6809     7.5129     0.0507    10.0355   -60.5163     8.7495
  601.0000     2.4425     0.1259    63.4191     7.5181     0.0504    10.0162   -60.6571     8.6990
  601.5000     2.4400     0.1280    64.1889     7.5235     0.0501     9.9970   -60.9225     8.6488
  602.0000     2.4368     0.1310    64.7094     7.5295     0.0503     9.9775   -60.7463     8.5989
  602.5000     2.4324     0.1329    64.4488     7.5052     0.0511     9.9755   -60.5811     8.5493
  603.0000     2.4279     0.1374    64.0202     7.4729     0.0518     9.9715   -60.4186     8.5320
  603.5000     2.4215     0.1469    63.5852     7.4405     0.0516    10.2545   -60.2660     8.8415
  604.0000     2.4059     0.1563    63.1185     7.4083     0.0509    10.7576   -60.0885     9.3865
  604.5000     2.3905     0.1657    61.1360     7.3915     0.0501    11.2039   -59.7355     9.9674
  605.0000     2.3751     0.1752    57.0528     7.3954     0.0501    11.6667   -59.3787    10.5836
  605.5000     2.3596     0.1846    52.9997     7.3991     0.0500    12.1486   -59.0219    11.2371
  606.0000     2.3441     0.1860    50.8516     7.4029     0.0550    12.6505   -58.6649    11.7682
  606.5000     2.3378     0.1942    50.7716     7.4063     0.0600    13.1731   -58.3756    12.4183
  607.0000     2.3272     0.2028    50.7494     7.4109     0.0584    13.8896   -58.1215    12.9007
  607.5000     2.3184     0.2028    51.2122     7.5038     0.0568    13.8802   -57.8642    13.5071
  608.0000     2.3201     0.2005    51.7120     7.5640     0.0552    14.0196   -57.7631    13.7577
  608.5000     2.3238     0.1972    53.0424     7.5920     0.0540    14.0160   -57.7748    13.5812
  609.0000     2.3275     0.1948    54.0740     7.6193     0.0536    13.7955   -57.7887    13.3978
  609.5000     2.3284     0.1944    52.1702     7.6298     0.0533    13.6580   -57.8028    13.2169
  610.0000     2.3261     0.1975    50.1866     7.6300     0.0529    13.5218   -57.8166    13.0384
  610.5000     2.3239     0.2007    48.3374     7.6300     0.0526    13.3871   -57.8304    12.8624
  611.0000     2.3214     0.2009    48.2826     7.6301     0.0522    13.2542   -57.8443    12.6887
  611.5000     2.3223     0.1991    48.2992     7.6300     0.0537    13.1108   -57.8581    12.5174
  612.0000     2.3253     0.1938    48.7262     7.6204     0.0562    12.9062   -57.8720    12.3483
  612.5000     2.3314     0.1842    50.5893     7.5782     0.0578    12.6013   -57.8858    12.1816
  613.0000     2.3435     0.1830    52.4168     7.5228     0.0563    12.1468   -57.8996    12.0171
  613.5000     2.3486     0.1832    52.6894     7.4294     0.0548    11.9331   -57.9135    11.8548
  614.0000     2.3431     0.1881    52.0177     7.4570     0.0534    11.8498   -57.9273    11.6947
  614.5000     2.3383     0.1903    51.0660     7.5146     0.0522    11.7672   -57.9409    11.4482
  615.0000     2.3376     0.1895    52.1788     7.5358     0.0534    11.6853   -57.9523    11.3552
  615.5000     2.3413     0.1857    56.2904     7.5330     0.0546    11.6043   -57.9544    11.2273
  616.0000     2.3451     0.1819    58.6515     7.4919     0.0558    11.4753   -58.0793    11.1007
  616.5000     2.3503     0.1780    59.8993     7.5200     0.0570    11.2739   -58.3674    10.9756
  617.0000     2.3577     0.1780    60.5264     7.5524     0.0581    11.0760   -58.6537    10.8519
  617.5000     2.3587     0.1782    60.4072     7.6292     0.0593    10.8816   -58.9401    10.5817
  618.0000     2.3547     0.1783    58.2568     7.6807     0.0605    10.6906   -59.2288    10.2942
  618.5000     2.3553     0.1773    56.2527     7.7032     0.0617    10.5026   -59.3422    10.1476
  619.0000     2.3573     0.1768    55.1520     7.7260     0.0586    10.3451   -59.3443    10.1117
  619.5000     2.3551     0.1845    55.3844     7.7488     0.0532    10.4469   -59.3442    10.0760
  620.0000     2.3412     0.1961    55.7184     7.7564     0.0523    10.4433   -59.3439    10.0403
  620.5000     2.3271     0.1959    56.0465     7.7645     0.0571    10.4433   -59.3439    10.0048
  621.0000     2.3275     0.1810    56.3747     7.7666     0.0619    10.4624   -59.3439     9.9695
  621.5000     2.3508     0.1680    56.6845     7.7566     0.0670    10.4914   -59.3439     9.9342
  622.0000     2.3724     0.1653    56.4916     7.7467     0.0666    10.5206   -59.3439     9.8992
  622.5000     2.3770     0.1631    56.2706     7.7369     0.0644    10.5682   -59.3439     9.8601
  623.0000     2.3792     0.1650    56.0609     7.7272     0.0622    10.6503   -59.3439     9.8178
  623.5000     2.3772     0.1676    56.2002     7.7173     0.0599    10.7331   -59.3439     9.7032
  624.0000     2.3750     0.1682    57.6587     7.7087     0.0581    10.8166   -59.3439     9.7238
  624.5000     2.3736     0.1667    59.0727     7.6483     0.0581    10.9007   -59.3439     9.7408
  625.0000     2.3762     0.1653    60.5465     7.5922     0.0581    10.9854   -59.3437     9.7578
  625.5000     2.3789     0.1638    60.9074     7.5673     0.0581    11.0708   -59.3438     9.7750
  626.0000     2.3821     0.1574    60.4390     7.5561     0.0582    11.1568   -59.3456     9.7920
  626.5000     2.3891     0.1503    59.7872     7.5771     0.0600    11.2435   -59.4389     9.8915
  627.0000     2.3983     0.1511    59.6092     7.5968     0.0619    11.3309   -59.6399    10.0223
  627.5000     2.4009     0.1519    59.7821     7.5825     0.0638    11.4190   -59.8397    10.1551
  628.0000     2.4000     0.1505    59.6721     7.5079     0.0657    11.5077   -60.0402    10.2895
  628.5000     2.4118     0.1438    59.0660     7.3265     0.0677    11.6294   -60.2405    10.4257
  629.0000     2.4248     0.1364    58.4634     7.2087     0.0641    11.7870   -60.4408    10.5638
  629.5000     2.4381     0.1290    57.9685     7.1703     0.0594    11.9474   -60.6413    10.7036
  630.0000     2.4562     0.1216    58.6286     7.2416     0.0573    12.1098   -60.8411    10.8453
  630.5000     2.4611     0.1138    59.8293     7.4748     0.0551    12.2743   -61.0423    10.9889
  631.0000     2.4613     0.1134    60.8904     7.7044     0.0539    12.4410   -61.1481    11.1344
  631.5000     2.4609     0.1137    59.4940     7.7696     0.0536    12.6100   -61.1799    11.2818
  632.0000     2.4568     0.1155    56.9837     7.7713     0.0533    12.7813   -61.2100    11.4311
  632.5000     2.4528     0.1173    55.4338     7.7268     0.0530    12.9550   -61.2399    11.5824
  633.0000     2.4504     0.1186    53.9664     7.6682     0.0527    13.1310   -61.2700    11.7358
  633.5000     2.4503     0.1182    53.3402     7.6358     0.0523    13.3093   -61.3001    11.8923
  634.0000     2.4525     0.1153    52.6829     7.6540     0.0522    13.4900   -61.3302    11.9859
  634.5000     2.4595     0.1096    52.3641     7.6714     0.0530    13.6314   -61.3604    11.9432
  635.0000     2.4664     0.1066    54.5758     7.6890     0.0536    13.5532   -61.3905    11.9116
  635.5000     2.4689     0.1110    56.1651     7.7064     0.0539    13.4896   -61.4206    11.8802
