~VERSION INFORMATION
 VERS.                2.0:   CWLS LOG ASCII STANDARD - VERSION 2.0
 WRAP.                 NO:   ONE LINE PER DEPTH STEP
~WELL INFORMATION
#MNEM.UNIT      DATA TYPE    INFORMATION
#----------   ------------   ------------------------------
 STRT.F          100.0000:   START DEPTH
 STOP.F         1196.0000:   STOP DEPTH
 STEP.F            0.5000:   STEP LENGTH
 NULL.          -999.2500:   NO VALUE
 COMP. DEPARTMENT OF ENERGY:   COMPANY
 WELL.     NRP ##3 77S-11:   WELL
 FLD .             TEAPOT:   FIELD
 LOC .      S11 T38N R78W:   LOCATION
 CNTY.            NATRONA:   COUNTY
 STAT.            WYOMING:   STATE
 CTRY. UNITED STATES OF AMERICA:   COUNTRY
 SRVC.       Schlumberger:   SERVICE COMPANY
 DATE.        18-AUG-1959:   LOGDATE
 API .       490250632900:   API NUMBER
~CURVE INFORMATION
#MNEM.UNIT       API CODE    CURVE DESCRIPTION
#----------   ------------   ------------------------------
 DEPT.F                  :   
 SPR .MV     05 010 01 00:   SPONTANEOUS POTENTIAL FROM RES.
 ASN .OHMM   05 041 16 00:   AMPLIFIED SHORT NORMAL 16"
 ILD .OHMM   05 120 46 00:   INDUCTION LOG DEEP
 CILD.MMHO   05 110 46 00:   CONDUCTIVITY INDUCTION LOG DEEP
~PARAMETER INFORMATION
#MNEM.UNIT          VALUE    DESCRIPTION
#----------   ------------   ------------------------------
 PD  .                 GL:   PERMANENT DATUM
 EPD .F              5258:   ELEVATION PERMANENT DATUM
 LMF .                 KB:   LOG MEASURED FROM
 DAPD.F                 4:   FEET ABOVE PERMANENT DATUM
 DMF .                 KB:   DRILLING MEASURED FROM
 EKB .F              5262:   KELLING BUSHING
 EGL .F              5258:   GROUND LEVEL
 DATE.            8-18-59:   RUN DATE
 RUN .                  1:   RUN NUMBER
 DD  .F              1200:   DEPTH DRILLER
 DL  .F              1201:   DEPTH LOGGER
 BLI .F              1196:   BOTTOM LOG INTERVAL
 TLI .F               100:   TOP LOG INTERVAL
 CBD .F                17:   CASING BOTTOM DRILLER
 BS  .IN             6.75:   BIT SIZE
 BSD .F              1200:   BIT SIZE AT DEPTH
 DFT . GEL-OIL-PHDS-CAUSTIC:   DRILLING FLUID TYPE
 DFD .               10.8:   DRILLING FLUID DENSITY
 DFV .                 60:   DRILLING FLUID VISCOSITY
 DFPH.                  9:   DRILLING FLUID PH
 DFL .                  4:   DRILLING FLUID LOSS
 RMS .OHMM            1.8:   RESISTIVITY MUD SAMPLE
 MST .F                90:   MUD SAMPLE TEMPERATURE
 RMF .OHMM            1.5:   RESISTIVITY MUD FILTRATE SAMPLE
 MFST.F                90:   MUD FILTRATE SAMPLE TEMPERATURE
 RMC .OHMM              2:   RESISTIVITY MUD CAKE
 MCST.F                90:   MUD CAKE SAMPLE TEMPERATURE
 TCS .HRS               1:   TIME CURCULATED STOPPED
 LUN .               2523:   LOGGING UNIT NUMBER
 LUL .               CSPR:   LOGGING UNIT LOCATION
 ENGI.             KNOBEL:   RECORDING ENGINEER
 WITN.             MARTIN:   WITNESSED BY
 CLNT.            A2DTECH:   CLIENT CODE
 ORIG.     1", 2.5" PRINT:   ORIGIN OF DATA
 UWI .       490250632900:   UNIQUE WELL ID
 DICO. A2D Technologies, Inc.:   DIGITIZING COMPANY
~OTHER INFORMATION
~A   DEPT      SPR          ASN        ILD      CILD  
# ...
  757.0000   -32.9716    10.2559     8.9231   105.6590
  757.5000   -33.0672     9.9623     8.8798   106.1741
  758.0000   -33.1438     9.7663     8.8404   106.6325
  758.5000   -33.2218     9.7075     8.8012   107.2695
  759.0000   -33.3246     9.6404     8.7441   108.9521
  759.5000   -33.4364     9.4136     8.6517   111.2225
  760.0000   -33.4942     9.0644     8.5289   113.4929
  760.5000   -33.4468     8.7614     8.3991   115.7633
  761.0000   -33.3167     8.5718     8.2750   118.0337
  761.5000   -33.1734     8.3989     8.1482   120.3041
  762.0000   -33.0501     8.1820     8.0157   122.5745
  762.5000   -32.9263     8.0192     7.8912   124.8449
  763.0000   -32.7901     7.9994     7.7765   127.1152
  763.5000   -32.6631     8.0517     7.6437   130.3192
  764.0000   -32.5479     8.0984     7.4854   131.3475
  764.5000   -32.4099     8.2269     7.3667   133.8652
  765.0000   -32.2468     8.5310     7.3752   132.3328
  765.5000   -32.1322     8.8898     7.5158   129.5884
  766.0000   -32.1408     9.0944     7.6961   127.0037
  766.5000   -32.2561     9.1201     7.8280   123.9962
  767.0000   -32.3967     9.1005     7.9113   121.4705
  767.5000   -32.5139     9.1014     8.0038   118.5260
  768.0000   -32.6199     9.0851     8.1353   115.9474
  768.5000   -32.7367     9.0401     8.2695   114.2853
  769.0000   -32.8621     8.9918     8.3408   114.4262
  769.5000   -32.9833     8.9185     8.3193   116.8054
  770.0000   -33.0958     8.7836     8.2385   118.6787
  770.5000   -33.2079     8.6259     8.1583   120.3098
  771.0000   -33.3319     8.5329     8.1024   121.5093
  771.5000   -33.4571     8.5356     8.0457   121.4059
  772.0000   -33.5319     8.5897     7.9682   121.4973
  772.5000   -33.5033     8.6418     7.8974   121.4080
  773.0000   -33.3812     8.6806     7.8821   121.4925
  773.5000   -33.2308     8.7316     7.9330   121.4157
  774.0000   -33.0992     8.8174     8.0139   120.0922
  774.5000   -32.9804     8.9251     8.0856   119.0443
  775.0000   -32.8559     9.0134     8.1425   117.9965
  775.5000   -32.7285     9.0594     8.2039   116.9486
  776.0000   -32.6023     9.0834     8.2774   115.9007
  776.5000   -32.4717     9.1195     8.3450   114.8528
  777.0000   -32.3425     9.1725     8.3845   113.8050
  777.5000   -32.2273     9.2165     8.3949   112.7571
  778.0000   -32.1082     9.2245     8.3948   111.7092
  778.5000   -31.9581     9.1927     8.3946   110.8156
  779.0000   -31.8166     9.1385     8.3843   110.8156
  779.5000   -31.7902     9.0822     8.3532   111.8041
  780.0000   -31.9380     9.0347     8.3081   112.6773
  780.5000   -32.1948     9.0000     8.2640   113.5505
  781.0000   -32.4430     8.9787     8.2257   114.4238
  781.5000   -32.6409     8.9671     8.1880   115.2970
  782.0000   -32.8412     8.9578     8.1472   116.1702
  782.5000   -33.0901     8.9471     8.1048   117.0434
  783.0000   -33.3377     8.9349     8.0641   117.9078
  783.5000   -33.4760     8.9194     8.0263   118.2471
  784.0000   -33.4563     8.8965     7.9878   118.5829
  784.5000   -33.3414     8.8673     7.9436   118.9188
  785.0000   -33.2267     8.8376     7.8991   119.2546
  785.5000   -33.1401     8.8107     7.8715   119.5905
  786.0000   -33.0512     8.7844     7.8721   119.9264
  786.5000   -32.9477     8.7554     7.8913   120.2622
  787.0000   -32.8504     8.7257     7.9106   120.5981
  787.5000   -32.7616     8.7000     7.9244   120.9339
  788.0000   -32.6590     8.6746     7.9393   121.2698
  788.5000   -32.5474     8.6352     7.9571   121.6056
  789.0000   -32.4802     8.5752     7.9721   121.9415
  789.5000   -32.5042     8.5129     7.9853   122.2774
  790.0000   -32.6052     8.4782     8.0044   122.6132
  790.5000   -32.7204     8.4838     8.0257   122.9491
  791.0000   -32.7939     8.5187     8.0281   123.2849
  791.5000   -32.8141     8.5648     7.9940   123.6208
  792.0000   -32.8082     8.6051     7.9283   123.9566
  792.5000   -32.8074     8.6223     7.8534   124.2925
  793.0000   -32.8142     8.6039     7.7887   124.6283
  793.5000   -32.8026     8.5523     7.7333   124.9642
  794.0000   -32.7500     8.4837     7.6679   125.3000
  794.5000   -32.6631     8.4189     7.5841   125.6359
  795.0000   -32.5676     8.3749     7.5138   125.9718
  795.5000   -32.4807     8.3587     7.5078   126.3076
  796.0000   -32.3985     8.3673     7.5748   126.7730
  796.5000   -32.3084     8.3965     7.6629   126.2347
  797.0000   -32.2118     8.4441     7.7193   125.3581
  797.5000   -32.1257     8.5073     7.7447   124.4816
  798.0000   -32.0506     8.5822     7.7706   123.6051
  798.5000   -31.9587     8.6674     7.8091   122.7286
  799.0000   -31.8394     8.7547     7.8493   121.8520
  799.5000   -31.7455     8.8250     7.8837   120.9755
  800.0000   -31.7500     8.8704     7.9154   120.0990
  800.5000   -31.8542     8.9115     7.9486   119.2224
  801.0000   -31.9835     8.9650     7.9865   118.3459
  801.5000   -32.0816     9.0102     8.0266   117.4694
  802.0000   -32.1659     9.0119     8.0589   116.5928
  802.5000   -32.2685     8.9704     8.0841   116.1348
  803.0000   -32.3742     8.9178     8.1230   116.6560
  803.5000   -32.4592     8.8771     8.1781   117.0089
  804.0000   -32.5493     8.8505     8.2055   117.3617
  804.5000   -32.6738     8.8308     8.1666   117.7145
  805.0000   -32.7771     8.8054     8.0895   117.9078
  805.5000   -32.7518     8.7658     8.0349   119.3718
  806.0000   -32.5722     8.7271     8.0101   120.3799
  806.5000   -32.3316     8.7072     7.9717   121.3880
  807.0000   -32.1241     8.6784     7.9017   122.3961
  807.5000   -31.9462     8.5861     7.8295   123.4043
  808.0000   -31.7535     8.4308     7.7760   124.4124
  808.5000   -31.5497     8.2772     7.7248   125.0000
  809.0000   -31.3613     8.1623     7.6608   128.0000
  809.5000   -31.1719     8.0635     7.5975   130.1170
  810.0000   -30.9568     7.9781     7.5466   132.2340
  810.5000   -30.7656     7.9625     7.4916   134.3511
  811.0000   -30.6932     8.0475     7.4181   135.6383
  811.5000   -30.7617     8.1756     7.3566   133.4059
  812.0000   -30.8904     8.2796     7.3627   131.8021
  812.5000   -30.9974     8.3687     7.4525   130.1983
  813.0000   -31.0816     8.4792     7.5825   128.5945
  813.5000   -31.1781     8.5832     7.7005   126.9906
  814.0000   -31.2835     8.6193     7.7901   125.3868
  814.5000   -31.3751     8.5963     7.8589   123.7830
  815.0000   -31.4656     8.5921     7.9108   122.1792
  815.5000   -31.5805     8.6522     7.9473   120.5754
  816.0000   -31.6840     8.7474     7.9789   118.9716
  816.5000   -31.6949     8.8371     8.0153   117.9078
  817.0000   -31.5873     8.9105     8.0524   118.5816
  817.5000   -31.4291     8.9558     8.0847   119.0856
  818.0000   -31.2928     8.9448     8.1185   119.5897
  818.5000   -31.1735     8.8773     8.1598   120.0937
  819.0000   -31.0385     8.7938     8.1955   120.5978
  819.5000   -30.9027     8.7222     8.2026   121.1018
  820.0000   -30.7897     8.6512     8.1746   121.6059
  820.5000   -30.6638     8.5789     8.1273   122.1015
  821.0000   -30.4945     8.5474     8.0805   122.6514
  821.5000   -30.3629     8.5924     8.0437   123.0988
  822.0000   -30.3922     8.6748     8.0128   123.6813
  822.5000   -30.5807     8.7097     7.9734   124.1095
  823.0000   -30.8012     8.6659     7.9203   124.6940
  823.5000   -30.9591     8.6108     7.8792   125.0046
  824.0000   -31.0604     8.6391     7.8908   123.2592
  824.5000   -31.1397     8.7824     7.9672   121.8347
  825.0000   -31.2431     8.9896     8.0813   120.4036
  825.5000   -31.4779     9.1808     8.1983   119.0415
  826.0000   -31.9499     9.3221     8.2983   117.8938
  826.5000   -32.5962     9.4610     8.3789   114.8952
  827.0000   -33.1681     9.6540     8.4673   112.2950
  827.5000   -33.4401     9.8500     8.6129   109.9044
  828.0000   -33.3959     9.9774     8.8381   107.3446
  828.5000   -33.1935     9.9196     9.1063   104.8540
  829.0000   -33.0005     9.8811     9.3647   102.3634
  829.5000   -32.8759    10.1396     9.6001    99.8728
