~VERSION INFORMATION
 VERS.                2.0:   CWLS LOG ASCII STANDARD - VERSION 2.0
 WRAP.                 NO:   ONE LINE PER DEPTH STEP
~WELL INFORMATION
#MNEM.UNIT      DATA TYPE    INFORMATION
#----------   ------------   ------------------------------
 STRT.F           40.0000:   START DEPTH
 STOP.F          534.0000:   STOP DEPTH
 STEP.F            0.5000:   STEP LENGTH
 NULL.          -999.2500:   NO VALUE
 COMP. LAWRENCE/ALLISON INC:   COMPANY
 WELL.   55-41 SX FI #3-3:   WELL
 FLD .             TEAPOT:   FIELD
 LOC .       S3 T38N R78W:   LOCATION
 CNTY.            NATRONA:   COUNTY
 STAT.            WYOMING:   STATE
 CTRY. UNITED STATES OF AMERICA:   COUNTRY
 SRVC.      Dresser Atlas:   SERVICE COMPANY
 DATE.        12-DEC-1983:   LOGDATE
 API .       490251089400:   API NUMBER
~CURVE INFORMATION
#MNEM.UNIT       API CODE    CURVE DESCRIPTION
#----------   ------------   ------------------------------
 DEPT.F                  :   
 RILD.OHMM   07 120 46 00:   INDUCTION LOG DEEP RESISTIVITY
 RILM.OHMM   07 120 44 00:   INDUCTION LOG MEDIUM RESISTIVITY
 RFOC.OHMM   07 220 04 00:   RESISTIVITY FOCUSED LOG
 CALD.IN     45 280 60 00:   CALIPER FROM DENSITY LOG
 GRD .GAPI   45 310 01 00:   GAMMA RAY FROM DENSITY LOG
 CORR.G/C3   45 356 01 00:   DENSITY CORRECTION
 DPHI.DEC    45 890 12 00:   DENSITY POROSITY SANDSTONE
 RHOB.G/C3   45 350 01 00:   BULK DENSITY
~PARAMETER INFORMATION
#MNEM.UNIT          VALUE    DESCRIPTION
#----------   ------------   ------------------------------
 PD  .                 GL:   PERMANENT DATUM
 EPD .F              5161:   ELEVATION PERMANENT DATUM
 LMF .                 KB:   LOG MEASURED FROM
 DAPD.F                10:   FEET ABOVE PERMANENT DATUM
 DMF .                 KB:   DRILLING MEASURED FROM
 EKB .F              5171:   KELLING BUSHING
 EGL .F              5161:   GROUND LEVEL
 DATE.        12-DEC-1983:   RUN DATE
 RUN .                  1:   RUN NUMBER
 DD  .F               490:   DEPTH DRILLER
 DL  .F               489:   DEPTH LOGGER
 BLI .F               487:   BOTTOM LOG INTERVAL
 CS  .IN            10.75:   CASING SIZE
 CBD .F                52:   CASING BOTTOM DRILLER
 CBL .F                46:   CASING BOTTOM LOGGER
 BS  .IN             8.75:   BIT SIZE
 BSD .F               490:   BIT SIZE AT DEPTH
 DFT .           AIR FOAM:   DRILLING FLUID TYPE
 TCS .HRS               3:   TIME CURCULATED STOPPED
 MRT .F                72:   MAXIMUM RECORDED TEMPERATURE
 LUN .               6274:   LOGGING UNIT NUMBER
 LUL .               GLTE:   LOGGING UNIT LOCATION
 ENGI.             RAUTIO:   RECORDING ENGINEER
 WITN.             GROOMS:   WITNESSED BY
 CLNT.            A2DTECH:   CLIENT CODE
 ORIG.           5" PRINT:   ORIGIN OF DATA
 UWI .       490251089400:   UNIQUE WELL ID
 DICO. A2D Technologies, Inc.:   DIGITIZING COMPANY
~OTHER INFORMATION
~A   DEPT     RILD       RILM       RFOC       CALD         GRD      CORR       DPHI       RHOB   
# ...
  242.5000     7.4178     7.3079  -999.2500    11.7604    84.4366     0.0226     0.1367     2.4504
  243.0000     7.5258     7.4148  -999.2500    11.7899    85.3356     0.0302     0.1319     2.4557
  243.5000     7.5830     7.4717  -999.2500    11.7899    86.9023     0.0362     0.1286     2.4677
  244.0000     7.5881     7.4773  -999.2500    11.7899    89.1367     0.0422     0.1244     2.4775
  244.5000     7.5933     7.4830  -999.2500    11.7899    91.1484     0.0467     0.1208     2.4766
  245.0000     7.5985     7.4887  -999.2500    11.7604    90.4896     0.0475     0.1214     2.4728
  245.5000     7.6036     7.4426  -999.2500    11.7308    85.1278     0.0423     0.1238     2.4686
  246.0000     7.5553     7.4496  -999.2500    11.7470    85.4483     0.0349     0.1267     2.4634
  246.5000     7.5085     7.4026  -999.2500    11.7899    88.8027     0.0259     0.1297     2.4593
  247.0000     7.4121     7.3573  -999.2500    11.8218    91.0295     0.0177     0.1342     2.4564
  247.5000     7.3649     7.3122  -999.2500    11.8491    91.8691     0.0095     0.1374     2.4527
  248.0000     7.3193     7.2675  -999.2500    11.8787    90.5448     0.0036     0.1374     2.4498
  248.5000     7.2753     7.2230  -999.2500    11.9083    88.5507    -0.0001     0.1350     2.4491
  249.0000     7.2802     7.1787  -999.2500    11.9083    87.0016     0.0022     0.1326     2.4507
  249.5000     7.3355     7.1348  -999.2500    11.9083    86.3406     0.0082     0.1290     2.4552
  250.0000     7.4424     7.2002  -999.2500    11.8914    86.6735     0.0112     0.1266     2.4642
  250.5000     7.4465     7.2654  -999.2500    11.8663    87.9028     0.0128     0.1260     2.4695
  251.0000     7.4512     7.3306  -999.2500    11.8412    89.1320    -0.0039     0.1304     2.4613
  251.5000     7.5068     7.4053  -999.2500    11.8161    90.5857    -0.0004     0.1343     2.4539
  252.0000     7.4583     7.3578  -999.2500    11.7909    91.4782     0.0125     0.1388     2.4435
  252.5000     7.3108     7.1634  -999.2500    11.7485    92.1481     0.0222     0.1546     2.4212
  253.0000     7.1160     6.8776  -999.2500    11.7343    92.8179     0.0167     0.1743     2.3996
  253.5000     6.8316     6.4237  -999.2500    11.7201    93.5305     0.0020     0.1830     2.3720
  254.0000     6.5585     5.9176  -999.2500    11.7059    93.1899    -0.0034     0.1808     2.3676
  254.5000     6.3838     5.7603  -999.2500    11.7361    90.9413    -0.0011     0.1587     2.4035
  255.0000     6.2137     5.7639  -999.2500    11.7515    88.0338     0.0042     0.1413     2.4334
  255.5000     6.0899     5.8087  -999.2500    11.7965    84.4935     0.0117     0.1324     2.4506
  256.0000     5.9276     5.9323  -999.2500    11.8267    82.8160     0.0208     0.1293     2.4596
  256.5000     5.7301     5.9360  -999.2500    11.8273    87.3832     0.0313     0.1302     2.4574
  257.0000     5.5774     5.9395  -999.2500    11.8279    91.7701     0.0463     0.1332     2.4470
  257.5000     5.4663     5.6896  -999.2500    11.8137    93.5052     0.0576     0.1446     2.4232
  258.0000     5.3206     5.3638  -999.2500    11.7995    90.8217     0.0546     0.1747     2.4001
  258.5000     5.2146     5.0445  -999.2500    11.7851    87.2782     0.0374     0.1834     2.3740
  259.0000     5.1108     4.7762  -999.2500    11.7563    85.0549     0.0188     0.1666     2.4010
  259.5000     5.0435     4.7799  -999.2500    11.7419    83.9444     0.0211     0.1471     2.4301
  260.0000     5.0117     4.8492  -999.2500    11.7279    84.8368     0.0174     0.1314     2.4458
  260.5000     5.0491     4.9877  -999.2500    11.7137    87.9548     0.0054     0.1292     2.4571
  261.0000     5.1574     5.1657  -999.2500    11.7143    89.7374    -0.0028     0.1349     2.4501
  261.5000     5.3428     5.3500  -999.2500    11.7297    89.7678     0.0085     0.1381     2.4516
  262.0000     5.6900     5.6957  -999.2500    11.7450    88.4066     0.0101     0.1314     2.4583
  262.5000     6.0982     6.0221  -999.2500    11.7604    87.2961     0.0019     0.1300     2.4625
  263.0000     6.3653     6.2370  -999.2500    11.7906    85.7405    -0.0048     0.1297     2.4611
  263.5000     6.6338     6.5041  -999.2500    11.8060    85.0750     0.0094     0.1287     2.4643
  264.0000     6.8242     6.6900  -999.2500    11.8214    84.8542     0.0222     0.1260     2.4696
  264.5000     6.9630     6.8811  -999.2500    11.8516    85.7472     0.0297     0.1236     2.4702
  265.0000     6.9190     6.9319  -999.2500    11.8522    87.3073     0.0343     0.1242     2.4532
  265.5000     6.5066     6.5202  -999.2500    11.8528    88.8674     0.0388     0.1423     2.4335
  266.0000     6.1188     6.1744  -999.2500    11.8533    90.2049     0.0254     0.1676     2.4062
  266.5000     5.5211     5.6489  -999.2500    11.8390    91.3199     0.0097     0.1818     2.3850
  267.0000     5.1564     5.1682  -999.2500    11.8248    92.6575     0.0082     0.1770     2.3882
  267.5000     4.9503     4.8605  -999.2500    11.8106    94.2176     0.0240     0.1641     2.4160
  268.0000     4.9184     4.5711  -999.2500    11.7964    92.6619     0.0375     0.1396     2.4460
  268.5000     4.9217     4.6055  -999.2500    11.7676    89.5484     0.0436     0.1240     2.4694
  269.0000     4.9927     4.7371  -999.2500    11.7532    87.3252     0.0429     0.1201     2.4789
  269.5000     5.1350     4.9742  -999.2500    11.7392    86.2146     0.0338     0.1180     2.4827
  270.0000     5.4289     5.2232  -999.2500    11.7396    85.5487     0.0295     0.1153     2.4857
  270.5000     5.7793     5.4872  -999.2500    11.7402    85.5515     0.0396     0.1120     2.4880
  271.0000     6.1524     5.8445  -999.2500    11.7556    85.9988     0.0477     0.1105     2.4903
  271.5000     6.5495     6.1823  -999.2500    11.7583    86.4461     0.0513     0.1114     2.4925
  272.0000     6.8768     6.5335  -999.2500    11.7864    88.0062     0.0425     0.1122     2.4933
  272.5000     7.0728     6.9095  -999.2500    11.8018    90.0114     0.0297     0.1110     2.4926
  273.0000     7.2744     7.2480  -999.2500    11.8024    90.6813     0.0208     0.1098     2.4912
  273.5000     7.4303     7.4550  -999.2500    11.8029    88.2355     0.0148     0.1101     2.4898
  274.0000     7.5896     7.5631  -999.2500    11.8035    85.3446     0.0141     0.1160     2.4853
  274.5000     7.6991     7.5678  -999.2500    11.7890    82.2311     0.0284     0.1154     2.4787
  275.0000     7.7033     7.6248  -999.2500    11.7604    79.7852     0.0479     0.1094     2.4772
  275.5000     7.7076     7.6295  -999.2500    11.7609    78.4522     0.0614     0.1022     2.4907
  276.0000     7.6588     7.6341  -999.2500    11.7468    78.2313     0.0592     0.1006     2.5087
  276.5000     7.6104     7.5864  -999.2500    11.7473    78.4566     0.0465     0.1082     2.4938
  277.0000     7.5623     7.5911  -999.2500    11.7479    80.0167     0.0473     0.1222     2.4774
  277.5000     7.5145     7.4918  -999.2500    11.7486    83.3573     0.0489     0.1225     2.4715
  278.0000     7.6763     7.4438  -999.2500    11.7491    89.8135     0.0429     0.1198     2.4746
  278.5000     7.8402     7.7106  -999.2500    11.7497    92.5290     0.0288     0.1185     2.4755
  279.0000     7.8445     7.8224  -999.2500    11.7503    92.9331     0.0093     0.1236     2.4672
  279.5000     7.6247     7.6671  -999.2500    11.7509    90.7617     0.0011     0.1293     2.4568
  280.0000     7.4253     7.4120  -999.2500    11.7515    86.1420     0.0057     0.1286     2.4599
  280.5000     7.3850     7.3140  -999.2500    11.7521    83.3199     0.0170     0.1250     2.4674
  281.0000     7.3892     7.3196  -999.2500    11.7527    82.4614     0.0230     0.1208     2.4764
  281.5000     7.5485     7.5808  -999.2500    11.7532    82.2618     0.0260     0.1178     2.4846
  282.0000     7.8713     7.9055  -999.2500    11.7539    82.0177     0.0268     0.1145     2.4892
  282.5000     8.0957     8.0756  -999.2500    11.7545    79.8033     0.0269     0.1121     2.4870
