~VERSION INFORMATION
 VERS.                2.0:   CWLS LOG ASCII STANDARD - VERSION 2.0
 WRAP.                 NO:   ONE LINE PER DEPTH STEP
~WELL INFORMATION
#MNEM.UNIT      DATA TYPE    INFORMATION
#----------   ------------   ------------------------------
 STRT.F            0.0000:   START DEPTH
 STOP.F          553.0000:   STOP DEPTH
 STEP.F            0.5000:   STEP LENGTH
 NULL.          -999.2500:   NO VALUE
 COMP.   FLUOR DANIEL INC:   COMPANY
 WELL. NAVAL PETROLEUM RESERVE 3 SX-3 #1-3:   WELL
 FLD .             TEAPOT:   FIELD
 LOC .       S3 T38N R78W:   LOCATION
 CNTY.            NATRONA:   COUNTY
 STAT.            WYOMING:   STATE
 CTRY. UNITED STATES OF AMERICA:   COUNTRY
 SRVC.      Western Atlas:   SERVICE COMPANY
 DATE.        28-DEC-1994:   LOGDATE
 API .       490252267700:   API NUMBER
~CURVE INFORMATION
#MNEM.UNIT       API CODE    CURVE DESCRIPTION
#----------   ------------   ------------------------------
 DEPT.F                  :   
 GRR .GAPI   07 310 01 00:   GAMMA RAY FROM RES. LOG.
 RILD.OHMM   07 120 46 00:   INDUCTION LOG DEEP RESISTIVITY
 RILM.OHMM   07 120 44 00:   INDUCTION LOG MEDIUM RESISTIVITY
~PARAMETER INFORMATION
#MNEM.UNIT          VALUE    DESCRIPTION
#----------   ------------   ------------------------------
 PD  .                 GL:   PERMANENT DATUM
 EPD .F              5174:   ELEVATION PERMANENT DATUM
 LMF .                 KB:   LOG MEASURED FROM
 DAPD.F                10:   FEET ABOVE PERMANENT DATUM
 DMF .                 KB:   DRILLING MEASURED FROM
 EKB .F              5184:   KELLING BUSHING
 EDF .F              5183:   DRILLING FLOOR
 EGL .F              5174:   GROUND LEVEL
 DATE.        28-DEC-1994:   RUN DATE
 RUN .                  1:   RUN NUMBER
 DD  .F               561:   DEPTH DRILLER
 DL  .F               562:   DEPTH LOGGER
 BLI .F               553:   BOTTOM LOG INTERVAL
 CS  .IN            9.625:   CASING SIZE
 CBD .F                54:   CASING BOTTOM DRILLER
 CBL .F                54:   CASING BOTTOM LOGGER
 BS  .IN             8.75:   BIT SIZE
 BSD .F               561:   BIT SIZE AT DEPTH
 DFT .                AIR:   DRILLING FLUID TYPE
 MRT .F                89:   MAXIMUM RECORDED TEMPERATURE
 LUN .            HL 6530:   LOGGING UNIT NUMBER
 LUL .             CASPER:   LOGGING UNIT LOCATION
 ENGI.      PAT RASMUSSEN:   RECORDING ENGINEER
 WITN.        STEVE HARDY:   WITNESSED BY
 CLNT.            A2DTECH:   CLIENT CODE
 ORIG.           5" PRINT:   ORIGIN OF DATA
 UWI .       490252267700:   UNIQUE WELL ID
 DICO. A2D Technologies, Inc.:   DIGITIZING COMPANY
~OTHER INFORMATION
~A    DEPT      GRR      RILD       RILM   
# ...
   91.0000   130.1511     7.0724     7.1380
   91.5000   126.3392     7.2085     7.2753
   92.0000   123.2811     7.3943     7.4628
   92.5000   123.0668     7.5849     7.6552
   93.0000   124.5376     7.7804     7.8525
   93.5000   126.0590     7.9809     8.0549
   94.0000   126.9462     8.2845     8.2595
   94.5000   130.1446     8.2662     8.3614
   95.0000   133.2234     8.2304     8.3065
   95.5000   131.5406     8.2084     8.2860
   96.0000   128.6856     8.0611     8.1355
   96.5000   125.8155     7.8810     7.9542
   97.0000   123.9584     7.7049     7.7763
   97.5000   125.3288     7.5541     7.6242
   98.0000   127.4026     7.3000     7.3677
   98.5000   128.9098     7.0370     7.1022
   99.0000   129.3687     6.8882     6.9520
   99.5000   129.8408     6.8203     6.8840
  100.0000   129.2064     6.7618     6.8249
  100.5000   127.7949     6.8555     6.9190
  101.0000   127.5515     6.9886     7.0534
  101.5000   130.2366     7.0923     7.1581
  102.0000   133.2181     7.1892     7.2558
  102.5000   131.1562     7.2873     7.3549
  103.0000   127.8184     7.3868     7.4553
  103.5000   126.0906     7.4877     7.5571
  104.0000   126.5336     7.5899     7.6603
  104.5000   129.6530     7.6936     7.7659
  105.0000   132.6789     7.7750     7.8446
  105.5000   134.8198     7.8038     7.8688
  106.0000   131.3132     7.8327     7.8916
  106.5000   127.7486     7.8618     7.9149
  107.0000   126.7439     7.8909     7.9382
  107.5000   129.8412     7.9201     7.9616
  108.0000   133.3129     7.9495     7.9851
  108.5000   134.3476     7.9790     8.0086
  109.0000   132.9265     8.0086     8.0323
  109.5000   130.8709     8.0389     8.0559
  110.0000   129.9569     8.0582     8.0582
  110.5000   132.7810     7.8888     7.9224
  111.0000   134.3487     7.7633     7.8214
  111.5000   134.4763     7.6834     7.7543
  112.0000   134.6148     7.6364     7.7078
  112.5000   134.7316     7.5930     7.6634
  113.0000   134.2783     7.5541     7.6272
  113.5000   133.2024     7.6668     7.6919
  114.0000   130.0369     7.7373     7.8090
  114.5000   127.2190     7.8085     7.8809
  115.0000   125.8824     7.8803     7.9534
  115.5000   125.4405     7.9528     8.0266
  116.0000   126.2803     8.0260     8.1004
  116.5000   128.2654     8.0999     8.1749
  117.0000   128.9595     8.1744     8.2498
  117.5000   130.2483     8.2084     8.2855
  118.0000   132.9184     8.1253     8.2004
  118.5000   135.1446     8.0582     8.1322
  119.0000   131.4659     8.0582     8.1320
  119.5000   127.8987     8.1469     8.2218
  120.0000   131.1461     8.2289     8.3052
  120.5000   133.3544     8.3118     8.3888
  121.0000   134.2632     8.3954     8.4733
  121.5000   137.3003     8.4799     8.5586
  122.0000   141.4854     8.5653     8.6447
  122.5000   140.6559     8.6516     8.7318
  123.0000   139.2226     8.7387     8.8197
  123.5000   140.4141     8.8266     8.9085
  124.0000   142.7347     8.8536     8.9356
  124.5000   142.9307     8.8772     8.9595
  125.0000   139.8909     8.9010     8.9835
  125.5000   136.9117     8.9193     9.0020
  126.0000   134.0160     9.0883     9.1651
  126.5000   135.3465     9.2213     9.2878
  127.0000   137.8023     9.3564     9.4121
  127.5000   140.0764     9.4934     9.5381
  128.0000   140.4047     9.6324     9.6658
  128.5000   139.2284     9.7734     9.7952
  129.0000   137.7644     9.9165     9.9263
  129.5000   136.2963    10.0617    10.0593
  130.0000   134.7444    10.2624    10.1939
  130.5000   131.0483    10.5311    10.4012
  131.0000   129.8877    10.7605    10.6543
  131.5000   132.4312    10.9818    10.9137
  132.0000   135.0583    11.2076    11.1796
  132.5000   133.2876    11.4381    11.4511
  133.0000   130.7012    11.6569    11.5492
  133.5000   128.1260    11.6022    11.3860
  134.0000   125.5412    11.5403    11.2751
  134.5000   124.3423    11.4785    11.1652
  135.0000   125.9697    11.3759    11.0563
  135.5000   127.7806    11.2182    10.9486
  136.0000   129.6124    11.0627    10.8419
  136.5000   129.9288    10.9093    10.7362
  137.0000   130.6877    10.7581    10.6315
  137.5000   133.2308    10.6089    10.5279
  138.0000   135.8754    10.5090    10.4343
  138.5000   136.9726    10.4634    10.4343
  139.0000   136.2936    10.4179    10.4343
  139.5000   134.6202    10.3724    10.4342
  140.0000   132.9269    10.3264    10.4226
  140.5000   132.3354    10.2781    10.3733
  141.0000   132.3235    10.2300    10.3248
  141.5000   132.3351    10.1821    10.2765
  142.0000   132.8201    10.1344    10.2284
  142.5000   134.1534    10.0870    10.1805
  143.0000   134.3084    10.0398    10.1329
  143.5000   134.7842     9.9928    10.0855
  144.0000   136.3987     9.9638    10.0562
  144.5000   138.2074    10.0129    10.0764
  145.0000   139.9835    10.0486    10.0911
  145.5000   139.9166    10.0845    10.1058
  146.0000   138.9994    10.1205    10.1204
  146.5000   136.8470    10.1494    10.1353
  147.0000   134.3615    10.0911    10.1494
  147.5000   131.5632    10.0428    10.0179
  148.0000   129.3734     9.9946     9.8939
  148.5000   132.0983     9.9467     9.7711
  149.0000   135.9944     9.8990     9.6502
  149.5000   139.4868     9.8515     9.5121
  150.0000   138.5697     9.8042     9.5183
  150.5000   137.4016     9.6674     9.3886
  151.0000   136.2455     9.4510     9.3415
  151.5000   135.9415     9.2394     9.2964
  152.0000   137.3940     9.0326     9.2572
  152.5000   140.4318     8.8303     9.0400
  153.0000   143.4601     8.6327     8.7959
  153.5000   143.2109     8.4394     8.5585
  154.0000   141.8266     8.2505     8.3274
  154.5000   141.5214     8.0657     8.1021
  155.0000   145.6160     7.8838     7.8845
  155.5000   149.5428     7.6958     7.6925
  156.0000   151.9280     7.7790     7.7251
  156.5000   151.9402     7.8739     7.9296
  157.0000   151.3587     7.9688     8.1330
  157.5000   149.9277     8.0582     8.3362
  158.0000   145.5904     8.2461     8.5383
  158.5000   135.0633     8.4662     8.7452
  159.0000   128.6902     8.6922     8.9572
  159.5000   127.1105     8.9196     9.0642
  160.0000   128.3784     9.0856     9.1697
  160.5000   131.6115     9.0653     9.1486
  161.0000   134.8316     9.0336     9.1173
  161.5000   134.4788     9.0027     9.0862
  162.0000   131.5808     8.9720     9.0552
  162.5000   129.3024     8.9413     9.0242
  163.0000   128.2574     8.9108     8.9934
  163.5000   130.9427     8.8804     8.9627
  164.0000   137.0228     8.8375     8.9193
  164.5000   139.6185     8.8752     8.9580
  165.0000   137.8464     8.9424     9.0253
  165.5000   139.2497     9.0096     9.0931
  166.0000   143.0929     9.0773     9.1615
  166.5000   142.9915     9.1456     9.2303
  167.0000   141.2299     9.2148     9.2996
  167.5000   140.8996     9.2544     9.3405
  168.0000   139.5080     9.1998     9.2451
  168.5000   137.3403     9.1607     9.1782
  169.0000   135.4776     9.1221     9.1119
  169.5000   135.4214     9.0836     9.0460
  170.0000   136.7935     9.0453     8.9804
  170.5000   138.2659     9.0070     8.9190
  171.0000   139.0970     9.0020     8.9269
  171.5000   139.9367     9.0020     8.9362
  172.0000   141.2108     9.0019     8.9453
  172.5000   141.1201     9.0020     8.9544
  173.0000   139.5766     9.0020     8.9636
  173.5000   137.9823     9.0020     8.9727
  174.0000   136.3919     9.0020     8.9819
  174.5000   134.7988     9.0020     8.9909
  175.0000   133.4988     9.0017     9.0011
  175.5000   134.2742     9.0025     8.9780
  176.0000   138.0535     8.9624     8.9480
  176.5000   138.2191     8.9248     8.9183
  177.0000   134.9815     8.8872     8.8887
  177.5000   131.6993     8.8497     8.8591
  178.0000   131.1590     8.8124     8.8297
  178.5000   132.7617     8.7752     8.8004
  179.0000   135.6438     8.7382     8.7712
  179.5000   138.0445     8.7013     8.7421
  180.0000   136.9664     8.6646     8.7130
  180.5000   135.6382     8.6281     8.6841
  181.0000   136.9317     8.5917     8.6553
  181.5000   140.1871     8.5555     8.6265
