~VERSION INFORMATION
 VERS.                2.0:   CWLS LOG ASCII STANDARD - VERSION 2.0
 WRAP.                 NO:   ONE LINE PER DEPTH STEP
~WELL INFORMATION
#MNEM.UNIT      DATA TYPE    INFORMATION
#----------   ------------   ------------------------------
 STRT.F           32.5000:   START DEPTH
 STOP.F          654.0000:   STOP DEPTH
 STEP.F            0.5000:   STEP LENGTH
 NULL.          -999.2500:   NO VALUE
 COMP. FENIX & SCISSON INC:   COMPANY
 WELL.          NPR #13-2:   WELL
 FLD .             TEAPOT:   FIELD
 LOC .       S2 T38N R78W:   LOCATION
 CNTY.            NATRONA:   COUNTY
 STAT.            WYOMING:   STATE
 CTRY. UNITED STATES OF AMERICA:   COUNTRY
 SRVC.           BIRDWELL:   SERVICE COMPANY
 DATE.        16-JAN-1978:   LOGDATE
 API .       490251055100:   API NUMBER
~CURVE INFORMATION
#MNEM.UNIT       API CODE    CURVE DESCRIPTION
#----------   ------------   ------------------------------
 DEPT.F                  :   
 ILD .OHMM   05 120 46 00:   INDUCTION LOG DEEP
 SN  .OHMM   05 040 16 00:   SHORT NORMAL 16"
 SPR .MV     05 010 01 00:   SPONTANEOUS POTENTIAL FROM RES.
 CALD.IN     45 280 60 00:   CALIPER FROM DENSITY LOG
 CORR.G/C3   45 356 01 00:   DENSITY CORRECTION
 DPHI.DEC    45 890 12 00:   DENSITY POROSITY SANDSTONE
 GRD .GAPI   45 310 01 00:   GAMMA RAY FROM DENSITY LOG
 RHOB.G/C3   45 350 01 00:   BULK DENSITY
~PARAMETER INFORMATION
#MNEM.UNIT          VALUE    DESCRIPTION
#----------   ------------   ------------------------------
 PD  .                 GL:   PERMANENT DATUM
 EPD .F              5091:   ELEVATION PERMANENT DATUM
 LMF .                 KB:   LOG MEASURED FROM
 DAPD.F                 4:   FEET ABOVE PERMANENT DATUM
 DMF .                 KB:   DRILLING MEASURED FROM
 EKB .F              5095:   KELLING BUSHING
 EGL .F              5091:   GROUND LEVEL
 DATE.        16-JAN-1978:   RUN DATE
 RUN .                  1:   RUN NUMBER
 DD  .F               652:   DEPTH DRILLER
 DL  .F               654:   DEPTH LOGGER
 BLI .F               649:   BOTTOM LOG INTERVAL
 TLI .F                30:   TOP LOG INTERVAL
 CS  .IN            8.625:   CASING SIZE
 CBD .F                20:   CASING BOTTOM DRILLER
 CBL .F                34:   CASING BOTTOM LOGGER
 BS  .IN            7.875:   BIT SIZE
 BSD .F               652:   BIT SIZE AT DEPTH
 DFT .                KCL:   DRILLING FLUID TYPE
 DFD .                8.7:   DRILLING FLUID DENSITY
 DFV .                 34:   DRILLING FLUID VISCOSITY
 DFPH.                 10:   DRILLING FLUID PH
 MSS .           FLOWLINE:   MUD SAMPLE SOURCE
 RMS .OHMM            0.3:   RESISTIVITY MUD SAMPLE
 MST .F                62:   MUD SAMPLE TEMPERATURE
 RMF .OHMM           0.26:   RESISTIVITY MUD FILTRATE SAMPLE
 MFST.F                66:   MUD FILTRATE SAMPLE TEMPERATURE
 RMC .OHMM           0.48:   RESISTIVITY MUD CAKE
 MCST.F                66:   MUD CAKE SAMPLE TEMPERATURE
 MFSS.               MEAS:   MUD FILTRATE SAMPLE SOURCE
 MCSS.               MEAS:   MUD CAKE SAMPLE SOURCE
 RMB .OHMM           0.26:   RESISTIVITY MUD AT BHT
 BHT .F                72:   BOTTOM HOLE TEMPERATURE
 TCS .HRS               3:   TIME CURCULATED STOPPED
 MRT .F                72:   MAXIMUM RECORDED TEMPERATURE
 LUN .               3027:   LOGGING UNIT NUMBER
 LUL .                GJT:   LOGGING UNIT LOCATION
 ENGI.           MARTINEZ:   RECORDING ENGINEER
 WITN.         HARRINGTON:   WITNESSED BY
 CLNT.            A2DTECH:   CLIENT CODE
 ORIG.           5" PRINT:   ORIGIN OF DATA
 UWI .       490251055100:   UNIQUE WELL ID
 DICO. A2D Technologies, Inc.:   DIGITIZING COMPANY
~OTHER INFORMATION
~A   DEPT      ILD         SN        SPR       CALD       CORR       DPHI         GRD      RHOB   
# ...
  356.5000     8.3686     9.7826   -31.0218     8.7071     0.1366     0.1240    93.0261     2.4520
  357.0000     8.4851     9.5819   -31.6180     8.7039     0.1303     0.1330    93.6540     2.4505
  357.5000     8.6630     9.3207   -31.7649     8.7194     0.1246     0.1432    94.8650     2.4414
  358.0000     8.7836     9.0666   -31.6093     8.7198     0.1231     0.1564    95.1711     2.4216
  358.5000     8.7743     8.8194   -31.4548     8.7202     0.1246     0.1598    95.3264     2.4005
  359.0000     8.6033     8.5790   -31.6006     8.7207     0.1306     0.1634    97.1408     2.3926
  359.5000     8.4851     8.4030   -31.5961     8.7211     0.1456     0.1630   100.1618     2.3919
  360.0000     8.3686     8.3452   -31.4406     8.7216     0.1607     0.1552   103.1828     2.3949
  360.5000     8.3109     8.2877   -31.4362     8.7070     0.1697     0.1453   103.1872     2.4069
  361.0000     8.3109     8.2877   -31.4318     8.6925     0.1757     0.1336   101.8342     2.4287
  361.5000     8.4266     8.4030   -31.1272     8.6781     0.1742     0.1121    95.8054     2.4505
  362.0000     8.6033     8.5790   -30.9723     8.6785     0.1727     0.0977    89.7526     2.4760
  362.5000     8.7231     8.6984   -30.8178     8.6639     0.1667     0.1070    91.3651     2.4925
  363.0000     8.9059     9.0042   -30.9646     8.6644     0.1547     0.1083    92.9541     2.4910
  363.5000     9.2192     9.3207   -30.8090     8.6798     0.1381     0.0977    94.1651     2.4910
  364.0000     9.6097     9.5819   -30.0962     8.6652     0.1366     0.0902    95.0745     2.5063
  364.5000     9.4778     9.9187   -30.1997     8.6657     0.1396     0.0942    95.5315     2.5090
  365.0000     9.3476    10.4102   -30.1952     8.6362     0.1306     0.0986    95.8375     2.5038
  365.5000     9.2192    10.7801   -30.1899     8.6067     0.1051     0.0998    95.5403     2.5015
  366.0000     9.2192    11.0151   -30.0354     8.6072     0.0721     0.1025    93.8856     2.4985
  366.5000     9.3476    11.1549   -30.1822     8.6076     0.0690     0.1076    94.3425     2.4925
  367.0000     9.4778    11.1549   -30.1768     8.6081     0.0495     0.1115    95.8553     2.4857
  367.5000     9.4124    11.1549   -30.3226     8.6086     0.0345     0.1139    97.8407     2.4737
  368.0000     9.3476    11.0781   -30.7687     8.6091     0.0270     0.1163   100.4434     2.4670
  368.5000     9.2192    11.0781   -31.6682     8.6095     0.0255     0.1175   100.8459     2.4625
  369.0000     9.2192    11.0018   -31.9830     8.6099     0.0255     0.1181    96.1757     2.4595
  369.5000     9.2192    11.0018   -32.2571     8.6104     0.0285     0.1181    95.8774     2.4580
  370.0000     9.2150    10.8508   -32.2516     8.6258     0.0300     0.1196    96.1835     2.4565
  370.5000     8.9677    10.7019   -32.2472     8.6412     0.0255     0.1262    93.7758     2.4550
  371.0000     8.7231    10.4102   -32.2429     8.6566     0.0195     0.1344    91.3669     2.4459
  371.5000     8.4266    10.1264   -32.2385     8.6720     0.0165     0.1346    91.6730     2.4369
  372.0000     8.1403     9.8504   -32.2341     8.6725     0.0165     0.1352    90.7725     2.4347
  372.5000     7.7557     9.5819   -32.0796     8.6879     0.0180     0.1451    89.2686     2.4339
  373.0000     7.4405     9.1295   -31.9249     8.6883     0.0165     0.1463    87.7647     2.4234
  373.5000     7.1876     8.6984   -31.7695     8.7038     0.0150     0.1565    87.0150     2.4159
  374.0000     7.1876     8.2824   -31.7651     8.7043     0.0135     0.1631    92.1899     2.4024
  374.5000     7.1876     8.1177   -31.6106     8.7047     0.0165     0.1565    97.1306     2.3949
  375.0000     7.2375     8.1740   -31.6062     8.7051     0.0195     0.1445   101.3582     2.4024
  375.5000     7.3383     8.3452   -31.6019     8.7056     0.0285     0.1331   103.4743     2.4261
  376.0000     7.4921     8.5790   -31.5975     8.7060     0.0465     0.1265   104.5345     2.4480
  376.5000     7.7022     9.0042   -31.2928     8.6914     0.0311     0.1214   103.2144     2.4610
  377.0000     7.9732     9.5159   -31.2883     8.6919     0.0225     0.1174    98.2553     2.4625
  377.5000     8.4266    10.1264   -30.9827     8.6924     0.0255     0.1203    93.2359     2.4617
  378.0000     9.0985    10.7059   -30.6781     8.6928     0.0270     0.1218    89.6204     2.4610
  378.5000     9.6097    11.0151   -30.5246     8.6783     0.0285     0.1200    88.4171     2.4640
  379.0000     9.7436    11.1549   -30.6704     8.6787     0.0315     0.1167    94.9083     2.4677
  379.5000     9.8112    11.2323   -30.8162     8.6793     0.0375     0.1116    96.5708     2.4730
  380.0000     9.8112    11.3101   -30.9610     8.6797     0.0465     0.1062    94.3139     2.4820
  380.5000     9.7436    11.3886   -30.9565     8.6801     0.0526     0.1041    92.8100     2.4887
  381.0000     9.7436    11.3886   -30.8009     8.6806     0.0542     0.1077    91.7586     2.4849
  381.5000     9.7436    11.3886   -30.3461     8.6810     0.0556     0.1080    91.8014     2.4827
  382.0000     9.7472    11.3101   -30.6431     8.6815     0.0616     0.1047    94.1819     2.4880
  382.5000     9.8112    11.3101   -30.9391     8.6819     0.0661     0.1016    92.3763     2.4910
  383.0000     9.8112    11.3101   -31.0848     8.6824     0.0736     0.0996    91.1730     2.4932
  383.5000     9.8112    11.3101   -31.0794     8.6978     0.0826     0.1026    91.9327     2.4917
  384.0000     9.8112    11.3101   -31.0750     8.6982     0.0856     0.1050    97.6687     2.4910
  384.5000     9.7436    11.3101   -31.0706     8.6987     0.0856     0.1047   102.6505     2.4940
  385.0000     9.7436    11.3101   -30.9150     8.6991     0.0901     0.1026   101.4483     2.4947
  385.5000     9.7436    11.3886   -30.6104     8.7146     0.0961     0.1002   100.8492     2.4910
  386.0000     9.7436    11.3101   -30.7562     8.7150     0.0976     0.1014   102.0604     2.4879
  386.5000     9.7436    11.3101   -31.0521     8.7155     0.0901     0.1107   101.4615     2.4850
  387.0000     9.7436    11.3101   -31.1990     8.7159     0.0856     0.1158    99.3544     2.4758
  387.5000     9.7436    11.2323   -31.3438     8.7164     0.0916     0.1134   101.2695     2.4730
  388.0000     9.7436    11.1549   -31.3393     8.7168     0.1036     0.1038   102.3798     2.4805
  388.5000     9.6764    11.1549   -31.1847     8.7172     0.1186     0.0983    96.6538     2.4895
  389.0000     9.6097    11.0781   -31.1793     8.7177     0.1321     0.0954    94.8472     2.5000
  389.5000     9.5431    11.0781   -31.3262     8.7031     0.1456     0.0939    97.2660     2.5038
  390.0000     9.4038    11.0781   -31.4709     8.7036     0.1562     0.0924   100.5887     2.5045
  390.5000     9.0926    10.9221   -31.4665     8.6891     0.1607     0.0897   102.4031     2.5068
  391.0000     8.8445    10.7019   -31.7625     8.6895     0.1639     0.0868   101.8042     2.5120
  391.5000     8.6033    10.5551   -31.9082     8.6901     0.1667     0.0832    99.6970     2.5165
  392.0000     8.4851    10.4102   -32.2042     8.6905     0.1697     0.0811    99.5425     2.5195
  392.5000     8.4851    10.2673   -32.1997     8.6909     0.1727     0.0844   101.2293     2.5210
  393.0000     8.5440    10.1264   -32.3456     8.6914     0.1667     0.0955    99.7110     2.5170
  393.5000     8.6033    10.1264   -32.3401     8.7068     0.1562     0.1012    95.1906     2.5030
  394.0000     8.4765    10.0567   -32.3358     8.7072     0.1486     0.1051    86.2960     2.4910
  394.5000     8.3109     9.9526   -32.1813     8.7226     0.1396     0.1050    90.9762     2.4835
  395.0000     8.1403     9.8504   -32.1769     8.7231     0.1336     0.1024    97.3155     2.4865
  395.5000     7.9732     9.7152   -32.1725     8.7235     0.1321     0.1111   100.0348     2.4865
  396.0000     7.9182     9.5819   -32.3183     8.7240     0.1241     0.1276   100.1901     2.4655
  396.5000     7.8637     9.3853   -32.3138     8.7244     0.1156     0.1336   101.2866     2.4474
