~VERSION INFORMATION
 VERS.                2.0:   CWLS LOG ASCII STANDARD - VERSION 2.0
 WRAP.                 NO:   ONE LINE PER DEPTH STEP
~WELL INFORMATION
#MNEM.UNIT      DATA TYPE    INFORMATION
#----------   ------------   ------------------------------
 STRT.F           16.0000:   START DEPTH
 STOP.F          474.0000:   STOP DEPTH
 STEP.F            0.5000:   STEP LENGTH
 NULL.          -999.2500:   NO VALUE
 COMP. FENIX & SCISSON INCORPORATED:   COMPANY
 WELL.    NPR #3 #58-SX-3:   WELL
 FLD .             TEAPOT:   FIELD
 LOC .       S3 T38N R78W:   LOCATION
 CNTY.            NATRONA:   COUNTY
 STAT.            WYOMING:   STATE
 CTRY. UNITED STATES OF AMERICA:   COUNTRY
 SRVC.           BIRDWELL:   SERVICE COMPANY
 DATE.        19-OCT-1978:   LOGDATE
 API .       490251072000:   API NUMBER
~CURVE INFORMATION
#MNEM.UNIT       API CODE    CURVE DESCRIPTION
#----------   ------------   ------------------------------
 DEPT.F                  :   
 CALD.IN     45 280 60 00:   CALIPER FROM DENSITY LOG
 CORR.G/C3   45 356 01 00:   DENSITY CORRECTION
 DPHI.DEC    45 890 12 00:   DENSITY POROSITY SANDSTONE
 GRD .GAPI   45 310 01 00:   GAMMA RAY FROM DENSITY LOG
 RHOB.G/C3   45 350 01 00:   BULK DENSITY
 ILD .OHMM   05 120 46 00:   INDUCTION LOG DEEP
 SN  .OHMM   05 040 16 00:   SHORT NORMAL 16"
 SPR .MV     05 010 01 00:   SPONTANEOUS POTENTIAL FROM RES.
~PARAMETER INFORMATION
#MNEM.UNIT          VALUE    DESCRIPTION
#----------   ------------   ------------------------------
 PD  .                 GL:   PERMANENT DATUM
 EPD .F              5198:   ELEVATION PERMANENT DATUM
 LMF .                 KB:   LOG MEASURED FROM
 DAPD.F                 4:   FEET ABOVE PERMANENT DATUM
 DMF .                 KB:   DRILLING MEASURED FROM
 EKB .F              5202:   KELLING BUSHING
 EGL .F              5198:   GROUND LEVEL
 DATE.        19-OCT-1978:   RUN DATE
 RUN .                  1:   RUN NUMBER
 DD  .F               474:   DEPTH DRILLER
 DL  .F               474:   DEPTH LOGGER
 BLI .F               474:   BOTTOM LOG INTERVAL
 TLI .F                30:   TOP LOG INTERVAL
 CBD .F                40:   CASING BOTTOM DRILLER
 CBL .F                38:   CASING BOTTOM LOGGER
 BS  .IN            7.875:   BIT SIZE
 BSD .F               474:   BIT SIZE AT DEPTH
 DFT .                KCL:   DRILLING FLUID TYPE
 DFD .                8.7:   DRILLING FLUID DENSITY
 DFV .                 38:   DRILLING FLUID VISCOSITY
 DFPH.                9.0:   DRILLING FLUID PH
 DFL .                 13:   DRILLING FLUID LOSS
 MSS .           FLOWLINE:   MUD SAMPLE SOURCE
 RMS .OHMM            .25:   RESISTIVITY MUD SAMPLE
 MST .F                58:   MUD SAMPLE TEMPERATURE
 RMF .OHMM             .2:   RESISTIVITY MUD FILTRATE SAMPLE
 MFST.F                60:   MUD FILTRATE SAMPLE TEMPERATURE
 RMC .OHMM            .24:   RESISTIVITY MUD CAKE
 MCST.F                60:   MUD CAKE SAMPLE TEMPERATURE
 MFSS.               MEAS:   MUD FILTRATE SAMPLE SOURCE
 MCSS.               MEAS:   MUD CAKE SAMPLE SOURCE
 RMB .OHMM            .23:   RESISTIVITY MUD AT BHT
 BHT .F                70:   BOTTOM HOLE TEMPERATURE
 TCS .HRS               3:   TIME CURCULATED STOPPED
 MRT .F                70:   MAXIMUM RECORDED TEMPERATURE
 LUN .               2958:   LOGGING UNIT NUMBER
 LUL .               CASP:   LOGGING UNIT LOCATION
 ENGI.           REYNOLDS:   RECORDING ENGINEER
 WITN.           DINSMORE:   WITNESSED BY
 CLNT.            A2DTECH:   CLIENT CODE
 ORIG.           5" PRINT:   ORIGIN OF DATA
 UWI .       490251072000:   UNIQUE WELL ID
 DICO. A2D Technologies, Inc.:   DIGITIZING COMPANY
~OTHER INFORMATION
~A   DEPT     CALD       CORR       DPHI         GRD      RHOB        ILD         SN        SPR   
# ...
  218.5000     7.9269     0.0197     0.1470    70.9939     2.4388     5.7314     5.6646   -39.9771
  219.0000     7.9327     0.0168     0.1458    72.6173     2.4366     5.6157     5.4019   -39.5424
  219.5000     7.9411     0.0139     0.1408    72.7639     2.4393     5.5025     5.1514   -37.3378
  220.0000     7.9408     0.0124     0.1310    72.0236     2.4618     5.5125     4.9797   -36.6061
  220.5000     7.9427     0.0109     0.1186    71.7267     2.4743     5.7314     4.9460   -36.7633
  221.0000     7.9551     0.0109     0.1124    72.5180     2.4839     5.9697     5.1865   -37.0664
  221.5000     7.9696     0.0109     0.1118    76.0071     2.4884     6.2181     5.4757   -35.3059
  222.0000     7.9778     0.0109     0.1142    78.2213     2.4906     6.4767     5.8599   -34.5762
  222.5000     7.9837     0.0109     0.1121    72.3115     2.4921     6.7599     6.2288   -34.4345
  223.0000     7.9834     0.0109     0.1098    65.8108     2.4930     7.1714     6.5447   -34.4442
  223.5000     7.9683     0.0109     0.1089    62.2643     2.4936     7.4191     6.8492   -34.4521
  224.0000     7.9680     0.0109     0.1095    60.7858     2.4937     7.6234     7.0854   -34.4617
  224.5000     7.9677     0.0124     0.1118    58.7075     2.4937     7.6234     7.2311   -34.4384
  225.0000     7.9674     0.0139     0.1130    59.5027     2.4937     7.4697     7.2803   -34.3278
  225.5000     7.9671     0.0139     0.1121    65.8033     2.4938     7.3689     7.3797   -34.1900
  226.0000     7.9669     0.0124     0.1118    68.7561     2.4938     7.3689     7.3797   -33.9028
  226.5000     7.9666     0.0109     0.1141    68.4592     2.4938     7.4191     7.3797   -33.4508
  227.0000     7.9662     0.0124     0.1165    65.2082     2.4916     7.5206     7.3797   -32.5928
  227.5000     7.9660     0.0139     0.1177    64.7636     2.4865     7.6234     7.3797   -32.1562
  228.0000     7.9657     0.0182     0.1165    66.0916     2.4814     7.6754     7.3298   -31.8689
  228.5000     7.9654     0.0226     0.1147    72.0877     2.4799     7.7277     7.3298   -31.5817
  229.0000     7.9799     0.0286     0.1141    77.3144     2.4807     7.7804     7.2803   -31.8864
  229.5000     7.9796     0.0343     0.1138    78.6423     2.4852     7.7804     7.2803   -32.3386
  230.0000     7.9792     0.0387     0.1094    76.4252     2.4920     7.7804     7.2803   -32.6413
  230.5000     7.9789     0.0431     0.1035    74.0604     2.5029     7.7804     7.2803   -33.0916
  231.0000     7.9787     0.0328     0.0999    73.4682     2.5110     7.7804     7.2311   -33.3943
  231.5000     7.9784     0.0226     0.0999    73.3190     2.5199     7.7277     7.2311   -33.9921
  232.0000     7.9633     0.0139     0.1024    72.2836     2.5251     7.7277     7.2311   -34.2950
  232.5000     7.9630     0.0080     0.1093    80.9968     2.5060     7.7277     7.2311   -34.7470
  233.0000     7.9627     0.0022     0.1167    81.5865     2.4913     7.7277     7.2311   -34.9023
  233.5000     7.9624     0.0007     0.1223    81.7328     2.4794     7.6234     7.2803   -34.9100
  234.0000     7.9621     0.0007     0.1170    79.6631     2.4751     7.5206     7.2311   -34.9174
  234.5000     7.9618     0.0022     0.1135    78.0368     2.4884     7.4191     7.2311   -34.9972
  235.0000     7.9615     0.0051     0.1128    77.5923     2.4943     7.3689     7.1822   -35.0811
  235.5000     7.9612     0.0080     0.1171    77.8863     2.4988     7.3190     7.1337   -35.0905
  236.0000     7.9609     0.0095     0.1308    77.2937     2.4914     7.2202     7.0854   -35.0983
  236.5000     7.9606     0.0124     0.1341    72.4178     2.4679     7.1228     6.9900   -35.2536
  237.0000     7.9603     0.0153     0.1353    69.6098     2.4531     7.0267     6.8958   -35.2613
  237.5000     7.9452     0.0168     0.1338    67.9836     2.4466     6.9792     6.8492   -35.4167
  238.0000     7.9302     0.0197     0.1211    69.1639     2.4636     6.8850     6.7112   -35.5738
  238.5000     7.9299     0.0197     0.1155    77.2866     2.4768     6.7921     6.6208   -35.5816
  239.0000     7.9296     0.0212     0.1152    74.9217     2.4872     6.6551     6.4875   -35.8843
  239.5000     7.9293     0.0212     0.1191    69.5775     2.4946     6.5653     6.3568   -36.3345
  240.0000     7.9289     0.0197     0.1364    60.5906     2.4733     6.4329     6.3568   -37.6697
  240.5000     7.9287     0.0199     0.1396    61.4754     2.4534     6.3031     6.3138   -38.8575
  241.0000     7.9284     0.0255     0.1446    63.2465     2.4413     6.2178     6.2712   -35.7698
  241.5000     7.9133     0.0314     0.1470    63.8363     2.4335     6.1342     6.2288   -34.7451
  242.0000     7.9130     0.0351     0.1340    61.9143     2.4306     6.0104     6.1033   -34.1629
  242.5000     7.9127     0.0212     0.1216    59.5495     2.4631     5.9697     5.9750   -34.0213
  243.0000     7.9124     0.0197     0.1150    60.8064     2.4801     5.8892     5.8203   -34.0310
  243.5000     7.9269     0.0197     0.1092    67.0795     2.4934     5.8097     5.7031   -34.1882
  244.0000     7.9266     0.0226     0.1066    67.3738     2.4949     5.7704     5.6263   -34.4909
  244.5000     7.9263     0.0245     0.1051    67.9629     2.4949     5.7704     5.6263   -35.3836
  245.0000     7.9260     0.0270     0.1045    69.8817     2.4971     5.8097     5.7419   -36.2744
  245.5000     7.9405     0.0314     0.1042    73.4253     2.5001     6.0926     5.9400   -35.6940
  246.0000     7.9402     0.0314     0.1045    77.5598     2.5023     6.5689     6.1033   -35.5544
  246.5000     7.9399     0.0298     0.1033    79.6391     2.5038     7.0267     6.1867   -36.4491
  247.0000     7.9396     0.0226     0.1050    80.3634     2.5054     7.2695     6.3161   -37.6368
  247.5000     7.9541     0.0153     0.1118    80.0662     2.5039     7.4191     6.5316   -39.4145
  248.0000     7.9538     0.0109     0.1286    79.3262     2.4789     6.9792     6.5316   -40.7497
  248.5000     7.9535     0.0095     0.1395    78.5863     2.4539     6.6525     6.4875   -41.3474
  249.0000     7.9533     0.0080     0.1519    77.5509     2.4318     6.3461     6.3138   -40.8707
  249.5000     7.9529     0.0080     0.1602    76.8109     2.4141     6.1760     6.1449   -39.0050
  250.0000     7.9526     0.0095     0.1572    64.2541     2.4060     6.0104     5.8601   -37.6853
  250.5000     7.9372     0.0079     0.1245    58.0415     2.4355     5.7583     5.4395   -37.2487
  251.0000     7.9367     0.0093     0.1210    57.1482     2.4627     5.4660     5.2588   -37.7009
  251.5000     7.9509     0.0106     0.1151    56.5504     2.4855     5.2839     5.1187   -39.0464
  252.0000     7.9502     0.0105     0.1071    55.9526     2.4966     5.1426     4.9824   -39.9307
  252.5000     7.9646     0.0074     0.1007    59.8646     2.5083     5.1780     4.9159   -38.6111
  253.0000     7.9639     0.0044     0.0950    63.1747     2.5186     5.5047     5.0519   -36.4064
  253.5000     7.9633     0.0014     0.0936    68.0421     2.5260     5.9824     5.4439   -35.3818
  254.0000     7.9627    -0.0017     0.1018    68.6277     2.5171     6.4803     5.7482   -34.9469
  254.5000     7.9620    -0.0025     0.1114    68.0222     2.5053     6.9362     5.9473   -34.4970
  255.0000     7.9467    -0.0048     0.1124    67.1331     2.4993     7.3240     6.1951   -35.5545
  255.5000     7.9461    -0.0049     0.1125    66.5353     2.4956     7.5775     6.4615   -37.3322
  256.0000     7.9604    -0.0036     0.1133    65.9375     2.4919     7.6297     6.7681   -37.3399
  256.5000     7.9597    -0.0022     0.1145    65.0442     2.4941     7.6302     7.0025   -37.1983
  257.0000     7.9592    -0.0024     0.1160    61.7859     2.4948     7.6308     7.1960   -37.0237
  257.5000     7.9437    -0.0025     0.1113    59.8586     2.4867     7.6833     7.3948   -36.9211
  258.0000     7.9432    -0.0026     0.1048    60.8856     2.4800     7.7362     7.5992   -36.9305
  258.5000     7.9574    -0.0042     0.1019    61.9126     2.4984     7.7894     7.7040   -37.0857
