~VERSION INFORMATION
 VERS.                2.0:   CWLS LOG ASCII STANDARD - VERSION 2.0
 WRAP.                 NO:   ONE LINE PER DEPTH STEP
~WELL INFORMATION
#MNEM.UNIT      DATA TYPE    INFORMATION
#----------   ------------   ------------------------------
 STRT.F           34.5000:   START DEPTH
 STOP.F          756.0000:   STOP DEPTH
 STEP.F            0.5000:   STEP LENGTH
 NULL.          -999.2500:   NO VALUE
 COMP. FENIX & SCISSON INC:   COMPANY
 WELL.    36 SX 11 #36-11:   WELL
 FLD .        TEAPOT DOME:   FIELD
 LOC .      S11 T38N R78W:   LOCATION
 CNTY.            NATRONA:   COUNTY
 STAT.            WYOMING:   STATE
 CTRY. UNITED STATES OF AMERICA:   COUNTRY
 SRVC.           BIRDWELL:   SERVICE COMPANY
 DATE.        21-FEB-1978:   LOGDATE
 API .       490251059700:   API NUMBER
~CURVE INFORMATION
#MNEM.UNIT       API CODE    CURVE DESCRIPTION
#----------   ------------   ------------------------------
 DEPT.F                  :   
 SPR .MV     05 010 01 00:   SPONTANEOUS POTENTIAL FROM RES.
 SN  .OHMM   05 040 16 00:   SHORT NORMAL 16"
 ILD .OHMM   05 120 46 00:   INDUCTION LOG DEEP
 RHOB.G/C3   45 350 01 00:   BULK DENSITY
 DPHI.DEC    45 890 12 00:   DENSITY POROSITY SANDSTONE
 GRD .GAPI   45 310 01 00:   GAMMA RAY FROM DENSITY LOG
 CALD.IN     45 280 60 00:   CALIPER
 CORR.G/C3   45 356 01 00:   DENSITY CORRECTION
~PARAMETER INFORMATION
#MNEM.UNIT          VALUE    DESCRIPTION
#----------   ------------   ------------------------------
 PD  .                 GL:   PERMANENT DATUM
 EPD .F              5175:   ELEVATION PERMANENT DATUM
 LMF .                 KB:   LOG MEASURED FROM
 DAPD.F                 4:   FEET ABOVE PERMANENT DATUM
 DMF .                 KB:   DRILLING MEASURED FROM
 EKB .F              5179:   KELLING BUSHING
 EGL .F              5175:   GROUND LEVEL
 DATE.          2-21-1978:   RUN DATE
 RUN .                  1:   RUN NUMBER
 DD  .F               765:   DEPTH DRILLER
 DL  .F               760:   DEPTH LOGGER
 BLI .F               754:   BOTTOM LOG INTERVAL
 TLI .F                40:   TOP LOG INTERVAL
 CS  .IN            8.625:   CASING SIZE
 CBD .F                39:   CASING BOTTOM DRILLER
 CBL .F                40:   CASING BOTTOM LOGGER
 BS  .IN            7.875:   BIT SIZE
 BSD .F               765:   BIT SIZE AT DEPTH
 DFT .         LIGNO/SULF:   DRILLING FLUID TYPE
 DFD .                8.6:   DRILLING FLUID DENSITY
 DFV .                 33:   DRILLING FLUID VISCOSITY
 DFPH.               10.5:   DRILLING FLUID PH
 DFL .                 84:   DRILLING FLUID LOSS
 MSS .          FLOW LINE:   MUD SAMPLE SOURCE
 RMS .OHMM            1.8:   RESISTIVITY MUD SAMPLE
 MST .F                56:   MUD SAMPLE TEMPERATURE
 RMF .OHMM            1.8:   RESISTIVITY MUD FILTRATE SAMPLE
 MFST.F                58:   MUD FILTRATE SAMPLE TEMPERATURE
 RMC .OHMM              4:   RESISTIVITY MUD CAKE
 MCST.F                62:   MUD CAKE SAMPLE TEMPERATURE
 MFSS.               MEAS:   MUD FILTRATE SAMPLE SOURCE
 RMB .OHMM           1.48:   RESISTIVITY MUD AT BHT
 BHT .F                68:   BOTTOM HOLE TEMPERATURE
 TCS .HRS               5:   TIME CURCULATED STOPPED
 MRT .F                68:   MAXIMUM RECORDED TEMPERATURE
 LUN .               2958:   LOGGING UNIT NUMBER
 LUL .               CASP:   LOGGING UNIT LOCATION
 ENGI.            POINTER:   RECORDING ENGINEER
 WITN.           MCGINLEY:   WITNESSED BY
 CLNT.            A2DTECH:   CLIENT CODE
 ORIG.       2", 5" PRINT:   ORIGIN OF DATA
 UWI .       490251059700:   UNIQUE WELL ID
 DICO. A2D Technologies, Inc.:   DIGITIZING COMPANY
~OTHER INFORMATION
~A   DEPT      SPR         SN        ILD       RHOB       DPHI         GRD      CALD       CORR   
# ...
  399.0000   -27.6646     7.0317     6.5686     2.4383     0.1386    99.4540     7.9288     0.1007
  399.5000   -28.0598     7.1039     6.5463     2.4334     0.1377    98.5258     7.9324     0.0922
  400.0000   -28.4501     7.1999     6.5240     2.4334     0.1379    98.2800     7.9360     0.0870
  400.5000   -28.7420     7.1627     6.5018     2.4363     0.1433    98.9307     7.9396     0.0817
  401.0000   -28.3246     7.0915     6.4797     2.4425     0.1316    98.5475     7.9432     0.0768
  401.5000   -27.9783     7.0242     6.4577     2.4488     0.1206    94.6511     7.9468     0.0677
  402.0000   -28.1971     6.9117     6.4198     2.4494     0.1265    87.2285     7.9505     0.0425
  402.5000   -28.4760     6.8682     6.3480     2.4387     0.1339    83.5742     7.9541     0.0210
  403.0000   -28.2031     6.8226     6.2769     2.4274     0.1435    83.1473     7.9571     0.0222
  403.5000   -27.8444     6.7775     6.2067     2.4252     0.1388    85.6006     7.9601     0.0335
  404.0000   -27.4852     6.6986     6.1372     2.4392     0.1295    89.1417     7.9632     0.0386
  404.5000   -27.1295     6.5529     6.0686     2.4472     0.1303    94.7449     7.9663     0.0375
  405.0000   -27.1910     6.4104     6.0007     2.4491     0.1314   100.6047     7.9693     0.0370
  405.5000   -27.2943     6.2710     5.8252     2.4513     0.1254    99.7754     7.9724     0.0397
  406.0000   -27.3964     6.1305     5.6187     2.4539     0.1271    98.4354     7.9738     0.0448
  406.5000   -27.5015     5.9474     5.4194     2.4545     0.1305    97.0588     7.9738     0.0452
  407.0000   -27.4087     5.6941     5.2272     2.4510     0.1338    95.0029     7.9738     0.0470
  407.5000   -27.2194     5.4516     5.0419     2.4453     0.1325    92.8212     7.9738     0.0487
  408.0000   -27.0346     5.2194     4.8631     2.4455     0.1298    92.0255     7.9738     0.0505
  408.5000   -26.9253     4.9969     4.6905     2.4426     0.1359    89.5232     7.9738     0.0522
  409.0000   -26.9159     4.7829     4.5242     2.4367     0.1453    83.3308     7.9738     0.0530
  409.5000   -27.2288     4.5758     4.3262     2.4303     0.1569    78.9213     7.9738     0.0491
  410.0000   -27.5481     4.5758     4.3804     2.4156     0.1685    86.7453     7.9738     0.0312
  410.5000   -27.8724     5.0280     4.5590     2.3782     0.1746    99.7774     7.9738     0.0126
  411.0000   -27.9238     5.5355     4.9549     2.4033     0.1481   103.8819     7.9738     0.0097
  411.5000   -27.9241     6.0060     5.3831     2.4371     0.1421   100.0096     7.9738     0.0090
  412.0000   -27.9233     6.1267     5.7218     2.4393     0.1376    98.2378     7.9738     0.0106
  412.5000   -27.9233     6.2498     5.8810     2.4351     0.1366    98.7461     7.9738     0.0137
  413.0000   -27.9250     6.4238     6.0445     2.4324     0.1355    99.3010     7.9738     0.0167
  413.5000   -28.0161     6.6771     6.2126     2.4360     0.1334    99.3734     7.9738     0.0197
  414.0000   -28.2202     6.9373     6.3833     2.4460     0.1305    98.4915     7.9738     0.0209
  414.5000   -28.4216     7.0253     6.4773     2.4557     0.1268    96.7581     7.9738     0.0207
  415.0000   -28.4990     7.1133     6.5711     2.4590     0.1218    94.6416     7.9738     0.0206
  415.5000   -28.3696     7.2025     6.6664     2.4622     0.1197    92.5165     7.9738     0.0204
  416.0000   -28.2454     7.2927     6.7631     2.4656     0.1180    92.2380     7.9738     0.0202
  416.5000   -28.1211     7.3841     6.8613     2.4665     0.1162    92.8056     7.9738     0.0201
  417.0000   -27.9970     7.4767     6.9483     2.4685     0.1107    92.6589     7.9738     0.0199
  417.5000   -27.8728     7.5704     6.9944     2.4705     0.1094    92.2881     7.9738     0.0197
  418.0000   -27.7486     7.6659     7.0410     2.4657     0.1119    90.2693     7.9738     0.0195
  418.5000   -27.6243     7.7057     7.0877     2.4594     0.1234    88.4141     7.9738     0.0194
  419.0000   -27.5001     7.7456     7.1325     2.4556     0.1212    88.4053     7.9738     0.0192
  419.5000   -27.3738     7.7856     7.1244     2.4625     0.1176    90.1171     7.9738     0.0190
  420.0000   -27.3248     7.8260     7.1167     2.4696     0.1141    90.6831     7.9738     0.0190
  420.5000   -27.6640     7.8664     7.1090     2.4768     0.1117    89.4719     7.9738     0.0190
  421.0000   -28.0434     7.8961     7.1013     2.4842     0.1104    88.0395     7.9741     0.0190
  421.5000   -28.2012     7.8756     7.0937     2.4864     0.1094    85.6286     7.9746     0.0190
  422.0000   -28.3037     7.8593     7.0860     2.4822     0.1120    83.1331     7.9752     0.0157
  422.5000   -28.4046     7.8431     7.0783     2.4776     0.1150    82.4714     7.9757     0.0102
  423.0000   -28.5080     7.8269     7.0707     2.4775     0.1162    85.4552     7.9763     0.0045
  423.5000   -28.5094     7.8108     7.0605     2.4763     0.1212    87.3660     7.9769    -0.0009
  424.0000   -28.4585     7.7947     7.0481     2.4715     0.1226    87.5506     7.9774     0.0043
  424.5000   -28.4079     7.7788     7.0355     2.4664     0.1205    85.6628     7.9780     0.0116
  425.0000   -28.3572     7.7577     7.0230     2.4623     0.1170    83.6903     7.9785     0.0189
  425.5000   -28.3040     7.7487     7.0105     2.4788     0.1135    82.1685     7.9791     0.0261
  426.0000   -28.1803     7.6770     6.9760     2.4845     0.1078    83.4645     7.9796     0.0322
  426.5000   -28.0582     7.5348     6.8918     2.4868     0.1013    85.6814     7.9802     0.0376
  427.0000   -27.9359     7.4060     6.8089     2.4836     0.1038    88.3305     7.9808     0.0429
  427.5000   -27.8151     7.2794     6.7269     2.4835     0.1040    91.4602     7.9813     0.0437
  428.0000   -27.7508     7.1550     6.6459     2.4835     0.1042    91.2782     7.9819     0.0407
  428.5000   -27.9093     7.0327     6.5033     2.4835     0.1015    90.5899     7.9824     0.0394
  429.0000   -28.0632     6.9125     6.3407     2.4859     0.0949    90.1484     7.9830     0.0507
  429.5000   -28.2128     6.8102     6.1312     2.4994     0.0898    91.9055     7.9836     0.0623
  430.0000   -28.2304     6.4938     5.8857     2.5195     0.1045    93.1792     7.9841     0.0684
  430.5000   -27.7788     6.1648     5.6501     2.4880     0.1190    94.5583     7.9847     0.0509
  431.0000   -27.7209     5.8525     5.4240     2.4495     0.1320    96.9242     7.9852     0.0362
  431.5000   -27.7209     5.5569     5.2069     2.4491     0.1338   102.3457     7.9858     0.0337
  432.0000   -27.7202     5.2712     4.8566     2.4435     0.1383   106.1146     7.9864     0.0311
  432.5000   -27.6397     5.0751     4.4096     2.4366     0.1450   101.0894     7.9869     0.0285
  433.0000   -27.4701     4.8369     3.9259     2.4319     0.1530    98.3426     7.9875     0.0270
  433.5000   -27.3014     4.3737     3.4784     2.4110     0.1607    95.7334     7.9880     0.0270
  434.0000   -27.1234     3.8665     3.0819     2.4044     0.1682    93.1864     7.9886     0.0270
  434.5000   -26.8326     3.4181     2.7306     2.3907     0.1914    92.0923     7.9892     0.0270
  435.0000   -26.5252     3.0217     2.4193     2.3537     0.2163    92.8399     7.9897     0.0270
  435.5000   -26.3219     2.6713     2.2103     2.3176     0.2387    94.0544     7.9903     0.0260
  436.0000   -26.3747     2.3616     2.1346     2.2815     0.2581    94.3596     7.9908     0.0203
  436.5000   -26.4203     2.2244     2.1044     2.2453     0.2766    92.0661     7.9914     0.0082
  437.0000   -26.4701     2.2866     2.1700     2.2089     0.2774    91.0293     7.9919    -0.0236
  437.5000   -26.6840     2.3952     2.2382     2.1802     0.2665    92.2860     7.9925    -0.0479
  438.0000   -27.1977     2.4915     2.3085     2.1705     0.2589    91.3310     7.9931    -0.0432
  438.5000   -27.5302     2.5649     2.3811     2.2260     0.2124    91.0258     7.9936    -0.0320
  439.0000   -27.5228     3.1117     2.5085     2.2889     0.1626    90.6184     7.9943    -0.0144
