~VERSION INFORMATION
 VERS.                2.0:   CWLS LOG ASCII STANDARD - VERSION 2.0
 WRAP.                 NO:   ONE LINE PER DEPTH STEP
~WELL INFORMATION
#MNEM.UNIT      DATA TYPE    INFORMATION
#----------   ------------   ------------------------------
 STRT.F           66.0000:   START DEPTH
 STOP.F          892.0000:   STOP DEPTH
 STEP.F            0.5000:   STEP LENGTH
 NULL.          -999.2500:   NO VALUE
 COMP. LAWRENCE/ALLISON INC:   COMPANY
 WELL. NPR #3 #31-11 SX 2:   WELL
 FLD .             TEAPOT:   FIELD
 LOC .       S2 T38N R78W:   LOCATION
 CNTY.            NATRONA:   COUNTY
 STAT.            WYOMING:   STATE
 CTRY. UNITED STATES OF AMERICA:   COUNTRY
 SRVC.      Dresser Atlas:   SERVICE COMPANY
 DATE.        10-AUG-1985:   LOGDATE
 API .       490251103900:   API NUMBER
~CURVE INFORMATION
#MNEM.UNIT       API CODE    CURVE DESCRIPTION
#----------   ------------   ------------------------------
 DEPT.F                  :   
 PORD.DEC    45 890 12 00:   POROSITY DENSITY SANDSTONE
 CNC .DEC    42 890 03 00:   NEUTRON POROSITY SANDSTONE
 CORR.G/C3   45 356 01 00:   DENSITY CORRECTION
 DEN .G/C3   45 350 01 00:   COMPENSATED BULK DENSTIY
 CALD.IN     45 280 60 00:   CALIPER FROM DENSITY LOG
 SPR .MV     07 010 01 00:   SPONTANEOUS POTENTIAL
 RILD.OHMM   07 120 46 00:   INDUCTION LOG DEEP RESISTIVITY
 RILM.OHMM   07 120 44 00:   INDUCTION LOG MEDIUM RESISTIVITY
 RFOC.OHMM   07 220 04 00:   RESISTIVITY FOCUSED LOG
~PARAMETER INFORMATION
#MNEM.UNIT          VALUE    DESCRIPTION
#----------   ------------   ------------------------------
 PD  .                 GL:   PERMANENT DATUM
 EPD .F              5110:   ELEVATION PERMANENT DATUM
 LMF .                 GL:   LOG MEASURED FROM
 DMF .                 GL:   DRILLING MEASURED FROM
 EKB .F              5115:   KELLING BUSHING
 EGL .F              5110:   GROUND LEVEL
 DATE.        10-AUG-1985:   RUN DATE
 RUN .                  1:   RUN NUMBER
 DD  .F               899:   DEPTH DRILLER
 DL  .F               895:   DEPTH LOGGER
 BLI .F               892:   BOTTOM LOG INTERVAL
 CS  .IN            8.625:   CASING SIZE
 CBD .F                75:   CASING BOTTOM DRILLER
 CBL .F                78:   CASING BOTTOM LOGGER
 BS  .IN            7.875:   BIT SIZE
 BSD .F               899:   BIT SIZE AT DEPTH
 DFT .                KCL:   DRILLING FLUID TYPE
 MSS .           FLOWLINE:   MUD SAMPLE SOURCE
 RMS .OHMM            .21:   RESISTIVITY MUD SAMPLE
 MST .F                75:   MUD SAMPLE TEMPERATURE
 TCS .HRS            0200:   TIME CURCULATED STOPPED
 MRT .F               100:   MAXIMUM RECORDED TEMPERATURE
 LUN .               6274:   LOGGING UNIT NUMBER
 LUL .               GLTE:   LOGGING UNIT LOCATION
 ENGI.             RAUTIO:   RECORDING ENGINEER
 WITN.        LINDA FIVAS:   WITNESSED BY
 CLNT.            A2DTECH:   CLIENT CODE
 ORIG.           5" PRINT:   ORIGIN OF DATA
 UWI .       490251103900:   UNIQUE WELL ID
 DICO. A2D Technologies, Inc.:   DIGITIZING COMPANY
~OTHER INFORMATION
~A   DEPT     PORD        CNC       CORR        DEN       CALD        SPR       RILD       RILM       RFOC   
# ...
  175.5000     0.1678     0.3317    -0.0016     2.3995     8.0990   -52.2677     4.6747     4.7460     5.0579
  176.0000     0.1711     0.3390     0.0180     2.3980     8.0985   -52.5688     4.6097     4.6165     4.9886
  176.5000     0.1771     0.3348     0.0391     2.3942     8.0979   -52.7187     4.4844     4.5533     4.8862
  177.0000     0.1853     0.3318     0.0285     2.3844     8.0972   -52.4143     4.6767     4.6506     4.8184
  177.5000     0.1874     0.3306     0.0179     2.3752     8.0967   -51.8077     4.6124     4.5553     4.6229
  178.0000     0.1874     0.3312     0.0088     2.3655     8.0961   -51.5037     4.4863     4.3978     4.5279
  178.5000     0.1880     0.3354     0.0027     2.3640     8.0954   -51.1997     4.0696     4.0484     4.4970
  179.0000     0.1982     0.3495     0.0102     2.3632     8.0948   -51.1982     3.5744     3.5969     4.4977
  179.5000     0.2190     0.3821     0.0132     2.3534     8.0942   -51.0451     3.1672     3.2406     4.5614
  180.0000     0.2534     0.4210     0.0026     2.3067     8.0937   -51.1950     2.7172     2.9813     4.5620
  180.5000     0.2939     0.4153    -0.0126     2.2151     8.0929   -51.4961     2.3804     2.8007     3.7809
  181.0000     0.2948     0.3806    -0.0051     2.1840     8.0924   -51.7972     2.2990     2.7625     3.0901
  181.5000     0.2761     0.3426     0.0175     2.1945     8.0918   -52.0984     2.2996     2.8214     2.8627
  182.0000     0.2296     0.3196     0.0325     2.2562     8.1063   -52.3995     2.4659     2.5069     2.6892
  182.5000     0.1831     0.3235     0.0355     2.3622     8.1057   -52.7006     2.6077     2.3715     2.5616
  183.0000     0.1631     0.3441     0.0340     2.4006     8.1051   -51.7911     2.7964     2.4052     2.7421
  183.5000     0.1580     0.3811     0.0399     2.4133     8.1045   -50.5794     2.9987     2.7906     3.9181
  184.0000     0.1601     0.3739     0.0490     2.4080     8.1038   -50.2713     3.3765     3.1576     4.4417
  184.5000     0.1752     0.3498     0.0670     2.3756     8.1032   -49.9710     3.7561     3.5553     4.8631
  185.0000     0.1951     0.3338     0.0926     2.3222     8.1027   -49.6670     4.1344     3.9477     5.0711
  185.5000     0.2241     0.3298     0.1547     2.2958     8.1021   -49.3629     4.4335     4.2630     4.8307
  186.0000     0.2322     0.3358     0.1770     2.2920     8.1166   -48.7563     4.5595     4.5083     4.3348
  186.5000     0.2134     0.3509     0.1377     2.3507     8.1159   -47.5446     4.6241     4.4297     4.0321
  187.0000     0.1885     0.3548     0.0698     2.3680     8.1154   -46.4619     4.7225     4.0065     3.9767
  187.5000     0.1839     0.3554     0.0320     2.3717     8.1147   -47.2388     4.7563     4.1784     4.1470
  188.0000     0.1857     0.3759     0.0561     2.3446     8.0991   -48.4476     4.6911     4.3881     4.6363
  188.5000     0.1996     0.4016     0.0802     2.3122     8.0985   -49.9590     4.3152     4.2093     4.9722
  189.0000     0.2253     0.4248     0.0802     2.2866     8.0978   -51.1679     3.7020     3.7619     4.8355
  189.5000     0.2470     0.4341     0.0620     2.2580     8.0972   -52.0984     3.2658     3.2317     4.5425
  190.0000     0.2521     0.4121     0.0288     2.2572     8.0966   -53.2826     2.9598     2.8914     4.0360
  190.5000     0.2491     0.3895     0.0092     2.2895     8.0961   -53.8863     2.7634     2.7162     2.9715
  191.0000     0.2298     0.3650     0.0001     2.3256     8.0804   -54.0365     2.6691     2.6604     2.7337
  191.5000     0.2107     0.3523     0.0015     2.3542     8.0949   -53.5809     2.8226     2.9133     2.8374
  192.0000     0.1962     0.3354     0.0437     2.3511     8.0942   -52.9743     3.0058     3.1294     3.9001
  192.5000     0.1956     0.3276     0.0437     2.3496     8.0936   -52.2160     3.2009     3.4212     4.4834
  193.0000     0.1968     0.3318     0.0376     2.3526     8.0930   -51.7607     3.4915     3.6180     4.6104
  193.5000     0.1950     0.3511     0.0134     2.3623     8.1076   -51.4567     3.8651     3.8262     4.3011
  194.0000     0.1914     0.3668    -0.0032     2.3691     8.1069   -51.3040     4.1447     3.9903     4.0404
  194.5000     0.1860     0.3656    -0.0003     2.3766     8.1063   -51.1513     4.2624     4.2198     4.1896
  195.0000     0.1817     0.3544     0.0074     2.3735     8.1057   -51.3011     4.2552     4.1623     4.2731
  195.5000     0.1793     0.3372     0.0132     2.3705     8.0899   -51.4506     4.4487     4.4327     4.4560
  196.0000     0.1820     0.3287     0.0117     2.3689     8.0893   -51.6004     4.5721     4.6552     4.6144
  196.5000     0.1841     0.3326     0.0026     2.3689     8.0888   -51.7506     4.4162     4.5282     4.8455
  197.0000     0.1841     0.3363    -0.0095     2.3689     8.0882   -52.0514     4.2953     4.4046     4.7131
  197.5000     0.1835     0.3396    -0.0098     2.3658     8.0876   -52.3525     4.2363     4.2517     4.6810
  198.0000     0.1859     0.3468    -0.0006     2.3560     8.0869   -52.6536     4.4489     4.4374     4.7145
  198.5000     0.1919     0.3785    -0.0036     2.3485     8.0864   -52.8035     4.6073     4.5956     4.6499
  199.0000     0.1986     0.3703    -0.0082     2.3454     8.0858   -52.6504     4.3886     4.4702     4.4294
  199.5000     0.2004     0.3564    -0.0083     2.3454     8.0852   -52.4977     4.1801     4.0556     4.1320
  200.0000     0.1965     0.3416    -0.0053     2.3484     8.0846   -52.7988     3.9366     3.7834     4.1905
  200.5000     0.1972     0.3432    -0.0008     2.3446     8.0882   -53.1412     3.6558     3.4080     4.2793
  201.0000     0.2058     0.3470     0.0036     2.3190     8.0915   -53.5552     3.4408     3.1129     4.3396
  201.5000     0.2245     0.3507     0.0005     2.2949     8.0948   -53.5552     3.3005     2.9854     4.1048
  202.0000     0.2338     0.3488     0.0065     2.2874     8.0802   -53.5552     3.2552     2.9854     3.5715
  202.5000     0.2287     0.3443     0.0125     2.2926     8.0792   -53.7065     3.2561     2.9647     3.0222
  203.0000     0.2154     0.3405     0.0063     2.3119     8.0782   -53.8578     3.2567     2.9441     2.9599
  203.5000     0.2073     0.3551     0.0002     2.3302     8.0772   -53.2526     3.2574     3.0098     3.1297
  204.0000     0.2112     0.3759    -0.0059     2.3294     8.0761   -52.6475     3.2354     3.1129     3.8301
  204.5000     0.2220     0.4100     0.0121     2.3197     8.0751   -52.3449     3.2135     3.1129     4.1065
  205.0000     0.2293     0.4335     0.0286     2.3038     8.0892   -52.1936     3.1478     3.0698     4.1068
  205.5000     0.2365     0.4565     0.0241     2.2895     8.0879   -52.3449     3.0833     3.0063     4.0503
  206.0000     0.2471     0.4733     0.0134     2.2670     8.0869   -52.3449     2.9576     2.9237     3.4465
  206.5000     0.2467     0.4667     0.0058     2.2632     8.0858   -52.7988     2.8124     2.8203     3.0663
  207.0000     0.2437     0.4477    -0.0003     2.2662     8.0848   -52.9501     2.6282     2.6153     2.9206
  207.5000     0.2431     0.4232     0.0011     2.2684     8.0838   -53.4039     2.4346     2.4393     2.9208
  208.0000     0.2497     0.4018     0.0056     2.2686     8.0828   -52.9501     2.2397     2.2910     2.9414
  208.5000     0.2771     0.3906     0.0161     2.2328     8.0817   -52.6475     2.1334     2.1668     3.0247
  209.0000     0.2841     0.3921     0.0522     2.2112     8.0805   -53.2526     2.1488     2.1668     2.7216
  209.5000     0.2693     0.3786     0.0672     2.2021     8.0794   -53.8578     2.1794     2.2281     2.4042
  210.0000     0.2382     0.3517     0.0294     2.2126     8.0784   -54.1604     2.2260     2.2436     2.3221
  210.5000     0.2105     0.3357    -0.0023     2.2668     8.0774   -53.8578     2.3542     2.3558     2.5246
  211.0000     0.1821     0.3371    -0.0130     2.3345     8.0764   -53.5552     2.6142     2.5612     3.2439
  211.5000     0.1781     0.3559     0.0111     2.3747     8.0753   -53.2526     2.9851     3.0063     3.9423
