~VERSION INFORMATION
 VERS.                2.0:   CWLS LOG ASCII STANDARD - VERSION 2.0
 WRAP.                 NO:   ONE LINE PER DEPTH STEP
~WELL INFORMATION
#MNEM.UNIT      DATA TYPE    INFORMATION
#----------   ------------   ------------------------------
 STRT.F           28.0000:   START DEPTH
 STOP.F          884.0000:   STOP DEPTH
 STEP.F            0.5000:   STEP LENGTH
 NULL.          -999.2500:   NO VALUE
 COMP. U S NAVY-INTEX OIL:   COMPANY
 WELL. NPR 3 TEAPOT DOM #43-SX-2:   WELL
 FLD .             TEAPOT:   FIELD
 LOC .       S2 T38N R78W:   LOCATION
 CNTY.            NATRONA:   COUNTY
 STAT.            WYOMING:   STATE
 CTRY. UNITED STATES OF AMERICA:   COUNTRY
 SRVC.       Schlumberger:   SERVICE COMPANY
 DATE.        19-JUL-1963:   LOGDATE
 API .       490250967900:   API NUMBER
~CURVE INFORMATION
#MNEM.UNIT       API CODE    CURVE DESCRIPTION
#----------   ------------   ------------------------------
 DEPT.F                  :   
 ASN .OHMM   05 041 16 00:   AMPLIFIED SHORT NORMAL 16"
 CILD.MMHO   05 110 46 00:   CONDUCTIVITY INDUCTION LOG DEEP
 ILD .OHMM   05 120 46 00:   INDUCTION LOG DEEP
 SPR .MV     05 010 01 00:   SPONTANEOUS POTENTIAL FROM RES.
 GR  .GAPI   30 310 01 00:   GAMMA RAY
~PARAMETER INFORMATION
#MNEM.UNIT          VALUE    DESCRIPTION
#----------   ------------   ------------------------------
 LMF .                 KB:   LOG MEASURED FROM
 DMF .                 KB:   DRILLING MEASURED FROM
 EKB .F              5151:   KELLING BUSHING
 EGL .F              5146:   GROUND LEVEL
 DATE.        19-JUL-1963:   RUN DATE
 RUN .                  1:   RUN NUMBER
 DD  .F               881:   DEPTH DRILLER
 DL  .F               885:   DEPTH LOGGER
 BLI .F               884:   BOTTOM LOG INTERVAL
 TLI .F                30:   TOP LOG INTERVAL
 CS  .IN            8.625:   CASING SIZE
 CBD .F                12:   CASING BOTTOM DRILLER
 BS  .IN             6.75:   BIT SIZE
 BSD .F               881:   BIT SIZE AT DEPTH
 DFT .           GEL- OIL:   DRILLING FLUID TYPE
 DFD .                9.6:   DRILLING FLUID DENSITY
 DFV .                 39:   DRILLING FLUID VISCOSITY
 DFPH.                8.5:   DRILLING FLUID PH
 DFL .                4.4:   DRILLING FLUID LOSS
 RMS .OHMM           2.58:   RESISTIVITY MUD SAMPLE
 MST .F                72:   MUD SAMPLE TEMPERATURE
 RMF .OHMM           2.26:   RESISTIVITY MUD FILTRATE SAMPLE
 MFST.F                72:   MUD FILTRATE SAMPLE TEMPERATURE
 TCS .HRS               3:   TIME CURCULATED STOPPED
 LUN .               4507:   LOGGING UNIT NUMBER
 LUL .             CASPER:   LOGGING UNIT LOCATION
 ENGI.            WINKLER:   RECORDING ENGINEER
 WITN.          JORGENSEN:   WITNESSED BY
 CLNT.            A2DTECH:   CLIENT CODE
 ORIG.      2.5" 5" PRINT:   ORIGIN OF DATA
 UWI .       490250967900:   UNIQUE WELL ID
 DICO. A2D Technologies, Inc.:   DIGITIZING COMPANY
~OTHER INFORMATION
~A   DEPT      ASN         CILD       ILD       SPR         GR   
# ...
  333.0000     7.2915   153.5455     6.2121   -37.0455  -999.2500
  333.5000     7.2606   155.0480     6.2121   -37.0499  -999.2500
  334.0000     7.2296   155.0303     6.1354   -37.0543  -999.2500
  334.5000     7.2289   155.0152     6.0606   -37.0587  -999.2500
  335.0000     7.2583   156.5152     6.0606   -37.0633  -999.2500
  335.5000     7.2574   156.5000     6.0606   -37.0678  -999.2500
  336.0000     7.2265   156.4848     6.2121   -37.0723  -999.2500
  336.5000     7.1955   156.4669     6.2121   -37.0768  -999.2500
  337.0000     7.2552   157.9697     6.2121   -36.7796  -999.2500
  337.5000     7.2545   157.9524     6.2121   -36.7846  -999.2500
  338.0000     7.1933   157.9376     6.2121   -36.8915  -999.2500
  338.5000     7.1321   157.9227     6.3636   -37.0949  -999.2500
  339.0000     7.0408   156.3928     6.5152   -37.0994  -999.2500
  339.5000     7.0418   156.3780     6.6667   -37.1039  -999.2500
  340.0000     7.1944   156.3631     6.6667   -37.2691  -999.2500
  340.5000     7.2905   154.8332     6.6838   -37.4142  -999.2500
  341.0000     7.4100   151.7525     6.8424   -37.4195  -999.2500
  341.5000     7.5089   147.0200     7.0010   -37.4239  -999.2500
  342.0000     7.6256   140.8081     7.2727   -37.4283  -999.2500
  342.5000     7.7485   134.5961     7.4242   -37.4327  -999.2500
  343.0000     7.8714   129.8989     7.6283   -37.4371  -999.2500
  343.5000     8.0062   125.5784     7.8788   -37.4415  -999.2500
  344.0000     8.1776   122.4646     7.8788   -37.4460  -999.2500
  344.5000     8.3161   119.8636     7.8788   -37.4504  -999.2500
  345.0000     8.2382   119.2677     7.8788   -37.4548  -999.2500
  345.5000     8.1440   118.3182     7.8788   -37.4593  -999.2500
  346.0000     8.0271   119.0201     7.5758   -37.4639  -999.2500
  346.5000     7.9357   119.8030     7.2727   -37.4684  -999.2500
  347.0000     7.7235   122.8182     6.9697   -37.4096  -999.2500
  347.5000     7.4810   125.8304     6.6667   -37.1756  -999.2500
  348.0000     7.2386   133.3914     6.2121   -37.1807  -999.2500
  348.5000     6.6941   156.1038     5.6061   -37.1852  -999.2500
  349.0000     5.7870   187.9072     5.0000   -37.1898  -999.2500
  349.5000     5.2122   231.8318     3.9394   -37.1943  -999.2500
  350.0000     4.6979   312.1200     3.1818   -37.1988  -999.2500
  350.5000     4.1694   377.2567     2.7202   -37.2033  -999.2500
  351.0000     3.6909   413.6055     2.3960   -36.9075  -999.2500
  351.5000     3.5264   460.5604     1.9485   -36.6107  -999.2500
  352.0000     3.2580   493.9926     1.8182   -36.0127  -999.2500
  352.5000     3.1232   511.4062     1.8182   -35.7159  -999.2500
  353.0000     3.1997   481.3130     1.8182   -36.0215  -999.2500
  353.5000     3.3627   431.1028     1.9697   -36.3272  -999.2500
  354.0000     3.6945   372.2734     2.3859   -36.6328  -999.2500
  354.5000     4.3201   316.7415     3.2848   -36.9384  -999.2500
  355.0000     5.2664   249.8456     4.5959   -37.2440  -999.2500
  355.5000     6.6328   204.3763     5.9172   -37.2485  -999.2500
  356.0000     7.9867   157.3918     7.3455   -37.5542  -999.2500
  356.5000     9.6728   104.3466    10.3030   -37.5587  -999.2500
  357.0000     9.9077    86.1500    11.6667   -37.9177  -999.2500
  357.5000    10.1984    77.0443    12.2727   -38.2380  -999.2500
  358.0000    10.4864    75.3434    12.1212   -38.4759  -999.2500
  358.5000    10.4857    81.5601    11.2121   -38.4804  -999.2500
  359.0000    10.4849    89.1210    10.3030   -38.4849  -999.2500
  359.5000    10.4509   107.5511     8.4848   -38.4895  -999.2500
  360.0000    10.1813   134.3454     6.8182   -38.6345  -999.2500
  360.5000     9.9594   162.3103     6.0606   -38.7997  -999.2500
  361.0000     9.2338   171.3535     5.2990   -39.1054  -999.2500
  361.5000     7.3870   177.2297     5.0000   -37.9060  -999.2500
  362.0000     7.0024   178.7980     5.0000   -37.6084  -999.2500
  362.5000     6.9398   180.3662     5.0252   -37.6136  -999.2500
  363.0000     6.9936   181.4267     5.5192   -37.9192  -999.2500
  363.5000     7.9658   178.1590     6.3303   -38.5260  -999.2500
  364.0000     9.4731   157.1716     7.1091   -38.8316  -999.2500
  364.5000     9.8525   131.7222     7.9859   -38.8361  -999.2500
  365.0000    10.0871   110.7317     8.6667   -38.8405  -999.2500
  365.5000    10.3216    92.4319     9.2262   -38.8449  -999.2500
  366.0000    10.5561    87.3910     9.9980   -38.8634  -999.2500
  366.5000    10.7906    87.3762    10.4667   -39.4563  -999.2500
  367.0000    11.0251    85.8462    10.8465   -39.4608  -999.2500
  367.5000    11.2596    84.3163    11.2121   -39.7666  -999.2500
  368.0000    11.3797    82.7863    11.5152   -39.7711  -999.2500
  368.5000    11.6881    82.7715    11.5152   -39.7756  -999.2500
  369.0000    11.9804    81.2415    11.5152   -39.7801  -999.2500
  369.5000    12.2818    79.7115    11.6667   -39.9006  -999.2500
  370.0000    12.4321    78.1816    11.6667   -40.0904  -999.2500
  370.5000    12.6196    76.6515    11.8182   -40.2400  -999.2500
  371.0000    12.7769    76.5505    11.8182   -40.5602  -999.2500
  371.5000    12.8831    75.1061    12.1212   -40.7063  -999.2500
  372.0000    13.0334    75.0909    12.1212   -41.0129  -999.2500
  372.5000    13.0325    75.0758    12.2727   -41.0173  -999.2500
  373.0000    13.1828    75.0606    12.2949   -41.0217  -999.2500
  373.5000    13.2616    73.5303    12.4242   -41.0261  -999.2500
  374.0000    13.4834    73.5152    12.5758   -41.0305  -999.2500
  374.5000    13.6335    72.9370    12.7273   -41.0349  -999.2500
  375.0000    13.6328    71.9697    12.7778   -41.0393  -999.2500
  375.5000    13.7832    71.2550    13.0303   -41.3450  -999.2500
  376.0000    13.9335    70.4242    13.2465   -41.6546  -999.2500
  376.5000    14.0838    69.5732    13.4051   -41.9563  -999.2500
  377.0000    14.0830    68.8758    13.5636   -42.2621  -999.2500
  377.5000    14.2334    67.3458    13.8737   -42.2666  -999.2500
  378.0000    14.2326    67.3310    14.0909   -42.3333  -999.2500
  378.5000    14.3829    65.8010    14.2424   -42.5768  -999.2500
  379.0000    14.5393    64.2711    14.5455   -42.5813  -999.2500
  379.5000    14.6966    64.2562    14.8485   -42.5858  -999.2500
  380.0000    14.8540    62.7263    15.1515   -42.5904  -999.2500
  380.5000    15.1624    61.1963    15.6061   -42.5949  -999.2500
  381.0000    15.3197    59.6663    15.7576   -42.9006  -999.2500
  381.5000    15.6694    58.1364    16.0606   -43.0693  -999.2500
  382.0000    15.9366    56.6061    16.3636   -43.5129  -999.2500
  382.5000    16.3960    56.4521    16.6768   -43.8186  -999.2500
  383.0000    16.7044    55.0606    17.1333   -44.1242  -999.2500
  383.5000    17.0128    53.8518    17.5949   -44.4298  -999.2500
  384.0000    17.1702    51.8283    17.9050   -44.7354  -999.2500
  384.5000    17.4786    50.2639    18.2151   -44.4386  -999.2500
  385.0000    17.8473    48.9394    18.5253   -44.7442  -999.2500
  385.5000    18.2997    48.9242    18.7879   -44.7486  -999.2500
  386.0000    18.6011    48.9091    18.7879   -44.4518  -999.2500
  386.5000    19.0535    48.8939    18.6647   -44.1551  -999.2500
  387.0000    19.5060    48.8788    18.2646   -44.1827  -999.2500
  387.5000    19.2031    48.8636    18.1061   -44.7666  -999.2500
  388.0000    19.0513    48.8485    17.8788   -44.7711  -999.2500
  388.5000    18.8995    48.8306    17.7273   -45.1436  -999.2500
  389.0000    18.7477    48.8158    17.5758   -46.0662  -999.2500
  389.5000    18.5959    50.3182    17.4242   -46.7836  -999.2500
  390.0000    18.4441    50.3013    17.2727   -47.5000  -999.2500
  390.5000    18.2923    50.2865    17.1212   -47.8057  -999.2500
  391.0000    18.1163    50.2717    17.1212   -47.5090  -999.2500
  391.5000    17.9887    51.7720    16.9697   -47.3595  -999.2500
  392.0000    17.8369    51.7572    16.9697   -47.0482  -999.2500
  392.5000    17.6850    53.2575    16.9697   -46.6198  -999.2500
  393.0000    17.5332    53.2980    16.9677   -46.0218  -999.2500
  393.5000    17.3814    54.7430    16.8091   -45.4238  -999.2500
