~VERSION INFORMATION
 VERS.                2.0:   CWLS LOG ASCII STANDARD - VERSION 2.0
 WRAP.                 NO:   ONE LINE PER DEPTH STEP
~WELL INFORMATION
#MNEM.UNIT      DATA TYPE    INFORMATION
#----------   ------------   ------------------------------
 STRT.F           27.0000:   START DEPTH
 STOP.F          670.0000:   STOP DEPTH
 STEP.F            0.5000:   STEP LENGTH
 NULL.          -999.2500:   NO VALUE
 COMP. LAWRENCE/ALLISON INC:   COMPANY
 WELL. SX 11 WP 26 #26-11:   WELL
 FLD .           N.P.R #3:   FIELD
 LOC .      S11 T38N R78W:   LOCATION
 CNTY.            NATRONA:   COUNTY
 STAT.            WYOMING:   STATE
 CTRY. UNITED STATES OF AMERICA:   COUNTRY
 SRVC.            Unknown:   SERVICE COMPANY
 DATE.        11-SEP-1984:   LOGDATE
 API .       490251097700:   API NUMBER
~CURVE INFORMATION
#MNEM.UNIT       API CODE    CURVE DESCRIPTION
#----------   ------------   ------------------------------
 DEPT.F                  :   
 CNC .DEC    42 890 03 00:   NEUTRON POROSITY SANDSTONE
 AC  .US/F   60 520 00 00:   ACCOUSTIC SONIC
 SPR .MV     07 010 01 00:   SPONTANEOUS POTENTIAL
 RILD.OHMM   07 120 46 00:   INDUCTION LOG DEEP RESISTIVITY
 RILM.OHMM   07 120 44 00:   INDUCTION LOG MEDIUM RESISTIVITY
 RFOC.OHMM   07 220 04 00:   RESISTIVITY FOCUSED LOG
 GRD .GAPI   45 310 01 00:   GAMMA RAY FROM DENSITY LOG
 CALD.IN     45 280 60 00:   CALIPER FROM DENSITY LOG
 DEN .G/C3   45 350 01 00:   COMPENSATED BULK DENSTIY
 CORR.G/C3   45 356 01 00:   DENSITY CORRECTION
 PORD.DEC    45 890 12 00:   POROSITY DENSITY SANDSTONE
~PARAMETER INFORMATION
#MNEM.UNIT          VALUE    DESCRIPTION
#----------   ------------   ------------------------------
 PD  .                 GL:   PERMANENT DATUM
 EPD .F              5186:   ELEVATION PERMANENT DATUM
 LMF .                 GL:   LOG MEASURED FROM
 DMF .                 GL:   DRILLING MEASURED FROM
 EGL .F              5186:   GROUND LEVEL
 DATE.            9-11-84:   RUN DATE
 RUN .                  1:   RUN NUMBER
 DD  .F               672:   DEPTH DRILLER
 DL  .F               668:   DEPTH LOGGER
 BLI .F               668:   BOTTOM LOG INTERVAL
 TLI .F                45:   TOP LOG INTERVAL
 CS  .IN            8.625:   CASING SIZE
 CBD .F                42:   CASING BOTTOM DRILLER
 CBL .F                45:   CASING BOTTOM LOGGER
 BS  .IN            7.875:   BIT SIZE
 BSD .F               672:   BIT SIZE AT DEPTH
 DFT .          KCL WATER:   DRILLING FLUID TYPE
 MSS .               TANK:   MUD SAMPLE SOURCE
 RMS .OHMM            .36:   RESISTIVITY MUD SAMPLE
 MST .F                82:   MUD SAMPLE TEMPERATURE
 MFSS.                  C:   MUD FILTRATE SAMPLE SOURCE
 MCSS.                  C:   MUD CAKE SAMPLE SOURCE
 TCS .HRS               3:   TIME CURCULATED STOPPED
 MRT .F               100:   MAXIMUM RECORDED TEMPERATURE
 LUN .            HL 6307:   LOGGING UNIT NUMBER
 LUL .           GILLETTE:   LOGGING UNIT LOCATION
 ENGI.      FAHLSING/MACK:   RECORDING ENGINEER
 WITN.            JOHNSON:   WITNESSED BY
 CLNT.            A2DTECH:   CLIENT CODE
 ORIG.       2", 5" PRINT:   ORIGIN OF DATA
 UWI .       490251097700:   UNIQUE WELL ID
 DICO. A2D Technologies, Inc.:   DIGITIZING COMPANY
~OTHER INFORMATION
~A   DEPT      CNC          AC       SPR       RILD       RILM       RFOC        GRD       CALD        DEN       CORR       PORD   
# ...
  149.0000     0.3066   107.5440   -44.0740     6.6340     6.9280     8.2990   106.3360     8.0380     2.4940     0.0500     0.1120
  149.5000     0.3016   107.2390   -43.6630     6.6820     6.9580     8.5110   105.0330     8.0380     2.4930     0.0450     0.1110
  150.0000     0.3232   106.9340   -43.2520     6.7150     6.9910     8.7470   103.5740     8.0380     2.4940     0.0420     0.1110
  150.5000     0.3291   106.8520   -42.8410     6.7150     7.0960     9.1000   102.0860     8.0380     2.4950     0.0470     0.1100
  151.0000     0.3318   106.9900   -42.4300     6.7150     7.0780     9.0650   103.7460     8.0380     2.4960     0.0510     0.1090
  151.5000     0.3238   107.1270   -42.0210     6.7150     7.0530     8.9960   105.7830     8.0380     2.4970     0.0560     0.1080
  152.0000     0.3101   107.2650   -41.7080     6.7150     7.0270     8.9280   105.2240     8.0380     2.4940     0.0550     0.1120
  152.5000     0.3085   107.3700   -41.6380     6.7150     7.0020     8.8590   102.9390     8.0380     2.4810     0.0390     0.1170
  153.0000     0.3101   107.3030   -41.5650     6.7000     6.9760     8.7710   100.8350     8.0380     2.4760     0.0240     0.1230
  153.5000     0.3128   107.2350   -41.4920     6.6710     6.9510     8.8580   100.1330     8.0380     2.4810     0.0130     0.1230
  154.0000     0.3187   107.1950   -41.4190     6.6410     6.9250     9.0160    99.3830     8.0380     2.4860     0.0170     0.1180
  154.5000     0.3196   107.2670   -41.3450     6.6120     6.9060     8.9570    98.8580     8.0380     2.4820     0.0240     0.1160
  155.0000     0.3199   107.3390   -41.2720     6.5920     7.0170     8.8520   100.5050     8.0380     2.4750     0.0300     0.1210
  155.5000     0.3137   107.1820   -41.2000     6.6900     7.1180     8.8920   102.1700     8.0380     2.4710     0.0360     0.1240
  156.0000     0.3029   106.7170   -41.1270     6.7640     7.2200     8.9700   100.9620     8.0380     2.4740     0.0430     0.1240
  156.5000     0.2916   106.2510   -40.6730     6.8390     7.3220     9.0480    96.6820     8.0380     2.4760     0.0490     0.1220
  157.0000     0.2870   106.0860   -40.1750     6.9130     7.4310     9.1000    97.9410     8.0380     2.4790     0.0550     0.1210
  157.5000     0.3046   105.9690   -39.6750     6.9870     7.4130     8.9500   100.1630     8.0380     2.4820     0.0550     0.1190
  158.0000     0.3114   105.4830   -39.1740     7.0610     7.3940     8.8650   101.9540     8.0380     2.4880     0.0470     0.1140
  158.5000     0.3060   104.0830   -38.5940     7.1350     7.3750     9.0930    99.2130     8.0380     2.4990     0.0400     0.1080
  159.0000     0.3020   103.1940   -37.5010     7.2100     7.3630     9.3060    96.3740     8.0380     2.5090     0.0330     0.1030
  159.5000     0.2974   102.5000   -36.4020     7.2840     7.5070     9.5190    96.9140     8.0380     2.5190     0.0260     0.0970
  160.0000     0.2828   103.1330   -35.3040     7.3630     7.6160     9.6570    99.6630     8.0380     2.5270     0.0410     0.0930
  160.5000     0.2803   103.8150   -34.2070     7.3890     7.7240     9.7330   102.4100     8.0380     2.5130     0.0570     0.0990
  161.0000     0.2996   104.4970   -33.1210     7.4180     7.8330     9.8080   104.9270     8.0380     2.5030     0.0670     0.1050
  161.5000     0.3273   104.8160   -32.0750     7.4470     7.9260     9.8830   107.2800     8.0380     2.5080     0.0670     0.1050
  162.0000     0.3338   104.8600   -31.6660     7.4750     7.8940     9.9590   107.7550     8.0380     2.5130     0.0620     0.1020
  162.5000     0.3341   104.9030   -31.2310     7.4990     7.8610     9.9780   105.8500     8.0380     2.5110     0.0550     0.1010
  163.0000     0.3300   104.9470   -30.7920     7.5170     7.8290     9.9430   104.0260     8.0380     2.5060     0.0490     0.1040
  163.5000     0.3210   104.9900   -30.3590     7.5400     7.7810     9.9180   102.8820     8.0380     2.5000     0.0350     0.1080
  164.0000     0.3173   104.5600   -30.0370     7.5630     7.8800     9.8860   104.1670     8.0380     2.4950     0.0200     0.1110
  164.5000     0.3200   104.1400   -30.4830     7.6420     8.0590     9.9500   106.0240     8.0380     2.4960     0.0250     0.1100
  165.0000     0.3209   103.7200   -30.9210     7.7740     8.2380    10.0350   107.8660     8.0380     2.4980     0.0400     0.1090
  165.5000     0.3064   103.4760   -31.3540     7.9060     8.4170    10.1190   109.2130     8.0380     2.5000     0.0510     0.1080
  166.0000     0.2980   103.4340   -31.1210     8.0380     8.5950    10.2040   107.2920     8.0380     2.4980     0.0360     0.1080
  166.5000     0.2871   103.3960   -30.6850     8.1480     8.8520    10.2840   104.6640     8.0380     2.4930     0.0210     0.1110
  167.0000     0.2846   102.9830   -30.0640     8.1480     8.8060    10.3580   104.5050     8.0380     2.4870     0.0230     0.1140
  167.5000     0.3136   102.6050   -29.4020     8.1480     8.7260    10.4480   105.4750     8.0380     2.4890     0.0360     0.1130
  168.0000     0.3037   101.5200   -28.7370     8.1480     8.6460    10.3520   106.2440     8.0380     2.4960     0.0490     0.1110
  168.5000     0.2999   100.1660   -28.0690     8.1480     8.5320    10.7230   102.9900     8.0390     2.4980     0.0610     0.1080
  169.0000     0.2960    98.8110   -27.5250     8.3090     8.6490    10.9590    99.5060     8.0390     2.4940     0.0690     0.1100
  169.5000     0.2807    98.1570   -27.0690     8.4740     8.8530    11.2470    98.1920     8.0390     2.4890     0.0600     0.1120
  170.0000     0.2764    98.0490   -26.6130     8.6390     9.0580    11.1740   102.2440     8.0400     2.5010     0.0490     0.1110
  170.5000     0.2696    97.9410   -26.1560     8.8040     9.2620    11.0420   105.0680     8.0400     2.5170     0.0410     0.1020
  171.0000     0.2665    97.6180   -25.6990     8.9690     9.4660    11.2270   104.2730     8.0400     2.5320     0.0510     0.0920
  171.5000     0.2711    97.2400   -25.2430     9.1350     9.6710    11.5460   103.4060     8.0410     2.5420     0.0450     0.0830
  172.0000     0.2821    97.1640   -24.7860     9.2690     9.8750    11.9960   102.5510     8.0410     2.5360     0.0370     0.0810
  172.5000     0.2924    97.7680   -24.3290     9.3550    10.1630    11.9230   101.7050     8.0410     2.5240     0.0380     0.0890
  173.0000     0.2843    98.4270   -23.8730     9.3550    10.0950    11.7360   101.3950     8.0420     2.5120     0.0670     0.0980
  173.5000     0.2808    99.0860   -23.4160     9.3120     9.9810    11.5500   102.3430     8.0420     2.5000     0.0620     0.1050
  174.0000     0.2784    99.7450   -22.9590     9.2410     9.8660    11.3630   103.2680     8.0420     2.4880     0.0490     0.1120
  174.5000     0.2917   100.4040   -22.5050     9.1690     9.7060    11.1760   104.1900     8.0430     2.4870     0.0350     0.1150
  175.0000     0.2984   100.6770   -22.1830     9.0980     9.8050    10.9890   104.7770     8.0430     2.4910     0.0220     0.1130
  175.5000     0.2922   100.7780   -21.8990     9.0260     9.9710    10.8400   104.8850     8.0430     2.4950     0.0180     0.1120
  176.0000     0.2891   100.7550   -21.6140     8.9550    10.0700    10.8960   100.8850     8.0440     2.4990     0.0220     0.1100
  176.5000     0.2820   100.6830   -21.3270     8.8830     9.7140    10.9530    96.0480     8.0440     2.4930     0.0280     0.1120
  177.0000     0.2770   100.6110   -21.2170     8.8120     9.4180    11.0090    94.1380     8.0440     2.4860     0.0340     0.1160
  177.5000     0.2693   100.5390   -21.2110     8.7400     9.1770    11.0660    98.5340     8.0450     2.4820     0.0500     0.1170
  178.0000     0.2593   100.6390   -21.4210     8.6690     9.1450    11.1220   103.2580     8.0450     2.4910     0.0650     0.1120
  178.5000     0.2606   100.8720   -21.6670     8.5970     9.1120    11.1440   108.0680     8.0450     2.4990     0.0800     0.1060
  179.0000     0.2673   101.1050   -21.9160     8.5260     9.0560    10.9400   108.9720     8.0450     2.5030     0.0650     0.1030
