~VERSION INFORMATION
 VERS.                2.0:   CWLS LOG ASCII STANDARD - VERSION 2.0
 WRAP.                 NO:   ONE LINE PER DEPTH STEP
~WELL INFORMATION
#MNEM.UNIT      DATA TYPE    INFORMATION
#----------   ------------   ------------------------------
 STRT.F           86.0000:   START DEPTH
 STOP.F         1134.0000:   STOP DEPTH
 STEP.F            0.5000:   STEP LENGTH
 NULL.          -999.2500:   NO VALUE
 COMP.          U.S. NAVY:   COMPANY
 WELL. RES 3 TEAPOT DOM #64-S-2:   WELL
 FLD .             TEAPOT:   FIELD
 LOC .       S2 T38N R78W:   LOCATION
 CNTY.            NATRONA:   COUNTY
 STAT.            WYOMING:   STATE
 CTRY. UNITED STATES OF AMERICA:   COUNTRY
 SRVC. Schlumberger Well Surveying Corp:   SERVICE COMPANY
 DATE.        28-JUL-1964:   LOGDATE
 API .       490250644400:   API NUMBER
~CURVE INFORMATION
#MNEM.UNIT       API CODE    CURVE DESCRIPTION
#----------   ------------   ------------------------------
 DEPT.F                  :   
 ASN .OHMM   05 041 16 00:   AMPLIFIED SHORT NORMAL 16"
 CILD.MMHO   05 110 46 00:   CONDUCTIVITY INDUCTION LOG DEEP
 ILD .OHMM   05 120 46 00:   INDUCTION LOG DEEP
 SPR .MV     05 010 01 00:   SPONTANEOUS POTENTIAL FROM RES.
 DT  .US/F   60 520 33 00:   INTERVAL TRANSIT TIME
 GR  .GAPI   30 310 01 00:   GAMMA RAY
~PARAMETER INFORMATION
#MNEM.UNIT          VALUE    DESCRIPTION
#----------   ------------   ------------------------------
 PD  .                 GL:   PERMANENT DATUM
 EPD .F              5204:   ELEVATION PERMANENT DATUM
 LMF .                 KB:   LOG MEASURED FROM
 DAPD.F                 5:   FEET ABOVE PERMANENT DATUM
 DMF .                 KB:   DRILLING MEASURED FROM
 EKB .F              5209:   KELLING BUSHING
 EGL .F              5204:   GROUND LEVEL
 DATE.        28-JUL-1964:   RUN DATE
 RUN .                  1:   RUN NUMBER
 DD  .F              1135:   DEPTH DRILLER
 DL  .F              1135:   DEPTH LOGGER
 BLI .F              1134:   BOTTOM LOG INTERVAL
 TLI .F                86:   TOP LOG INTERVAL
 CS  .IN            10.75:   CASING SIZE
 CBD .F                11:   CASING BOTTOM DRILLER
 BS  .IN            7.875:   BIT SIZE
 BSD .F              1135:   BIT SIZE AT DEPTH
 DFT .            GEL-OIL:   DRILLING FLUID TYPE
 DFD .                9.5:   DRILLING FLUID DENSITY
 DFV .                 49:   DRILLING FLUID VISCOSITY
 DFL .                 10:   DRILLING FLUID LOSS
 MSS .           FLOWLINE:   MUD SAMPLE SOURCE
 RMS .OHMM           2.35:   RESISTIVITY MUD SAMPLE
 MST .F                89:   MUD SAMPLE TEMPERATURE
 RMF .OHMM           1.71:   RESISTIVITY MUD FILTRATE SAMPLE
 MFST.F                89:   MUD FILTRATE SAMPLE TEMPERATURE
 RMC .OHMM           3.01:   RESISTIVITY MUD CAKE
 MCST.F                89:   MUD CAKE SAMPLE TEMPERATURE
 MFSS.                 FP:   MUD FILTRATE SAMPLE SOURCE
 MCSS.                 FP:   MUD CAKE SAMPLE SOURCE
 TCS .HRS               1:   TIME CURCULATED STOPPED
 LUN .               3527:   LOGGING UNIT NUMBER
 LUL .               CSPR:   LOGGING UNIT LOCATION
 ENGI.             KNOBEL:   RECORDING ENGINEER
 WITN.          JORGENSEN:   WITNESSED BY
 CLNT.            A2DTECH:   CLIENT CODE
 ORIG.        2" 5" PRINT:   ORIGIN OF DATA
 UWI .       490250644400:   UNIQUE WELL ID
 DICO. A2D Technologies, Inc.:   DIGITIZING COMPANY
~OTHER INFORMATION
~A   DEPT        ASN      CILD        ILD       SPR         DT         GR   
# ...
  762.0000    10.0514   117.4699     8.6801   -23.7172    94.7316    73.1634
  762.5000     9.8665   118.6621     8.6055   -23.5944    96.1627    72.4138
  763.0000     9.7087   120.0802     8.5606   -23.5937    96.7662    72.5637
  763.5000     9.6088   121.9880     8.4560   -23.5930    96.6924    78.5607
  764.0000     9.5434   125.0502     8.3814   -23.4422    97.0701    86.9565
  764.5000     9.5435   127.5351     8.2259   -23.4415    97.8992    85.6072
  765.0000     9.5361   131.0241     7.9792   -23.4408    97.7502    86.9565
  765.5000     9.4873   134.7640     7.7819   -23.4399    97.7517    92.2039
  766.0000     9.3182   140.4619     7.4860   -23.3853    97.9860    85.4573
  766.5000     9.0348   146.0843     7.2394   -23.2886    98.5827    83.6582
  767.0000     8.7244   150.5020     6.9573   -23.2879    99.1861    85.0075
  767.5000     8.2357   153.6771     6.8212   -23.2871   100.5420    89.6552
  768.0000     7.9441   154.3675     6.5826   -23.2863   101.5969    89.8051
  768.5000     7.8434   154.3675     6.5830   -23.2856   102.2003    89.9550
  769.0000     7.8149   153.5894     6.6091   -23.1349   102.5780    83.2084
  769.5000     7.8405   150.6024     6.6588   -23.1341   102.9557    79.4603
  770.0000     7.9805   147.5904     6.8293   -23.1334   102.8819    75.5622
  770.5000     8.3662   143.8253     7.0558   -23.1327   101.6795    71.0645
  771.0000     8.6768   139.8594     7.2605   -23.1319   100.0828    66.8666
  771.5000     8.8679   136.4083     7.4537   -23.1312    98.5503    67.9160
  772.0000     8.9161   133.2831     7.5776   -23.1124    97.3953    63.8681
  772.5000     8.9470   135.6678     7.5620   -22.9797    96.3434    62.9685
  773.0000     8.9584   137.3995     7.3744   -22.9790    95.8930    62.2099
  773.5000     8.9419   140.0602     7.2512   -22.9783    95.8192    62.4708
  774.0000     8.8653   141.6165     7.1127   -22.9774    95.8963    65.9670
  774.5000     8.6879   143.2103     7.0379   -22.9768    96.1235    67.4663
  775.0000     8.5902   145.3313     7.0383   -22.8261    96.2755    70.1649
  775.5000     8.5354   146.4483     7.0387   -22.9223    96.2769    73.1634
  776.0000     8.5077   146.8374     7.0390   -23.1684    96.3537    73.7631
  776.5000     8.4927   146.8374     7.1145   -23.4235    96.3552    73.6132
  777.0000     8.4928   146.5111     7.1149   -23.6607    96.3569    72.4138
  777.5000     8.4929   145.2687     7.1903   -23.7569    96.3584    74.1077
  778.0000     8.4929   143.0723     7.2658   -23.8711    96.4351    68.9475
  778.5000     8.5103   140.9889     7.3861   -24.0202    96.5871    64.1679
  779.0000     8.6284   139.2572     7.5100   -24.0195    96.8143    64.3178
  779.5000     8.9210   135.5422     7.7174   -24.0187    97.1167    64.6177
  780.0000     9.4556   133.2831     7.8328   -24.0180    97.4192    70.1649
  780.5000     9.7632   130.2711     7.9567   -23.8673    96.0663    66.1169
  781.0000     9.5355   127.3343     8.1690   -23.8665    93.2084    67.7661
  781.5000     9.4408   124.5732     8.2092   -23.8658    92.9089    67.7766
  782.0000     9.7777   125.7530     8.0861   -23.8651    94.0394    65.6434
  782.5000     9.9974   128.1376     7.9449   -23.8642    94.4924    63.5232
  783.0000     9.6967   130.4467     7.9149   -23.7136    94.7196    63.1184
  783.5000     9.4419   132.5301     7.7954   -23.7129    93.3666    65.6672
  784.0000     9.2457   134.4377     7.7208   -23.7121    95.7007    61.4693
  784.5000     9.1105   135.6802     7.6460   -23.7114    98.0347    63.5682
  785.0000     9.0278   136.2952     7.5713   -23.7106    97.9610    64.0180
  785.5000     8.9708   137.0482     7.5717   -23.7969    97.8119    64.6177
  786.0000     8.9152   137.8012     7.4969   -23.8592    97.6629    68.9655
  786.5000     8.8935   137.8012     7.4974   -24.0082    97.4344    70.3194
  787.0000     8.8687   137.8012     7.4555   -24.0855    97.1391    69.6522
  787.5000     8.8402   138.5542     7.4230   -24.1817    96.9905    68.8156
  788.0000     8.8192   138.5542     7.4235   -24.3058    97.0672    74.0630
  788.5000     8.7945   138.8429     7.4238   -24.3051    97.1439    69.2654
  789.0000     8.7653   139.3323     7.4242   -24.3043    97.5216    72.4138
  789.5000     8.7450   140.0602     7.4246   -24.3035    97.9745    73.3133
  790.0000     8.7203   140.8132     7.3499   -24.3028    97.6750    69.1154
  790.5000     8.6805   140.8132     7.3502   -24.3021    97.8270    73.1634
  791.0000     8.6513   142.0431     7.3507   -24.3012    98.2799    74.6717
  791.5000     8.6002   142.3193     7.3233   -24.2496    98.3567    79.6686
  792.0000     8.5672   143.0723     7.2763   -24.1499    98.2739    79.7601
  792.5000     8.5214   143.5115     7.2767   -24.1492    98.1342    75.7121
  793.0000     8.4802   144.0010     7.2543   -24.1484    98.2109    73.1634
  793.5000     8.4336   144.5783     7.2023   -24.1476    98.2877    67.0165
  794.0000     8.3991   145.7329     7.1276   -24.1469    98.4396    65.5172
  794.5000     8.3450   146.2224     7.0529   -24.1132    98.6668    66.1169
  795.0000     8.3301   146.8374     6.9783   -23.9954    98.8940    69.5652
  795.5000     8.3820   147.9544     6.9389   -23.9948    99.1212    68.9535
  796.0000     8.4656   148.4438     6.9039   -23.9940    99.2732    66.1169
  796.5000     8.5025   149.0964     6.9043   -23.9932    99.2747    71.0645
  797.0000     8.5108   149.8494     6.8699   -23.9925    99.1191    74.6627
  797.5000     8.4508   150.6024     6.8299   -24.0068    98.9017    77.5112
  798.0000     8.3756   150.6024     6.8304   -24.1409    98.8280    72.8636
  798.5000     8.2674   151.3554     6.8307   -24.1402    98.8294    71.5142
  799.0000     8.1502   151.3554     6.8311   -24.1454    99.2824    69.5652
  799.5000     8.0999   150.6024     6.8315   -24.2886    99.5848    66.5667
  800.0000     8.0902   150.3514     6.8318   -24.2879    99.7368    60.4198
  800.5000     8.0850   149.8494     6.9073   -24.2871   100.0392    64.1482
  801.0000     8.0994   148.6195     7.0295   -24.4363   100.4169    71.2205
  801.5000     8.1506   146.6240     7.1534   -24.4765   100.7946    73.1725
  802.0000     8.2229   145.3313     7.3589   -24.5847   100.6416    75.2744
  802.5000     8.3387   143.3861     7.4343   -24.5840   100.1731    75.8770
  803.0000     8.5117   141.2150     7.5098   -24.5512    99.3469    73.7492
  803.5000     8.5900   137.8012     7.5852   -24.4325    98.6614    73.6340
  804.0000     8.7044   135.4920     7.5856   -24.3558    98.2885    76.1857
  804.5000     8.7977   133.8981     7.5860   -24.2581    98.2110    74.2396
  805.0000     8.8353   132.5301     7.5864   -24.1303    98.2846    72.5941
  805.5000     8.8602   131.7771     7.5116   -24.0627    98.4329    71.0978
  806.0000     8.8881   131.8775     7.5065   -23.9790    98.5812    75.1488
  806.5000     8.9032   132.5301     7.4373   -23.9781    98.5032    79.1997
  807.0000     8.9018   132.8564     7.4104   -23.9195    98.4258    84.8998
  807.5000     8.8733   133.4087     7.3624   -23.8268    98.4236    83.2535
  808.0000     8.8403   134.7892     7.2883   -23.8259    98.5749    76.3599
  808.5000     8.7652   135.8308     7.1912   -23.8253    98.9569    78.7617
  809.0000     8.6630   137.8262     7.1389   -23.6747    99.3946    79.5143
  809.5000     8.5819   140.0602     7.0642   -23.6739    99.6934    83.8650
  810.0000     8.4677   141.3153     6.8318   -23.6732    99.9922    79.6701
  810.5000     8.3685   143.8253     6.7568   -23.6724   100.2910    80.7232
  811.0000     8.3105   146.2851     6.6817   -23.6717   100.5145    81.0260
  811.5000     8.2221   148.7701     6.6066   -23.6534   100.6628    82.9780
  812.0000     8.1576   152.1084     6.5766   -23.6522   100.8111    76.3842
  812.5000     8.0263   155.2460     6.5284   -23.6507   101.0346    75.0378
  813.0000     7.8971   160.3415     6.4565   -23.6492   101.2581    75.0408
  813.5000     7.7677   161.9854     6.5315   -23.7979   101.4817    83.5895
