~VERSION INFORMATION
 VERS.                2.0:   CWLS LOG ASCII STANDARD - VERSION 2.0
 WRAP.                 NO:   ONE LINE PER DEPTH STEP
~WELL INFORMATION
#MNEM.UNIT      DATA TYPE    INFORMATION
#----------   ------------   ------------------------------
 STRT.F           46.0000:   START DEPTH
 STOP.F         2100.0000:   STOP DEPTH
 STEP.F            0.5000:   STEP LENGTH
 NULL.          -999.2500:   NO VALUE
 COMP. LAWRENCE/ALLISON INC:   COMPANY
 WELL.    58-21 SX #10-10:   WELL
 FLD .             TEAPOT:   FIELD
 LOC .      S10 T38N R78W:   LOCATION
 CNTY.            NATRONA:   COUNTY
 STAT.            WYOMING:   STATE
 CTRY. UNITED STATES OF AMERICA:   COUNTRY
 SRVC.           Gearhart:   SERVICE COMPANY
 DATE.        06-JUL-1987:   LOGDATE
 API .       490251114400:   API NUMBER
~CURVE INFORMATION
#MNEM.UNIT       API CODE    CURVE DESCRIPTION
#----------   ------------   ------------------------------
 DEPT.F                  :   
 GR  .GAPI   81 310 01 00:   GAMMA RAY
 TGAS.UNITS  91 830 01 00:   TOTAL GAS FROM HOTWIRE
 ROP .MIN/FT 91 810 01 00:   RAT OF DRILLING PENETRATION
~PARAMETER INFORMATION
#MNEM.UNIT          VALUE    DESCRIPTION
#----------   ------------   ------------------------------
 PD  .                 GL:   PERMANENT DATUM
 EPD .F              5219:   ELEVATION PERMANENT DATUM
 LMF .                 KB:   LOG MEASURED FROM
 DAPD.F                 8:   FEET ABOVE PERMANENT DATUM
 DMF .                 KB:   DRILLING MEASURED FROM
 EKB .F              5227:   KELLING BUSHING
 EDF .F              5225:   DRILLING FLOOR
 EGL .F              5219:   GROUND LEVEL
 DATE.             7-6-87:   RUN DATE
 RUN .                  1:   RUN NUMBER
 DD  .F               610:   DEPTH DRILLER
 DL  .F             531.5:   DEPTH LOGGER
 BLI .F               526:   BOTTOM LOG INTERVAL
 TLI .F                50:   TOP LOG INTERVAL
 BS  .IN            7.875:   BIT SIZE
 BSD .F               610:   BIT SIZE AT DEPTH
 DFT .              WATER:   DRILLING FLUID TYPE
 LUN .               6084:   LOGGING UNIT NUMBER
 LUL .           GILLETTE:   LOGGING UNIT LOCATION
 ENGI.                COX:   RECORDING ENGINEER
 WITN.               LOWE:   WITNESSED BY
 CLNT.            A2DTECH:   CLIENT CODE
 ORIG.           5" PRINT:   ORIGIN OF DATA
 UWI .       490251114400:   UNIQUE WELL ID
 DICO. A2D Technologies, Inc.:   DIGITIZING COMPANY
~OTHER INFORMATION
~A   DEPT        GR      TGAS        ROP   
# ...
  865.0000  -999.2500    16.3871     0.4331
  865.5000  -999.2500    15.7308     0.4438
  866.0000  -999.2500    15.0735     0.4437
  866.5000  -999.2500    14.4164     0.4437
  867.0000  -999.2500    13.7587     0.4433
  867.5000  -999.2500    13.0967     0.4462
  868.0000  -999.2500    12.4575     0.5144
  868.5000  -999.2500    11.7506     0.5841
  869.0000  -999.2500    11.7852     0.6536
  869.5000  -999.2500    11.7836     0.7231
  870.0000  -999.2500    11.6890     0.7937
  870.5000  -999.2500    11.5172     0.8063
  871.0000  -999.2500    11.3451     0.8070
  871.5000  -999.2500    11.1728     0.8057
  872.0000  -999.2500    11.0004     0.6843
  872.5000  -999.2500    10.8214     0.5455
  873.0000  -999.2500    10.7804     0.4550
  873.5000  -999.2500    10.7795     0.4564
  874.0000  -999.2500    10.7799     0.4561
  874.5000  -999.2500    10.7777     0.4533
  875.0000  -999.2500    10.7572     0.4502
  875.5000  -999.2500    10.7365     0.4471
  876.0000  -999.2500    10.7159     0.4439
  876.5000  -999.2500    10.6952     0.4408
  877.0000  -999.2500    10.6746     0.4376
  877.5000  -999.2500    10.6540     0.4344
  878.0000  -999.2500    10.6333     0.4345
  878.5000  -999.2500    10.6127     0.4442
  879.0000  -999.2500    10.5921     0.4459
  879.5000  -999.2500    10.5714     0.4471
  880.0000  -999.2500    10.5508     0.4483
  880.5000  -999.2500    10.5302     0.4496
  881.0000  -999.2500    10.5095     0.4508
  881.5000  -999.2500    10.4889     0.4521
  882.0000  -999.2500    10.4683     0.4533
  882.5000  -999.2500    10.4476     0.4545
  883.0000  -999.2500    10.4270     0.4558
  883.5000  -999.2500    10.4063     0.4570
  884.0000  -999.2500    10.3857     0.4582
  884.5000  -999.2500    10.3651     0.4595
  885.0000  -999.2500    10.3444     0.4607
  885.5000  -999.2500    10.3237     0.4619
  886.0000  -999.2500    10.3033     0.4632
  886.5000  -999.2500    10.2810     0.4644
  887.0000  -999.2500    10.3730     0.4656
  887.5000  -999.2500    10.5260     0.4669
  888.0000  -999.2500    10.6802     0.4681
  888.5000  -999.2500    10.8344     0.4694
  889.0000  -999.2500    10.9886     0.4706
  889.5000  -999.2500    11.1427     0.4718
  890.0000  -999.2500    11.2968     0.4730
  890.5000  -999.2500    11.4509     0.4743
  891.0000  -999.2500    11.6051     0.4755
  891.5000  -999.2500    11.7592     0.4768
  892.0000  -999.2500    11.9133     0.4780
  892.5000  -999.2500    12.0675     0.4791
  893.0000  -999.2500    12.2216     0.4804
  893.5000  -999.2500    12.3758     0.4908
  894.0000  -999.2500    12.5302     0.5536
  894.5000  -999.2500    12.6831     0.6159
  895.0000  -999.2500    12.7940     0.6783
  895.5000  -999.2500    12.4769     0.7404
  896.0000  -999.2500    12.0614     0.7953
  896.5000  -999.2500    11.6449     0.7942
  897.0000  -999.2500    11.2708     0.7946
  897.5000  -999.2500    11.2797     0.7675
  898.0000  -999.2500    11.2813     0.6963
  898.5000  -999.2500    11.2818     0.6174
  899.0000  -999.2500    11.2771     0.5388
  899.5000  -999.2500    11.2811     0.4667
  900.0000  -999.2500    10.7648     0.4684
  900.5000  -999.2500    10.1737     0.4687
  901.0000  -999.2500     9.5101     0.4688
  901.5000  -999.2500     8.8376     0.4688
  902.0000  -999.2500     8.1670     0.4688
  902.5000  -999.2500     7.4916     0.4688
  903.0000  -999.2500     6.8033     0.4688
  903.5000  -999.2500     6.7637     0.4688
  904.0000  -999.2500     6.7822     0.4688
  904.5000  -999.2500     6.7994     0.4688
  905.0000  -999.2500     6.8154     0.4688
  905.5000  -999.2500     6.8314     0.4688
  906.0000  -999.2500     6.8474     0.4688
  906.5000  -999.2500     6.8634     0.4688
  907.0000  -999.2500     6.8794     0.4688
  907.5000  -999.2500     6.8954     0.4688
  908.0000  -999.2500     6.9114     0.4688
  908.5000  -999.2500     6.9274     0.4688
  909.0000  -999.2500     6.9434     0.4688
  909.5000  -999.2500     6.9594     0.4688
  910.0000  -999.2500     6.9754     0.4688
  910.5000  -999.2500     6.9914     0.4688
  911.0000  -999.2500     7.0074     0.4688
  911.5000  -999.2500     7.0234     0.4688
  912.0000  -999.2500     7.0394     0.4688
  912.5000  -999.2500     7.0554     0.4688
  913.0000  -999.2500     7.0714     0.4681
  913.5000  -999.2500     7.0874     0.4635
  914.0000  -999.2500     7.1034     0.4589
  914.5000  -999.2500     7.1194     0.4543
  915.0000  -999.2500     7.1354     0.4497
  915.5000  -999.2500     7.1514     0.4451
  916.0000  -999.2500     7.1674     0.4406
  916.5000  -999.2500     7.1834     0.4359
  917.0000  -999.2500     7.1994     0.4314
  917.5000  -999.2500     7.2154     0.4312
  918.0000  -999.2500     7.2314     0.4323
  918.5000  -999.2500     7.2474     0.4353
  919.0000  -999.2500     7.2635     0.4383
  919.5000  -999.2500     7.2701     0.4413
  920.0000  -999.2500     7.2702     0.4443
  920.5000  -999.2500     7.2702     0.4473
  921.0000  -999.2500     7.2702     0.4502
  921.5000  -999.2500     7.2702     0.4532
  922.0000  -999.2500     7.2702     0.4562
  922.5000  -999.2500     7.2702     0.4592
  923.0000  -999.2500     7.2702     0.4622
  923.5000  -999.2500     7.2702     0.4650
  924.0000  -999.2500     7.2702     0.4669
  924.5000  -999.2500     7.2702     0.5270
  925.0000  -999.2500     7.2702     0.6033
  925.5000  -999.2500     7.2708     0.6802
  926.0000  -999.2500     7.2611     0.7572
  926.5000  -999.2500     7.2371     0.7688
  927.0000  -999.2500     7.7561     0.7689
  927.5000  -999.2500     7.7673     0.7688
  928.0000  -999.2500     7.7724     0.7688
  928.5000  -999.2500     7.7716     0.7688
  929.0000  -999.2500     7.7716     0.7688
  929.5000  -999.2500     7.7716     0.7688
  930.0000  -999.2500     7.7716     0.7688
  930.5000  -999.2500     7.7716     0.7688
  931.0000  -999.2500     7.7716     0.7688
  931.5000  -999.2500     7.7716     0.7688
  932.0000  -999.2500     7.7716     0.7688
  932.5000  -999.2500     7.7716     0.7688
  933.0000  -999.2500     7.7716     0.7688
  933.5000  -999.2500     7.7716     0.7680
  934.0000  -999.2500     7.7716     0.7256
  934.5000  -999.2500     7.7716     0.6248
  935.0000  -999.2500     7.7716     0.5247
  935.5000  -999.2500     7.7716     0.4240
  936.0000  -999.2500     7.7716     0.3452
  936.5000  -999.2500     7.7716     0.3300
  937.0000  -999.2500     7.7716     0.3309
  937.5000  -999.2500     7.7716     0.3320
  938.0000  -999.2500     7.7716     0.3332
  938.5000  -999.2500     7.7716     0.3344
  939.0000  -999.2500     7.7716     0.3355
  939.5000  -999.2500     7.7709     0.3367
  940.0000  -999.2500     7.7672     0.3379
  940.5000  -999.2500     7.9256     0.3391
  941.0000  -999.2500     8.1048     0.3402
  941.5000  -999.2500     8.2848     0.3414
  942.0000  -999.2500     8.4645     0.3426
  942.5000  -999.2500     8.6436     0.3438
  943.0000  -999.2500     8.7756     0.3449
  943.5000  -999.2500     8.7859     0.3461
  944.0000  -999.2500     8.1285     0.3473
  944.5000  -999.2500     7.1981     0.3485
  945.0000  -999.2500     6.2550     0.3496
  945.5000  -999.2500     5.3090     0.3508
  946.0000  -999.2500     4.3716     0.3520
  946.5000  -999.2500     4.2593     0.3532
  947.0000  -999.2500     4.2607     0.3543
  947.5000  -999.2500     4.2242     0.3555
  948.0000  -999.2500     4.1717     0.3567
  948.5000  -999.2500     4.1182     0.3578
  949.0000  -999.2500     4.0647     0.3590
  949.5000  -999.2500     4.0113     0.3602
  950.0000  -999.2500     3.9578     0.3614
  950.5000  -999.2500     3.9043     0.3625
  951.0000  -999.2500     3.8508     0.3637
  951.5000  -999.2500     3.7981     0.3649
  952.0000  -999.2500     3.7597     0.3661
  952.5000  -999.2500     3.7605     0.3672
  953.0000  -999.2500     3.7604     0.3685
  953.5000  -999.2500     3.7604     0.3688
  954.0000  -999.2500     3.7604     0.3688
  954.5000  -999.2500     3.7604     0.3688
  955.0000  -999.2500     3.7604     0.3688
  955.5000  -999.2500     3.7604     0.3688
