~VERSION INFORMATION
 VERS.                2.0:   CWLS LOG ASCII STANDARD - VERSION 2.0
 WRAP.                 NO:   ONE LINE PER DEPTH STEP
~WELL INFORMATION
#MNEM.UNIT      DATA TYPE    INFORMATION
#----------   ------------   ------------------------------
 STRT.F           86.0000:   START DEPTH
 STOP.F         1134.0000:   STOP DEPTH
 STEP.F            0.5000:   STEP LENGTH
 NULL.          -999.2500:   NO VALUE
 COMP.          U.S. NAVY:   COMPANY
 WELL. RES 3 TEAPOT DOM #64-S-2:   WELL
 FLD .             TEAPOT:   FIELD
 LOC .       S2 T38N R78W:   LOCATION
 CNTY.            NATRONA:   COUNTY
 STAT.            WYOMING:   STATE
 CTRY. UNITED STATES OF AMERICA:   COUNTRY
 SRVC. Schlumberger Well Surveying Corp:   SERVICE COMPANY
 DATE.        28-JUL-1964:   LOGDATE
 API .       490250644400:   API NUMBER
~CURVE INFORMATION
#MNEM.UNIT       API CODE    CURVE DESCRIPTION
#----------   ------------   ------------------------------
 DEPT.F                  :   
 ASN .OHMM   05 041 16 00:   AMPLIFIED SHORT NORMAL 16"
 CILD.MMHO   05 110 46 00:   CONDUCTIVITY INDUCTION LOG DEEP
 ILD .OHMM   05 120 46 00:   INDUCTION LOG DEEP
 SPR .MV     05 010 01 00:   SPONTANEOUS POTENTIAL FROM RES.
 DT  .US/F   60 520 33 00:   INTERVAL TRANSIT TIME
 GR  .GAPI   30 310 01 00:   GAMMA RAY
~PARAMETER INFORMATION
#MNEM.UNIT          VALUE    DESCRIPTION
#----------   ------------   ------------------------------
 PD  .                 GL:   PERMANENT DATUM
 EPD .F              5204:   ELEVATION PERMANENT DATUM
 LMF .                 KB:   LOG MEASURED FROM
 DAPD.F                 5:   FEET ABOVE PERMANENT DATUM
 DMF .                 KB:   DRILLING MEASURED FROM
 EKB .F              5209:   KELLING BUSHING
 EGL .F              5204:   GROUND LEVEL
 DATE.        28-JUL-1964:   RUN DATE
 RUN .                  1:   RUN NUMBER
 DD  .F              1135:   DEPTH DRILLER
 DL  .F              1135:   DEPTH LOGGER
 BLI .F              1134:   BOTTOM LOG INTERVAL
 TLI .F                86:   TOP LOG INTERVAL
 CS  .IN            10.75:   CASING SIZE
 CBD .F                11:   CASING BOTTOM DRILLER
 BS  .IN            7.875:   BIT SIZE
 BSD .F              1135:   BIT SIZE AT DEPTH
 DFT .            GEL-OIL:   DRILLING FLUID TYPE
 DFD .                9.5:   DRILLING FLUID DENSITY
 DFV .                 49:   DRILLING FLUID VISCOSITY
 DFL .                 10:   DRILLING FLUID LOSS
 MSS .           FLOWLINE:   MUD SAMPLE SOURCE
 RMS .OHMM           2.35:   RESISTIVITY MUD SAMPLE
 MST .F                89:   MUD SAMPLE TEMPERATURE
 RMF .OHMM           1.71:   RESISTIVITY MUD FILTRATE SAMPLE
 MFST.F                89:   MUD FILTRATE SAMPLE TEMPERATURE
 RMC .OHMM           3.01:   RESISTIVITY MUD CAKE
 MCST.F                89:   MUD CAKE SAMPLE TEMPERATURE
 MFSS.                 FP:   MUD FILTRATE SAMPLE SOURCE
 MCSS.                 FP:   MUD CAKE SAMPLE SOURCE
 TCS .HRS               1:   TIME CURCULATED STOPPED
 LUN .               3527:   LOGGING UNIT NUMBER
 LUL .               CSPR:   LOGGING UNIT LOCATION
 ENGI.             KNOBEL:   RECORDING ENGINEER
 WITN.          JORGENSEN:   WITNESSED BY
 CLNT.            A2DTECH:   CLIENT CODE
 ORIG.        2" 5" PRINT:   ORIGIN OF DATA
 UWI .       490250644400:   UNIQUE WELL ID
 DICO. A2D Technologies, Inc.:   DIGITIZING COMPANY
~OTHER INFORMATION
~A   DEPT        ASN      CILD        ILD       SPR         DT         GR   
# ...
  866.0000     8.8331   146.7216     6.9069   -24.0120    92.1308    57.8119
  866.5000     8.2356   152.6115     6.7055   -24.2564    95.8492    53.3215
  867.0000     7.8393   155.8186     6.4565   -24.3868    96.7507    57.9765
  867.5000     7.4925   160.1278     6.3345   -24.2354    97.8779    61.4321
  868.0000     7.3630   164.0361     6.2112   -24.0780    98.8546    62.6389
  868.5000     7.3260   166.3190     6.0811   -23.9322    99.2297    67.5937
  869.0000     7.3176   166.8825     6.1562   -23.7331    98.8516    68.9504
  869.5000     7.5129   164.9737     6.1562   -23.6296    98.7000    67.6791
  870.0000     7.6591   159.9647     6.2312   -23.5382    99.0744    66.1183
  870.5000     7.7083   151.0458     6.3063   -23.6269    98.9977    65.3742
  871.0000     7.7380   148.7801     6.3901   -23.6251    98.3190    65.9830
  871.5000     7.7572   149.5260     6.5315   -23.7736    98.1588    68.3892
  872.0000     7.7828   150.2699     6.6066   -23.7481    98.8488    74.8433
  872.5000     7.7827   150.2635     6.6848   -23.6205    99.0670    74.1010
  873.0000     7.7796   150.2560     6.8318   -23.5532    98.7642    72.7590
  873.5000     7.7674   149.7528     6.9313   -23.4558    98.5370    71.8668
  874.0000     7.7672   148.5090     7.0571   -23.3161    98.3850    75.7721
  874.5000     7.8039   147.2211     7.1027   -23.3148    98.3083    76.1138
  875.0000     7.9173   145.5823     7.2260   -23.3133    98.4573    79.1105
  875.5000     8.0007   143.2718     7.2823   -23.5577    98.6063    82.3927
  876.0000     8.0994   141.1741     7.3574   -23.8021    98.6048    79.8513
  876.5000     8.2425   139.6486     7.3574   -23.9085    98.4529    75.9605
  877.0000     8.4011   138.1476     7.4324   -24.0570    98.0752    75.0665
  877.5000     8.5030   138.1391     7.3229   -24.0555    97.4717    75.9752
  878.0000     8.5417   140.2911     7.2072   -23.9039    97.0940    77.0320
  878.5000     8.5229   142.7562     7.0571   -23.6806    97.0926    71.1923
  879.0000     8.4274   145.6463     7.0283   -23.2834    97.2501    68.2011
  879.5000     8.3224   147.6857     6.9069   -22.9998    97.4655    66.2594
  880.0000     8.1895   149.3976     6.9069   -22.7886    97.6897    62.2188
  880.5000     7.9908   150.6263     6.8318   -22.5472    97.9892    65.1689
  881.0000     7.8608   151.6429     6.8318   -22.3955    98.2135    67.1828
  881.5000     7.8251   151.6337     6.7568   -22.3943    98.5130    68.0897
  882.0000     7.8400   151.6265     6.7568   -22.6926    98.8125    69.1465
  882.5000     7.8647   151.4622     6.7568   -23.7106    99.1872    65.5556
  883.0000     7.9299   150.1047     6.8318   -24.0392    99.9382    60.7653
  883.5000     7.9930   149.7276     6.8318   -24.0374   100.0876    60.1711
  884.0000     8.0716   148.5843     6.9069   -23.8861    99.9352    61.2298
  884.5000     8.2001   147.8228     6.9069   -23.7106    99.7080    58.8383
  885.0000     8.2902   147.0632     6.9069   -23.4331    99.0996    57.0364
  885.5000     8.2704   147.0557     6.9069   -23.2159    98.6433    57.6536
  886.0000     8.2147   147.0468     6.9069   -22.9805    98.3488    61.6250
  886.5000     8.1780   147.2980     6.9069   -22.8288    98.6483    62.9174
  887.0000     8.1371   147.7861     6.9069   -22.6237    99.0983    68.9218
  887.5000     8.0639   148.2493     6.9069   -22.5262    99.1725    70.2784
  888.0000     7.9775   148.5253     6.9069   -22.3748    99.2462    72.9826
  888.5000     7.8531   149.2692     6.9069   -22.3313    99.6206    69.2436
  889.0000     7.7195   150.0151     6.8318   -22.2218   100.2211    69.8506
  889.5000     7.6874   150.9048     6.8318   -22.2204   100.3705    70.7575
  890.0000     7.7022   151.5060     6.7568   -22.2489   100.0676    67.4665
  890.5000     7.7171   153.3622     6.7461   -22.3673    99.8404    62.5263
  891.0000     7.7170   154.5908     6.6817   -22.4378    99.6132    59.0715
  891.5000     7.7168   156.0004     6.6066   -22.5322    99.4613    55.2013
  892.0000     7.6948   157.8012     6.5315   -22.9623    99.3093    57.4527
  892.5000     7.6523   159.8143     6.4565   -23.0810    99.2187    58.8093
  893.0000     7.5660   163.5076     6.3551   -23.4153    99.0802    59.7162
  893.5000     7.4931   168.4904     6.2312   -23.7074    99.0035    57.9245
  894.0000     7.3548   173.2830     6.0335   -23.6582    99.0020    55.8328
  894.5000     7.2561   180.8682     5.9103   -23.5547    99.0762    55.0905
  895.0000     7.1381   189.6458     5.7057   -23.3133    99.2248    54.6463
  895.5000     6.8735   197.3564     5.5887   -23.0660    99.4491    62.4515
  896.0000     6.6189   199.6587     5.3904   -22.8005   100.2001    66.9566
  896.5000     6.4374   201.3704     5.2553   -22.4213   100.8758    65.1594
  897.0000     6.1813   202.6054     5.1439   -22.1499   103.4326    65.2104
  897.5000     5.9094   203.3509     5.1802   -21.4466   103.2054    66.0791
  898.0000     5.6698   202.5151     5.2553   -21.5772   102.6712    63.2397
  898.5000     5.8049   199.5696     5.3610   -22.2174   101.9077    53.5019
  899.0000     6.1209   195.1078     5.5593   -22.6414   101.2175    52.7577
  899.5000     6.4392   187.4132     5.7057   -22.9400   100.4903    58.1642
  900.0000     6.5815   181.7271     5.8308   -22.9385    99.8869    60.7203
  900.5000     6.6903   177.7596     6.0060   -22.8411   100.4874    63.8742
  901.0000     6.7666   173.9305     6.0811   -22.6357   101.5393    63.5832
  901.5000     6.8140   171.0806     6.1562   -22.4842   102.5913    63.7407
  902.0000     6.8566   168.2932     6.1562   -22.3328   103.4175    66.4351
  902.5000     6.8714   166.3774     6.1968   -22.3014   103.4916    71.0861
  903.0000     6.8938   165.2284     6.2312   -22.1798   102.8878    70.0421
  903.5000     6.9183   164.8569     6.2312   -22.1064   102.2844    69.2969
  904.0000     6.9461   164.8485     6.1962   -22.0270   101.5575    71.6246
  904.5000     6.9734   165.9275     6.1562   -22.0253   100.4000    76.6952
  905.0000     7.0075   166.4659     6.0811   -22.0240    99.6461    77.1062
  905.5000     7.0359   168.5906     6.0517   -22.0225    99.5698    73.0637
  906.0000     7.0060   170.9187     6.0035   -22.0207   100.0947    71.4189
  906.5000     6.8853   174.6263     5.8559   -22.0195   100.4694    72.4728
  907.0000     6.6772   179.5632     5.7808   -22.0180   101.0699    68.5792
  907.5000     6.4909   185.1597     5.7877   -22.0165   101.9714    66.0337
  908.0000     6.3434   194.9093     5.7397   -22.0150   102.7976    73.3856
  908.5000     6.2141   203.5242     5.3307   -21.8635   103.3296    68.1426
  909.0000     6.0687   213.4184     4.8116   -21.8621   103.0953    66.0132
  909.5000     5.8618   230.2780     4.1525   -21.8366   102.7928    68.9206
  910.0000     5.6847   252.4850     3.5661   -21.7090   104.4467    69.2052
  910.5000     5.3495   264.9027     3.3112   -21.5733   107.2293    68.1602
  911.0000     4.7169   264.1406     3.1614   -21.3663   109.7862    70.2635
  911.5000     4.6148   263.0610     3.0770   -20.9700   111.2143    66.2210
  912.0000     4.5798   262.6205     3.0120   -20.6257   111.2885    65.0249
  912.5000     4.5545   261.8586     3.0437   -20.3273   111.2114    66.3798
  913.0000     4.5304   260.5722     3.1674   -20.5202   110.9059    63.3857
  913.5000     4.6649   258.0798     3.3886   -21.2249   109.9487    62.3406
  914.0000     5.0806   251.7222     3.8193   -21.8111   106.6920    62.6448
  914.5000     5.5268   227.3396     4.3652   -22.1672   104.5084    73.2939
  915.0000     5.8511   201.6445     4.9037   -22.1664   103.6792    73.4631
  915.5000     6.1931   182.6151     5.3835   -22.1657   103.0758    76.3383
  916.0000     6.4184   176.9578     5.5676   -22.1648   102.6981    77.0563
  916.5000     6.5889   173.7990     5.8027   -22.0142   102.3957    73.1627
  917.0000     6.7343   170.1256     5.9592   -22.0080   102.3190    69.8687
  917.5000     6.8399   167.1687     6.0943   -21.8627   102.2423    64.7757
