~VERSION INFORMATION
 VERS.                2.0:   CWLS LOG ASCII STANDARD - VERSION 2.0
 WRAP.                 NO:   ONE LINE PER DEPTH STEP
~WELL INFORMATION
#MNEM.UNIT      DATA TYPE    INFORMATION
#----------   ------------   ------------------------------
 STRT.F           50.0000:   START DEPTH
 STOP.F         1561.5000:   STOP DEPTH
 STEP.F            0.5000:   STEP LENGTH
 NULL.          -999.2500:   NO VALUE
 COMP. FENIX & SCISSON INC:   COMPANY
 WELL.  72 SH 3 STX #72-3:   WELL
 FLD .             TEAPOT:   FIELD
 LOC .       S3 T38N R78W:   LOCATION
 CNTY.            NATRONA:   COUNTY
 STAT.            WYOMING:   STATE
 CTRY. UNITED STATES OF AMERICA:   COUNTRY
 SRVC.           BIRDWELL:   SERVICE COMPANY
 DATE.        31-JUL-1979:   LOGDATE
 API .       490251078600:   API NUMBER
~CURVE INFORMATION
#MNEM.UNIT       API CODE    CURVE DESCRIPTION
#----------   ------------   ------------------------------
 DEPT.F                  :   
 CALD.IN     45 280 60 00:   CALIPER FROM DENSITY LOG
 GRD .GAPI   45 310 01 00:   GAMMA RAY FROM DENSITY LOG
 RHOB.G/C3   45 350 01 00:   BULK DENSITY
 CORR.G/C3   45 356 01 00:   DENSITY CORRECTION
 DPHI.DEC    45 890 12 00:   DENSITY POROSITY SANDSTONE
 GR  .GAPI   81 310 01 00:   GAMMA RAY
~PARAMETER INFORMATION
#MNEM.UNIT          VALUE    DESCRIPTION
#----------   ------------   ------------------------------
 PD  .                 GL:   PERMANENT DATUM
 EPD .F              5165:   ELEVATION PERMANENT DATUM
 LMF .                 KB:   LOG MEASURED FROM
 DAPD.F                10:   FEET ABOVE PERMANENT DATUM
 DMF .                 KB:   DRILLING MEASURED FROM
 EKB .F              5175:   KELLING BUSHING
 EGL .F              5165:   GROUND LEVEL
 DATE.            7-31-79:   RUN DATE
 RUN .                  1:   RUN NUMBER
 DD  .F              1564:   DEPTH DRILLER
 DL  .F              1560:   DEPTH LOGGER
 BLI .F              1560:   BOTTOM LOG INTERVAL
 TLI .F               700:   TOP LOG INTERVAL
 CS  .IN            9.625:   CASING SIZE
 CBD .F               691:   CASING BOTTOM DRILLER
 CBL .F               680:   CASING BOTTOM LOGGER
 BS  .IN            7.875:   BIT SIZE
 BSD .F              1564:   BIT SIZE AT DEPTH
 DFT .                OIL:   DRILLING FLUID TYPE
 BHT .F                92:   BOTTOM HOLE TEMPERATURE
 TCS .HRS               2:   TIME CURCULATED STOPPED
 MRT .F                92:   MAXIMUM RECORDED TEMPERATURE
 LUN .               3029:   LOGGING UNIT NUMBER
 LUL .                CPR:   LOGGING UNIT LOCATION
 ENGI.             MILLER:   RECORDING ENGINEER
 WITN.           DINSMORE:   WITNESSED BY
 CLNT.            A2DTECH:   CLIENT CODE
 ORIG.       2", 5" PRINT:   ORIGIN OF DATA
 UWI .       490251078600:   UNIQUE WELL ID
 DICO. A2D Technologies, Inc.:   DIGITIZING COMPANY
~OTHER INFORMATION
~A   DEPT     CALD        GRD       RHOB       CORR       DPHI          GR  
# ...
  882.0000     9.4816    94.9268     2.5103     0.0241     0.0236    81.5151
  882.5000     9.4945    93.0506     2.5104     0.0250     0.0201    82.6250
  883.0000     9.5057    91.1414     2.5147     0.0276     0.0167    82.2055
  883.5000     9.5162    89.2631     2.5200     0.0303     0.0138    80.2595
  884.0000     9.5268    87.8985     2.5239     0.0331     0.0162    78.3849
  884.5000     9.5375    89.0803     2.5187     0.0243     0.0188    76.6296
  885.0000     9.5348    90.7673     2.5137     0.0132     0.0187    77.8531
  885.5000     9.5295    90.6716     2.5084     0.0177     0.0182    79.4651
  886.0000     9.5243    86.8482     2.5145     0.0221     0.0185    79.9110
  886.5000     9.5190    83.0338     2.5156     0.0204     0.0238    77.8767
  887.0000     9.5137    82.3476     2.5107     0.0128     0.0208    76.2624
  887.5000     9.5085    83.7651     2.5052     0.0054     0.0150    74.5673
  888.0000     9.5032    85.5032     2.5225     0.0033     0.0120    75.5554
  888.5000     9.4980    87.2761     2.5258     0.0235     0.0135    77.1261
  889.0000     9.4927    87.4450     2.5245     0.0123     0.0134    76.7783
  889.5000     9.4875    87.2680     2.5381     0.0086     0.0078    75.8038
  890.0000     9.4822    87.0562     2.5407     0.0200     0.0085    74.8474
  890.5000     9.4770    89.2822     2.5312     0.0209     0.0140    74.6332
  891.0000     9.4717    93.0401     2.5211     0.0138     0.0190    76.0366
  891.5000     9.4665    92.3724     2.5109     0.0064     0.0175    77.3494
  892.0000     9.4612    91.5843     2.5141     0.0079     0.0152    78.2863
  892.5000     9.4560    92.2983     2.5192     0.0168     0.0128    78.1341
  893.0000     9.4507    93.5345     2.5214     0.0208     0.0154    78.0160
  893.5000     9.4455    94.7614     2.5166     0.0135     0.0199    77.8719
  894.0000     9.4401    95.8520     2.5113     0.0064     0.0240    79.1918
  894.5000     9.4368    93.2438     2.5057     0.0052     0.0246    80.9731
  895.0000     9.4339    88.6093     2.5087     0.0121     0.0218    82.7969
  895.5000     9.4310    88.8280     2.5145     0.0153     0.0179    83.9916
  896.0000     9.4282    90.2871     2.5203     0.0093     0.0140    82.7259
  896.5000     9.4253    91.7116     2.5264     0.0152     0.0101    80.8026
  897.0000     9.4228    93.1306     2.5328     0.0220     0.0077    79.0717
  897.5000     9.4208    93.5236     2.5366     0.0288     0.0051    80.0829
  898.0000     9.4004    91.8946     2.5333     0.0357     0.0044    81.6771
  898.5000     9.4019    93.2664     2.5301     0.0425     0.0078    83.2222
  899.0000     9.4036    95.5975     2.5268     0.0340     0.0112    89.1608
  899.5000     9.4056    98.0460     2.5236     0.0252     0.0145    96.2085
  900.0000     9.4075    98.7624     2.5203     0.0295     0.0162    95.9492
  900.5000     9.4094    94.6656     2.5160     0.0340     0.0020    91.5226
  901.0000     9.4114    90.0402     2.5419     0.0263     0.0016    87.8615
  901.5000     9.4133    86.7592     2.5400     0.0140     0.0110    84.8502
  902.0000     9.4152    87.0276     2.5146     0.0037     0.0178    85.6628
  902.5000     9.4171    98.4817     2.4986     0.0097     0.0238    86.7497
  903.0000     9.4191    99.4431     2.5008     0.0159     0.0221    87.0072
  903.5000     9.4210    95.2317     2.5092     0.0221     0.0188    83.7320
  904.0000     9.4229    91.6697     2.5175     0.0283     0.0155    89.8632
  904.5000     9.4248    88.1703     2.5257     0.0344     0.0121    91.8752
  905.0000     9.4268    88.2689     2.5316     0.0327     0.0118    88.5482
  905.5000     9.4287    89.9927     2.5288     0.0280     0.0143    85.2163
  906.0000     9.4306    91.6951     2.5192     0.0234     0.0179    81.9015
  906.5000     9.4325    92.9841     2.5124     0.0229     0.0142    79.0484
  907.0000     9.4345    91.0038     2.5125     0.0302     0.0145    77.2891
  907.5000     9.4364    89.2208     2.5179     0.0382     0.0161    79.1083
  908.0000     9.4387    90.8243     2.5240     0.0390     0.0159    82.2939
  908.5000     9.4223    92.6804     2.5298     0.0354     0.0135    85.2294
  909.0000     9.3988    91.7831     2.5242     0.0281     0.0130    85.1371
  909.5000     9.3752    88.9537     2.5172     0.0222     0.0170    82.9923
  910.0000     9.3600    87.0917     2.5102     0.0200     0.0210    86.5145
  910.5000     9.3758    90.7454     2.5032     0.0177     0.0250    88.9843
  911.0000     9.3914    95.6626     2.4984     0.0154     0.0270    91.2864
  911.5000     9.4070    93.3592     2.4975     0.0131     0.0266    90.1477
  912.0000     9.4226    88.8788     2.5011     0.0110     0.0240    89.5209
  912.5000     9.4382    88.3040     2.5138     0.0115     0.0166    91.5730
  913.0000     9.4538    89.4700     2.5263     0.0169     0.0118    91.0945
  913.5000     9.4694    90.6435     2.5232     0.0223     0.0154    89.8935
  914.0000     9.4850    92.2882     2.5172     0.0277     0.0186    88.6713
  914.5000     9.5000    96.1159     2.5248     0.0331     0.0098    87.4815
  915.0000     9.5105    97.0058     2.5341     0.0384     0.0010    86.4160
  915.5000     9.5210    92.4094     2.5429     0.0349     0.0016    85.3729
  916.0000     9.5315    88.4841     2.5274     0.0268     0.0216    84.3262
  916.5000     9.5419    88.2875     2.5046     0.0187     0.0307    83.2716
  917.0000     9.5524    89.5176     2.4882     0.0129     0.0313    82.5763
  917.5000     9.5629    90.7767     2.4905     0.0232     0.0294    85.0596
  918.0000     9.5733    91.2956     2.4975     0.0347     0.0276    87.5674
  918.5000     9.5838    90.2984     2.5044     0.0461     0.0235    89.7347
  919.0000     9.5943    90.1053     2.5113     0.0578     0.0184    88.2472
  919.5000     9.6047    93.0333     2.5182     0.0582     0.0138    84.7691
  920.0000     9.6152    95.9205     2.5250     0.0544     0.0132    83.2871
  920.5000     9.6257    96.3109     2.5215     0.0505     0.0225    84.8570
  921.0000     9.6363    83.9956     2.5075     0.0470     0.0190    87.3367
  921.5000     9.6363    87.5016     2.5055     0.0448     0.0158    89.8343
  922.0000     9.6322    90.4974     2.5125     0.0477     0.0180    92.3449
  922.5000     9.6280    93.5583     2.5197     0.0647     0.0113    93.7792
  923.0000     9.6239    94.1601     2.5326     0.0813     0.0036    93.3211
  923.5000     9.6196    90.0199     2.5607     0.0930    -0.0008    90.8462
  924.0000     9.6072    85.7598     2.5775     0.0777    -0.0006    88.3984
  924.5000     9.5939    84.8260     2.5550     0.0371     0.0022    85.9384
  925.0000     9.5805    96.2715     2.5327     0.0334     0.0050    83.5526
  925.5000     9.5671    96.7965     2.5330     0.0291     0.0071    82.8375
  926.0000     9.5538    95.9573     2.5328     0.0248     0.0089    82.1002
  926.5000     9.5404    98.8670     2.5264     0.0206     0.0104    86.7165
  927.0000     9.5271    98.3763     2.5200     0.0162     0.0119    92.5379
  927.5000     9.5137    97.1819     2.5205     0.0169     0.0134    95.3716
  928.0000     9.5003    95.9727     2.5216     0.0207     0.0136    92.9130
  928.5000     9.4870    94.7681     2.5227     0.0245     0.0117    88.2682
  929.0000     9.4735    93.5508     2.5241     0.0283     0.0099    83.6295
  929.5000     9.4603    93.2095     2.5296     0.0310     0.0080    80.5282
  930.0000     9.4589    93.6679     2.5334     0.0269     0.0111    82.2035
  930.5000     9.4656    94.5976     2.5184     0.0223     0.0164    85.4035
  931.0000     9.4730    95.5254     2.5179     0.0189     0.0179    89.2914
  931.5000     9.4804    96.4579     2.5217     0.0193     0.0157    87.5679
  932.0000     9.4879    97.3827     2.5235     0.0204     0.0174    84.5562
  932.5000     9.4953    98.2458     2.5196     0.0180     0.0130    83.4087
  933.0000     9.5027    95.8579     2.5117     0.0120     0.0164    86.9793
  933.5000     9.5101    90.6625     2.5038     0.0129     0.0205    90.9000
