~VERSION INFORMATION
 VERS.                2.0:   CWLS LOG ASCII STANDARD - VERSION 2.0
 WRAP.                 NO:   ONE LINE PER DEPTH STEP
~WELL INFORMATION
#MNEM.UNIT      DATA TYPE    INFORMATION
#----------   ------------   ------------------------------
 STRT.F           50.0000:   START DEPTH
 STOP.F          854.0000:   STOP DEPTH
 STEP.F            0.5000:   STEP LENGTH
 NULL.          -999.2500:   NO VALUE
 COMP. FENIX & SCISSON INC:   COMPANY
 WELL.    45 SX 11 #45-11:   WELL
 FLD .             TEAPOT:   FIELD
 LOC .      S11 T38N R78W:   LOCATION
 CNTY.            NATRONA:   COUNTY
 STAT.            WYOMING:   STATE
 CTRY. UNITED STATES OF AMERICA:   COUNTRY
 SRVC.           BIRDWELL:   SERVICE COMPANY
 DATE.        01-MAR-1978:   LOGDATE
 API .       490251058600:   API NUMBER
~CURVE INFORMATION
#MNEM.UNIT       API CODE    CURVE DESCRIPTION
#----------   ------------   ------------------------------
 DEPT.F                  :   
 CALD.IN     45 280 60 00:   CALIPER
 CORR.G/C3   45 356 01 00:   DENSITY CORRECTION
 RHOB.G/C3   45 350 01 00:   BULK DENSITY
 DPOR.DEC    45 890 12 00:   DENSITY POROSITY SANDSTONE
 GRD .GAPI   45 310 01 00:   GAMMA RAY FROM DENSITY LOG
 SPR .MV     05 010 01 00:   SPONTANEOUS POTENTIAL FROM RES.
 SN  .OHMM   05 040 16 00:   SHORT NORMAL 16"
 ILD .OHMM   05 120 46 00:   INDUCTION LOG DEEP
~PARAMETER INFORMATION
#MNEM.UNIT          VALUE    DESCRIPTION
#----------   ------------   ------------------------------
 PD  .                 GL:   PERMANENT DATUM
 EPD .F              5186:   ELEVATION PERMANENT DATUM
 LMF .                 KB:   LOG MEASURED FROM
 DAPD.F                 4:   FEET ABOVE PERMANENT DATUM
 DMF .                 KB:   DRILLING MEASURED FROM
 EKB .F              5190:   KELLING BUSHING
 EGL .F              5186:   GROUND LEVEL
 DATE.           3-1-1978:   RUN DATE
 RUN .                  1:   RUN NUMBER
 DD  .F               848:   DEPTH DRILLER
 DL  .F               856:   DEPTH LOGGER
 BLI .F               851:   BOTTOM LOG INTERVAL
 TLI .F                50:   TOP LOG INTERVAL
 CS  .IN            8.625:   CASING SIZE
 CBD .F                40:   CASING BOTTOM DRILLER
 CBL .F                40:   CASING BOTTOM LOGGER
 BS  .IN            7.875:   BIT SIZE
 BSD .F               848:   BIT SIZE AT DEPTH
 DFT .          LIGNOSULF:   DRILLING FLUID TYPE
 DFD .                8.5:   DRILLING FLUID DENSITY
 DFV .                 30:   DRILLING FLUID VISCOSITY
 DFPH.               11.5:   DRILLING FLUID PH
 MSS .                PIT:   MUD SAMPLE SOURCE
 RMS .OHMM              2:   RESISTIVITY MUD SAMPLE
 MST .F                59:   MUD SAMPLE TEMPERATURE
 RMF .OHMM            1.8:   RESISTIVITY MUD FILTRATE SAMPLE
 MFST.F                60:   MUD FILTRATE SAMPLE TEMPERATURE
 RMC .OHMM            2.2:   RESISTIVITY MUD CAKE
 MCST.F                60:   MUD CAKE SAMPLE TEMPERATURE
 MFSS.               MEAS:   MUD FILTRATE SAMPLE SOURCE
 MCSS.               MEAS:   MUD CAKE SAMPLE SOURCE
 RMB .OHMM           1.69:   RESISTIVITY MUD AT BHT
 BHT .F                70:   BOTTOM HOLE TEMPERATURE
 TCS .HRS               3:   TIME CURCULATED STOPPED
 MRT .F                70:   MAXIMUM RECORDED TEMPERATURE
 LUN .               2959:   LOGGING UNIT NUMBER
 LUL .               CASP:   LOGGING UNIT LOCATION
 ENGI.            POINTER:   RECORDING ENGINEER
 WITN.         HARRINGTON:   WITNESSED BY
 CLNT.            A2DTECH:   CLIENT CODE
 ORIG.       2", 5" PRINT:   ORIGIN OF DATA
 UWI .       490251058600:   UNIQUE WELL ID
 DICO. A2D Technologies, Inc.:   DIGITIZING COMPANY
~OTHER INFORMATION
~A   DEPT       CALD      CORR      RHOB       DPOR        GRD        SPR         SN        ILD   
# ...
  657.5000     7.8131     0.0259     2.3516     0.1762    89.6605   -27.4323    14.3374    13.8682
  658.0000     7.8126     0.0260     2.3485     0.1786    91.1025   -27.6992    14.3602    13.8890
  658.5000     7.8122     0.0261     2.3408     0.1810    92.5152   -27.9680    14.3830    13.9099
  659.0000     7.8117     0.0262     2.3343     0.1834    93.8892   -28.2431    14.4058    13.9308
  659.5000     7.8113     0.0283     2.3275     0.1829    93.9491   -28.2930    14.4286    13.9517
  660.0000     7.8108     0.0309     2.3345     0.1806    93.9385   -28.1359    14.4516    13.9769
  660.5000     7.8103     0.0334     2.3412     0.1783    93.9352   -27.7154    14.4745    13.9021
  661.0000     7.8099     0.0360     2.3477     0.1759    93.9675   -27.4868    14.5066    13.7926
  661.5000     7.8094     0.0353     2.3488     0.1743    95.5093   -27.4996    14.4172    13.6840
  662.0000     7.8090     0.0327     2.3544     0.1723    99.5523   -27.2739    14.2355    13.5763
  662.5000     7.8085     0.0331     2.3675     0.1700    98.8059   -27.0629    14.0560    13.4695
  663.0000     7.8080     0.0348     2.3726     0.1678    96.8856   -26.7818    13.8788    13.3635
  663.5000     7.8076     0.0363     2.3609     0.1721    94.9687   -26.6751    13.7038    13.2584
  664.0000     7.8071     0.0364     2.3542     0.1759    93.0376   -26.6731    13.5310    13.1540
  664.5000     7.8067     0.0388     2.3503     0.1676    91.6038   -26.6732    13.3604    13.0505
  665.0000     7.8062     0.0439     2.3580     0.1658    91.8503   -26.6735    13.2481    12.9479
  665.5000     7.8057     0.0485     2.3650     0.1653    93.6577   -26.6732    13.1429    12.8471
  666.0000     7.8053     0.0470     2.3658     0.1634    95.4290   -26.6900    13.0385    12.7569
  666.5000     7.8048     0.0449     2.3661     0.1615    96.7449   -26.7158    12.9350    12.6673
  667.0000     7.8044     0.0428     2.3716     0.1605    94.6845   -26.7420    12.8321    12.5783
  667.5000     7.8038     0.0406     2.3697     0.1605    92.6167   -26.7681    12.7301    12.4900
  668.0000     7.7995     0.0385     2.3796     0.1601    92.9019   -26.7942    12.6222    12.4022
  668.5000     7.7899     0.0402     2.3818     0.1589    93.4512   -26.8203    12.6494    12.3151
  669.0000     7.7804     0.0428     2.3735     0.1655    91.8776   -26.8452    12.6830    12.2621
  669.5000     7.7709     0.0453     2.3642     0.1724    90.2756   -26.8639    12.7168    12.2427
  670.0000     7.7614     0.0485     2.3549     0.1753    89.0689   -27.1838    12.7507    12.2233
  670.5000     7.7524     0.0549     2.3506     0.1782    89.1951   -27.5427    12.7846    12.2039
  671.0000     7.7391     0.0612     2.3448     0.1801    89.3008   -27.9005    12.8187    12.1846
  671.5000     7.6531     0.0675     2.3404     0.1819    89.4083   -27.9920    12.8527    12.1652
  672.0000     7.5668     0.0718     2.3347     0.1820    89.4528   -27.7719    12.7668    12.1460
  672.5000     7.5406     0.0649     2.3345     0.1797    88.5912   -27.5513    12.6682    12.1267
  673.0000     7.5475     0.0666     2.3408     0.1783    87.7321   -27.5208    12.5023    12.1075
  673.5000     7.5557     0.0691     2.3512     0.1692    87.6428   -27.5702    12.5024    12.0883
  674.0000     7.5639     0.0717     2.3569     0.1597    88.3262   -27.6203    12.5021    12.0692
  674.5000     7.5720     0.0727     2.3734     0.1593    88.8752   -27.6791    12.5023    12.0500
  675.0000     7.5797     0.0728     2.3773     0.1597    94.0185   -27.3523    12.5023    12.0309
  675.5000     7.6034     0.0724     2.3749     0.1597    98.3406   -26.8890    12.5024    12.0119
  676.0000     7.6350     0.0627     2.3780     0.1539    98.3834   -26.4702    12.5036    11.9929
  676.5000     7.6667     0.0565     2.3831     0.1513    96.9985   -26.5871    12.4382    11.9740
  677.0000     7.6985     0.0549     2.3841     0.1592    94.2932   -26.6969    12.3472    11.9552
  677.5000     7.7302     0.0461     2.3774     0.1642    91.8377   -26.8018    12.2568    11.9363
  678.0000     7.7611     0.0374     2.3701     0.1590    93.6116   -26.8125    12.1671    11.7745
  678.5000     7.7893     0.0344     2.3774     0.1547    96.6738   -26.5989    12.0400    11.5998
  679.0000     7.8188     0.0346     2.3992     0.1504    99.5777   -26.3895    11.9100    11.4276
  679.5000     7.8396     0.0348     2.4023     0.1464    99.5073   -26.1797    11.7814    11.2578
  680.0000     7.8446     0.0349     2.3990     0.1432    98.5417   -25.9698    11.6543    11.0905
  680.5000     7.8437     0.0351     2.4014     0.1428    96.4717   -25.7609    11.5285    10.9750
  681.0000     7.8431     0.0353     2.3990     0.1525    94.4327   -25.5492    11.3947    11.0381
  681.5000     7.8426     0.0355     2.3944     0.1490    93.1125   -25.5752    11.4197    11.0953
  682.0000     7.8421     0.0357     2.3931     0.1452    96.3633   -25.7849    11.4510    11.1528
  682.5000     7.8416     0.0359     2.3982     0.1432   101.3604   -25.9971    11.4825    11.2108
  683.0000     7.8411     0.0361     2.3963     0.1446   101.1647   -26.2105    11.4983    11.2807
  683.5000     7.8406     0.0363     2.3994     0.1461    98.2879   -26.4331    11.4424    11.2052
  684.0000     7.8401     0.0356     2.4062     0.1471    95.2370   -26.2347    11.3916    11.0897
  684.5000     7.8396     0.0342     2.3967     0.1455    92.6578   -25.9221    11.3413    10.9755
  685.0000     7.8391     0.0329     2.3954     0.1444    92.7059   -25.9193    11.2911    10.8626
  685.5000     7.8386     0.0314     2.3985     0.1465    92.7613   -25.9928    11.2412    10.7509
  686.0000     7.8381     0.0300     2.4005     0.1506    94.4879   -26.0541    11.1915    10.6404
  686.5000     7.8376     0.0286     2.3954     0.1533    95.9543   -25.7529    11.1421    10.5309
  687.0000     7.8372     0.0305     2.3930     0.1440    99.0796   -25.4323    11.0928    10.4226
  687.5000     7.8367     0.0336     2.4071     0.1440    98.3770   -25.1103    11.0438    10.3154
  688.0000     7.8362     0.0366     2.4013     0.1440    97.5043   -24.9487    10.9950    10.2820
  688.5000     7.8357     0.0398     2.4013     0.1428    97.1798   -24.8210    10.9464    10.2790
  689.0000     7.8352     0.0402     2.4041     0.1416    97.1956   -24.6942    10.8979    10.2759
  689.5000     7.8347     0.0385     2.4060     0.1391    96.2284   -24.5669    10.8698    10.2730
  690.0000     7.8342     0.0369     2.4079     0.1348    95.0660   -24.4396    10.8619    10.2699
  690.5000     7.8337     0.0353     2.4095     0.1309    93.9574   -24.3121    10.8541    10.2669
  691.0000     7.8332     0.0355     2.4272     0.1269    94.2390   -24.1910    10.8462    10.2639
  691.5000     7.8327     0.0385     2.4434     0.1230    94.5915   -24.0778    10.8383    10.2609
  692.0000     7.8322     0.0415     2.4344     0.1222    96.3085   -23.9636    10.8304    10.2579
  692.5000     7.8317     0.0443     2.4258     0.1266    98.7312   -23.8441    10.8225    10.2549
  693.0000     7.8312     0.0433     2.4277     0.1283   100.5443   -24.0634    10.8146    10.2519
  693.5000     7.8307     0.0421     2.4348     0.1214   102.0150   -24.3372    10.8068    10.2489
  694.0000     7.8302     0.0408     2.4340     0.1282   102.9057   -24.6124    10.7989    10.2459
  694.5000     7.8298     0.0397     2.4287     0.1324    99.4387   -24.8866    10.7910    10.2429
  695.0000     7.8293     0.0385     2.4234     0.1343    94.9876   -25.1638    10.7832    10.2399
  695.5000     7.8288     0.0373     2.4233     0.1328    93.9252   -25.2525    10.7753    10.2369
  696.0000     7.8283     0.0361     2.4232     0.1320    95.1083   -25.2539    10.7675    10.2339
  696.5000     7.8278     0.0349     2.4137     0.1396    96.8337   -25.2537    10.7597    10.2309
  697.0000     7.8273     0.0337     2.4042     0.1400    98.5523   -25.2536    10.7519    10.2279
  697.5000     7.8268     0.0324     2.4045     0.1392    99.5537   -25.2556    10.7440    10.2249
