~VERSION INFORMATION
 VERS.                2.0:   CWLS LOG ASCII STANDARD - VERSION 2.0
 WRAP.                 NO:   ONE LINE PER DEPTH STEP
~WELL INFORMATION
#MNEM.UNIT      DATA TYPE    INFORMATION
#----------   ------------   ------------------------------
 STRT.F            0.0000:   START DEPTH
 STOP.F         2694.5000:   STOP DEPTH
 STEP.F            0.5000:   STEP LENGTH
 NULL.          -999.2500:   NO VALUE
 COMP. FENIX & SCISSON INC:   COMPANY
 WELL.       102 A #20-20:   WELL
 FLD .        TEAPOT DOME:   FIELD
 LOC .      S20 T39N R78W:   LOCATION
 CNTY.            NATRONA:   COUNTY
 STAT.            WYOMING:   STATE
 CTRY. UNITED STATES OF AMERICA:   COUNTRY
 SRVC.            Unknown:   SERVICE COMPANY
 DATE.        17-AUG-1965:   LOGDATE
 API .       490251022200:   API NUMBER
~CURVE INFORMATION
#MNEM.UNIT       API CODE    CURVE DESCRIPTION
#----------   ------------   ------------------------------
 DEPT.F                  :   
 CALI.IN     30 280 01 00:   CALIPER FROM GAMMA RAY LOG
 GR  .GAPI   30 310 01 00:   GAMMA RAY
~PARAMETER INFORMATION
#MNEM.UNIT          VALUE    DESCRIPTION
#----------   ------------   ------------------------------
 PD  .                 GL:   PERMANENT DATUM
 LMF .                 GL:   LOG MEASURED FROM
 DMF .                 GL:   DRILLING MEASURED FROM
 DATE.            8-17-65:   RUN DATE
 RUN .                  1:   RUN NUMBER
 DD  .F            2696.5:   DEPTH DRILLER
 DL  .F              2697:   DEPTH LOGGER
 BLI .F              2695:   BOTTOM LOG INTERVAL
 TLI .F              2000:   TOP LOG INTERVAL
 CS  .IN                7:   CASING SIZE
 CBD .F              2678:   CASING BOTTOM DRILLER
 DFT .                OIL:   DRILLING FLUID TYPE
 TCS .HRS               1:   TIME CURCULATED STOPPED
 ENGI.            JACKSON:   RECORDING ENGINEER
 WITN.          JORGENSEN:   WITNESSED BY
 CLNT.            A2DTECH:   CLIENT CODE
 ORIG.           5" PRINT:   ORIGIN OF DATA
 UWI .       490251022200:   UNIQUE WELL ID
 DICO. A2D Technologies, Inc.:   DIGITIZING COMPANY
~OTHER INFORMATION
~A    DEPT      CALI       GR   
    0.0000     6.8770  -999.2500
    0.5000     6.8770  -999.2500
    1.0000     6.5201  -999.2500
    1.5000     6.5037  -999.2500
    2.0000     6.4914  -999.2500
    2.5000     6.4828  -999.2500
    3.0000     6.4832  -999.2500
    3.5000     6.4832  -999.2500
    4.0000     6.4949  -999.2500
    4.5000     6.5199  -999.2500
    5.0000     6.5789  -999.2500
    5.5000     6.5481  -999.2500
    6.0000     6.4956  -999.2500
    6.5000     6.4865  -999.2500
    7.0000     6.4900  -999.2500
    7.5000     6.4865  -999.2500
    8.0000     6.4632  -999.2500
    8.5000     6.4424  -999.2500
    9.0000     6.4394  -999.2500
    9.5000     6.4596  -999.2500
   10.0000     6.4489  -999.2500
   10.5000     6.4289  -999.2500
   11.0000     6.4243  -999.2500
   11.5000     6.4241  -999.2500
   12.0000     6.4242  -999.2500
   12.5000     6.4267  -999.2500
   13.0000     6.4430  -999.2500
   13.5000     6.4500  -999.2500
   14.0000     6.4251  -999.2500
   14.5000     6.4266  -999.2500
   15.0000     6.4295  -999.2500
   15.5000     6.4324  -999.2500
   16.0000     6.4418  -999.2500
   16.5000     6.4629  -999.2500
   17.0000     6.4603  -999.2500
   17.5000     6.4387  -999.2500
   18.0000     6.4423  -999.2500
   18.5000     6.4647  -999.2500
   19.0000     6.4839  -999.2500
   19.5000     6.4833  -999.2500
   20.0000     6.4833  -999.2500
   20.5000     6.4833  -999.2500
   21.0000     6.4833  -999.2500
   21.5000     6.4833  -999.2500
   22.0000     6.4833  -999.2500
   22.5000     6.4833  -999.2500
   23.0000     6.4833  -999.2500
   23.5000     6.4833  -999.2500
   24.0000     6.4928  -999.2500
   24.5000     6.4893  -999.2500
   25.0000     6.4674  -999.2500
   25.5000     6.4563  -999.2500
   26.0000     6.4631  -999.2500
   26.5000     6.4500  -999.2500
   27.0000     6.4538  -999.2500
   27.5000     6.4570  -999.2500
   28.0000     6.4455  -999.2500
   28.5000     6.4525  -999.2500
   29.0000     6.4596  -999.2500
   29.5000     6.4375  -999.2500
   30.0000     6.4416  -999.2500
   30.5000     6.4507  -999.2500
   31.0000     6.4605  -999.2500
   31.5000     6.4484  -999.2500
   32.0000     6.4373  -999.2500
   32.5000     6.4432  -999.2500
   33.0000     6.4248  -999.2500
   33.5000     6.4240  -999.2500
   34.0000     6.4316  -999.2500
   34.5000     6.4447  -999.2500
   35.0000     6.4638  -999.2500
   35.5000     6.4435  -999.2500
   36.0000     6.4248  -999.2500
   36.5000     6.4298  -999.2500
   37.0000     6.4364  -999.2500
   37.5000     6.4511  -999.2500
   38.0000     6.4838  -999.2500
   38.5000     6.4829  -999.2500
   39.0000     6.4680  -999.2500
   39.5000     6.4543  -999.2500
   40.0000     6.4614  -999.2500
   40.5000     6.4610  -999.2500
   41.0000     6.4575  -999.2500
   41.5000     6.4533  -999.2500
   42.0000     6.4426  -999.2500
   42.5000     6.4393  -999.2500
   43.0000     6.4362  -999.2500
   43.5000     6.4377  -999.2500
   44.0000     6.4605  -999.2500
   44.5000     6.4835  -999.2500
   45.0000     6.4536  -999.2500
   45.5000     6.4340  -999.2500
   46.0000     6.4384  -999.2500
   46.5000     6.4609  -999.2500
   47.0000     6.4829  -999.2500
   47.5000     6.4785  -999.2500
   48.0000     6.4740  -999.2500
   48.5000     6.4793  -999.2500
   49.0000     6.4858  -999.2500
   49.5000     6.4922  -999.2500
   50.0000     6.4789  -999.2500
   50.5000     6.4539  -999.2500
   51.0000     6.4536  -999.2500
   51.5000     6.4538  -999.2500
   52.0000     6.4537  -999.2500
   52.5000     6.4461  -999.2500
   53.0000     6.4468  -999.2500
   53.5000     6.4507  -999.2500
   54.0000     6.4507  -999.2500
   54.5000     6.4379  -999.2500
   55.0000     6.4257  -999.2500
   55.5000     6.4314  -999.2500
   56.0000     6.4396  -999.2500
   56.5000     6.4477  -999.2500
   57.0000     6.4504  -999.2500
   57.5000     6.4359  -999.2500
   58.0000     6.4331  -999.2500
   58.5000     6.4321  -999.2500
   59.0000     6.4311  -999.2500
   59.5000     6.4301  -999.2500
   60.0000     6.4291  -999.2500
   60.5000     6.4281  -999.2500
   61.0000     6.4270  -999.2500
   61.5000     6.4260  -999.2500
   62.0000     6.4250  -999.2500
   62.5000     6.4242  -999.2500
   63.0000     6.4241  -999.2500
   63.5000     6.4247  -999.2500
   64.0000     6.4411  -999.2500
   64.5000     6.4656  -999.2500
   65.0000     6.4777  -999.2500
   65.5000     6.3957  -999.2500
   66.0000     6.3850  -999.2500
   66.5000     6.3995  -999.2500
   67.0000     6.3996  -999.2500
   67.5000     6.3920  -999.2500
   68.0000     6.3856  -999.2500
   68.5000     6.4018  -999.2500
   69.0000     6.3986  -999.2500
   69.5000     6.3916  -999.2500
   70.0000     6.3858  -999.2500
   70.5000     6.4097  -999.2500
   71.0000     6.4201  -999.2500
   71.5000     6.4275  -999.2500
   72.0000     6.4336  -999.2500
   72.5000     6.4236  -999.2500
   73.0000     6.4429  -999.2500
   73.5000     6.4194  -999.2500
   74.0000     6.4077  -999.2500
   74.5000     6.4095  -999.2500
   75.0000     6.4176  -999.2500
   75.5000     6.4245  -999.2500
   76.0000     6.4280  -999.2500
   76.5000     6.4318  -999.2500
   77.0000     6.4340  -999.2500
   77.5000     6.4276  -999.2500
   78.0000     6.4098  -999.2500
   78.5000     6.4239  -999.2500
   79.0000     6.4270  -999.2500
   79.5000     6.4296  -999.2500
   80.0000     6.4324  -999.2500
   80.5000     6.4342  -999.2500
   81.0000     6.4331  -999.2500
   81.5000     6.4060  -999.2500
   82.0000     6.4201  -999.2500
   82.5000     6.4352  -999.2500
   83.0000     6.4393  -999.2500
   83.5000     6.4438  -999.2500
   84.0000     6.4547  -999.2500
   84.5000     6.4779  -999.2500
   85.0000     6.4874  -999.2500
   85.5000     6.4682  -999.2500
   86.0000     6.3971  -999.2500
   86.5000     6.3957  -999.2500
   87.0000     6.3979  -999.2500
   87.5000     6.3997  -999.2500
   88.0000     6.4014  -999.2500
   88.5000     6.4031  -999.2500
   89.0000     6.4045  -999.2500
   89.5000     6.4045  -999.2500
   90.0000     6.4046  -999.2500
   90.5000     6.4087  -999.2500
   91.0000     6.4133  -999.2500
   91.5000     6.4130  -999.2500
   92.0000     6.4106  -999.2500
   92.5000     6.4082  -999.2500
   93.0000     6.4057  -999.2500
   93.5000     6.4133  -999.2500
   94.0000     6.4301  -999.2500
   94.5000     6.4300  -999.2500
   95.0000     6.4247  -999.2500
   95.5000     6.4191  -999.2500
   96.0000     6.4169  -999.2500
   96.5000     6.4387  -999.2500
   97.0000     6.4321  -999.2500
   97.5000     6.4289  -999.2500
   98.0000     6.4374  -999.2500
   98.5000     6.4460  -999.2500
   99.0000     6.4517  -999.2500
   99.5000     6.4337  -999.2500
  100.0000     6.4322  -999.2500
  100.5000     6.4477  -999.2500
  101.0000     6.4632  -999.2500
  101.5000     6.4789  -999.2500
  102.0000     6.4929  -999.2500
  102.5000     6.4931  -999.2500
  103.0000     6.4874  -999.2500
  103.5000     6.4538  -999.2500
  104.0000     6.4449  -999.2500
  104.5000     6.4705  -999.2500
  105.0000     6.4937  -999.2500
  105.5000     6.4430  -999.2500
  106.0000     6.4341  -999.2500
  106.5000     6.4476  -999.2500
  107.0000     6.4615  -999.2500
  107.5000     6.4495  -999.2500
  108.0000     6.4381  -999.2500
  108.5000     6.4341  -999.2500
  109.0000     6.4340  -999.2500
  109.5000     6.4300  -999.2500
  110.0000     6.4242  -999.2500
  110.5000     6.4239  -999.2500
  111.0000     6.4349  -999.2500
  111.5000     6.4479  -999.2500
  112.0000     6.4614  -999.2500
  112.5000     6.4541  -999.2500
  113.0000     6.4568  -999.2500
  113.5000     6.4599  -999.2500
  114.0000     6.4634  -999.2500
  114.5000     6.4513  -999.2500
  115.0000     6.4360  -999.2500
  115.5000     6.4203  -999.2500
  116.0000     6.4050  -999.2500
  116.5000     6.4043  -999.2500
  117.0000     6.4049  -999.2500
  117.5000     6.4224  -999.2500
  118.0000     6.4412  -999.2500
  118.5000     6.4599  -999.2500
  119.0000     6.4791  -999.2500
  119.5000     6.4781  -999.2500
  120.0000     6.4767  -999.2500
  120.5000     6.4880  -999.2500
  121.0000     6.4855  -999.2500
