~VERSION INFORMATION
 VERS.                2.0:   CWLS LOG ASCII STANDARD - VERSION 2.0
 WRAP.                 NO:   ONE LINE PER DEPTH STEP
~WELL INFORMATION
#MNEM.UNIT      DATA TYPE    INFORMATION
#----------   ------------   ------------------------------
 STRT.F           80.0000:   START DEPTH
 STOP.F          930.0000:   STOP DEPTH
 STEP.F            0.5000:   STEP LENGTH
 NULL.          -999.2500:   NO VALUE
 COMP. U S NAVY-INTEX OIL:   COMPANY
 WELL. RES 3 TEAPOT DOM #56-S-2:   WELL
 FLD .             TEAPOT:   FIELD
 LOC .       S2 T38N R78W:   LOCATION
 CNTY.            NATRONA:   COUNTY
 STAT.            WYOMING:   STATE
 CTRY. UNITED STATES OF AMERICA:   COUNTRY
 SRVC.       Schlumberger:   SERVICE COMPANY
 DATE.        24-JUN-1962:   LOGDATE
 API .       490250641900:   API NUMBER
~CURVE INFORMATION
#MNEM.UNIT       API CODE    CURVE DESCRIPTION
#----------   ------------   ------------------------------
 DEPT.F                  :   
 ASN .OHMM   05 041 16 00:   AMPLIFIED SHORT NORMAL 16"
 ILD .OHMM   05 120 46 00:   INDUCTION LOG DEEP
 CILD.MMHO   05 110 46 00:   CONDUCTIVITY INDUCTION LOG DEEP
 SPR .MV     05 010 01 00:   SPONTANEOUS POTENTIAL FROM RES.
 GR  .GAPI   30 310 01 00:   GAMMA RAY
~PARAMETER INFORMATION
#MNEM.UNIT          VALUE    DESCRIPTION
#----------   ------------   ------------------------------
 PD  .                 KB:   PERMANENT DATUM
 LMF .                 KB:   LOG MEASURED FROM
 DMF .                 KB:   DRILLING MEASURED FROM
 EKB .F              5179:   KELLING BUSHING
 EGL .F              5174:   GROUND LEVEL
 DATE.        24-JUN-1962:   RUN DATE
 RUN .                  1:   RUN NUMBER
 DD  .F               942:   DEPTH DRILLER
 DL  .F               931:   DEPTH LOGGER
 BLI .F               930:   BOTTOM LOG INTERVAL
 TLI .F                80:   TOP LOG INTERVAL
 BS  .IN             6.75:   BIT SIZE
 BSD .F               942:   BIT SIZE AT DEPTH
 DFT .       OIL EMULSION:   DRILLING FLUID TYPE
 DFD .                9.9:   DRILLING FLUID DENSITY
 DFV .                 55:   DRILLING FLUID VISCOSITY
 DFL .                3.7:   DRILLING FLUID LOSS
 RMS .OHMM            4.2:   RESISTIVITY MUD SAMPLE
 MST .F                79:   MUD SAMPLE TEMPERATURE
 RMF .OHMM            3.7:   RESISTIVITY MUD FILTRATE SAMPLE
 MFST.F                79:   MUD FILTRATE SAMPLE TEMPERATURE
 RMC .OHMM            4.0:   RESISTIVITY MUD CAKE
 MCST.F                79:   MUD CAKE SAMPLE TEMPERATURE
 TCS .HRS               1:   TIME CURCULATED STOPPED
 LUN .               2503:   LOGGING UNIT NUMBER
 LUL .               CSPR:   LOGGING UNIT LOCATION
 ENGI.             DANNER:   RECORDING ENGINEER
 WITN.          JORGENSEN:   WITNESSED BY
 CLNT.            A2DTECH:   CLIENT CODE
 ORIG.           5" PRINT:   ORIGIN OF DATA
 UWI .       490250641900:   UNIQUE WELL ID
 DICO. A2D Technologies, Inc.:   DIGITIZING COMPANY
~OTHER INFORMATION
~A   DEPT        ASN        ILD      CILD       SPR         GR   
# ...
  202.0000     8.4473     8.8618   118.4708   -59.7725  -999.2500
  202.5000     8.2893     8.7126   122.9760   -59.7681  -999.2500
  203.0000     8.1175     8.6381   123.7332   -59.7636  -999.2500
  203.5000     8.0279     8.5637   123.7407   -59.7591  -999.2500
  204.0000     7.9408     8.5647   122.9985   -59.7547  -999.2500
  204.5000     7.9562     8.4902   123.7557   -59.7502  -999.2500
  205.0000     7.9566     8.3409   123.7632   -59.5963  -999.2500
  205.5000     7.9206     8.1915   125.2699   -59.5918  -999.2500
  206.0000     7.5671     8.1170   129.0256   -59.5873  -999.2500
  206.5000     7.5882     8.0427   132.0316   -59.5829  -999.2500
  207.0000     7.6744     8.0436   134.2879   -59.5784  -999.2500
  207.5000     7.6255     7.9691   135.7947   -59.5740  -999.2500
  208.0000     7.5061     7.8199   138.8007   -59.5695  -999.2500
  208.5000     7.2770     7.6703   141.8067   -59.5650  -999.2500
  209.0000     7.1028     7.6713   144.0631   -59.5606  -999.2500
  209.5000     7.0012     7.5967   144.8202   -59.5491  -999.2500
  210.0000     6.9597     7.5224   144.8277   -58.7943  -999.2500
  210.5000     6.9303     7.3732   145.5848   -58.5008  -999.2500
  211.0000     6.9007     7.2989   145.5923   -59.1102  -999.2500
  211.5000     6.8415     7.2996   145.5999   -59.8372  -999.2500
  212.0000     6.6774     7.3004   146.3570   -59.9822  -999.2500
  212.5000     6.7078     7.3011   146.3645   -59.9776  -999.2500
  213.0000     6.9175     7.3019   147.1216   -59.9731  -999.2500
  213.5000     6.8880     7.3026   149.3780   -59.9677  -999.2500
  214.0000     6.7390     7.0781   152.3840   -59.6643  -999.2500
  214.5000     6.4106     6.8537   158.3885   -59.2114  -999.2500
  215.0000     6.3363     6.6292   162.8938   -58.9080  -999.2500
  215.5000     6.2471     6.5549   168.1486   -58.9035  -999.2500
  216.0000     6.1877     6.5556   169.6554   -58.7496  -999.2500
  216.5000     5.9939     6.4811   168.9131   -58.7451  -999.2500
  217.0000     5.9196     6.5571   168.9207   -58.7407  -999.2500
  217.5000     5.9502     6.6329   168.1784   -58.7362  -999.2500
  218.0000     6.0413     6.7087   167.4365   -58.7318  -999.2500
  218.5000     6.1457     6.7095   165.1951   -58.8779  -999.2500
  219.0000     6.1755     6.7102   162.2039   -58.8723  -999.2500
  219.5000     6.1751     6.6359   161.4618   -59.0184  -999.2500
  220.0000     6.1465     6.6367   161.4695   -59.3129  -999.2500
  220.5000     6.1930     6.6374   161.4770   -59.4579  -999.2500
  221.0000     6.2384     6.7132   161.4845   -59.4524  -999.2500
  221.5000     6.2674     6.7891   160.7421   -59.5985  -999.2500
  222.0000     6.2065     6.8649   158.5010   -59.5929  -999.2500
  222.5000     6.1936     6.8656   157.7589   -59.4390  -999.2500
  223.0000     6.1940     6.8664   157.7664   -59.1356  -999.2500
  223.5000     6.2094     6.7920   159.2731   -58.6827  -999.2500
  224.0000     6.2846     6.7177   160.7799   -58.5287  -999.2500
  224.5000     6.3149     6.5683   163.0363   -58.5243  -999.2500
  225.0000     6.2556     6.4940   166.0423   -58.6693  -999.2500
  225.5000     6.2086     6.4197   168.2987   -58.8154  -999.2500
  226.0000     6.0659     6.3453   169.8054   -58.8098  -999.2500
  226.5000     5.9222     6.3461   171.3122   -58.8054  -999.2500
  227.0000     5.7791     6.2718   172.0693   -58.8009  -999.2500
  227.5000     5.7946     6.4277   172.0768   -58.7964  -999.2500
  228.0000     5.9146     6.6546   171.3347   -58.6425  -999.2500
  228.5000     6.1691     6.7245   170.5922   -58.7877  -999.2500
  229.0000     6.3041     6.8003   167.6016   -58.7831  -999.2500
  229.5000     6.3793     6.8761   162.3617   -58.9281  -999.2500
  230.0000     6.3947     6.8669   163.1188   -59.2227  -999.2500
  230.5000     6.3503     6.7274   163.8759   -59.5172  -999.2500
  231.0000     5.9621     6.6531   164.6331   -59.5126  -999.2500
  231.5000     5.9475     6.5788   164.6406   -59.5081  -999.2500
  232.0000     6.0975     6.5795   166.1473   -59.5037  -999.2500
  232.5000     6.0232     6.5805   167.6541   -59.4992  -999.2500
  233.0000     6.0086     6.5812   169.1608   -59.4948  -999.2500
  233.5000     6.0092     6.5067   171.4172   -59.4903  -999.2500
  234.0000     5.9946     6.5076   171.4247   -59.4818  -999.2500
  234.5000     5.9951     6.5084   172.1800   -59.3249  -999.2500
  235.0000     6.0105     6.5842   168.4412   -59.1680  -999.2500
  235.5000     6.0259     6.5850   163.9510   -58.8614  -999.2500
  236.0000     6.0712     6.7359   161.7096   -58.7205  -999.2500
  236.5000     6.1315     6.8117   161.7171   -58.7160  -999.2500
  237.0000     6.1618     6.8124   162.4724   -58.7115  -999.2500
  237.5000     6.1921     6.7379   161.7321   -58.7070  -999.2500
  238.0000     6.4168     6.8890   160.1342   -58.8522  -999.2500
  238.5000     6.3575     6.9648   158.7467   -59.1456  -999.2500
  239.0000     6.1935     7.1157   154.2583   -59.2906  -999.2500
  239.5000     6.2537     7.1165   152.7666   -59.2862  -999.2500
  240.0000     6.4634     7.1172   153.5237   -59.2817  -999.2500
  240.5000     6.5834     6.9678   155.7801   -59.2772  -999.2500
  241.0000     6.5240     6.8933   159.5357   -59.1233  -999.2500
  241.5000     6.4648     6.8192   162.5417   -58.9694  -999.2500
  242.0000     6.2560     6.7447   167.0470   -58.8154  -999.2500
  242.5000     5.7332     6.5954   170.8026   -58.8110  -999.2500
  243.0000     5.7935     6.4460   176.0575   -58.6570  -999.2500
  243.5000     5.9882     6.3715   180.5628   -58.6525  -999.2500
  244.0000     5.6748     6.2221   184.3184   -58.6481  -999.2500
  244.5000     5.7201     6.0729   188.0740   -58.6436  -999.2500
  245.0000     5.7654     6.0737   189.5808   -58.6434  -999.2500
  245.5000     5.7209     6.0744   189.5883   -58.6488  -999.2500
  246.0000     5.7064     6.2253   188.8443   -58.6428  -999.2500
  246.5000     5.7368     6.3011   182.8567   -58.6368  -999.2500
  247.0000     5.8718     6.3770   179.8656   -58.8032  -999.2500
  247.5000     6.1562     6.3777   174.6258   -59.3997  -999.2500
  248.0000     6.2165     6.3785   173.1322   -58.6177  -999.2500
  248.5000     5.9927     6.3792   171.6423   -58.6117  -999.2500
  249.0000     5.8137     6.4550   168.6513   -58.4563  -999.2500
  249.5000     5.9787     6.6810   165.6584   -58.4504  -999.2500
  250.0000     6.2780     6.7566   164.9163   -58.4445  -999.2500
  250.5000     6.2575     6.7054   166.9150   -58.5895  -999.2500
  251.0000     6.2191     6.6616   168.6279   -58.7315  -999.2500
  251.5000     6.1737     6.6113   170.2099   -59.1740  -999.2500
  252.0000     6.2164     6.5374   171.0645   -59.7660  -999.2500
  252.5000     6.2504     6.5392   171.7392   -59.9110  -999.2500
  253.0000     6.2209     6.5407   171.7541   -60.2026  -999.2500
  253.5000     6.1467     6.5422   172.5217   -60.3476  -999.2500
  254.0000     5.9827     6.4683   174.0358   -60.4911  -999.2500
  254.5000     5.9831     6.4701   174.8003   -59.8858  -999.2500
  255.0000     6.0135     6.4716   174.8152   -59.7304  -999.2500
  255.5000     6.0289     6.3980   175.5797   -59.1266  -999.2500
  256.0000     6.0592     6.3995   178.5931   -58.8217  -999.2500
  256.5000     5.9999     6.1758   180.8568   -58.6663  -999.2500
  257.0000     5.4323     6.1022   181.6176   -58.6603  -999.2500
  257.5000     5.4332     6.1037   177.1385   -58.8053  -999.2500
  258.0000     5.9952     6.4055   176.4000   -59.2464  -999.2500
  258.5000     6.1960     6.4070   177.9179   -59.6891  -999.2500
  259.0000     5.9410     6.3333   177.9327   -58.9355  -999.2500
  259.5000     5.9460     6.2597   177.9476   -58.3317  -999.2500
  260.0000     6.1226     6.2613   177.9625   -58.4753  -999.2500
  260.5000     6.1081     6.4130   177.9774   -58.9177  -999.2500
  261.0000     6.1112     6.4144   176.4930   -59.5097  -999.2500
  261.5000     6.1240     6.4910   174.2590   -58.4574  -999.2500
  262.0000     6.1394     6.5676   170.5258   -58.4515  -999.2500
  262.5000     6.2146     6.7192   164.5437   -58.6073  -999.2500
