~VERSION INFORMATION
 VERS.                2.0:   CWLS LOG ASCII STANDARD - VERSION 2.0
 WRAP.                 NO:   ONE LINE PER DEPTH STEP
~WELL INFORMATION
#MNEM.UNIT      DATA TYPE    INFORMATION
#----------   ------------   ------------------------------
 STRT.F           35.0000:   START DEPTH
 STOP.F          601.0000:   STOP DEPTH
 STEP.F            0.5000:   STEP LENGTH
 NULL.          -999.2500:   NO VALUE
 COMP. FENIX & SCISSON INC:   COMPANY
 WELL. NPR #3 71SX #71-15:   WELL
 FLD .             TEAPOT:   FIELD
 LOC .      S15 T38N R78W:   LOCATION
 CNTY.            NATRONA:   COUNTY
 STAT.            WYOMING:   STATE
 CTRY. UNITED STATES OF AMERICA:   COUNTRY
 SRVC.              Welex:   SERVICE COMPANY
 DATE.        10-MAR-1977:   LOGDATE
 API .       490251031200:   API NUMBER
~CURVE INFORMATION
#MNEM.UNIT       API CODE    CURVE DESCRIPTION
#----------   ------------   ------------------------------
 DEPT.F                  :   
 SPR .MV     07 010 01 00:   SPONTANEOUS POTENTIAL
 SGRD.OHMM   07 220 05 00:   SHALLOW RESISTIVITY
 DRES.OHMM   07 120 46 00:   INDUCTION LOG DEEP
 MRES.OHMM   07 120 44 00:   INDUCTION LOG MEDIUM
 GRD .GAPI   45 310 01 00:   GAMMA RAY FROM DENSITY LOG
 CALD.IN     45 280 60 00:   CALIPER
 RHOB.G/C3   45 350 01 00:   BULK DENSITY
 DPHI.DEC    45 890 12 00:   DENSITY POROSITY
 CORR.G/C3   45 356 01 00:   DENSITY CORRECTION
~PARAMETER INFORMATION
#MNEM.UNIT          VALUE    DESCRIPTION
#----------   ------------   ------------------------------
 PD  .                 GL:   PERMANENT DATUM
 EPD .F              5241:   ELEVATION PERMANENT DATUM
 LMF .                 GL:   LOG MEASURED FROM
 DMF .                 GL:   DRILLING MEASURED FROM
 EGL .F              5241:   GROUND LEVEL
 DATE.            3-10-77:   RUN DATE
 RUN .                  1:   RUN NUMBER
 DD  .F               600:   DEPTH DRILLER
 DL  .F               603:   DEPTH LOGGER
 BLI .F               601:   BOTTOM LOG INTERVAL
 TLI .F                35:   TOP LOG INTERVAL
 CS  .IN            8.625:   CASING SIZE
 CBD .F                40:   CASING BOTTOM DRILLER
 CBL .F                40:   CASING BOTTOM LOGGER
 BS  .IN            7.875:   BIT SIZE
 BSD .F               600:   BIT SIZE AT DEPTH
 DFT .            KCL MUD:   DRILLING FLUID TYPE
 DFD .                8.6:   DRILLING FLUID DENSITY
 DFV .                 10:   DRILLING FLUID VISCOSITY
 DFPH.                7.2:   DRILLING FLUID PH
 DFL .                  8:   DRILLING FLUID LOSS
 MSS .            MUD PIT:   MUD SAMPLE SOURCE
 RMS .OHMM            .36:   RESISTIVITY MUD SAMPLE
 MST .F                47:   MUD SAMPLE TEMPERATURE
 RMF .OHMM            .35:   RESISTIVITY MUD FILTRATE SAMPLE
 MFST.F                47:   MUD FILTRATE SAMPLE TEMPERATURE
 RMC .OHMM            .40:   RESISTIVITY MUD CAKE
 MCST.F                47:   MUD CAKE SAMPLE TEMPERATURE
 MFSS.           FANN KIT:   MUD FILTRATE SAMPLE SOURCE
 MCSS.           FANN KIT:   MUD CAKE SAMPLE SOURCE
 RMB .OHMM            .31:   RESISTIVITY MUD AT BHT
 BHT .F                53:   BOTTOM HOLE TEMPERATURE
 TCS .HRS             1.5:   TIME CURCULATED STOPPED
 MRT .F                53:   MAXIMUM RECORDED TEMPERATURE
 LUN .               8611:   LOGGING UNIT NUMBER
 LUL .           GILLETTE:   LOGGING UNIT LOCATION
 ENGI.               DOAK:   RECORDING ENGINEER
 WITN.         STUEBINGER:   WITNESSED BY
 CLNT.            A2DTECH:   CLIENT CODE
 ORIG.       2", 5" PRINT:   ORIGIN OF DATA
 UWI .       490251031200:   UNIQUE WELL ID
 DICO. A2D Technologies, Inc.:   DIGITIZING COMPANY
~OTHER INFORMATION
~A   DEPT      SPR       SGRD       DRES       MRES         GRD      CALD       RHOB       DPHI       CORR   
# ...
  473.0000   -20.4340    22.9562    16.2467    17.6769    70.2578     7.8663     2.3495     0.1781     0.0575
  473.5000   -20.2894    25.0344    17.7661    18.6883    69.2716     7.8663     2.3444     0.1808     0.0532
  474.0000   -20.1442    26.0199    18.9091    19.7575    68.2802     7.8663     2.3498     0.1778     0.0566
  474.5000   -20.0023    26.2125    19.7735    20.8878    67.2859     7.8663     2.3612     0.1707     0.0626
  475.0000   -19.8603    26.4066    20.6775    22.0829    66.3007     7.8663     2.3740     0.1631     0.0687
  475.5000   -19.7180    26.6021    21.6228    23.3463    65.8081     7.8663     2.3671     0.1659     0.0749
  476.0000   -19.5757    26.8791    22.6112    24.6905    67.2625     7.8663     2.3685     0.1663     0.0803
  476.5000   -19.4334    26.8636    23.6449    25.4346    68.6120     7.8663     2.3588     0.1743     0.0780
  477.0000   -19.2911    26.8243    24.7347    25.2526    69.9601     7.8663     2.3461     0.1831     0.0697
  477.5000   -19.1485    26.7851    24.7347    24.9503    72.1663     7.8663     2.3249     0.1920     0.0617
  478.0000   -19.0044    26.7459    22.0535    24.6532    74.7888     7.8663     2.3121     0.2000     0.0538
  478.5000   -18.8699    26.7068    20.0000    24.3592    77.3969     7.8663     2.3307     0.1878     0.0492
  479.0000   -19.0191    26.6677    19.8843    24.0680    78.3338     7.8663     2.3454     0.1755     0.0533
  479.5000   -19.1818    26.6288    19.7676    23.8425    78.3610     7.8663     2.3499     0.1820     0.0572
  480.0000   -19.3433    26.5898    19.6516    24.7433    76.5449     7.8663     2.3603     0.1727     0.0592
  480.5000   -19.5045    26.5509    19.5363    24.1267    74.1545     7.8663     2.3480     0.1801     0.0600
  481.0000   -19.6656    26.5117    19.4217    23.1252    71.7855     7.8663     2.3305     0.1882     0.0531
  481.5000   -19.8267    26.4733    19.3077    22.3534    69.9279     7.8663     2.3180     0.1965     0.0486
  482.0000   -19.9879    26.4346    19.1945    23.6730    70.0494     7.8663     2.3233     0.1925     0.0503
  482.5000   -20.1490    26.3960    19.0818    24.8661    71.4298     7.8663     2.3321     0.1880     0.0520
  483.0000   -20.3101    25.7345    18.9699    25.9040    73.5192     7.8663     2.3321     0.1863     0.0536
  483.5000   -20.4712    24.9119    18.6241    23.5480    75.4918     7.8663     2.3390     0.1849     0.0551
  484.0000   -20.6325    24.1120    17.8363    21.6920    75.8802     7.8663     2.3516     0.1760     0.0568
  484.5000   -20.7936    23.6175    17.0819    19.2803    76.5574     7.8663     2.3613     0.1714     0.0584
  485.0000   -20.9540    23.7806    16.4732    19.8615    78.1804     7.8663     2.3606     0.1716     0.0600
  485.5000   -21.0596    23.9239    16.7351    21.0172    78.1236     7.8663     2.3635     0.1695     0.0616
  486.0000   -21.0578    24.0667    16.9712    22.2431    78.9837     7.8663     2.3700     0.1651     0.0631
  486.5000   -21.0579    24.2102    17.2089    23.5481    80.3862     7.8663     2.3693     0.1623     0.0629
  487.0000   -21.0579    24.3547    17.4490    24.9321    80.0318     7.8663     2.3614     0.1719     0.0575
  487.5000   -21.0576    24.5068    17.6917    26.1444    78.6092     7.8663     2.3535     0.1775     0.0522
  488.0000   -21.0575    24.7342    17.9095    23.1601    79.3067     7.8663     2.3506     0.1739     0.0470
  488.5000   -21.0605    24.9760    17.9646    20.8440    81.8094     7.8663     2.3638     0.1687     0.0422
  489.0000   -21.0578    25.2201    18.0199    18.7595    84.2210     7.8663     2.3697     0.1651     0.0413
  489.5000   -21.3421    25.4032    18.0754    16.7804    84.0513     7.8663     2.3626     0.1684     0.0405
  490.0000   -21.7777    25.0501    18.1310    17.3672    82.5365     7.8663     2.3614     0.1685     0.0402
  490.5000   -22.2412    24.7223    18.1868    18.0127    82.0787     7.8663     2.3696     0.1655     0.0403
  491.0000   -22.5196    24.5073    18.2288    18.6822    84.6011     7.8663     2.3899     0.1519     0.0430
  491.5000   -22.7963    25.1692    17.9338    19.3776    86.7038     7.8663     2.4149     0.1367     0.0484
  492.0000   -23.0747    25.6819    17.6726    20.0195    88.4886     7.8663     2.4399     0.1216     0.0530
  492.5000   -23.3537    26.2029    17.4153    20.1545    86.5805     7.8663     2.4605     0.1106     0.0553
  493.0000   -23.6326    26.8791    17.1618    20.2925    85.6934     7.8663     2.4701     0.1057     0.0577
  493.5000   -23.9115    26.3838    16.9118    20.3730    88.4918     7.8663     2.4708     0.1013     0.0581
  494.0000   -24.1903    25.4688    16.6658    18.8544    91.0930     7.8663     2.4802     0.0986     0.0578
  494.5000   -24.4694    24.5856    16.4240    17.7850    92.6501     7.8663     2.4715     0.1062     0.0576
  495.0000   -24.7507    23.7330    16.1861    17.0933    92.7676     7.8663     2.4603     0.1132     0.0573
  495.5000   -25.0391    22.9100    15.8942    17.7633    91.1461     7.8663     2.4491     0.1194     0.0571
  496.0000   -25.1029    22.1155    15.4972    18.2881    89.5815     7.8663     2.4454     0.1206     0.0568
  496.5000   -25.1563    21.3486    15.1100    19.0972    86.9650     7.8663     2.4530     0.1158     0.0566
  497.0000   -25.2110    20.6083    14.7325    17.6993    83.4193     7.8663     2.4607     0.1121     0.0563
  497.5000   -25.2663    19.8936    14.3645    15.2618    81.5387     7.8663     2.4619     0.1104     0.0545
  498.0000   -25.3215    19.2036    14.0056    12.6017    80.7440     7.8663     2.4480     0.1193     0.0524
  498.5000   -25.3767    18.5367    13.6557    12.8781    78.6985     7.8663     2.4185     0.1319     0.0504
  499.0000   -25.4319    17.8917    13.3146    13.2792    77.4961     7.8663     2.4245     0.1290     0.0520
  499.5000   -25.4871    17.0885    12.9819    13.6928    79.2858     7.8663     2.4319     0.1250     0.0540
  500.0000   -25.5424    17.0961    12.6576    14.1193    81.2484     7.8663     2.4384     0.1218     0.0560
  500.5000   -25.5976    17.0903    12.3710    14.5591    83.9894     7.8663     2.4402     0.1218     0.0579
  501.0000   -25.6528    17.0933    12.2628    15.0126    85.6199     7.8663     2.4468     0.1174     0.0599
  501.5000   -25.7080    17.0933    12.1656    15.7296    85.4851     7.8663     2.4537     0.1126     0.0619
  502.0000   -25.7632    17.0933    12.0690    15.5576    85.5222     7.8663     2.4547     0.1126     0.0638
  502.5000   -25.8185    16.8673    11.9730    15.2045    86.3977     7.8663     2.4535     0.1202     0.0658
  503.0000   -25.8737    16.3993    11.8066    14.8595    87.2650     7.8663     2.4453     0.1235     0.0678
  503.5000   -25.9290    15.9443    11.5628    14.5222    88.1898     7.8663     2.4364     0.1277     0.0698
  504.0000   -25.9841    15.5018    11.3239    14.2097    90.1784     7.8663     2.4265     0.1336     0.0690
  504.5000   -26.0360    15.0717    11.0901    13.7724    92.5136     7.8663     2.4099     0.1433     0.0672
  505.0000   -26.1429    14.6535    10.8610    13.2761    96.2351     7.8663     2.3930     0.1519     0.0654
  505.5000   -26.2542    14.3416    10.6367    12.7964    99.3880     7.8663     2.3904     0.1531     0.0635
  506.0000   -26.3665    14.3260    10.4170    12.3343    97.7440     7.8663     2.3887     0.1545     0.0617
  506.5000   -26.4786    14.1838    10.3259    11.8125    95.4451     7.8663     2.3901     0.1526     0.0599
  507.0000   -26.5906    14.0429    10.2614    11.9818    93.1350     7.8663     2.4000     0.1461     0.0585
  507.5000   -26.7026    13.9034    10.1974    12.2572    91.6342     7.8663     2.4089     0.1419     0.0603
  508.0000   -26.8146    13.7653    10.1337    11.7309    90.8421     7.8663     2.4127     0.1397     0.0620
  508.5000   -26.9266    13.6286    10.0705    11.1113    90.0509     7.8663     2.4175     0.1374     0.0638
  509.0000   -27.0385    13.4933    10.0076    10.6647    89.2669     7.8663     2.4234     0.1340     0.0656
