~VERSION INFORMATION
 VERS.                2.0:   CWLS LOG ASCII STANDARD - VERSION 2.0
 WRAP.                 NO:   ONE LINE PER DEPTH STEP
~WELL INFORMATION
#MNEM.UNIT      DATA TYPE    INFORMATION
#----------   ------------   ------------------------------
 STRT.F           20.0000:   START DEPTH
 STOP.F          964.0000:   STOP DEPTH
 STEP.F            0.5000:   STEP LENGTH
 NULL.          -999.2500:   NO VALUE
 COMP. FENIX & SCISSON INC:   COMPANY
 WELL.    NPR-3 SX #58-11:   WELL
 FLD .             TEAPOT:   FIELD
 LOC .      S11 T38N R78W:   LOCATION
 CNTY.            NATRONA:   COUNTY
 STAT.            WYOMING:   STATE
 CTRY. UNITED STATES OF AMERICA:   COUNTRY
 SRVC.            Unknown:   SERVICE COMPANY
 DATE.        09-MAR-1978:   LOGDATE
 API .       490251060100:   API NUMBER
~CURVE INFORMATION
#MNEM.UNIT       API CODE    CURVE DESCRIPTION
#----------   ------------   ------------------------------
 DEPT.F                  :   
 SPR .MV     05 010 01 00:   SPONTANEOUS POTENTIAL FROM RES.
 SN  .OHMM   05 040 16 00:   SHORT NORMAL 16"
 ILD .OHMM   05 120 46 00:   INDUCTION LOG DEEP
 CALD.IN     45 280 60 00:   CALIPER
 GRD .GAPI   45 310 01 00:   GAMMA RAY FROM DENSITY LOG
 CORR.G/C3   45 356 01 00:   DENSITY CORRECTION
 RHOB.G/C3   45 350 01 00:   BULK DENSITY
 DPHI.DEC    45 890 12 00:   DENSITY POROSITY SANDSTONE
~PARAMETER INFORMATION
#MNEM.UNIT          VALUE    DESCRIPTION
#----------   ------------   ------------------------------
 PD  .                 GL:   PERMANENT DATUM
 EPD .F              5219:   ELEVATION PERMANENT DATUM
 LMF .                 KB:   LOG MEASURED FROM
 DAPD.F                 4:   FEET ABOVE PERMANENT DATUM
 DMF .                 KB:   DRILLING MEASURED FROM
 EKB .F              5223:   KELLING BUSHING
 EGL .F              5219:   GROUND LEVEL
 DATE.           3-9-1978:   RUN DATE
 RUN .                  1:   RUN NUMBER
 DD  .F               963:   DEPTH DRILLER
 DL  .F               966:   DEPTH LOGGER
 BLI .F               960:   BOTTOM LOG INTERVAL
 TLI .F                80:   TOP LOG INTERVAL
 CS  .IN            8.625:   CASING SIZE
 CBD .F                40:   CASING BOTTOM DRILLER
 BS  .IN            7.875:   BIT SIZE
 BSD .F               963:   BIT SIZE AT DEPTH
 DFT .         LIGNO SULF:   DRILLING FLUID TYPE
 DFD .                8.6:   DRILLING FLUID DENSITY
 DFV .                 30:   DRILLING FLUID VISCOSITY
 DFPH.               10.5:   DRILLING FLUID PH
 DFL .                4.8:   DRILLING FLUID LOSS
 MSS .          FLOW LINE:   MUD SAMPLE SOURCE
 RMS .OHMM            1.7:   RESISTIVITY MUD SAMPLE
 MST .F                60:   MUD SAMPLE TEMPERATURE
 RMF .OHMM            1.5:   RESISTIVITY MUD FILTRATE SAMPLE
 MFST.F                74:   MUD FILTRATE SAMPLE TEMPERATURE
 RMC .OHMM            2.8:   RESISTIVITY MUD CAKE
 MCST.F                68:   MUD CAKE SAMPLE TEMPERATURE
 MFSS.               MEAS:   MUD FILTRATE SAMPLE SOURCE
 MCSS.               MEAS:   MUD CAKE SAMPLE SOURCE
 RMB .OHMM           1.38:   RESISTIVITY MUD AT BHT
 BHT .F                74:   BOTTOM HOLE TEMPERATURE
 TCS .HRS               4:   TIME CURCULATED STOPPED
 MRT .F                74:   MAXIMUM RECORDED TEMPERATURE
 LUN .               2958:   LOGGING UNIT NUMBER
 LUL .               CASP:   LOGGING UNIT LOCATION
 ENGI.             MILLER:   RECORDING ENGINEER
 WITN.         HARRINGTON:   WITNESSED BY
 CLNT.            A2DTECH:   CLIENT CODE
 ORIG.      2" , 5" PRINT:   ORIGIN OF DATA
 UWI .       490251060100:   UNIQUE WELL ID
 DICO. A2D Technologies, Inc.:   DIGITIZING COMPANY
~OTHER INFORMATION
~A   DEPT      SPR         SN        ILD       CALD         GRD      CORR       RHOB       DPHI   
# ...
  465.5000   -26.7258     6.5473     5.9097     7.8877    82.4361     0.0421     2.4983     0.0928
  466.0000   -26.6963     6.5395     5.9065     7.8880    79.4793     0.0447     2.5088     0.0901
  466.5000   -26.6681     6.5821     5.9491     7.8883    76.4480     0.0482     2.5120     0.0873
  467.0000   -26.6760     6.7632     5.9994     7.8886    73.3632     0.0422     2.5136     0.0865
  467.5000   -26.7897     7.0280     6.0452     7.8889    70.0769     0.0293     2.5136     0.0933
  468.0000   -26.9037     7.3033     6.0885     7.8892    69.6541     0.0272     2.4896     0.0991
  468.5000   -27.0363     7.5893     6.1304     7.8895    72.4841     0.0255     2.4795     0.1048
  469.0000   -26.8026     8.0138     6.2559     7.8898    78.7717     0.0239     2.4799     0.1051
  469.5000   -26.7218     7.8464     6.3808     7.8901    77.3994     0.0222     2.4892     0.1053
  470.0000   -26.6327     7.4641     6.5081     7.8904    75.7937     0.0209     2.4924     0.1056
  470.5000   -26.5464     7.1069     6.6619     7.8907    73.9355     0.0204     2.4920     0.1059
  471.0000   -26.4608     7.0962     6.6226     7.8910    75.5029     0.0201     2.4920     0.1062
  471.5000   -26.3772     7.0831     6.5293     7.8913    77.1320     0.0197     2.4917     0.1071
  472.0000   -26.2932     7.0701     6.4374     7.8916    77.8665     0.0193     2.4828     0.1089
  472.5000   -26.5442     7.0571     6.3467     7.8919    77.7944     0.0190     2.4769     0.1107
  473.0000   -27.1309     7.0441     6.2573     7.8922    77.7647     0.0186     2.4744     0.1125
  473.5000   -27.7187     7.0214     6.1841     7.8925    78.1369     0.0182     2.4731     0.1124
  474.0000   -28.2348     6.9966     6.1684     7.8927    79.0579     0.0179     2.4715     0.1080
  474.5000   -27.5949     6.9718     6.1533     7.8931    79.9282     0.0175     2.4701     0.1109
  475.0000   -26.8410     6.9471     6.1381     7.8933    80.9281     0.0171     2.4647     0.1167
  475.5000   -26.7607     6.9225     6.1228     7.8936    82.3846     0.0169     2.4639     0.1161
  476.0000   -26.9086     6.9127     6.1076     7.8939    84.0700     0.0169     2.4693     0.1156
  476.5000   -27.0290     6.9126     6.0924     7.8942    85.6257     0.0169     2.4742     0.1151
  477.0000   -26.6853     6.9121     6.0772     7.8945    84.3892     0.0169     2.4760     0.1146
  477.5000   -26.3389     6.9132     6.0740     7.8948    83.0925     0.0169     2.4732     0.1139
  478.0000   -26.4434     6.9134     6.2923     7.8951    83.1714     0.0168     2.4703     0.1128
  478.5000   -26.8273     7.0546     6.4138     7.8954    83.3083     0.0170     2.4721     0.1117
  479.0000   -27.2274     7.2391     6.5381     7.8957    82.8108     0.0169     2.4771     0.1107
  479.5000   -27.2386     7.4285     6.6654     7.8960    80.2136     0.0160     2.4822     0.1096
  480.0000   -27.2157     7.6227     6.7940     7.8963    77.8756     0.0141     2.4840     0.1088
  480.5000   -27.1946     7.8221     6.9127     7.8966    76.4529     0.0175     2.4803     0.1103
  481.0000   -27.1742     7.9024     7.0416     7.8969    76.6424     0.0207     2.4777     0.1119
  481.5000   -27.1539     7.9481     6.9725     7.8972    76.6899     0.0201     2.4745     0.1146
  482.0000   -27.1335     8.0138     6.9143     7.8975    78.7252     0.0178     2.4711     0.1180
  482.5000   -27.1131     7.9388     6.8566     7.8978    79.8872     0.0196     2.4600     0.1214
  483.0000   -27.0928     7.8092     6.7994     7.8981    79.7270     0.0286     2.4533     0.1240
  483.5000   -27.0724     7.6817     6.7290     7.8983    79.6731     0.0357     2.4619     0.1215
  484.0000   -27.0497     7.4912     6.5757     7.8986    79.5834     0.0401     2.4697     0.1165
  484.5000   -27.1201     7.2485     6.4258     7.8989    79.4871     0.0330     2.4747     0.1135
  485.0000   -27.2242     7.0138     6.2794     7.8992    79.4821     0.0273     2.4741     0.1135
  485.5000   -27.3304     6.9127     6.1873     7.8995    79.2281     0.0212     2.4739     0.1135
  486.0000   -27.4459     7.0911     6.1873     7.8998    81.1673     0.0219     2.4758     0.1135
  486.5000   -27.1911     6.8864     6.1873     7.9000    85.7935     0.0227     2.4778     0.1135
  487.0000   -26.8309     6.9127     6.1873     7.9000    84.3050     0.0237     2.4792     0.1152
  487.5000   -26.6647     6.9127     6.1875     7.9000    80.1816     0.0247     2.4667     0.1168
  488.0000   -26.7254     6.9127     6.1867     7.9000    76.1597     0.0256     2.4715     0.1175
  488.5000   -26.7842     6.9619     6.2533     7.9000    74.3228     0.0266     2.4756     0.1137
  489.0000   -26.8442     7.1061     6.3437     7.9000    75.2305     0.0275     2.4771     0.1111
  489.5000   -26.9042     7.2531     6.4353     7.9000    78.1356     0.0285     2.4776     0.1105
  490.0000   -26.9641     7.4033     6.5280     7.9000    78.9953     0.0284     2.4807     0.1103
  490.5000   -27.0240     7.4563     6.6217     7.9000    79.0396     0.0276     2.4863     0.1084
  491.0000   -27.0839     7.4744     6.7231     7.9000    79.0025     0.0268     2.4874     0.1064
  491.5000   -27.1438     7.4925     6.7328     7.9000    80.1515     0.0261     2.4858     0.1070
  492.0000   -27.2033     7.5120     6.7461     7.9000    81.2636     0.0254     2.4843     0.1086
  492.5000   -27.2465     7.5458     6.7592     7.9000    81.7332     0.0232     2.4845     0.1095
  493.0000   -27.2455     7.5924     6.7721     7.9000    81.3161     0.0189     2.4851     0.1091
  493.5000   -27.2455     7.6392     6.7852     7.9000    81.0185     0.0145     2.4857     0.1088
  494.0000   -27.2455     7.6863     6.7982     7.9000    80.5414     0.0129     2.4850     0.1095
  494.5000   -27.2456     7.7336     6.8113     7.9000    79.0865     0.0142     2.4801     0.1109
  495.0000   -27.2455     7.7813     6.8244     7.9000    77.4488     0.0151     2.4748     0.1122
  495.5000   -27.2421     7.8012     6.8376     7.9000    79.1746     0.0161     2.4723     0.1135
  496.0000   -27.3935     7.8531     6.8475     7.9000    82.9195     0.0169     2.4736     0.1134
  496.5000   -27.6028     7.9058     6.7887     7.9000    81.6402     0.0172     2.4746     0.1131
  497.0000   -27.8141     7.9391     6.7349     7.9000    79.8914     0.0175     2.4755     0.1129
  497.5000   -28.0326     7.7035     6.6815     7.9000    85.1173     0.0178     2.4768     0.1127
  498.0000   -27.8443     7.5279     6.6286     7.9000    83.9475     0.0181     2.4785     0.1116
  498.5000   -27.4452     7.3564     6.5760     7.9000    80.7546     0.0184     2.4800     0.1104
  499.0000   -27.0473     7.1729     6.5397     7.9000    81.1121     0.0187     2.4819     0.1095
  499.5000   -26.7769     7.1729     6.5448     7.9000    81.5877     0.0189     2.4809     0.1103
  500.0000   -26.6344     7.1877     6.5501     7.9000    82.0771     0.0192     2.4795     0.1109
  500.5000   -26.4859     7.1990     6.5555     7.9000    81.7140     0.0195     2.4780     0.1115
  501.0000   -26.4933     7.2104     6.5609     7.9000    81.1094     0.0198     2.4764     0.1121
  501.5000   -26.5573     7.2218     6.5662     7.9000    80.3848     0.0201     2.4771     0.1127
  502.0000   -26.6234     7.2332     6.5716     7.9000    80.7828     0.0204     2.4799     0.1119
  502.5000   -26.6893     7.2446     6.5770     7.9000    82.1128     0.0206     2.4827     0.1105
  503.0000   -26.7550     7.2560     6.5823     7.9000    82.7103     0.0209     2.4854     0.1091
  503.5000   -26.8208     7.2675     6.5877     7.9000    82.7383     0.0209     2.4890     0.1077
  504.0000   -26.8865     7.2790     6.5931     7.9000    82.8911     0.0208     2.4930     0.1063
  504.5000   -26.9522     7.2902     6.5984     7.9000    83.1049     0.0194     2.4969     0.1048
  505.0000   -27.0180     7.3060     6.6142     7.9000    84.8121     0.0181     2.5009     0.1048
  505.5000   -27.0835     7.2465     6.6366     7.9000    86.8483     0.0168     2.5007     0.1048
