~VERSION INFORMATION
 VERS.                2.0:   CWLS LOG ASCII STANDARD - VERSION 2.0
 WRAP.                 NO:   ONE LINE PER DEPTH STEP
~WELL INFORMATION
#MNEM.UNIT      DATA TYPE    INFORMATION
#----------   ------------   ------------------------------
 STRT.F           33.0000:   START DEPTH
 STOP.F         1374.0000:   STOP DEPTH
 STEP.F            0.5000:   STEP LENGTH
 NULL.          -999.2500:   NO VALUE
 COMP. FENIX & SCISSON INC:   COMPANY
 WELL.   NPR-3 "S" #84-14:   WELL
 FLD .             TEAPOT:   FIELD
 LOC .      S14 T38N R78W:   LOCATION
 CNTY.            NATRONA:   COUNTY
 STAT.            WYOMING:   STATE
 CTRY. UNITED STATES OF AMERICA:   COUNTRY
 SRVC.            Unknown:   SERVICE COMPANY
 DATE.        18-MAR-1978:   LOGDATE
 API .       490251060400:   API NUMBER
~CURVE INFORMATION
#MNEM.UNIT       API CODE    CURVE DESCRIPTION
#----------   ------------   ------------------------------
 DEPT.F                  :   
 SPR .MV     05 010 01 00:   SPONTANEOUS POTENTIAL FROM RES.
 SN  .OHMM   05 040 16 00:   SHORT NORMAL 16"
 ILD .OHMM   05 120 46 00:   INDUCTION LOG DEEP
 CALD.IN     45 280 60 00:   CALIPER
 GRD .GAPI   45 310 01 00:   GAMMA RAY FROM DENSITY LOG
 CORR.G/C3   45 356 01 00:   DENSITY CORRECTION
 RHOB.G/C3   45 350 01 00:   BULK DENSITY
 DPHI.DEC    45 890 00 00:   DENSITY POROSITY
~PARAMETER INFORMATION
#MNEM.UNIT          VALUE    DESCRIPTION
#----------   ------------   ------------------------------
 PD  .                 GL:   PERMANENT DATUM
 EPD .F              5314:   ELEVATION PERMANENT DATUM
 LMF .                 KB:   LOG MEASURED FROM
 DMF .                 KB:   DRILLING MEASURED FROM
 EKB .F              5318:   KELLING BUSHING
 EGL .F              5314:   GROUND LEVEL
 DATE.          3-18-1978:   RUN DATE
 RUN .                  1:   RUN NUMBER
 DD  .F              1375:   DEPTH DRILLER
 DL  .F              1380:   DEPTH LOGGER
 BLI .F              1374:   BOTTOM LOG INTERVAL
 TLI .F                50:   TOP LOG INTERVAL
 CS  .IN            8.625:   CASING SIZE
 CBD .F                40:   CASING BOTTOM DRILLER
 CBL .F                50:   CASING BOTTOM LOGGER
 BS  .IN            7.875:   BIT SIZE
 BSD .F              1375:   BIT SIZE AT DEPTH
 DFT .                KCL:   DRILLING FLUID TYPE
 DFD .                8.1:   DRILLING FLUID DENSITY
 DFV .                 31:   DRILLING FLUID VISCOSITY
 DFPH.                 10:   DRILLING FLUID PH
 DFL .                8.4:   DRILLING FLUID LOSS
 MSS .           FLOWLINE:   MUD SAMPLE SOURCE
 RMS .OHMM            .28:   RESISTIVITY MUD SAMPLE
 MST .F                62:   MUD SAMPLE TEMPERATURE
 RMF .OHMM            .26:   RESISTIVITY MUD FILTRATE SAMPLE
 MFST.F                67:   MUD FILTRATE SAMPLE TEMPERATURE
 RMC .OHMM            .36:   RESISTIVITY MUD CAKE
 MCST.F                70:   MUD CAKE SAMPLE TEMPERATURE
 MFSS.               MEAS:   MUD FILTRATE SAMPLE SOURCE
 RMB .OHMM            .22:   RESISTIVITY MUD AT BHT
 BHT .F                80:   BOTTOM HOLE TEMPERATURE
 TCS .HRS               4:   TIME CURCULATED STOPPED
 MRT .F                80:   MAXIMUM RECORDED TEMPERATURE
 LUN .               2958:   LOGGING UNIT NUMBER
 LUL .               CASP:   LOGGING UNIT LOCATION
 ENGI.             MILLER:   RECORDING ENGINEER
 WITN.           MCGINLEY:   WITNESSED BY
 CLNT.            A2DTECH:   CLIENT CODE
 ORIG.      2" & 5" PRINT:   ORIGIN OF DATA
 UWI .       490251060400:   UNIQUE WELL ID
 DICO. A2D Technologies, Inc.:   DIGITIZING COMPANY
~OTHER INFORMATION
~A   DEPT      SPR         SN        ILD       CALD         GRD      CORR       RHOB       DPHI   
# ...
 1167.0000   -39.3583     7.1472     6.4236     7.4153   116.2946     0.0244     2.4969     0.0781
 1167.5000   -39.4479     7.1472     6.4185     7.4108   118.3317     0.0233     2.5051     0.0731
 1168.0000   -39.5574     7.1472     6.4134     7.4064   118.8517     0.0184     2.5153     0.0694
 1168.5000   -39.7533     7.1472     6.4082     7.4020   116.4921     0.0076     2.5124     0.0678
 1169.0000   -39.9519     7.1472     6.4027     7.3976   113.0079     0.0125     2.5209     0.0751
 1169.5000   -40.1503     7.1472     6.3978     7.3932   111.9021     0.0014     2.5134     0.0806
 1170.0000   -40.3487     7.1472     6.3979     7.3887   111.9644    -0.0107     2.5000     0.0882
 1170.5000   -40.5472     7.1472     6.6304     7.3843   110.8437    -0.0075     2.4865     0.0917
 1171.0000   -40.7462     7.1912     6.8092     7.3799   109.3688    -0.0006     2.4829     0.0902
 1171.5000   -40.9440     7.2516     6.9928     7.3755   107.8952     0.0018     2.4820     0.1020
 1172.0000   -41.0858     7.2804     7.0816     7.3711   107.0489     0.0039     2.4708     0.1143
 1172.5000   -40.8401     7.2055     7.0036     7.3667   107.0658     0.0097     2.4514     0.1265
 1173.0000   -40.5745     7.0816     6.8971     7.3622   107.8072     0.0050     2.4409     0.1388
 1173.5000   -40.9078     6.9173     6.5426     7.3578   108.8745     0.0135     2.4092     0.1511
 1174.0000   -41.4381     6.6072     5.6952     7.3534   110.4963     0.0372     2.3736     0.1582
 1174.5000   -41.8494     6.1299     4.9575     7.3490   117.2526     0.0651     2.3667     0.1316
 1175.0000   -41.2162     5.6870     4.5027     7.3446   127.1224     0.0787     2.4256     0.0905
 1175.5000   -40.0864     5.2762     4.5083     7.3401   129.1826     0.0504     2.4799     0.0742
 1176.0000   -39.4684     5.0331     4.5182     7.3357   123.0411     0.0185     2.5188     0.0662
 1176.5000   -39.3470     5.1351     4.5281     7.3313   116.5981     0.0108     2.5255     0.0653
 1177.0000   -39.2237     5.2223     4.5381     7.3269   110.1552     0.0110     2.5257     0.0642
 1177.5000   -39.1040     5.9255     4.5477     7.3236   107.2517     0.0091     2.5284     0.0671
 1178.0000   -38.9842     6.6116     5.0600     7.3210   107.2462     0.0062     2.5208     0.0705
 1178.5000   -38.8637     6.9551     5.5770     7.3184   107.1325     0.0033     2.5163     0.0730
 1179.0000   -38.7448     7.3163     6.5278     7.3158   106.8216     0.0004     2.5223     0.0706
 1179.5000   -38.7278     7.6965     7.4847     7.3131   106.5153    -0.0025     2.5127     0.0730
 1180.0000   -38.4893     7.9099     7.6433     7.3105   106.3192    -0.0024     2.5161     0.0804
 1180.5000   -38.2131     8.0566     7.7953     7.3078   106.8130    -0.0016     2.5007     0.0798
 1181.0000   -37.9428     8.1970     7.9109     7.3052   107.3177    -0.0009     2.5029     0.0771
 1181.5000   -37.8668     8.3394     7.9348     7.3025   107.3123    -0.0001     2.5061     0.0802
 1182.0000   -38.5174     8.4843     7.9576     7.2999   106.8615     0.0006     2.4993     0.0846
 1182.5000   -38.4605     8.6318     7.9805     7.2973   106.8905     0.0014     2.4903     0.0890
 1183.0000   -38.0474     8.7819     8.0035     7.2946   108.9628     0.0021     2.4866     0.0934
 1183.5000   -37.4710     8.9345     8.0265     7.2920   110.6226     0.0029     2.4827     0.0999
 1184.0000   -36.2858     9.0898     8.0496     7.2894   109.4566     0.0036     2.4769     0.1098
 1184.5000   -35.1628     9.2478     8.3590     7.2868   107.8217     0.0044     2.4651     0.1198
 1185.0000   -34.7146     9.4198     8.8626     7.2839   108.0286     0.0059     2.4452     0.1298
 1185.5000   -33.5222     9.7860     9.4375     7.2742   107.1949     0.0119     2.4357     0.1398
 1186.0000   -32.3158    10.1692    10.1111     7.2647   103.0407     0.0181     2.4209     0.1498
 1186.5000   -31.0713    10.5654    10.8327     7.2552    93.1672     0.0210     2.3995     0.1606
 1187.0000   -29.7611    10.9766    11.6059     7.2458    83.4852     0.0278     2.3782     0.1614
 1187.5000   -28.4391    11.2339    12.4342     7.2473    73.8157     0.0414     2.3675     0.1559
 1188.0000   -27.6824    11.2511    13.3221     7.2515    64.1079     0.0482     2.3853     0.1498
 1188.5000   -27.1611    11.2683    14.1491     7.2558    54.3916     0.0529     2.4016     0.1438
 1189.0000   -27.1767    11.2856    14.3984     7.2600    52.9957     0.0575     2.4070     0.1394
 1189.5000   -26.9662    11.3029    14.7872     7.2643    58.7080     0.0637     2.3914     0.1523
 1190.0000   -26.3600    11.3202    14.6951     7.2685    65.6218     0.0695     2.3790     0.1583
 1190.5000   -26.2251    11.3380    14.3765     7.2728    68.0583     0.0749     2.3712     0.1536
 1191.0000   -26.2660    11.2533    14.0648     7.2771    66.3760     0.0752     2.3799     0.1492
 1191.5000   -26.3141    11.1449    13.7603     7.2813    65.0089     0.0718     2.3881     0.1448
 1192.0000   -26.3608    11.0376    13.5111     7.2856    65.9280     0.0660     2.3924     0.1406
 1192.5000   -26.3112    10.9271    13.5111     7.2898    70.4683     0.0604     2.3813     0.1432
 1193.0000   -26.1132    10.8899    13.5312     7.2941    70.3684     0.0570     2.3704     0.1494
 1193.5000   -26.0971    10.8237    13.5879     7.2983    66.0579     0.0570     2.3726     0.1499
 1194.0000   -26.8748    10.7583    13.6306     7.3026    62.4005     0.0567     2.3793     0.1446
 1194.5000   -27.5546    10.6839    13.3366     7.3068    60.4192     0.0548     2.3860     0.1394
 1195.0000   -27.9820    10.5541    13.0810     7.3111    62.4924     0.0531     2.3896     0.1414
 1195.5000   -28.1667    10.4272    12.8303     7.3154    66.3688     0.0543     2.3918     0.1410
 1196.0000   -27.7856    10.3019    12.6658     7.3197    70.2569     0.0557     2.4079     0.1358
 1196.5000   -27.7979    10.2435    12.5188     7.3235    74.2561     0.0571     2.4077     0.1363
 1197.0000   -28.5612    10.4012    12.3628     7.2979    75.8327     0.0584     2.4050     0.1370
 1197.5000   -28.7482    10.5311    12.2088     7.2930    77.4490     0.0598     2.4120     0.1328
 1198.0000   -27.9524    10.5311    12.0568     7.3233    78.7608     0.0611     2.4095     0.1318
 1198.5000   -27.6087    10.3415    11.9066     7.3523    77.8947     0.0609     2.4097     0.1324
 1199.0000   -27.7076    10.2435    11.7560     7.3805    75.1562     0.0501     2.4189     0.1246
 1199.5000   -27.7134    10.2511    11.6579     7.4040    72.7535     0.0381     2.4244     0.1288
 1200.0000   -27.4461    10.2758    11.9859     7.4012    73.1877     0.0262     2.4225     0.1321
 1200.5000   -27.8651    10.3006    12.2477     7.3990    73.9484     0.0142     2.4214     0.1350
 1201.0000   -28.0872    10.3255    12.4342     7.3965    74.6989     0.0025     2.4022     0.1495
 1201.5000   -27.5088    10.3385    12.1328     7.3939    74.7907     0.0061     2.3805     0.1619
 1202.0000   -26.9898    10.2292    11.9036     7.3914    74.7963     0.0118     2.3583     0.1686
 1202.5000   -27.3227    10.0690    11.7562     7.3889    74.8836     0.0142     2.3500     0.1534
 1203.0000   -27.2099     9.9113    11.6247     7.3864    74.9677     0.0108     2.3772     0.1468
 1203.5000   -27.4136     9.7561    11.4738     7.3839    74.2450     0.0075     2.3865     0.1428
 1204.0000   -27.7659     9.6033    11.1614     7.3814    72.6424     0.0042     2.3947     0.1402
 1204.5000   -27.9682     9.4271    10.8573     7.3788    73.3361     0.0037     2.3957     0.1406
 1205.0000   -27.9986     9.4571    10.6083     7.3763    75.4258     0.0046     2.3968     0.1398
 1205.5000   -28.7942     9.5053    10.5248     7.3738    77.5199     0.0047     2.3973     0.1384
 1206.0000   -29.6148     9.5538    10.4420     7.3713    79.6258    -0.0009     2.3962     0.1382
 1206.5000   -29.5450     9.6027    10.3596     7.3688    80.5750    -0.0014     2.3957     0.1390
 1207.0000   -29.1939     9.4870    10.2774     7.3663    82.0247     0.0010     2.3963     0.1398
