~VERSION INFORMATION
 VERS.                2.0:   CWLS LOG ASCII STANDARD - VERSION 2.0
 WRAP.                 NO:   ONE LINE PER DEPTH STEP
~WELL INFORMATION
#MNEM.UNIT      DATA TYPE    INFORMATION
#----------   ------------   ------------------------------
 STRT.F           34.0000:   START DEPTH
 STOP.F          638.0000:   STOP DEPTH
 STEP.F            0.5000:   STEP LENGTH
 NULL.          -999.2500:   NO VALUE
 COMP. FENIX & SCISSON INC:   COMPANY
 WELL. S N.P.R. #3 #33-34:   WELL
 FLD .             TEAPOT:   FIELD
 LOC .      S34 T39N R78W:   LOCATION
 CNTY.            NATRONA:   COUNTY
 STAT.            WYOMING:   STATE
 CTRY. UNITED STATES OF AMERICA:   COUNTRY
 SRVC.       Schlumberger:   SERVICE COMPANY
 DATE.        18-MAR-1977:   LOGDATE
 API .       490251030400:   API NUMBER
~CURVE INFORMATION
#MNEM.UNIT       API CODE    CURVE DESCRIPTION
#----------   ------------   ------------------------------
 DEPT.F                  :   
 LL8 .OHMM   07 220 08 00:   LATEROLOG-8 RES.
 ILD .OHMM   07 120 46 00:   INDUCTION LOG DEEP
 ILM .OHMM   07 120 44 00:   INDUCTION LOG MEDIUM
 SPR .MV     07 010 01 00:   SPONTANEOUS POTENTIAL
 GRD .GAPI   45 310 01 00:   GAMMA RAY FROM DENSITY LOG
 CALD.IN     45 280 60 00:   CALIPER FROM DENSITY LOG
 RHOB.G/C3   45 350 01 00:   BULK DENSITY
 CORR.G/C3   45 356 01 00:   DENSITY CORRECTION
 DPHI.DEC    45 890 12 00:   DENSITY POROSITY SANDSTONE
~PARAMETER INFORMATION
#MNEM.UNIT          VALUE    DESCRIPTION
#----------   ------------   ------------------------------
 PD  .                 GL:   PERMANENT DATUM
 EPD .F              5081:   ELEVATION PERMANENT DATUM
 LMF .                 KB:   LOG MEASURED FROM
 DAPD.F                 5:   FEET ABOVE PERMANENT DATUM
 DMF .                 KB:   DRILLING MEASURED FROM
 EKB .F              5086:   KELLING BUSHING
 EGL .F              5081:   GROUND LEVEL
 DATE.            3-18-77:   RUN DATE
 RUN .                  1:   RUN NUMBER
 DD  .F               631:   DEPTH DRILLER
 DL  .F               637:   DEPTH LOGGER
 BLI .F               631:   BOTTOM LOG INTERVAL
 TLI .F                45:   TOP LOG INTERVAL
 CS  .IN            8.625:   CASING SIZE
 CBD .F                40:   CASING BOTTOM DRILLER
 CBL .F                45:   CASING BOTTOM LOGGER
 BS  .IN            7.875:   BIT SIZE
 BSD .F               631:   BIT SIZE AT DEPTH
 DFT .            KCL MUD:   DRILLING FLUID TYPE
 DFD .                8.7:   DRILLING FLUID DENSITY
 DFV .                 31:   DRILLING FLUID VISCOSITY
 DFPH.                  8:   DRILLING FLUID PH
 DFL .                8.2:   DRILLING FLUID LOSS
 MSS .                PIT:   MUD SAMPLE SOURCE
 RMS .OHMM            .27:   RESISTIVITY MUD SAMPLE
 MST .F                60:   MUD SAMPLE TEMPERATURE
 RMF .OHMM            .25:   RESISTIVITY MUD FILTRATE SAMPLE
 MFST.F                60:   MUD FILTRATE SAMPLE TEMPERATURE
 MFSS.                  M:   MUD FILTRATE SAMPLE SOURCE
 TCS .HRS            0400:   TIME CURCULATED STOPPED
 TLAB.HRS            0530:   TIME LOGGER AT BOTTOM
 LUN .               7711:   LOGGING UNIT NUMBER
 LUL .               CSPR:   LOGGING UNIT LOCATION
 ENGI.             SAYLER:   RECORDING ENGINEER
 WITN.         STUEBINGER:   WITNESSED BY
 CLNT.            A2DTECH:   CLIENT CODE
 ORIG.        2" 5" PRINT:   ORIGIN OF DATA
 UWI .       490251030400:   UNIQUE WELL ID
 DICO. A2D Technologies, Inc.:   DIGITIZING COMPANY
~OTHER INFORMATION
~A   DEPT      LL8        ILD        ILM        SPR         GRD      CALD       RHOB       CORR       DPHI   
# ...
  618.0000    11.4482    12.5513    12.2767   -43.1825    74.7798     8.0952     2.4334     0.0147     0.1292
  618.5000    11.6149    12.6845    12.4021   -43.3780    75.5806     8.0970     2.4441     0.0204     0.1242
  619.0000    11.9289    12.8191    12.5288   -43.5734    76.4380     8.0989     2.4550     0.0202     0.1191
  619.5000    12.2087    12.9551    12.6658   -43.7689    76.5538     8.1007     2.4729     0.0184     0.1141
  620.0000    12.2087    13.0197    12.6658   -43.9643    76.1159     8.1025     2.4839     0.0154     0.1090
  620.5000    12.0008    12.8102    12.3746   -44.1597    75.6252     8.1044     2.4608     0.0104     0.1141
  621.0000    11.8192    12.5880    12.1598   -44.3552    75.5145     8.1062     2.4577     0.0094     0.1174
  621.5000    11.6404    12.3694    11.9486   -44.5504    75.8951     8.1081     2.4607     0.0115     0.1174
  622.0000    11.3753    12.1545    11.7411   -44.7464    76.2737     8.1099     2.4637     0.0136     0.1160
  622.5000    11.0337    11.9434    11.5372   -44.9503    76.6704     8.1118     2.4665     0.0206     0.1150
  623.0000    10.7023    11.7360    11.3369   -44.9866    76.9634     8.1137     2.4620     0.0261     0.1179
  623.5000    10.3809    11.5322    11.1400   -44.6916    75.2784     8.1156     2.4508     0.0235     0.1207
  624.0000    10.1593    11.3320    10.9466   -44.4042    63.7937     8.1166     2.4485     0.0324     0.1197
  624.5000    10.1956    11.1356    10.7565   -44.1168  -999.2500     8.0973     2.4635     0.0468     0.1115
  625.0000    10.2290    10.9731    10.6243   -43.8153  -999.2500     8.0782     2.4694     0.0531     0.1046
  625.5000    10.2531    10.8453    10.5008   -44.0169  -999.2500     8.0807     2.4637     0.0328     0.1142
  626.0000    10.1741    10.7189    10.3786   -44.3184  -999.2500     8.0841     2.4584     0.0158     0.1166
  626.5000    10.0584    10.5942    10.2579   -44.6204  -999.2500     8.0874     2.4603     0.0164     0.1154
  627.0000     9.9440    10.4710    10.1385   -44.9218  -999.2500     8.0907     2.4701     0.0221     0.1134
  627.5000     9.8310    10.3492    10.0205   -45.2220  -999.2500     8.0941     2.4810     0.0275     0.1045
  628.0000     9.7197    10.2288     9.9031   -45.5184  -999.2500     8.0971     2.4918     0.0321     0.0938
  628.5000     9.6092    10.1098     9.7888   -45.8210  -999.2500     8.0910     2.4996     0.0246     0.0929
  629.0000     9.4387     9.9922     9.7032   -46.4922  -999.2500     8.0842     2.4966     0.0189     0.0951
  629.5000     9.4887     9.9744     9.6144   -47.1610  -999.2500     8.0774     2.4887     0.0175     0.0998
  630.0000     9.1827     9.9744     9.6158   -47.1760  -999.2500     8.0707     2.4809     0.0179     0.1046
  630.5000     9.1827    10.0664     9.6130   -46.7998  -999.2500     8.0640     2.4722     0.0212     0.1094
  631.0000     9.2675    10.0664     9.7021   -46.4419  -999.2500     8.0572     2.4589     0.0156     0.1142
  631.5000  -999.2500    10.0664  -999.2500   -46.1860  -999.2500     8.0504     2.4529     0.0121     0.1174
  632.0000  -999.2500  -999.2500  -999.2500  -999.2500  -999.2500     8.0434     2.4673     0.0229     0.1151
  632.5000  -999.2500  -999.2500  -999.2500  -999.2500  -999.2500     8.0384     2.4827     0.0336     0.1118
  633.0000  -999.2500  -999.2500  -999.2500  -999.2500  -999.2500     8.1083     2.5002     0.0451     0.1084
  633.5000  -999.2500  -999.2500  -999.2500  -999.2500  -999.2500     8.1718     2.4765     0.0325     0.1111
  634.0000  -999.2500  -999.2500  -999.2500  -999.2500  -999.2500     8.0828     2.4572     0.0151     0.1184
  634.5000  -999.2500  -999.2500  -999.2500  -999.2500  -999.2500     8.0217     2.4469     0.0115     0.1252
  635.0000  -999.2500  -999.2500  -999.2500  -999.2500  -999.2500     7.9881     2.4369     0.0126     0.1284
  635.5000  -999.2500  -999.2500  -999.2500  -999.2500  -999.2500     7.9850     2.4264     0.0103     0.1318
  636.0000  -999.2500  -999.2500  -999.2500  -999.2500  -999.2500     7.9948     2.4098     0.0052     0.1467
  636.5000  -999.2500  -999.2500  -999.2500  -999.2500  -999.2500  -999.2500     2.3846     0.0105     0.1624
  637.0000  -999.2500  -999.2500  -999.2500  -999.2500  -999.2500  -999.2500  -999.2500     0.0095  -999.2500
  637.5000  -999.2500  -999.2500  -999.2500  -999.2500  -999.2500  -999.2500  -999.2500     0.0323  -999.2500
  638.0000  -999.2500  -999.2500  -999.2500  -999.2500  -999.2500  -999.2500  -999.2500     0.1085  -999.2500
