~VERSION INFORMATION
 VERS.                2.0:   CWLS LOG ASCII STANDARD - VERSION 2.0
 WRAP.                 NO:   ONE LINE PER DEPTH STEP
~WELL INFORMATION
#MNEM.UNIT      DATA TYPE    INFORMATION
#----------   ------------   ------------------------------
 STRT.F           32.0000:   START DEPTH
 STOP.F          557.0000:   STOP DEPTH
 STEP.F            0.5000:   STEP LENGTH
 NULL.          -999.2500:   NO VALUE
 COMP. FENIX & SCISSON U.S. NAVY:   COMPANY
 WELL.   S-3 NPR #3 #31-3:   WELL
 FLD .              NPR-3:   FIELD
 LOC .       S3 T38N R78W:   LOCATION
 CNTY.            NATRONA:   COUNTY
 STAT.            WYOMING:   STATE
 CTRY. UNITED STATES OF AMERICA:   COUNTRY
 SRVC.              Welex:   SERVICE COMPANY
 DATE.        05-MAR-1977:   LOGDATE
 API .       490251039500:   API NUMBER
~CURVE INFORMATION
#MNEM.UNIT       API CODE    CURVE DESCRIPTION
#----------   ------------   ------------------------------
 DEPT.F                  :   
 CALD.IN     45 280 60 00:   CALIPER FROM DENSITY LOG
 DPHI.DEC    45 890 12 00:   DENSITY POROSITY SANDSTONE
 DRHO.G/C3   45 356 01 00:   DENSITY CORRECTION
 GRD .GAPI   45 310 01 00:   GAMMA RAY FROM DENSITY LOG
 RHOB.G/C3   45 350 01 00:   BULK DENSITY
 ILD .OHMM   07 120 46 00:   INDUCTION LOG DEEP
 ILM .OHMM   07 120 44 00:   INDUCTION LOG MEDIUM
 SGRD.OHMM   07 220 05 00:   SHALLOW GUARD RESISTIVITY
 SPR .MV     07 010 01 00:   SPONTANEOUS POTENTIAL FROM RES.
~PARAMETER INFORMATION
#MNEM.UNIT          VALUE    DESCRIPTION
#----------   ------------   ------------------------------
 PD  .                 GL:   PERMANENT DATUM
 EPD .F              5178:   ELEVATION PERMANENT DATUM
 LMF .                 GL:   LOG MEASURED FROM
 DMF .                 GL:   DRILLING MEASURED FROM
 EGL .F              5178:   GROUND LEVEL
 DATE.        05-MAR-1977:   RUN DATE
 RUN .                  1:   RUN NUMBER
 DD  .F               560:   DEPTH DRILLER
 DL  .F               560:   DEPTH LOGGER
 BLI .F               558:   BOTTOM LOG INTERVAL
 TLI .F                40:   TOP LOG INTERVAL
 CS  .IN            8.625:   CASING SIZE
 CBD .F                43:   CASING BOTTOM DRILLER
 CBL .F                43:   CASING BOTTOM LOGGER
 BS  .IN            7.875:   BIT SIZE
 BSD .F               560:   BIT SIZE AT DEPTH
 DFT .                KCL:   DRILLING FLUID TYPE
 DFD .                8.8:   DRILLING FLUID DENSITY
 DFV .                 32:   DRILLING FLUID VISCOSITY
 MSS .           FLOWLINE:   MUD SAMPLE SOURCE
 RMS .OHMM           1.46:   RESISTIVITY MUD SAMPLE
 MST .F                48:   MUD SAMPLE TEMPERATURE
 RMF .OHMM          0.972:   RESISTIVITY MUD FILTRATE SAMPLE
 MFST.F                48:   MUD FILTRATE SAMPLE TEMPERATURE
 RMC .OHMM           2.32:   RESISTIVITY MUD CAKE
 MCST.F                48:   MUD CAKE SAMPLE TEMPERATURE
 MFSS.               MEAS:   MUD FILTRATE SAMPLE SOURCE
 MCSS.               MEAS:   MUD CAKE SAMPLE SOURCE
 RMB .OHMM           1.03:   RESISTIVITY MUD AT BHT
 BHT .F                68:   BOTTOM HOLE TEMPERATURE
 TCS .HRS               2:   TIME CURCULATED STOPPED
 MRT .F                68:   MAXIMUM RECORDED TEMPERATURE
 LUN .               8611:   LOGGING UNIT NUMBER
 LUL .           GILLETTE:   LOGGING UNIT LOCATION
 ENGI.          D. LAWSON:   RECORDING ENGINEER
 WITN.     MR. STUEBINGER:   WITNESSED BY
 CLNT.            A2DTECH:   CLIENT CODE
 ORIG.           5" PRINT:   ORIGIN OF DATA
 UWI .       490251039500:   UNIQUE WELL ID
 DICO. A2D Technologies, Inc.:   DIGITIZING COMPANY
~OTHER INFORMATION
~A   DEPT       CALD     DPHI        DRHO        GRD        RHOB      ILD        ILM       SGRD        SPR   
# ...
  287.5000     8.2323     0.1250     0.0353   133.5330     2.4355     4.7225     5.6820     7.5130   -19.6419
  288.0000     8.2334     0.1380     0.0385   130.1198     2.4094     4.4091     5.2324     6.5456   -19.6302
  288.5000     8.2046     0.1514     0.0357   128.4950     2.3922     4.1738     4.7522     4.5699   -19.6185
  289.0000     8.1762     0.1717     0.0299   128.3606     2.3721     4.0618     4.4989     3.6891   -19.6069
  289.5000     8.1476     0.1804     0.0210   128.0120     2.3437     4.0358     4.5957     5.1105   -19.5952
  290.0000     8.1488     0.1714     0.0122   125.1147     2.3595     4.0099     4.7294     6.4696   -19.5833
  290.5000     8.1502     0.1534     0.0093   124.5295     2.3911     4.0677     4.8290     6.6172   -19.5714
  291.0000     8.1216     0.1483     0.0095   124.9948     2.4017     4.2424     4.9676     5.2578   -19.4114
  291.5000     8.1228     0.1461     0.0097   125.4565     2.4033     4.4478     5.2530     5.5611   -19.5485
  292.0000     8.1239     0.1425     0.0099   125.4710     2.4094     4.8093     5.6322     7.3439   -19.5339
  292.5000     8.0951     0.1269     0.0131   126.3798     2.4304     5.0853     5.9557     7.0499   -19.5223
  293.0000     8.0965     0.1191     0.0163   128.4808     2.4546     5.3770     6.2114     6.4917   -19.3618
  293.5000     8.0977     0.1154     0.0210   129.9857     2.4624     5.6075     6.4780     6.0609   -19.3501
  294.0000     8.0988     0.1091     0.0227   128.6590     2.4727     5.8478     6.8030     8.2796   -19.3384
  294.5000     8.1013     0.1016     0.0258   129.8674     2.4803     6.1407     7.1442     8.8165   -19.3268
  295.0000     8.1312     0.1015     0.0230   129.7915     2.4789     6.4039     7.4509     8.9442   -19.3151
  295.5000     8.1323     0.1033     0.0202   127.3651     2.4745     6.6323     7.6640     9.1368   -19.4524
  296.0000     8.1335     0.1036     0.0174   127.0816     2.4753     6.8701     7.7764     9.2052   -19.4405
  296.5000     8.1347     0.1062     0.0175   126.6491     2.4701     7.0267     7.8876     9.3386   -19.4286
  297.0000     8.1358     0.1092     0.0162   126.2129     2.4657     7.1181     7.8929     9.3437   -19.4143
  297.5000     8.1218     0.1098     0.0149   127.7215     2.4635     7.1709     7.8971     9.3488   -19.4026
  298.0000     8.1381     0.1109     0.0151   129.8225     2.4614     7.1743     7.9014     9.3539   -19.3910
  298.5000     8.1393     0.1100     0.0183   131.0293     2.4645     7.1274     7.9057     9.2303   -19.3793
  299.0000     8.1405     0.1079     0.0184   132.3852     2.4676     7.0337     7.7476     9.1084   -19.3676
  299.5000     8.1419     0.1078     0.0186   133.4429     2.4692     6.9395     7.4884     8.7439   -19.3559
  300.0000     8.1431     0.1144     0.0158   132.8614     2.4498     6.7534     7.1880     8.6272   -19.4921
  300.5000     8.1591     0.1255     0.0069   130.7952     2.4319     6.4828     7.1929     8.4557   -19.3317
  301.0000     8.1604     0.1329     0.0056   133.4951     2.4199     6.2223     7.0989     8.4008   -19.1714
  301.5000     8.1617     0.1328     0.0058   134.8538     2.4185     5.9723     7.0547     8.2910   -19.0139
  302.0000     8.1482     0.1322     0.0059   136.2124     2.4201     5.6536     6.7259     7.8489   -19.1511
  302.5000     8.1498     0.1316     0.0061   137.1240     2.4232     5.4214     6.5321     7.6387   -18.9879
  303.0000     8.1511     0.1303     0.0093   135.8001     2.4248     5.1979     6.1146     7.3829   -18.9762
  303.5000     8.1372     0.1330     0.0139   136.3169     2.4196     4.9996     5.8701     7.0376   -19.1135
  304.0000     8.1388     0.1428     0.0111   137.4741     2.3972     4.8655     5.5965     6.4356   -19.0991
  304.5000     8.1252     0.1587     0.0053   135.1113     2.3770     4.8337     5.2261     5.7763   -18.9387
  305.0000     8.1116     0.1718     0.0009   132.5952     2.3576     4.8702     5.1214     4.5588   -18.9271
  305.5000     8.1130     0.1764    -0.0035   130.0790     2.3531     5.0091     5.3429     6.0576   -19.2132
  306.0000     8.0994     0.1526    -0.0063   126.2215     2.3787     5.2238     5.8899     7.6157   -19.2016
  306.5000     8.1010     0.1318    -0.0001   125.3284     2.4359     5.4855     6.3159     8.1094   -19.1900
  307.0000     8.1023     0.1169     0.0076   127.1565     2.4583     5.7602     6.6858     8.5756   -19.0297
  307.5000     8.1036     0.1118     0.0153   129.3343     2.4561     6.0071     6.8877     8.9440   -19.1669
  308.0000     8.0897     0.1022     0.0184   131.9585     2.4750     6.2645     7.0702     9.0735   -19.1524
  308.5000     8.0913     0.0991     0.0216   134.3604     2.4795     6.4445     7.2734     9.0784   -19.1409
  309.0000     8.0926     0.0967     0.0218   137.3584     2.4841     6.6370     7.3797     8.9389   -19.2810
  309.5000     8.0939     0.0985     0.0220   140.0583     2.4849     6.9119     7.4875     8.4805   -19.2666
  310.0000     8.0952     0.0996     0.0221   142.4602     2.4790     7.0107     7.5969     9.2850   -19.1062
  310.5000     8.0966     0.0993     0.0223   140.6892     2.4813     6.8802     7.6547     9.8188   -19.0946
  311.0000     8.0982     0.1014     0.0224   137.4278     2.4754     6.9800     7.7130     9.2950   -19.0830
  311.5000     8.0995     0.1065     0.0226   136.8491     2.4687     7.0818     7.7718     9.6274   -19.0714
  312.0000     8.0710     0.1073     0.0213   137.7650     2.4689     7.0856     7.8311    10.1808   -19.0595
  312.5000     8.0723     0.1049     0.0199   137.1862     2.4734     7.0894     7.8909     9.6377   -18.8966
  313.0000     8.0885     0.1033     0.0201   134.2229     2.4757     7.0932     7.9521     9.3797   -18.7363
  313.5000     8.0749     0.1054     0.0203   130.0674     2.4713     7.0970     7.9575     9.7839   -18.7247
  314.0000     8.0762     0.1114     0.0189   127.6959     2.4639     7.1008     7.9629    10.2028   -18.7131
  314.5000     8.0775     0.1131     0.0176   128.6118     2.4595     7.0070     7.9682     9.2669   -18.7016
  315.0000     8.0789     0.1119     0.0178   129.5234     2.4595     7.0109     7.9736     9.1432   -18.3924
  315.5000     8.1102     0.1089     0.0209   131.6433     2.4633     7.0156     7.9790     9.6702   -18.3808
  316.0000     8.1115     0.1052     0.0226   133.6405     2.4732     7.0193     7.9844    10.1078   -18.3690
  316.5000     8.1128     0.1046     0.0273   134.4935     2.4732     7.0231     7.9898     9.5475   -18.3548
  317.0000     8.0397     0.1076     0.0274   134.0638     2.4666     7.0269     7.9990     9.0333   -18.3432
  317.5000     8.0258     0.1063     0.0276   137.3642     2.4689     7.0307     8.1122     9.0443   -18.3316
  318.0000     8.0274     0.1075     0.0263   136.7854     2.4705     7.0345     8.0629     9.4328   -18.3201
  318.5000     8.0287     0.1075     0.0249   134.7163     2.4668     7.0382     8.0114     9.7027   -18.3085
  319.0000     8.0315     0.1080     0.0251   134.4352     2.4661     7.0420     7.9629     9.4429   -18.2969
  319.5000     8.0763     0.1098     0.0253   136.5514     2.4662     6.9491     7.8588     9.3169   -18.2854
  320.0000     8.0925     0.1146     0.0194   138.6432     2.4588     6.6711     7.7026     9.1938   -18.5714
  320.5000     8.0938     0.1163     0.0136   137.6217     2.4528     6.4918     7.6007     9.1364   -18.5595
  321.0000     8.0951     0.1159     0.0137   136.5959     2.4529     6.3189     7.3996     9.2049   -18.5454
  321.5000     8.0964     0.1150     0.0169   134.0797     2.4561     6.1925     7.2026     9.2203   -18.5338
  322.0000     8.0977     0.1138     0.0203   133.3476     2.4591     6.1108     7.1085     8.2501   -18.5223
  322.5000     8.0990     0.1132     0.0248   137.2441     2.4584     5.9885     7.0156     6.8006   -18.5107
  323.0000     8.1003     0.1167     0.0279   139.3479     2.4547     5.9094     6.8773     6.9952   -18.4991
  323.5000     8.1016     0.1227     0.0266   139.2162     2.4443     5.7513     6.7875     8.4953   -18.4876
