~VERSION INFORMATION
 VERS.                2.0:   CWLS LOG ASCII STANDARD - VERSION 2.0
 WRAP.                 NO:   ONE LINE PER DEPTH STEP
~WELL INFORMATION
#MNEM.UNIT      DATA TYPE    INFORMATION
#----------   ------------   ------------------------------
 STRT.F           28.0000:   START DEPTH
 STOP.F          687.0000:   STOP DEPTH
 STEP.F            0.5000:   STEP LENGTH
 NULL.          -999.2500:   NO VALUE
 COMP. LAWRENCE/ALLISON INC:   COMPANY
 WELL.      41 STX #15-15:   WELL
 FLD .             TEAPOT:   FIELD
 LOC .      S15 T38N R78W:   LOCATION
 CNTY.            NATRONA:   COUNTY
 STAT.            WYOMING:   STATE
 CTRY. UNITED STATES OF AMERICA:   COUNTRY
 SRVC.           Gearhart:   SERVICE COMPANY
 DATE.        24-AUG-1987:   LOGDATE
 API .       490251118800:   API NUMBER
~CURVE INFORMATION
#MNEM.UNIT       API CODE    CURVE DESCRIPTION
#----------   ------------   ------------------------------
 DEPT.F                  :   
 GRR .GAPI   07 310 01 00:   GAMMA RAY
 ILD .OHMM   07 120 46 00:   INDUCTION LOG DEEP
 ILM .OHMM   07 120 44 00:   INDUCTION LOG MEDIUM
~PARAMETER INFORMATION
#MNEM.UNIT          VALUE    DESCRIPTION
#----------   ------------   ------------------------------
 PD  .                 GL:   PERMANENT DATUM
 EPD .F              5230:   ELEVATION PERMANENT DATUM
 LMF .                 KB:   LOG MEASURED FROM
 DAPD.F              10.5:   FEET ABOVE PERMANENT DATUM
 DMF .                 KB:   DRILLING MEASURED FROM
 EKB .F            5240.5:   KELLING BUSHING
 EDF .F            5239.5:   DRILLING FLOOR
 EGL .F              5230:   GROUND LEVEL
 DATE.        24-AUG-1987:   RUN DATE
 RUN .                  1:   RUN NUMBER
 DD  .F               693:   DEPTH DRILLER
 DL  .F               695:   DEPTH LOGGER
 BLI .F               687:   BOTTOM LOG INTERVAL
 TLI .F                30:   TOP LOG INTERVAL
 CS  .IN            9.625:   CASING SIZE
 CBD .F                48:   CASING BOTTOM DRILLER
 CBL .F                48:   CASING BOTTOM LOGGER
 BS  .IN             8.75:   BIT SIZE
 BSD .F               693:   BIT SIZE AT DEPTH
 DFT .                AIR:   DRILLING FLUID TYPE
 TCS .HRS            0700:   TIME CURCULATED STOPPED
 TLAB.HRS            0617:   TIME LOGGER AT BOTTOM
 MRT .F                80:   MAXIMUM RECORDED TEMPERATURE
 LUN .               7597:   LOGGING UNIT NUMBER
 LUL .           GILLETTE:   LOGGING UNIT LOCATION
 ENGI.         WEATHERMON:   RECORDING ENGINEER
 WITN.             STRONG:   WITNESSED BY
 CLNT.            A2DTECH:   CLIENT CODE
 ORIG.       2", 5" PRINT:   ORIGIN OF DATA
 UWI .       490251118800:   UNIQUE WELL ID
 DICO. A2D Technologies, Inc.:   DIGITIZING COMPANY
~OTHER INFORMATION
~A   DEPT       GRR       ILD        ILM   
   28.0000    79.7004  -999.2500  -999.2500
   28.5000    81.2257  -999.2500  -999.2500
   29.0000    81.8447  -999.2500  -999.2500
   29.5000    83.6722  -999.2500  -999.2500
   30.0000    84.8955  -999.2500  -999.2500
   30.5000    86.1187  -999.2500  -999.2500
   31.0000    84.9251  -999.2500  -999.2500
   31.5000    84.0332  -999.2500  -999.2500
   32.0000    84.9547  -999.2500  -999.2500
   32.5000    85.2719  -999.2500  -999.2500
   33.0000    84.6822  -999.2500  -999.2500
   33.5000    83.1901  -999.2500  -999.2500
   34.0000    78.9716  -999.2500  -999.2500
   34.5000    79.2922  -999.2500  -999.2500
   35.0000    78.7028  -999.2500  -999.2500
   35.5000    77.5054  -999.2500  -999.2500
   36.0000    77.5239  -999.2500  -999.2500
   36.5000    78.7472  -999.2500  -999.2500
   37.0000    79.9704  -999.2500  -999.2500
   37.5000    80.8915  -999.2500  -999.2500
   38.0000    81.2085  -999.2500  -999.2500
   38.5000    82.4572  -999.2500  -999.2500
   39.0000    83.0514  -999.2500  -999.2500
   39.5000    81.2566  -999.2500  -999.2500
   40.0000    80.9655  -999.2500  -999.2500
   40.5000    81.2824  -999.2500  -999.2500
   41.0000    80.6930  -999.2500  -999.2500
   41.5000    78.8988  -999.2500  -999.2500
   42.0000    79.2157  -999.2500  -999.2500
   42.5000    80.7411  -999.2500  -999.2500
   43.0000    82.5686  -999.2500  -999.2500
   43.5000    83.1876  -999.2500  -999.2500
   44.0000    82.5982  -999.2500  -999.2500
   44.5000    82.6385  -999.2500  -999.2500
   45.0000    83.2830  -999.2500  -999.2500
   45.5000    83.8547  -999.2500  -999.2500
   46.0000    83.8695  -999.2500  -999.2500
   46.5000    83.8843  -999.2500  -999.2500
   47.0000    84.8055  -999.2500  -999.2500
   47.5000    86.9351  -999.2500  -999.2500
   48.0000    92.3879    17.3323   431.2978
   48.5000   101.7683     5.3003   502.5195
   49.0000   107.2212     3.3094    38.0939
   49.5000   107.8402     3.0251     6.2353
   50.0000   108.1571     7.0969     4.0857
   50.5000   105.7562    12.9466     4.5596
   51.0000   101.5415    34.2369     6.6570
   51.5000   100.9517    49.7966    10.5048
   52.0000   103.3838    33.7886    18.5577
   52.5000   104.3051    20.6630    23.9948
   53.0000   104.6224    15.7736    24.6801
   53.5000   104.6918    15.5607    21.7887
   54.0000   107.9786    15.0348    19.3720
   54.5000   114.3378    15.1435    14.7900
   55.0000   116.7696    15.3590    12.5814
   55.5000   117.6871    15.5776    12.0177
   56.0000   115.2887    15.3674    11.9377
   56.5000   112.8866    13.1870    11.8592
   57.0000   111.9951    11.7676    11.6200
   57.5000   110.4994    10.8766    10.3311
   58.0000   103.8677    10.3644     8.8109
   58.5000    94.5169     8.2478     8.1093
   59.0000    92.4089     7.8051     7.8363
   59.5000    99.5257     7.5938     7.4158
   60.0000   108.2980     7.1365     7.1655
   60.5000   129.6253     6.8954     6.5010
   61.0000   132.6613     6.8972     6.2851
   61.5000   133.8846     6.8991     6.3756
   62.0000   132.6909     6.9973     6.4669
   62.5000   127.8719     6.9992     6.5141
   63.0000   126.0704     7.0537     6.6996
   63.5000   126.0889     7.1008     6.8428
   64.0000   126.1038     7.0054     6.8927
   64.5000   124.0038     6.9584     6.8468
   65.0000   121.6017     6.9608     6.8023
   65.5000   119.8036     6.9627     6.7577
   66.0000   120.4270     7.0130     6.6208
   66.5000   122.8812     7.0149     6.5318
   67.0000   124.7311     7.0168     6.5341
   67.5000   125.3050     7.0187     6.5368
   68.0000   126.5283     7.0695     6.5390
   68.5000   129.5642     7.2199     6.5412
   69.0000   131.3918     7.3736     6.5890
   69.5000   133.2193     7.4332     6.7298
   70.0000   132.0257     7.5331     6.8736
   70.5000   126.9045     7.4826     6.8760
   71.0000   125.1067     7.4852     6.9262
   71.5000   124.1601     7.5917     6.9285
   72.0000   128.1575     7.7533     6.9309
   72.5000   130.8914     7.8637     6.9373
   73.0000   131.2085     7.9205     7.0897
   73.5000   130.5509     7.9777     7.2334
   74.0000   124.5952     7.9799     7.3369
   74.5000   124.6100     7.9821     7.4419
   75.0000   124.6248     8.0398     7.5484
   75.5000   122.8270     8.0420     7.6564
   76.0000   116.7995     8.0442     7.7124
   76.5000   114.0916     7.9908     7.7687
   77.0000   116.8292     7.9935     7.7175
   77.5000   119.8652     7.9956     7.7202
   78.0000   123.5054     7.9420     7.5638
   78.5000   122.6139     7.8893     7.4622
   79.0000   117.7949     7.7829     7.4648
   79.5000   115.6949     7.7312     7.2133
   80.0000   119.2144     7.7876     7.0666
   80.5000   128.2386     7.8439     7.0696
   81.0000   132.6591     7.8460     7.0720
   81.5000   133.2781     7.7940     7.1732
   82.0000   129.3253     7.7962     7.1757
   82.5000   125.1208     7.7987     7.1285
   83.0000   122.1853     7.8009     7.1309
   83.5000   117.6312     7.7486     7.0840
   84.0000   115.2291     7.7512     7.0864
   84.5000   119.1714     7.7533     7.0889
   85.0000   124.0201     7.7554     7.0913
   85.5000   126.7540     7.8115     7.1436
   86.0000   127.0672     7.8136     7.1461
   86.5000   124.6688     7.8701     7.1982
   87.0000   125.2879     7.8722     7.1503
   87.5000   127.1154     7.8743     7.1533
   88.0000   128.3387     7.9313     7.1558
   88.5000   128.0514     7.9335     7.1582
   89.0000   127.4461     7.9913     7.1606
   89.5000   126.8726     7.9935     7.2129
   90.0000   127.4954     8.0513     7.3162
   90.5000   127.5102     8.1094     7.3739
   91.0000   125.1082     8.1116     7.4838
   91.5000   123.0045     8.0573     7.6355
   92.0000   126.3463     8.0043     7.7447
   92.5000   128.4759     7.8963     7.7474
   93.0000   128.7929     7.8438     7.6958
   93.5000   127.5993     7.8460     7.5930
   94.0000   122.4781     7.8482     7.4385
   94.5000   124.0035     7.8504     7.2375
   95.0000   127.6438     7.7443     7.1904
   95.5000   129.7754     7.4315     7.0448
   96.0000   128.5076     7.2302     6.8544
   96.5000   125.2256     7.1322     6.8093
   97.0000   124.9841     7.0848     6.8039
   97.5000   125.3047     7.1365     6.6281
   98.0000   125.3195     7.0892     6.5840
   98.5000   125.6365     7.0911     6.5868
   99.0000   126.5577     7.0930     6.5890
   99.5000   129.5937     7.0459     6.5912
  100.0000   135.3474     7.0479     6.4575
  100.5000   131.3705     7.0985     6.4142
  101.0000   128.3645     7.1990     6.4156
  101.5000   127.5372     7.2506     6.4683
  102.0000   129.0664     7.2520     6.6450
  102.5000   129.3834     7.3040     6.6926
  103.0000   129.3983     7.3563     6.8823
  103.5000   129.7153     7.5169     7.1266
  104.0000   130.0323     7.7330     7.2779
  104.5000   128.2346     7.9443     7.3301
  105.0000   125.5304     8.0012     7.3826
  105.5000   124.6353     8.0028     7.4355
  106.0000   128.5814     7.9488     7.4888
  106.5000   131.3154     7.9508     7.4903
  107.0000   131.6324     7.9524     7.5440
  107.5000   129.2303     8.0094     7.5981
  108.0000   123.5051     8.0110     7.6525
  108.5000   119.8946     8.0126     7.6012
  109.0000   119.6074     7.9036     7.6028
  109.5000   120.2306     7.6894     7.6043
  110.0000   121.4703     7.6839     7.5533
  110.5000   118.6737     7.6926     7.5549
  111.0000   116.9480     7.7477     7.3396
  111.5000   116.6608     7.8032     6.9956
  112.0000   123.0238     7.8348     6.8604
  112.5000   126.6641     7.8064     6.8140
  113.0000   127.5854     7.8084     6.8158
  113.5000   127.9024     7.8100     6.9605
  114.0000   123.3856     7.8116     7.1083
  114.5000   120.9798     7.9222     7.1593
  115.0000   119.7900     7.9789     7.1109
  115.5000   119.8049     8.1482     7.3128
  116.0000   121.9346     8.4373     7.8396
  116.5000   123.1580     8.6762     8.0060
  117.0000   125.2877     8.7383     7.9519
  117.5000   127.4174     8.6793     8.1212
  118.0000   128.9429     8.6215     8.2936
  118.5000   129.2599     8.5046     8.2380
