~VERSION INFORMATION
 VERS.                2.0:   CWLS LOG ASCII STANDARD - VERSION 2.0
 WRAP.                 NO:   ONE LINE PER DEPTH STEP
~WELL INFORMATION
#MNEM.UNIT      DATA TYPE    INFORMATION
#----------   ------------   ------------------------------
 STRT.F           34.5000:   START DEPTH
 STOP.F          756.0000:   STOP DEPTH
 STEP.F            0.5000:   STEP LENGTH
 NULL.          -999.2500:   NO VALUE
 COMP. FENIX & SCISSON INC:   COMPANY
 WELL.    36 SX 11 #36-11:   WELL
 FLD .        TEAPOT DOME:   FIELD
 LOC .      S11 T38N R78W:   LOCATION
 CNTY.            NATRONA:   COUNTY
 STAT.            WYOMING:   STATE
 CTRY. UNITED STATES OF AMERICA:   COUNTRY
 SRVC.           BIRDWELL:   SERVICE COMPANY
 DATE.        21-FEB-1978:   LOGDATE
 API .       490251059700:   API NUMBER
~CURVE INFORMATION
#MNEM.UNIT       API CODE    CURVE DESCRIPTION
#----------   ------------   ------------------------------
 DEPT.F                  :   
 SPR .MV     05 010 01 00:   SPONTANEOUS POTENTIAL FROM RES.
 SN  .OHMM   05 040 16 00:   SHORT NORMAL 16"
 ILD .OHMM   05 120 46 00:   INDUCTION LOG DEEP
 RHOB.G/C3   45 350 01 00:   BULK DENSITY
 DPHI.DEC    45 890 12 00:   DENSITY POROSITY SANDSTONE
 GRD .GAPI   45 310 01 00:   GAMMA RAY FROM DENSITY LOG
 CALD.IN     45 280 60 00:   CALIPER
 CORR.G/C3   45 356 01 00:   DENSITY CORRECTION
~PARAMETER INFORMATION
#MNEM.UNIT          VALUE    DESCRIPTION
#----------   ------------   ------------------------------
 PD  .                 GL:   PERMANENT DATUM
 EPD .F              5175:   ELEVATION PERMANENT DATUM
 LMF .                 KB:   LOG MEASURED FROM
 DAPD.F                 4:   FEET ABOVE PERMANENT DATUM
 DMF .                 KB:   DRILLING MEASURED FROM
 EKB .F              5179:   KELLING BUSHING
 EGL .F              5175:   GROUND LEVEL
 DATE.          2-21-1978:   RUN DATE
 RUN .                  1:   RUN NUMBER
 DD  .F               765:   DEPTH DRILLER
 DL  .F               760:   DEPTH LOGGER
 BLI .F               754:   BOTTOM LOG INTERVAL
 TLI .F                40:   TOP LOG INTERVAL
 CS  .IN            8.625:   CASING SIZE
 CBD .F                39:   CASING BOTTOM DRILLER
 CBL .F                40:   CASING BOTTOM LOGGER
 BS  .IN            7.875:   BIT SIZE
 BSD .F               765:   BIT SIZE AT DEPTH
 DFT .         LIGNO/SULF:   DRILLING FLUID TYPE
 DFD .                8.6:   DRILLING FLUID DENSITY
 DFV .                 33:   DRILLING FLUID VISCOSITY
 DFPH.               10.5:   DRILLING FLUID PH
 DFL .                 84:   DRILLING FLUID LOSS
 MSS .          FLOW LINE:   MUD SAMPLE SOURCE
 RMS .OHMM            1.8:   RESISTIVITY MUD SAMPLE
 MST .F                56:   MUD SAMPLE TEMPERATURE
 RMF .OHMM            1.8:   RESISTIVITY MUD FILTRATE SAMPLE
 MFST.F                58:   MUD FILTRATE SAMPLE TEMPERATURE
 RMC .OHMM              4:   RESISTIVITY MUD CAKE
 MCST.F                62:   MUD CAKE SAMPLE TEMPERATURE
 MFSS.               MEAS:   MUD FILTRATE SAMPLE SOURCE
 RMB .OHMM           1.48:   RESISTIVITY MUD AT BHT
 BHT .F                68:   BOTTOM HOLE TEMPERATURE
 TCS .HRS               5:   TIME CURCULATED STOPPED
 MRT .F                68:   MAXIMUM RECORDED TEMPERATURE
 LUN .               2958:   LOGGING UNIT NUMBER
 LUL .               CASP:   LOGGING UNIT LOCATION
 ENGI.            POINTER:   RECORDING ENGINEER
 WITN.           MCGINLEY:   WITNESSED BY
 CLNT.            A2DTECH:   CLIENT CODE
 ORIG.       2", 5" PRINT:   ORIGIN OF DATA
 UWI .       490251059700:   UNIQUE WELL ID
 DICO. A2D Technologies, Inc.:   DIGITIZING COMPANY
~OTHER INFORMATION
~A   DEPT      SPR         SN        ILD       RHOB       DPHI         GRD      CALD       CORR   
# ...
  480.0000   -28.6901     6.9659     5.9490     2.4582     0.1254   101.8444     8.0219    -0.0039
  480.5000   -28.8029     6.9373     5.8433     2.4581     0.1279   105.8251     8.0192    -0.0024
  481.0000   -28.9115     6.6908     5.7394     2.4645     0.1303   111.2116     8.0165    -0.0009
  481.5000   -28.7304     6.4077     5.6603     2.4543     0.1335   114.3340     8.0142    -0.0046
  482.0000   -28.5460     6.1365     5.6243     2.4372     0.1385   115.1432     8.0161    -0.0087
  482.5000   -28.6063     5.9832     5.5810     2.4302     0.1442   116.1612     8.0178    -0.0130
  483.0000   -28.7186     5.9281     5.5383     2.4135     0.1387   118.3150     8.0196    -0.0045
  483.5000   -28.8327     5.9281     5.4966     2.4586     0.1288   120.1002     8.0214     0.0066
  484.0000   -28.9293     5.9857     5.4547     2.4655     0.1214   117.8166     8.0231     0.0067
  484.5000   -28.5844     6.0388     5.1991     2.4629     0.1202   117.6059     8.0249     0.0063
  485.0000   -28.1956     5.7659     4.9637     2.4636     0.1304   118.8210     8.0267     0.0059
  485.5000   -27.8065     5.4072     4.7386     2.4563     0.1477   119.3781     8.0284     0.0055
  486.0000   -27.4186     5.0833     4.5244     2.4365     0.1678   118.7713     8.0302     0.0054
  486.5000   -27.0120     4.7923     4.4496     2.4025     0.1946   116.1925     8.0319    -0.0093
  487.0000   -27.7236     4.7224     4.4757     2.3621     0.1867   110.9067     8.0338    -0.0310
  487.5000   -28.6137     4.6612     4.5147     2.3300     0.1749   106.9035     8.0315    -0.0372
  488.0000   -28.8578     4.7482     4.5541     2.4081     0.1631   106.1329     8.0276     0.0011
  488.5000   -29.0019     5.7302     4.7408     2.4624     0.1314   105.3334     8.0237     0.0179
  489.0000   -29.1032     6.1776     5.1263     2.4705     0.1200   105.0033     8.0197     0.0167
  489.5000   -29.2040     6.3061     5.5432     2.4677     0.1186   107.9958     8.0158     0.0145
  490.0000   -29.3056     6.3833     5.9281     2.4677     0.1171   111.2628     8.0119     0.0180
  490.5000   -29.3062     6.3833     5.9888     2.4749     0.1134   111.6064     8.0079     0.0244
  491.0000   -29.2071     6.3735     6.0102     2.4822     0.1097   108.2031     8.0040     0.0268
  491.5000   -29.1086     6.3588     6.0388     2.4894     0.1086   104.0478     8.0000     0.0289
  492.0000   -29.0101     6.3441     5.8562     2.4888     0.1115    99.9152     7.9962     0.0290
  492.5000   -28.9118     6.3294     5.5823     2.4805     0.1152    97.6848     7.9980     0.0290
  493.0000   -28.8134     6.0451     5.2923     2.4723     0.1211   101.3748     8.0072     0.0314
  493.5000   -28.7147     5.6425     5.0194     2.4642     0.1269   104.3730     8.0163     0.0419
  494.0000   -28.6160     5.2700     4.7605     2.4523     0.1314   108.5223     8.0254     0.0416
  494.5000   -28.5418     4.8818     4.5337     2.4309     0.1452   113.7580     8.0345     0.0343
  495.0000   -28.6660     4.9217     4.5541     2.4093     0.1586   117.8747     8.0436    -0.0044
  495.5000   -28.7937     4.9272     4.5758     2.4035     0.1505   121.0385     8.0527    -0.0066
  496.0000   -28.9173     4.8369     4.5457     2.4589     0.1357   125.0633     8.0618     0.0028
  496.5000   -28.8036     5.2943     4.5337     2.4704     0.1209   126.1622     8.0710    -0.0124
  497.0000   -28.8026     5.7057     4.9732     2.4555     0.1200   115.2140     8.0719    -0.0258
  497.5000   -29.0609     6.1016     5.2929     2.4481     0.1222   112.5363     8.0675    -0.0190
  498.0000   -29.0137     6.4609     5.6332     2.4653     0.1171   111.8584     8.0631    -0.0049
  498.5000   -28.7769     6.8124     5.9953     2.4868     0.1110   111.2867     8.0587     0.0048
  499.0000   -28.5389     7.0259     6.3807     2.4984     0.1046   111.9060     8.0542     0.0030
  499.5000   -28.3465     7.2291     6.6037     2.4925     0.1066   112.8382     8.0498     0.0014
  500.0000   -28.5236     7.4535     6.7517     2.4871     0.1084   111.7164     8.0454    -0.0001
  500.5000   -28.7059     7.7006     6.9030     2.4857     0.1095   107.2873     8.0409    -0.0017
  501.0000   -28.8870     7.8235     7.1325     2.4835     0.1105   101.6836     8.0365    -0.0033
  501.5000   -29.0678     7.8235     7.1297     2.4808     0.1114    97.4308     8.0321    -0.0049
  502.0000   -29.2486     7.8235     7.1245     2.4785     0.1112    97.4307     8.0276    -0.0031
  502.5000   -29.4294     7.8235     7.1194     2.4809     0.1097   102.0837     8.0232    -0.0009
  503.0000   -29.6107     7.8235     7.1141     2.4842     0.1082   108.1256     8.0187     0.0012
  503.5000   -29.7912     7.8235     7.1089     2.4890     0.1067   108.5827     8.0143     0.0033
  504.0000   -29.9436     7.8235     7.1038     2.4937     0.1050   108.6355     8.0168     0.0048
  504.5000   -29.9406     7.8235     7.0986     2.4976     0.1046   109.0097     8.0198     0.0030
  505.0000   -29.9441     7.8235     7.0934     2.4969     0.1046   109.6472     8.0227     0.0013
  505.5000   -29.7621     7.8235     7.0882     2.4964     0.1074   110.2799     8.0256    -0.0003
  506.0000   -29.5411     7.8235     7.0830     2.4993     0.1102   109.5154     8.0285     0.0016
  506.5000   -29.3192     7.8235     7.0778     2.5025     0.1071   106.2045     8.0314     0.0078
  507.0000   -29.0992     7.8235     7.0728     2.4971     0.1067   103.9167     8.0343     0.0141
  507.5000   -28.9220     7.8233     7.0662     2.4924     0.1070   103.2270     8.0372     0.0155
  508.0000   -28.7891     7.8241     7.1805     2.4949     0.1074   100.0292     8.0401     0.0159
  508.5000   -28.6514     7.8235     7.3155     2.4966     0.1089    95.5088     8.0430     0.0107
  509.0000   -28.5378     7.9254     7.4534     2.4931     0.1102    92.9248     8.0459     0.0056
  509.5000   -28.7094     8.3043     7.5939     2.4881     0.1125    94.4195     8.0488     0.0004
  510.0000   -28.8807     8.5004     7.6839     2.4845     0.1111    97.4149     8.0517    -0.0031
  510.5000   -29.0503     8.5021     7.6429     2.4872     0.1082   100.4017     8.0544     0.0074
  511.0000   -29.0697     8.5023     7.4204     2.4920     0.1102   103.3702     8.0545     0.0190
  511.5000   -28.8663     8.3485     6.4907     2.4827     0.1163   106.4242     8.0542     0.0290
  512.0000   -28.6564     7.9026     5.6774     2.4704     0.1265   112.4284     8.0390     0.0266
  512.5000   -28.4384     6.9489     5.0658     2.4617     0.1495   117.1305     8.0072     0.0246
  513.0000   -28.2210     5.9245     5.0637     2.4350     0.1727   106.2169     7.9752     0.0205
  513.5000   -28.2679     5.3548     5.0644     2.3919     0.2017   107.0767     7.9382     0.0020
  514.0000   -28.6661     5.3929     5.0658     2.3310     0.2210   102.6243     7.9190    -0.0820
  514.5000   -29.0624     5.3991     5.2556     2.3009     0.1082    96.8550     7.8919    -0.0415
  515.0000   -29.4645     5.5082     5.3796     2.3834     0.0904    95.7582     7.8738     0.0235
  515.5000   -29.5872     7.0508     5.6016     2.5167     0.0803    98.6718     7.8374     0.0629
  516.0000   -29.6515     8.9836     6.3653     2.5325     0.0825   102.5510     7.8000     0.0829
  516.5000   -29.7183     9.2775     7.2331     2.5315     0.0845   101.5324     7.7923     0.0969
  517.0000   -29.9212     9.5003     8.2193     2.5193     0.0894   100.8263     7.7953     0.0967
  517.5000   -30.3494     9.5885     8.9048     2.5074     0.0943   101.9893     7.8149     0.0939
  518.0000   -30.7414     9.6288     8.9875     2.5005     0.0954   103.1305     7.8344     0.0985
  518.5000   -30.6454     9.6762     8.9007     2.5107     0.0830   104.2840     7.8538     0.1064
  519.0000   -30.4926     9.7239     8.8228     2.5202     0.0798   105.3844     7.8726     0.0979
  519.5000   -30.3392     9.7718     8.8468     2.5241     0.1055   105.2776     7.8765     0.0703
  520.0000   -30.1796     9.8200     8.8832     2.4957     0.1088   104.2145     7.8799     0.0490
