~VERSION INFORMATION
 VERS.                2.0:   CWLS LOG ASCII STANDARD - VERSION 2.0
 WRAP.                 NO:   ONE LINE PER DEPTH STEP
~WELL INFORMATION
#MNEM.UNIT      DATA TYPE    INFORMATION
#----------   ------------   ------------------------------
 STRT.F            2.0000:   START DEPTH
 STOP.F          508.0000:   STOP DEPTH
 STEP.F            0.1000:   STEP LENGTH
 NULL.          -999.2500:   NO VALUE
 COMP. LAWRENCE/ALLISON INC:   COMPANY
 WELL.      48-41 SX #3-3:   WELL
 FLD .             TEAPOT:   FIELD
 LOC .       S3 T38N R78W:   LOCATION
 CNTY.            NATRONA:   COUNTY
 STAT.            WYOMING:   STATE
 CTRY. UNITED STATES OF AMERICA:   COUNTRY
 SRVC.           Gearhart:   SERVICE COMPANY
 DATE.        09-JUL-1988:   LOGDATE
 API .       490251123300:   API NUMBER
~CURVE INFORMATION
#MNEM.UNIT       API CODE    CURVE DESCRIPTION
#----------   ------------   ------------------------------
 DEPT.F                  :   
 GRR .GAPI   07 310 01 00:   GAMMA RAY
 RILD.OHMM   07 120 46 00:   INDUCTION LOG DEEP RESISTIVITY
 RILM.OHMM   07 120 44 00:   INDUCTION LOG MEDIUM RESISTIVITY
~PARAMETER INFORMATION
#MNEM.UNIT          VALUE    DESCRIPTION
#----------   ------------   ------------------------------
 PD  .                 GL:   PERMANENT DATUM
 EPD .F              5200:   ELEVATION PERMANENT DATUM
 LMF .                 KB:   LOG MEASURED FROM
 DAPD.F                 5:   FEET ABOVE PERMANENT DATUM
 DMF .                 KB:   DRILLING MEASURED FROM
 EKB .F              5205:   KELLING BUSHING
 EDF .F              5204:   DRILLING FLOOR
 EGL .F              5200:   GROUND LEVEL
 DATE.        09-JUL-1988:   RUN DATE
 RUN .                  1:   RUN NUMBER
 DD  .F               510:   DEPTH DRILLER
 DL  .F               516:   DEPTH LOGGER
 BLI .F               508:   BOTTOM LOG INTERVAL
 TLI .F               1.5:   TOP LOG INTERVAL
 CS  .IN            9.625:   CASING SIZE
 CBD .F                40:   CASING BOTTOM DRILLER
 CBL .F                45:   CASING BOTTOM LOGGER
 BS  .IN             8.75:   BIT SIZE
 BSD .F               510:   BIT SIZE AT DEPTH
 DFT .                AIR:   DRILLING FLUID TYPE
 TCS .HRS            1800:   TIME CURCULATED STOPPED
 TLAB.HRS            1843:   TIME LOGGER AT BOTTOM
 MRT .F                70:   MAXIMUM RECORDED TEMPERATURE
 LUN .               7597:   LOGGING UNIT NUMBER
 LUL .           GILLETTE:   LOGGING UNIT LOCATION
 ENGI.         WEATHERMON:   RECORDING ENGINEER
 WITN.              FIVAS:   WITNESSED BY
 CLNT.            A2DTECH:   CLIENT CODE
 ORIG.           5" PRINT:   ORIGIN OF DATA
 UWI .       490251123300:   UNIQUE WELL ID
 DICO. A2D Technologies, Inc.:   DIGITIZING COMPANY
~OTHER INFORMATION
~A    DEPT      GRR      RILD       RILM   
# ...
  275.0000   127.3001     8.7370     8.7727
  275.1000   127.5515     8.7370     8.8136
  275.2000   127.6042     8.7370     8.8337
  275.3000   127.1642     8.7370     8.8337
  275.4000   126.5103     8.7370     8.8337
  275.5000   126.0110     8.7370     8.8337
  275.6000   125.4975     8.7370     8.8337
  275.7000   125.2558     8.7370     8.8337
  275.8000   125.0069     8.7370     8.8337
  275.9000   124.8978     8.7868     8.8560
  276.0000   124.8989     8.7977     8.8951
  276.1000   124.9002     8.8274     8.8951
  276.2000   124.9014     8.8589     8.8951
  276.3000   125.1382     8.8681     8.8951
  276.4000   125.2054     8.9205     8.9289
  276.5000   125.2067     8.9710     8.9569
  276.6000   125.2892     8.9826     8.9706
  276.7000   125.5107     8.9826     9.0191
  276.8000   125.5120     9.0019     9.0191
  276.9000   125.5131     9.0539     9.0649
  277.0000   125.5143     9.1079     9.0818
  277.1000   125.5155     9.1590     9.0818
  277.2000   125.5167     9.1713     9.0818
  277.3000   125.5179     9.2012     9.0867
  277.4000   125.5193     9.2351     9.1449
  277.5000   125.5204     9.2436     9.1449
  277.6000   125.3519     9.2993     9.1822
  277.7000   124.9845     9.2993     9.2356
  277.8000   124.4854     9.3400     9.2893
  277.9000   123.9863     9.3639     9.3432
  278.0000   123.4150     9.3639     9.4018
  278.1000   122.9880     9.3558     9.4521
  278.2000   122.4888     9.2993     9.5070
  278.3000   121.9897     9.1982     9.5623
  278.4000   121.4906     9.0928     9.5992
  278.5000   120.9915     8.9606     9.5992
  278.6000   120.4056     8.8241     9.5992
  278.7000   120.1998     8.7229     9.5992
  278.8000   119.7955     8.6167     9.5992
  278.9000   119.4003     8.4782     9.5992
  279.0000   119.1514     8.3330     9.5992
  279.1000   118.9017     8.2151     9.5992
  279.2000   118.4023     8.1055     9.5992
  279.3000   117.9030     7.9663     9.4922
  279.4000   117.4040     7.8200     9.3412
  279.5000   116.9049     7.7367     9.1803
  279.6000   116.4059     7.6163     9.0025
  279.7000   115.8938     7.5082     8.7867
  279.8000   115.6514     7.4220     8.5331
  279.9000   115.4023     7.3267     8.2920
  280.0000   115.0125     7.1462     8.0925
  280.1000   114.6027     7.1085     7.8801
  280.2000   114.3914     7.0676     7.6375
  280.3000   114.9961     7.0270     7.3936
  280.4000   115.7065     6.9866     7.2238
  280.5000   116.4585     6.9509     7.0290
  280.6000   117.2103     6.9509     6.8326
  280.7000   118.0439     6.9146     6.5761
  280.8000   118.9846     6.9029     6.3607
  280.9000   119.5283     6.8828     6.2148
  281.0000   120.2173     6.8673     6.0735
  281.1000   121.1469     6.9029     5.9527
  281.2000   122.1486     6.9029     5.8948
  281.3000   123.1504     6.9029     5.8269
  281.4000   124.1524     6.9029     5.7749
  281.5000   125.2671     6.9029     5.7415
  281.6000   125.9345     6.9147     5.7083
  281.7000   126.5155     6.9509     5.6710
  281.8000   127.1360     6.9509     5.6426
  281.9000   127.8877     6.9867     5.6100
  282.0000   128.6233     6.9992     5.5930
  282.1000   129.1959     6.9992     5.6022
  282.2000   129.6265     7.0107     5.6376
  282.3000   130.1282     7.0479     5.7104
  282.4000   130.6297     7.0479     5.7400
  282.5000   131.1312     7.0838     5.8205
  282.6000   131.6151     7.0969     5.9052
  282.7000   131.6165     7.0969     5.9848
  282.8000   132.0328     7.1082     6.0897
  282.9000   132.3782     7.1493     6.2053
  283.0000   132.2112     7.1959     6.3388
  283.1000   131.4088     7.1959     6.4876
  283.2000   130.4122     7.2238     6.6193
  283.3000   129.8138     7.2656     6.7485
  283.4000   129.2136     7.3076     6.9009
  283.5000   128.6133     7.3526     7.0290
  283.6000   127.9196     7.4497     7.1451
  283.7000   126.9202     7.5242     7.2705
  283.8000   125.8981     7.6407     7.4219
  283.9000   124.9206     7.7949     7.5800
  284.0000   124.1145     7.9766     7.7199
  284.1000   123.3653     8.1598     7.9072
  284.2000   122.4361     8.3232     8.0411
  284.3000   121.1867     8.4472     8.2191
  284.4000   119.8722     8.5623     8.3836
  284.5000   118.6867     8.6843     8.5305
  284.6000   117.4370     8.8229     8.6893
  284.7000   116.3219     8.9275     8.8951
  284.8000   115.3226     9.1079     9.0494
  284.9000   114.3232     9.1971     9.2084
  285.0000   113.2429     9.3386     9.4692
  285.1000   112.5537     9.5015     9.9151
  285.2000   111.8045     9.6537    10.0428
  285.3000   111.1824     9.7675    10.2179
  285.4000   110.6078     9.9666    10.3589
  285.5000   109.8825    10.0147    10.4576
  285.6000   109.3286    10.1095    10.5795
  285.7000   108.8840    10.2267    10.7028
  285.8000   108.2136    10.3452    10.8129
  285.9000   107.5842    10.4636    10.8758
  286.0000   107.2217    10.5348    10.9490
  286.1000   107.2399    10.5850    11.0025
  286.2000   107.5260    10.6462    11.0664
  286.3000   108.1738    10.7078    11.1017
  286.4000   108.7614    10.7561    11.1017
  286.5000   109.3755    10.7571    11.1017
  286.6000   110.0661    10.8309    11.1017
  286.7000   110.5679    10.8309    11.1017
  286.8000   111.1531    10.8693    11.0588
  286.9000   111.5709    10.9062    11.0251
  287.0000   112.0724    10.9062    11.0073
  287.1000   112.5739    10.9066    10.9437
  287.2000   113.0754    10.9821    10.8735
  287.3000   113.5796    11.0331    10.8177
  287.4000   114.4787    11.0584    10.7552
  287.5000   115.0830    11.0841    10.7239
  287.6000   115.6850    11.1481    10.7051
  287.7000   116.1866    11.2128    10.6433
  287.8000   116.6884    11.2775    10.5764
  287.9000   117.1994    11.3427    10.5207
  288.0000   117.4460    11.4476    10.5034
  288.1000   117.3096    11.5803    10.5034
  288.2000   117.0606    11.7017    10.5034
  288.3000   116.9025    11.7701    10.5034
  288.4000   116.8642    11.9050    10.5034
  288.5000   116.6034    11.9886    10.5034
  288.6000   116.3664    12.0988    10.5034
  288.7000   116.3041    12.2120    10.5034
  288.8000   116.3053    12.2955    10.5034
  288.9000   116.3065    12.4411    10.5034
  289.0000   116.3077    12.5115    10.5034
  289.1000   116.3090    12.5839    10.5620
  289.2000   116.3101    12.6988    10.6708
  289.3000   116.1319    12.8184    10.7953
  289.4000   116.0108    12.9181    10.9451
  289.5000   116.0121    13.1504    11.1572
  289.6000   116.0133    13.2240    11.4671
  289.7000   116.0146    13.4191    11.7770
  289.8000   115.7921    13.6533    12.0869
  289.9000   115.7153    13.8621    12.3967
  290.0000   115.3545    14.0358    12.7066
  290.1000   114.5355    14.2908    13.0165
  290.2000   113.5540    14.5303    13.3264
  290.3000   112.7036    14.7191    13.6382
  290.4000   111.4066    14.9379    13.9600
  290.5000   109.7421    15.1985    14.5440
  290.6000   108.4455    15.4498    14.8957
  290.7000   107.5725    15.6381    15.3339
  290.8000   106.3117    15.8975    15.7445
  290.9000   104.5661    16.1751    16.1584
  291.0000   103.5215    16.4573    16.7242
  291.1000   102.2720    16.7108    17.2931
  291.2000   100.8099    16.9044    17.5498
  291.3000    98.8950    17.1124    17.9256
  291.4000    96.3820    17.2990    18.2968
  291.5000    92.2054    17.4998    18.6174
  291.6000    90.1875    17.7581    18.9506
  291.7000    87.8368    18.0676    19.4536
  291.8000    85.5859    18.3824    19.8505
  291.9000    83.1935    18.7257    20.3164
  292.0000    80.1448    19.1325    20.7928
  292.1000    76.6998    19.6629    21.2444
  292.2000    74.3670    20.1140    21.6164
  292.3000    72.5096    20.5037    22.0361
  292.4000    70.8508    20.9813    22.3814
  292.5000    69.3510    21.5096    22.6817
  292.6000    67.7841    21.9723    23.0136
  292.7000    66.5908    22.2986    23.4170
  292.8000    65.5287    22.6251    23.8271
  292.9000    64.5289    22.9775    24.2795
  293.0000    63.6136    23.2437    24.6702
  293.1000    62.9304    23.5375    25.1032
