~VERSION INFORMATION
 VERS.                2.0:   CWLS LOG ASCII STANDARD - VERSION 2.0
 WRAP.                 NO:   ONE LINE PER DEPTH STEP
~WELL INFORMATION
#MNEM.UNIT      DATA TYPE    INFORMATION
#----------   ------------   ------------------------------
 STRT.F            0.0000:   START DEPTH
 STOP.F          530.0000:   STOP DEPTH
 STEP.F            0.5000:   STEP LENGTH
 NULL.          -999.2500:   NO VALUE
 COMP.   LAWRENCE-ALLISON:   COMPANY
 WELL. NPR 3 #51-56SX10 OB3:   WELL
 FLD .             TEAPOT:   FIELD
 LOC .      S10 T38N R78W:   LOCATION
 CNTY.            NATRONA:   COUNTY
 STAT.            WYOMING:   STATE
 CTRY. UNITED STATES OF AMERICA:   COUNTRY
 SRVC.           Gearhart:   SERVICE COMPANY
 DATE.        28-JUN-1987:   LOGDATE
 API .       490251100800:   API NUMBER
~CURVE INFORMATION
#MNEM.UNIT       API CODE    CURVE DESCRIPTION
#----------   ------------   ------------------------------
 DEPT.F                  :   
 CALD.IN     45 280 60 00:   CALIPER ROM DENSITY LOG
 CNC .DEC    45 890 03 00:   NEUTRON POROSITY SANDSTONE
 CORR.G/C3   45 356 01 00:   DENSITY CORRECTION
 DEN .G/C3   45 350 01 00:   COMPENSATED BULK DENSTIY
 PORD.DEC    45 890 12 00:   POROSITY DENSITY SANDSTONE
 GRR .GAPI   07 310 01 00:   GAMMA RAY
 ILD .OHMM   07 120 46 00:   INDUCTION LOG DEEP
 ILM .OHMM   07 120 44 00:   INDUCTION LOG MEDIUM
 LL  .OHMM   07 220 00 00:   LATEROLOG RESISTIVITY
 SPR .MV     07 010 01 00:   SPONTANEOUS POTENTIAL
 DT  .US/F   60 520 00 00:   INTERVAL TRANSIT TIME
~PARAMETER INFORMATION
#MNEM.UNIT          VALUE    DESCRIPTION
#----------   ------------   ------------------------------
 PD  .                 GL:   PERMANENT DATUM
 EPD .F              5198:   ELEVATION PERMANENT DATUM
 LMF .                 KB:   LOG MEASURED FROM
 DAPD.F                 8:   FEET ABOVE PERMANENT DATUM
 DMF .                 KB:   DRILLING MEASURED FROM
 EKB .F              5206:   KELLING BUSHING
 EDF .F              5204:   DRILLING FLOOR
 EGL .F              5198:   GROUND LEVEL
 DATE.        28-JUN-1987:   RUN DATE
 RUN .                  1:   RUN NUMBER
 DD  .F               535:   DEPTH DRILLER
 DL  .F               536:   DEPTH LOGGER
 BLI .F               533:   BOTTOM LOG INTERVAL
 BS  .IN             7.87:   BIT SIZE
 BSD .F               535:   BIT SIZE AT DEPTH
 DFT .                MUD:   DRILLING FLUID TYPE
 RMS .OHMM           0.84:   RESISTIVITY MUD SAMPLE
 MST .F                57:   MUD SAMPLE TEMPERATURE
 RMF .OHMM           0.63:   RESISTIVITY MUD FILTRATE SAMPLE
 MFST.F                57:   MUD FILTRATE SAMPLE TEMPERATURE
 RMC .OHMM           1.05:   RESISTIVITY MUD CAKE
 MCST.F                57:   MUD CAKE SAMPLE TEMPERATURE
 MFSS.               CALC:   MUD FILTRATE SAMPLE SOURCE
 MCSS.               CALC:   MUD CAKE SAMPLE SOURCE
 RMB .OHMM           0.59:   RESISTIVITY MUD AT BHT
 BHT .F                80:   BOTTOM HOLE TEMPERATURE
 TCS .HRS            1200:   TIME CURCULATED STOPPED
 TLAB.HRS            1322:   TIME LOGGER AT BOTTOM
 LUN .               7650:   LOGGING UNIT NUMBER
 LUL .           GILLETTE:   LOGGING UNIT LOCATION
 ENGI. JOHNSTON/HUCKFELDT:   RECORDING ENGINEER
 WITN.             STRONG:   WITNESSED BY
 CLNT.            A2DTECH:   CLIENT CODE
 ORIG.      2.5" 5" PRINT:   ORIGIN OF DATA
 UWI .       490251100800:   UNIQUE WELL ID
 DICO. A2D Technologies, Inc.:   DIGITIZING COMPANY
~OTHER INFORMATION
~A    DEPT    CALD        CNC       CORR        DEN       PORD         GRR         ILD        ILM       LL        SPR         DT   
# ...
  152.5000     6.5194     0.2702     0.0091     2.4848     0.1185    95.3003     8.2755     8.1089     7.4163   -49.5495   104.4432
  153.0000     6.5201     0.2771     0.0017     2.4833     0.1191    89.1952     8.2755     8.1095     7.4174   -49.5495   105.0995
  153.5000     6.5208     0.2961     0.0274     2.4850     0.1139    86.8072     8.2755     8.1101     7.4184   -49.8498   106.0407
  154.0000     6.5216     0.3154     0.0516     2.4883     0.1118    86.8108     8.1622     8.1106     7.4476   -49.8498   107.0307
  154.5000     6.5223     0.3229     0.0472     2.4917     0.1150    86.8138     8.1622     8.0545     7.5235   -49.8498   108.3987
  155.0000     6.5230     0.3231     0.0397     2.4797     0.1207    86.5566     8.1622     8.0007     7.5245   -49.8498   109.7666
  155.5000     6.5238     0.3200     0.0353     2.4685     0.1241    89.2228     8.1622     7.8916     7.5256   -49.8498   110.9834
  156.0000     6.5245     0.3255     0.0338     2.4632     0.1306    94.0305     8.2755     7.8923     7.5266   -50.1502   112.0490
  156.5000     6.5254     0.3402     0.0370     2.4497     0.1375    97.0364     8.2755     7.7847     7.5276   -50.4505   113.2658
  157.0000     6.5261     0.3483     0.0491     2.4430     0.1429    99.4417     8.2755     7.6786     7.4256   -50.7508   114.2558
  157.5000     6.5269     0.3633     0.0567     2.4302     0.1516    98.8438     8.2755     7.6792     7.3249   -51.0511   116.2284
  158.0000     6.5276     0.4106     0.0461     2.3979     0.1786    98.8470     8.2755     7.6797     7.3261   -51.3514   120.3930
  158.5000     6.5283     0.4443     0.0266     2.3617     0.1900    97.6487     8.2755     7.6802     7.1278   -51.7237   124.1988
  159.0000     6.5366     0.4512     0.0193     2.3196     0.2183    94.0480     8.2755     7.6807     7.0311   -51.9520   129.6170
  159.5000     6.5446     0.4451     0.0210     2.2526     0.2453    94.0511     8.2755     7.5760     6.8408   -51.9520   131.9817
  160.0000     6.5454     0.4288     0.0527     2.2300     0.2655    94.7347     8.2755     7.5627     6.8417   -51.8318   132.4427
  160.5000     6.5461     0.3812     0.0468     2.2300     0.2667    95.9730     8.2755     7.4733     6.9376   -51.5155   131.0895
  161.0000     6.5468     0.3658     0.0167     2.2487     0.2486    97.0631     8.2476     7.4739     7.0349   -51.3514   126.4106
  161.5000     6.5475     0.3558     0.0138     2.2972     0.2293    96.7017     8.1283     7.5059     7.1335   -51.3514   123.8481
  162.0000     6.5334     0.3404     0.0395     2.3403     0.1988    94.4504     8.0505     7.5787     7.1497   -51.3514   120.6809
  162.5000     6.5342     0.3286     0.0607     2.4020     0.1660    94.0691     7.9402     7.5359     7.2555   -51.3514   117.2113
  163.0000     6.5349     0.3084     0.0397     2.4202     0.1479    94.0721     7.8315     7.4759     7.3359   -51.3514   113.8174
  163.5000     6.5357     0.2892     0.0051     2.4534     0.1376    93.1562     7.6682     7.3741     7.2050   -51.0511   110.8014
  164.0000     6.5366     0.2701    -0.0009     2.4527     0.1351    90.2663     7.6185     7.2152     6.9342   -50.7508   109.1459
  164.5000     6.5223     0.2764     0.0113     2.4497     0.1351    89.2763     7.1110     6.7896     6.5482   -50.7508   109.3109
  165.0000     6.5081     0.2887     0.0325     2.4520     0.1351    89.8803     6.7294     6.5149     6.3524   -50.7508   109.8791
  165.5000     6.5090     0.3010     0.0476     2.4641     0.1296    95.8892     6.2811     6.3381     6.1305   -50.7508   110.6061
  166.0000     6.5097     0.3085     0.0705     2.4762     0.1202    98.2946     6.1103     6.1661     5.8888   -50.7508   110.8402
  166.5000     6.5104     0.3048     0.0780     2.4868     0.1157    98.8981     6.0266     5.9988     5.8896   -50.7508   110.6965
  167.0000     6.5111     0.2939     0.0590     2.4823     0.1183    98.9010     6.0266     5.9171     5.8903   -50.7508   109.7213
  167.5000     6.5119     0.2782     0.0299     2.4741     0.1220    97.7027     6.0266     5.9175     5.9729   -50.7508   108.8216
  168.0000     6.5127     0.2842     0.0014     2.4598     0.1289    97.0810     6.1103     6.0001     6.0567   -50.7508   108.9046
  168.5000     6.5134     0.3093    -0.0121     2.4583     0.1324    96.4494     6.1103     6.0838     6.2268   -50.7508   109.4411
  169.0000     6.5141     0.3339    -0.0090     2.4568     0.1348    95.2172     6.2083     6.0972     6.4018   -50.7508   110.9603
  169.5000     6.5149     0.3353     0.0032     2.4457     0.1441    94.1108     6.3869     6.1871     6.4027   -50.7508   113.6887
  170.0000     6.5156     0.3455     0.0244     2.4216     0.1603    94.1141     6.5796     6.4539     6.5856   -50.4505   115.8125
  170.5000     6.5173     0.3473     0.0184     2.4005     0.1648    94.1171     7.4113     6.5787     6.7675   -50.1502   116.1224
  171.0000     6.5468     0.3428     0.0245     2.4081     0.1617    93.5190     7.4113     6.8315     6.7685   -50.1502   115.7899
  171.5000     6.5477     0.3403     0.0322     2.4194     0.1515    91.7207     7.4113     6.8904     6.8823   -50.1502   114.7784
  172.0000     6.5484     0.3484     0.0217     2.4323     0.1442    91.7237     7.4113     6.8909     6.9596   -50.1502   113.7276
  172.5000     6.5492     0.3478     0.0067     2.4421     0.1417    91.7267     7.4113     6.8914     6.9606   -50.1502   112.6768
  173.0000     6.5499     0.3393     0.0173     2.4505     0.1324    96.5351     7.4113     6.8919     6.9616   -50.1502   111.9284
  173.5000     6.5358     0.3227     0.0581     2.4603     0.1296    96.7397     7.4113     6.8924     6.9625   -50.1502   110.9532
  174.0000     6.5365     0.3179     0.0793     2.4604     0.1305    94.7387     7.5142     6.8929     6.8681   -50.1502   109.9024
  174.5000     6.5224     0.3055     0.0660     2.4634     0.1283    95.3427     7.5142     6.8933     6.8691   -50.1502   109.0783
  175.0000     6.5231     0.2975     0.0373     2.4725     0.1181    96.5468     7.5142     6.8938     6.8151   -50.1502   108.0275
  175.5000     6.5238     0.2864     0.0299     2.4884     0.1135    96.5497     7.4113     6.8942     6.7769   -50.1502   106.8256
  176.0000     6.5394     0.2924     0.0209     2.4884     0.1129    95.3514     7.2097     6.8947     6.7780   -50.1502   104.8677
  176.5000     6.5550     0.2948     0.0195     2.4892     0.1125    95.3544     7.1106     6.8952     6.7789   -50.1502   104.5728
  177.0000     6.5706     0.2985     0.0196     2.4924     0.1107    95.3574     6.9119     6.7847     6.5954   -50.1502   104.5805
  177.5000     6.5565     0.3040     0.0272     2.4969     0.1104    95.3604     6.6266     6.5054     6.4168   -50.1502   104.7406
  178.0000     6.5275     0.3118     0.0424     2.4939     0.1138    95.3634     6.3383     6.1472     6.3298   -49.8498   105.5039
  178.5000     6.5133     0.3076    -0.0163     2.4668     0.1249    95.3664     6.0910     5.9078     6.0742   -49.8498   105.5113
  179.0000     6.4992     0.3009    -0.0132     2.4623     0.1304    95.9696     5.8397     5.7656     5.9060   -49.8498   105.7454
  179.5000     6.5150     0.2918    -0.0056     2.4609     0.1301    94.9600     5.7032     5.5829     5.5586   -49.8498   106.2819
  180.0000     6.5157     0.2888     0.0352     2.4654     0.1270    93.6937     5.6251     5.5025     4.7810   -49.5495   107.1964
  180.5000     6.5165     0.2930     0.0534     2.4775     0.1225    89.3724     5.6251     5.4920     4.6127   -49.5495   107.5817
  181.0000     6.5172     0.2978     0.0113     2.4836     0.1188    87.8498     5.6251     5.5336     4.6134   -49.8498   108.0426
  181.5000     6.5328     0.3001     0.0189     2.4912     0.1122    85.7748     5.6696     5.5340     4.7627   -49.5495   108.3524
  182.0000     6.5335     0.2995     0.0506     2.4972     0.1106    88.1807     5.7824     5.5344     5.1391   -49.5495   108.5865
  182.5000     6.5192     0.3025     0.0537     2.4913     0.1112    91.7872     5.9441     5.6116     5.8412   -49.5495   108.8271
