~VERSION INFORMATION
 VERS.                2.0:   CWLS LOG ASCII STANDARD - VERSION 2.0
 WRAP.                 NO:   ONE LINE PER DEPTH STEP
~WELL INFORMATION
#MNEM.UNIT      DATA TYPE    INFORMATION
#----------   ------------   ------------------------------
 STRT.F          610.5000:   START DEPTH
 STOP.F         2311.0000:   STOP DEPTH
 STEP.F            0.5000:   STEP LENGTH
 NULL.          -999.2500:   NO VALUE
 COMP. BROWN JOHN E&C INC:   COMPANY
 WELL.  48-1SHX-34 #48-34:   WELL
 FLD .             TEAPOT:   FIELD
 LOC .      S34 T39N R78W:   LOCATION
 CNTY.            NATRONA:   COUNTY
 STAT.            WYOMING:   STATE
 CTRY. UNITED STATES OF AMERICA:   COUNTRY
 SRVC.            Unknown:   SERVICE COMPANY
 DATE.        16-SEP-1991:   LOGDATE
 API .       490251109000:   API NUMBER
~CURVE INFORMATION
#MNEM.UNIT       API CODE    CURVE DESCRIPTION
#----------   ------------   ------------------------------
 DEPT.F                  :   
 ROP .MIN/FT 91 810 01 00:   RAT OF DRILLING PENETRATION
 TGAS.UNITS  91 830 01 00:   TOTAL GAS FROM HOTWIRE
~PARAMETER INFORMATION
#MNEM.UNIT          VALUE    DESCRIPTION
#----------   ------------   ------------------------------
 EKB .F              5163:   KELLING BUSHING
 EGL .F              5152:   GROUND LEVEL
 DATE.            9-16-91:   RUN DATE
 DD  .F              2311:   DEPTH DRILLER
 TCS .HRS            0200:   TIME CURCULATED STOPPED
 TLAB.HRS            0115:   TIME LOGGER AT BOTTOM
 ENGI.             HENDRY:   RECORDING ENGINEER
 WITN.               HUSK:   WITNESSED BY
 CLNT.            A2DTECH:   CLIENT CODE
 ORIG.           5" PRINT:   ORIGIN OF DATA
 UWI .       490251109000:   UNIQUE WELL ID
 DICO. A2D Technologies, Inc.:   DIGITIZING COMPANY
~OTHER INFORMATION
~A   DEPT        ROP       TGAS 
# ...
 1704.0000     0.9914    40.0840
 1704.5000     1.0088    40.0840
 1705.0000     1.0118    40.0840
 1705.5000     1.0123    40.0840
 1706.0000     1.0128    40.0840
 1706.5000     1.0134    40.0838
 1707.0000     1.0139    40.0842
 1707.5000     1.0145    40.1039
 1708.0000     1.0150    40.1923
 1708.5000     1.0155    40.2777
 1709.0000     1.0161    40.3630
 1709.5000     1.0166    40.4483
 1710.0000     1.0171    40.5335
 1710.5000     1.0177    40.6188
 1711.0000     1.0182    40.7041
 1711.5000     1.0188    40.7894
 1712.0000     1.0193    40.8743
 1712.5000     1.0198    40.9598
 1713.0000     1.0204    41.0496
 1713.5000     1.0209    41.3750
 1714.0000     1.0214    41.9989
 1714.5000     1.0220    42.8049
 1715.0000     1.0225    43.8777
 1715.5000     1.0231    44.9541
 1716.0000     1.0236    45.6690
 1716.5000     1.0743    46.5007
 1717.0000     1.1744    47.3375
 1717.5000     1.2417    48.1765
 1718.0000     1.2000    49.0151
 1718.5000     1.1289    49.8541
 1719.0000     1.0443    50.6903
 1719.5000     0.9618    51.5117
 1720.0000     0.8793    52.3014
 1720.5000     0.7967    55.1066
 1721.0000     0.7843    57.9900
 1721.5000     0.7833    60.3130
 1722.0000     0.7825    60.2320
 1722.5000     0.7816    59.4291
 1723.0000     0.7807    58.6049
 1723.5000     0.7798    57.7848
 1724.0000     0.7789    56.9656
 1724.5000     0.7780    56.1465
 1725.0000     0.7770    55.3276
 1725.5000     0.7761    54.5106
 1726.0000     0.7752    53.6790
 1726.5000     0.7743    52.8067
 1727.0000     0.7734    52.5372
 1727.5000     0.7735    52.1665
 1728.0000     0.7798    51.7974
 1728.5000     0.7937    51.4240
 1729.0000     0.8505    51.0492
 1729.5000     0.9072    50.6848
 1730.0000     0.9641    50.6942
 1730.5000     1.0212    50.7375
 1731.0000     1.0237    50.7796
 1731.5000     1.0227    50.8212
 1732.0000     1.0220    50.8628
 1732.5000     1.0213    50.9044
 1733.0000     1.0207    50.9460
 1733.5000     1.0200    50.9875
 1734.0000     1.0194    51.0291
 1734.5000     1.0187    51.0707
 1735.0000     1.0181    51.1123
 1735.5000     1.0174    51.1539
 1736.0000     1.0168    51.1955
 1736.5000     1.0161    51.2371
 1737.0000     1.0155    51.2786
 1737.5000     1.0148    51.3202
 1738.0000     1.0142    51.3618
 1738.5000     1.0135    51.4034
 1739.0000     1.0129    51.4450
 1739.5000     1.0123    51.4866
 1740.0000     1.0112    51.5282
 1740.5000     0.9726    51.5698
 1741.0000     0.8504    51.6150
 1741.5000     0.7285    51.6578
 1742.0000     0.6071    51.5419
 1742.5000     0.5064    50.6813
 1743.0000     0.5155    49.4357
 1743.5000     0.5340    47.7792
 1744.0000     0.5460    45.4999
 1744.5000     0.4864    41.8998
 1745.0000     0.4234    38.3159
 1745.5000     0.3612    34.7290
 1746.0000     0.3032    31.1507
 1746.5000     0.2696    27.5829
 1747.0000     0.2702    25.0747
 1747.5000     0.2701    23.9094
 1748.0000     0.2701    22.7519
 1748.5000     0.2701    21.8705
 1749.0000     0.2701    21.5721
 1749.5000     0.2701    21.2926
 1750.0000     0.2701    21.0170
 1750.5000     0.2701    20.7400
 1751.0000     0.2701    20.4630
 1751.5000     0.2701    20.1859
 1752.0000     0.2701    19.9082
 1752.5000     0.2701    19.6322
 1753.0000     0.2701    19.4219
 1753.5000     0.2701    19.5139
 1754.0000     0.2701    19.6003
 1754.5000     0.2701    19.6859
 1755.0000     0.2701    19.7714
 1755.5000     0.2701    19.8570
 1756.0000     0.2701    19.9425
 1756.5000     0.2701    20.0281
 1757.0000     0.2701    20.1136
 1757.5000     0.2701    20.1992
 1758.0000     0.2701    20.2847
 1758.5000     0.2701    20.3695
 1759.0000     0.2701    20.4223
 1759.5000     0.2701    20.4661
 1760.0000     0.2701    20.5118
 1760.5000     0.2701    20.5571
 1761.0000     0.2701    20.6024
 1761.5000     0.2701    20.6477
 1762.0000     0.2701    20.6930
 1762.5000     0.2701    20.7383
 1763.0000     0.2701    20.7835
 1763.5000     0.2701    20.8288
 1764.0000     0.2701    20.8741
 1764.5000     0.2701    20.9194
 1765.0000     0.2701    20.9647
 1765.5000     0.2701    21.0100
 1766.0000     0.2701    21.0553
 1766.5000     0.2701    21.1006
 1767.0000     0.2701    21.1459
 1767.5000     0.2701    21.1912
 1768.0000     0.2701    21.2364
 1768.5000     0.2700    21.2817
 1769.0000     0.2705    21.3270
 1769.5000     0.2795    21.3723
 1770.0000     0.3069    21.4176
 1770.5000     0.3495    21.4629
 1771.0000     0.3935    21.5082
 1771.5000     0.4377    21.5535
 1772.0000     0.4820    21.5988
 1772.5000     0.5267    21.6440
 1773.0000     0.5340    21.6893
 1773.5000     0.5340    21.7346
 1774.0000     0.5339    21.7799
 1774.5000     0.5339    21.8252
 1775.0000     0.5339    21.8714
 1775.5000     0.5339    21.9165
 1776.0000     0.5339    21.9228
 1776.5000     0.5339    21.3657
 1777.0000     0.5339    20.0749
 1777.5000     0.5339    18.7953
 1778.0000     0.5339    17.5105
 1778.5000     0.5339    16.1947
 1779.0000     0.5339    15.1797
 1779.5000     0.5339    14.2148
 1780.0000     0.5339    13.2541
 1780.5000     0.5339    12.2915
 1781.0000     0.5339    11.3310
 1781.5000     0.5339    10.3691
 1782.0000     0.5339     9.6731
 1782.5000     0.5339     8.9373
 1783.0000     0.5339     8.2158
 1783.5000     0.5339     7.4974
 1784.0000     0.5339     6.7872
 1784.5000     0.5339     6.2942
 1785.0000     0.5339     6.2872
 1785.5000     0.5339     6.2373
 1786.0000     0.5339     6.1896
 1786.5000     0.5339     6.1416
 1787.0000     0.5339     6.0937
 1787.5000     0.5339     6.0457
 1788.0000     0.5339     5.9977
 1788.5000     0.5339     5.9498
 1789.0000     0.5339     5.9018
 1789.5000     0.5340     5.8538
 1790.0000     0.5346     5.8059
 1790.5000     0.5352     5.7579
 1791.0000     0.5358     5.7099
 1791.5000     0.5364     5.6619
 1792.0000     0.5370     5.6140
 1792.5000     0.5376     5.5660
 1793.0000     0.5382     5.5180
 1793.5000     0.5387     5.4701
 1794.0000     0.5393     5.4221
 1794.5000     0.5399     5.3741
 1795.0000     0.5405     5.3267
 1795.5000     0.5411     5.2936
 1796.0000     0.5417     5.2942
 1796.5000     0.5423     5.2941
 1797.0000     0.5429     5.2941
 1797.5000     0.5435     5.2941
 1798.0000     0.5441     5.2941
 1798.5000     0.5447     5.2941
 1799.0000     0.5452     5.2941
 1799.5000     0.5455     5.2940
 1800.0000     0.5468     5.2950
 1800.5000     0.6062     5.2504
 1801.0000     0.6729     5.1899
 1801.5000     0.7387     5.1285
 1802.0000     0.7994     5.0671
 1802.5000     0.7981     5.0057
 1803.0000     0.7984     4.9444
 1803.5000     0.7987     4.8830
 1804.0000     0.7990     4.8216
 1804.5000     0.7994     4.7603
 1805.0000     0.7997     4.6989
 1805.5000     0.8000     4.6375
 1806.0000     0.8003     4.5762
 1806.5000     0.8007     4.5148
 1807.0000     0.8010     4.4534
 1807.5000     0.8013     4.3919
 1808.0000     0.8017     4.3307
 1808.5000     0.8020     4.2857
 1809.0000     0.8023     4.3076
 1809.5000     0.8027     4.3286
 1810.0000     0.8030     4.3495
 1810.5000     0.8033     4.3703
 1811.0000     0.8036     4.3911
 1811.5000     0.8040     4.4118
 1812.0000     0.8043     4.4326
 1812.5000     0.8046     4.4534
 1813.0000     0.8050     4.4742
 1813.5000     0.8053     4.4950
 1814.0000     0.8056     4.5158
 1814.5000     0.8059     4.5366
 1815.0000     0.8063     4.5574
 1815.5000     0.8066     4.5782
 1816.0000     0.8069     4.5990
 1816.5000     0.8073     4.6198
 1817.0000     0.8076     4.6406
 1817.5000     0.8079     4.6614
 1818.0000     0.8083     4.6822
 1818.5000     0.8086     4.7030
 1819.0000     0.8089     4.7237
 1819.5000     0.8092     4.7445
 1820.0000     0.8096     4.7653
 1820.5000     0.8099     4.7860
 1821.0000     0.8102     4.8081
 1821.5000     0.8103     4.8304
 1822.0000     0.8103     4.8527
 1822.5000     0.8103     4.8749
 1823.0000     0.8103     4.8972
 1823.5000     0.8103     4.9194
 1824.0000     0.8103     4.9417
 1824.5000     0.8103     4.9640
 1825.0000     0.8103     4.9862
