~VERSION INFORMATION
 VERS.                2.0:   CWLS LOG ASCII STANDARD - VERSION 2.0
 WRAP.                 NO:   ONE LINE PER DEPTH STEP
~WELL INFORMATION
#MNEM.UNIT      DATA TYPE    INFORMATION
#----------   ------------   ------------------------------
 STRT.F           50.0000:   START DEPTH
 STOP.F         1020.0000:   STOP DEPTH
 STEP.F            0.5000:   STEP LENGTH
 NULL.          -999.2500:   NO VALUE
 COMP. LAWRENCE/ALLISON INC:   COMPANY
 WELL.      28 STX #14-14:   WELL
 FLD .             TEAPOT:   FIELD
 LOC .      S14 T38N R78W:   LOCATION
 CNTY.            NATRONA:   COUNTY
 STAT.            WYOMING:   STATE
 CTRY. UNITED STATES OF AMERICA:   COUNTRY
 SRVC.            Unknown:   SERVICE COMPANY
 DATE.        22-OCT-1984:   LOGDATE
 API .       490251099000:   API NUMBER
~CURVE INFORMATION
#MNEM.UNIT       API CODE    CURVE DESCRIPTION
#----------   ------------   ------------------------------
 DEPT.F                  :   
 SPR .MV     07 010 01 00:   SPONTANEOUS POTENTIAL
 RILD.OHMM   07 120 46 00:   INDUCTION LOG DEEP RESISTIVITY
 RILM.OHMM   07 120 44 00:   INDUCTION LOG MEDIUM RESISTIVITY
 RFOC.OHMM   07 220 04 00:   RESISTIVITY FOCUSED LOG
 GRD .GAPI   45 310 01 00:   GAMMA RAY FROM DENSITY LOG
 CALD.IN     45 280 60 00:   CALIPER
 DEN .G/C3   45 350 01 00:   COMPENSATED BULK DENSTIY
 CORR.G/C3   45 356 01 00:   DENSITY CORRECTION
 PORD.DEC    45 890 12 00:   POROSITY DENSITY SANDSTONE
 CNC .DEC    42 890 03 00:   NEUTRON POROSITY SANDSTONE
 AC  .US/F   60 520 00 00:   ACOUSTIC SONIC
~PARAMETER INFORMATION
#MNEM.UNIT          VALUE    DESCRIPTION
#----------   ------------   ------------------------------
 PD  .                 GL:   PERMANENT DATUM
 EPD .F              5257:   ELEVATION PERMANENT DATUM
 LMF .                 KB:   LOG MEASURED FROM
 DAPD.F                12:   FEET ABOVE PERMANENT DATUM
 DMF .                 KB:   DRILLING MEASURED FROM
 EKB .F              5269:   KELLING BUSHING
 EGL .F              5257:   GROUND LEVEL
 DATE.           10-22-84:   RUN DATE
 RUN .                  1:   RUN NUMBER
 DD  .F              1020:   DEPTH DRILLER
 DL  .F              1019:   DEPTH LOGGER
 BLI .F              1017:   BOTTOM LOG INTERVAL
 TLI .F                52:   TOP LOG INTERVAL
 CS  .IN               16:   CASING SIZE
 CBD .F                40:   CASING BOTTOM DRILLER
 CBL .F                52:   CASING BOTTOM LOGGER
 BS  .IN            12.25:   BIT SIZE
 BSD .F              1020:   BIT SIZE AT DEPTH
 DFT .          GEL/WATER:   DRILLING FLUID TYPE
 DFD .                9.1:   DRILLING FLUID DENSITY
 DFV .                 35:   DRILLING FLUID VISCOSITY
 MSS .           FLOWLINE:   MUD SAMPLE SOURCE
 RMS .OHMM           2.04:   RESISTIVITY MUD SAMPLE
 MST .F                76:   MUD SAMPLE TEMPERATURE
 RMF .OHMM           1.53:   RESISTIVITY MUD FILTRATE SAMPLE
 MFST.F                76:   MUD FILTRATE SAMPLE TEMPERATURE
 RMC .OHMM           2.55:   RESISTIVITY MUD CAKE
 MCST.F                76:   MUD CAKE SAMPLE TEMPERATURE
 MFSS.               CALC:   MUD FILTRATE SAMPLE SOURCE
 MCSS.               CALC:   MUD CAKE SAMPLE SOURCE
 TCS .HRS               3:   TIME CURCULATED STOPPED
 MRT .F               100:   MAXIMUM RECORDED TEMPERATURE
 LUN .            HL 6307:   LOGGING UNIT NUMBER
 LUL .           GILLETTE:   LOGGING UNIT LOCATION
 ENGI.          CROSSBERG:   RECORDING ENGINEER
 WITN.            JOHNSON:   WITNESSED BY
 CLNT.            A2DTECH:   CLIENT CODE
 ORIG.       2", 5" PRINT:   ORIGIN OF DATA
 UWI .       490251099000:   UNIQUE WELL ID
 DICO. A2D Technologies, Inc.:   DIGITIZING COMPANY
~OTHER INFORMATION
~A   DEPT      SPR       RILD       RILM       RFOC        GRD        CALD       DEN       CORR       PORD          CNC       AC   
# ...
  690.5000   -51.4274     2.1649     1.9278     2.6596    83.5137    13.1544     2.0696     0.2457     0.3404     0.3642   111.3059
  691.0000   -51.8850     2.1526     1.9432     2.6109    78.5719    13.1570     2.0815     0.1995     0.3581     0.3612   114.1226
  691.5000   -52.3442     2.1806     1.9917     2.8060    76.3745    13.1309     2.1316     0.1529     0.3313     0.3700   119.7562
  692.0000   -52.7988     2.2515     2.1362     3.0617    78.7911    12.7521     2.2098     0.1066     0.2965     0.3787   125.2745
  692.5000   -53.0729     2.3928     2.2912     3.2927    86.4836    12.7575     2.2917     0.1225     0.2343     0.3779   129.5709
  693.0000   -52.7241     2.6595     2.4815     3.3305    94.0203    12.7786     2.3049     0.1631     0.2245     0.3476   128.7812
  693.5000   -52.3919     2.9556     2.8053     3.4002    98.5862    12.8029     2.3165     0.1777     0.2130     0.3198   126.9539
  694.0000   -52.0533     3.2851     3.1713     3.8438    99.3512    12.8410     2.3631     0.1584     0.1831     0.3040   122.4199
  694.5000   -52.1358     3.6508     3.5850     4.8781    97.3789    12.8981     2.4164     0.1742     0.1553     0.3018   117.8858
  695.0000   -52.3230     4.0566     3.9212     4.8365    95.9144    12.9551     2.4167     0.1968     0.1557     0.3023   113.3518
  695.5000   -52.5144     4.5301     4.2100     4.7455    96.3477    13.0115     2.3931     0.1964     0.1722     0.2932   109.1273
  696.0000   -52.7049     4.6531     4.4090     4.9681    99.4043    13.0564     2.3831     0.1772     0.1793     0.2991   105.7707
  696.5000   -52.8949     4.7862     4.2938     5.2989   103.4904    12.9407     2.3958     0.1567     0.1676     0.3008   103.4591
  697.0000   -52.9491     4.9221     4.0834     5.2989   107.6159    12.7766     2.4200     0.1361     0.1528     0.3024   104.0444
  697.5000   -52.7132     5.0146     3.8846     4.9228   108.7495    12.6086     2.4443     0.1207     0.1380     0.3039   104.6208
  698.0000   -52.4754     4.9248     3.6962     4.5504   106.1883    12.5556     2.4571     0.1097     0.1316     0.3059   104.0798
  698.5000   -52.2371     4.7589     3.4758     4.2061   103.7278    12.5511     2.4382     0.0987     0.1490     0.2982   103.5808
  699.0000   -51.9994     4.5986     3.4361     3.9486   101.2682    12.5475     2.4209     0.0880     0.1565     0.3034   104.3846
  699.5000   -51.8318     4.4437     3.4400     3.9124    98.8107    12.5439     2.4148     0.0801     0.1517     0.3076   106.1990
  700.0000   -52.1987     4.3287     3.4718     4.0138    96.3829    12.5404     2.4267     0.0830     0.1469     0.3119   108.4132
  700.5000   -52.5756     4.3287     3.5516     4.1289    94.2711    12.5520     2.4262     0.0884     0.1614     0.3162   111.7066
  701.0000   -52.9691     4.3687     3.7068     4.2553    93.1022    12.6036     2.3905     0.1135     0.1768     0.3205   111.5070
  701.5000   -53.3910     4.6097     3.8687     4.4049    92.3090    12.6728     2.3627     0.1458     0.1893     0.3194   110.0998
  702.0000   -53.8385     4.8917     4.0571     4.5597    93.4621    12.7519     2.3603     0.1673     0.1923     0.3178   108.5420
  702.5000   -54.2885     5.1910     4.3008     4.7199    97.5307    12.8303     2.3732     0.1408     0.1834     0.3204   107.1314
  703.0000   -54.7380     5.5086     4.5592     4.8858   101.5934    12.7552     2.3789     0.1043     0.1793     0.3210   106.5644
  703.5000   -55.1880     5.8456     4.8330     5.0575   101.4460    12.4958     2.3830     0.0632     0.1758     0.3089   105.9974
  704.0000   -55.6536     6.2032     5.1233     5.2785   100.7204    12.3165     2.3915     0.0147     0.1659     0.2970   105.4192
  704.5000   -55.6504     6.5827     5.4311     5.5272   100.0115    12.3199     2.4250    -0.0256     0.1494     0.2855   104.0619
  705.0000   -55.4971     6.8879     5.6539     5.6621    99.2093    12.3193     2.4558    -0.0191     0.1362     0.2832   102.6825
  705.5000   -55.3375     7.1757     5.6776     5.7862    97.8902    12.3194     2.4557    -0.0134     0.1343     0.2756   101.3032
  706.0000   -55.1856     7.4756     5.7032     5.9112    96.5053    12.3194     2.4518    -0.0079     0.1366     0.2697    99.9238
  706.5000   -54.7740     7.7879     5.7032     5.9720    96.9280    12.3194     2.4483    -0.0038     0.1362     0.2871    99.0781
  707.0000   -54.2376     7.9402     5.7050     5.8909    97.8358    12.3194     2.4510    -0.0063     0.1356     0.3028    98.9521
  707.5000   -53.6964     8.0135     5.5884     5.7985    98.3884    12.3194     2.4521    -0.0087     0.1359     0.3186    98.8323
  708.0000   -53.1549     7.7923     5.5058     5.6792    96.7694    12.3194     2.4521    -0.0039     0.1362     0.3344    99.0674
  708.5000   -52.6131     7.5211     5.4241     5.5623    95.4684    12.3194     2.4542     0.0049     0.1340     0.3458    99.3085
  709.0000   -52.0742     7.2429     5.3433     5.4478    95.9295    12.3194     2.4574     0.0137     0.1319     0.3458    99.5965
  709.5000   -51.5425     7.1238     5.2637     5.3357    96.3539    12.3194     2.4607     0.0226     0.1301     0.3371   100.5824
  710.0000   -51.2749     6.9987     5.1852     5.2259    96.3516    12.3194     2.4632     0.0314     0.1296     0.3220   101.6624
  710.5000   -51.5494     6.8209     5.1079     5.1510    95.5718    12.3194     2.4611     0.0343     0.1304     0.3119   102.6718
  711.0000   -51.8164     6.5456     5.0318     5.1247    95.7203    12.3194     2.4587     0.0303     0.1317     0.3183   103.1038
  711.5000   -52.1429     6.2814     4.9568     5.0986    96.0880    12.3194     2.4562     0.0127     0.1335     0.3224   103.3693
  712.0000   -52.6589     6.0278     4.8250     5.0725    95.6907    12.3194     2.4539    -0.0044     0.1356     0.3196   103.3224
  712.5000   -53.1572     5.7255     4.5364     5.0467    94.7718    12.3194     2.4489    -0.0122     0.1384     0.3104   103.1850
  713.0000   -53.6585     5.3928     4.1789     5.0221    95.8757    12.3194     2.4426    -0.0082     0.1422     0.3106   103.3353
  713.5000   -54.1582     5.0795     3.8495     4.7812    97.3961    12.3234     2.4363    -0.0109     0.1462     0.3208   104.0409
  714.0000   -54.1791     4.7843     3.5461     4.4664    98.5051    12.3452     2.4255    -0.0132     0.1546     0.3656   104.8211
  714.5000   -54.1758     4.5063     3.1961     4.0723    97.7535    12.3668     2.3912    -0.0002     0.1732     0.3813   105.9454
  715.0000   -54.1750     4.2444     3.2049     3.7161    97.0529    12.3773     2.3484     0.0199     0.1988     0.3762   107.0697
  715.5000   -54.1752     4.1343     3.2657     3.4400    97.2054    12.3255     2.3035     0.0717     0.2387     0.3520   109.7861
  716.0000   -54.1752     4.2582     3.5245     3.5789    98.5992    12.2725     2.2651     0.1048     0.2475     0.2989   113.5798
  716.5000   -54.1741     4.5416     3.8036     4.0738    98.9262    12.2192     2.3155     0.0692     0.2184     0.2883   116.5378
  717.0000   -54.0859     4.8945     4.1053     4.6371    97.7738    12.2007     2.3849     0.0212     0.1833     0.2777   115.9980
  717.5000   -53.8341     5.2749     4.4310     5.3972    96.6217    12.2003     2.4227    -0.0127     0.1508     0.2781   111.6193
  718.0000   -53.5849     5.6848     4.7829     5.3910    96.1891    12.2004     2.4456    -0.0176     0.1396     0.2860   107.4073
  718.5000   -53.3380     6.1265     5.1608     5.3802    97.9110    12.2004     2.4410    -0.0207     0.1420     0.2940   103.1088
  719.0000   -53.0885     6.6026     5.2754     5.3695    99.8994    12.2004     2.4340    -0.0242     0.1460     0.3008   101.8224
  719.5000   -53.2405     6.9658     5.3079     5.3587   101.8768    12.2004     2.4318    -0.0202     0.1475     0.3039   101.6267
  720.0000   -53.6707     7.0953     5.3406     5.3478   102.1564    12.2004     2.4335    -0.0094     0.1463     0.3070   102.0384
  720.5000   -54.1011     7.1846     5.4093     5.4951   100.3331    12.2004     2.4366     0.0054     0.1450     0.3101   102.5004
