~VERSION INFORMATION
 VERS.                2.0:   CWLS LOG ASCII STANDARD - VERSION 2.0
 WRAP.                 NO:   ONE LINE PER DEPTH STEP
~WELL INFORMATION
#MNEM.UNIT      DATA TYPE    INFORMATION
#----------   ------------   ------------------------------
 STRT.F           11.0000:   START DEPTH
 STOP.F          685.0000:   STOP DEPTH
 STEP.F            0.5000:   STEP LENGTH
 NULL.          -999.2500:   NO VALUE
 COMP. BROWN JOHN E&C INC:   COMPANY
 WELL. 78-1 STX-34 #78-34:   WELL
 FLD .             TEAPOT:   FIELD
 LOC .      S34 T39N R78W:   LOCATION
 CNTY.            NATRONA:   COUNTY
 STAT.            WYOMING:   STATE
 CTRY. UNITED STATES OF AMERICA:   COUNTRY
 SRVC.     Atlas Wireline:   SERVICE COMPANY
 DATE.        28-JAN-1992:   LOGDATE
 API .       490252250300:   API NUMBER
~CURVE INFORMATION
#MNEM.UNIT       API CODE    CURVE DESCRIPTION
#----------   ------------   ------------------------------
 DEPT.F                  :   
 GRR .GAPI   07 310 01 00:   GAMMA RAY
 RILD.OHMM   07 120 46 00:   INDUCTION LOG DEEP RESISTIVITY
 RILM.OHMM   07 120 44 00:   INDUCTION LOG MEDIUM RESISTIVITY
~PARAMETER INFORMATION
#MNEM.UNIT          VALUE    DESCRIPTION
#----------   ------------   ------------------------------
 PD  .                 GL:   PERMANENT DATUM
 EPD .F              5077:   ELEVATION PERMANENT DATUM
 LMF .                 KB:   LOG MEASURED FROM
 DAPD.F                10:   FEET ABOVE PERMANENT DATUM
 DMF .                 KB:   DRILLING MEASURED FROM
 EKB .F              5087:   KELLING BUSHING
 EDF .F              5086:   DRILLING FLOOR
 EGL .F              5077:   GROUND LEVEL
 DATE.        28-JAN-1992:   RUN DATE
 RUN .                  1:   RUN NUMBER
 DD  .F               693:   DEPTH DRILLER
 DL  .F               693:   DEPTH LOGGER
 BLI .F               691:   BOTTOM LOG INTERVAL
 CS  .IN            9.625:   CASING SIZE
 CBD .F                50:   CASING BOTTOM DRILLER
 CBL .F                60:   CASING BOTTOM LOGGER
 BS  .IN             8.75:   BIT SIZE
 BSD .F               693:   BIT SIZE AT DEPTH
 DFT .                AIR:   DRILLING FLUID TYPE
 MRT .F                90:   MAXIMUM RECORDED TEMPERATURE
 LUN .           HL- 6274:   LOGGING UNIT NUMBER
 LUL .             CASPER:   LOGGING UNIT LOCATION
 ENGI.             RAUTIO:   RECORDING ENGINEER
 WITN.        GARY STRONG:   WITNESSED BY
 CLNT.            A2DTECH:   CLIENT CODE
 ORIG.           5" PRINT:   ORIGIN OF DATA
 UWI .       490252250300:   UNIQUE WELL ID
 DICO. A2D Technologies, Inc.:   DIGITIZING COMPANY
~OTHER INFORMATION
~A   DEPT       GRR      RILD       RILM   
   11.0000    45.0805  -999.2500  -999.2500
   11.5000    46.5947  -999.2500  -999.2500
   12.0000    49.9189  -999.2500  -999.2500
   12.5000    55.0530  -999.2500  -999.2500
   13.0000    56.2656  -999.2500  -999.2500
   13.5000    56.8748  -999.2500  -999.2500
   14.0000    62.3426  -999.2500  -999.2500
   14.5000    63.8251  -999.2500  -999.2500
   15.0000    62.9273  -999.2500  -999.2500
   15.5000    60.2183  -999.2500  -999.2500
   16.0000    55.6993  -999.2500  -999.2500
   16.5000    53.8953  -999.2500  -999.2500
   17.0000    52.9947  -999.2500  -999.2500
   17.5000    53.9071  -999.2500  -999.2500
   18.0000    55.1197  -999.2500  -999.2500
   18.5000    55.7289  -999.2500  -999.2500
   19.0000    56.3382  -999.2500  -999.2500
   19.5000    56.6458  -999.2500  -999.2500
   20.0000    56.3500  -999.2500  -999.2500
   20.5000    55.1473  -999.2500  -999.2500
   21.0000    54.2503  -999.2500  -999.2500
   21.5000    54.2564  -999.2500  -999.2500
   22.0000    55.4702  -999.2500  -999.2500
   22.5000    56.3796  -999.2500  -999.2500
   23.0000    54.2754  -999.2500  -999.2500
   23.5000    53.3749  -999.2500  -999.2500
   24.0000    54.8906  -999.2500  -999.2500
   24.5000    55.4998  -999.2500  -999.2500
   25.0000    54.6008  -999.2500  -999.2500
   25.5000    54.3036  -999.2500  -999.2500
   26.0000    57.0259  -999.2500  -999.2500
   26.5000    60.0484  -999.2500  -999.2500
   27.0000    60.0544  -999.2500  -999.2500
   27.5000    59.7586  -999.2500  -999.2500
   28.0000    60.4002  -999.2500  -999.2500
   28.5000    60.9774  -999.2500  -999.2500
   29.0000    60.6814  -999.2500  -999.2500
   29.5000    60.0855  -999.2500  -999.2500
   30.0000    59.7897  -999.2500  -999.2500
   30.5000    59.4925  -999.2500  -999.2500
   31.0000    61.3099  -999.2500  -999.2500
   31.5000    60.7110  -999.2500  -999.2500
   32.0000    60.1151  -999.2500  -999.2500
   32.5000    59.5177  -999.2500  -999.2500
   33.0000    59.5236  -999.2500  -999.2500
   33.5000    60.1329  -999.2500  -999.2500
   34.0000    56.8205  -999.2500  -999.2500
   34.5000    54.0570  -999.2500  -999.2500
   35.0000    51.9657  -999.2500  -999.2500
   35.5000    50.5049  -999.2500  -999.2500
   36.0000    50.8125  -999.2500  -999.2500
   36.5000    51.7234  -999.2500  -999.2500
   37.0000    52.0310  -999.2500  -999.2500
   37.5000    53.2436  -999.2500  -999.2500
   38.0000    56.8694  -999.2500  -999.2500
   38.5000    59.8919  -999.2500  -999.2500
   39.0000    62.3111  -999.2500  -999.2500
   39.5000    64.1270  -999.2500  -999.2500
   40.0000    68.3562  -999.2500  -999.2500
   40.5000    71.3787  -999.2500  -999.2500
   41.0000    72.9008  -999.2500  -999.2500
   41.5000    75.0366  -999.2500  -999.2500
   42.0000    77.5262  -999.2500  -999.2500
   42.5000    79.5486  -999.2500  -999.2500
   43.0000    79.2529  -999.2500  -999.2500
   43.5000    76.5439  -999.2500  -999.2500
   44.0000    73.2316  -999.2500  -999.2500
   44.5000    72.6327  -999.2500  -999.2500
   45.0000    75.3550  -999.2500  -999.2500
   45.5000    78.3776  -999.2500  -999.2500
   46.0000    79.8918  -999.2500  -999.2500
   46.5000    79.8977  -999.2500  -999.2500
   47.0000    80.5069  -999.2500  -999.2500
   47.5000    82.0212  -999.2500  -999.2500
   48.0000    84.7662  -999.2500  -999.2500
   48.5000    87.8330  -999.2500  -999.2500
   49.0000    90.7885  -999.2500  -999.2500
   49.5000    89.8895  -999.2500  -999.2500
   50.0000    83.8610  -999.2500  -999.2500
   50.5000    82.9538  -999.2500  -999.2500
   51.0000    84.1567  -999.2500  -999.2500
   51.5000    85.3604  -999.2500  -999.2500
   52.0000    85.6591  -999.2500  -999.2500
   52.5000    84.6757  -999.2500  -999.2500
   53.0000    82.0835  -999.2500  -999.2500
   53.5000    77.5047  -999.2500  -999.2500
   54.0000    78.4067  -999.2500  -999.2500
   54.5000    79.6112  -999.2500  -999.2500
   55.0000    79.3058  -999.2500  -999.2500
   55.5000    78.0962  -999.2500  -999.2500
   56.0000    78.6966  -999.2500  -999.2500
   56.5000    79.9010  -999.2500  -999.2500
   57.0000    79.8973  -999.2500  -999.2500
   57.5000    81.7043  -999.2500  -999.2500
   58.0000    89.2428  -999.2500  -999.2500
   58.5000   106.3590  -999.2500  -999.2500
   59.0000   115.8331  -999.2500  -999.2500
   59.5000   116.0816  -999.2500  -999.2500
   60.0000   111.8547     1.9861     3.2685
   60.5000   108.5335     2.0755     3.1566
   61.0000   107.0223     2.3935     2.8040
   61.5000   109.7342     2.9461     2.5258
   62.0000   117.2728     3.0916     2.2436
   62.5000   127.8279     2.5959     2.0351
   63.0000   139.8913     2.0335     1.9248
   63.5000   141.3966     1.8181     1.8719
   64.0000   140.1870     1.8045     2.0927
   64.5000   138.3740     1.8930     2.5258
   65.0000   137.0638     1.9723     2.9034
   65.5000   132.9376     2.1877     3.4599
   66.0000   123.2816     2.8280     3.9505
   66.5000   110.6089     4.2188     4.7329
   67.0000   103.3661     5.4961     6.0018
   67.5000   102.7599     7.4728     8.5006
   68.0000   102.1536     9.0736     9.4244
   68.5000   100.0390     9.9949     9.8954
   69.0000    97.6228    10.5597    10.2462
   69.5000    97.3182    10.7750    10.2462
   70.0000    97.6169    10.6931    10.1044
   70.5000    99.1222    10.3925     9.3589
   71.0000   100.0243     9.5537     8.2559
   71.5000    99.1156     8.3072     7.1821
   72.0000    98.5093     6.8800     5.8274
   72.5000   100.3163     6.1868     5.1406
   73.0000   111.7764     5.8819     4.7947
   73.5000   123.2365     5.6106     4.9302
   74.0000   131.6800     5.4529     5.4733
   74.5000   130.1687     5.7611     6.2045
   75.0000   126.5459     5.7983     6.9362
   75.5000   119.9064     6.1249     7.7541
   76.0000   113.2670     6.8891     8.5485
   76.5000   108.6888     7.8028     9.0385
   77.0000   104.6133     8.8376     9.4903
   77.5000   101.4927     9.2723     9.8267
   78.0000   102.9980     9.7283    10.1044
   78.5000   103.5991    10.0774    10.4626
   79.0000   102.3888    10.4268    10.8334
   79.5000   101.4808    10.8496    11.1396
   80.0000   103.2878    11.2260    11.4544
   80.5000   104.1899    11.6154    11.7781
   81.0000   104.2373    11.9350    11.9434
   81.5000   103.2790    12.2634    12.0269
   82.0000   102.6727    12.3427    12.0269
   82.5000   102.9965    12.2467    12.0269
   83.0000   103.9236    12.2384    12.0269
   83.5000   105.0764    12.2301    12.1110
   84.0000   104.1684    12.3930    12.1956
   84.5000   102.6572    12.4781    12.3667
   85.0000   103.8609    12.6371    12.4532
   85.5000   104.7636    12.7166    12.5403
   86.0000   103.8550    12.8838    12.7162
   86.5000   100.5338    13.0554    12.8947
   87.0000   102.0391    13.2293    12.9848
   87.5000   102.6396    13.3148    13.0756
   88.0000   102.3348    13.3987    13.1670
   88.5000   102.6335    13.4830    13.3518
   89.0000   103.9879    13.5660    13.4451
   89.5000   107.4534    13.6511    13.5391
   90.0000   108.3562    13.6416    13.5391
   90.5000   105.9392    13.7275    13.6338
   91.0000   104.4280    13.8296    13.7291
   91.5000   102.9167    14.1916    13.9217
   92.0000   101.7071    14.4810    14.2157
   92.5000   102.0066    14.7789    14.5160
   93.0000   103.5112    15.1829    14.8226
   93.5000   106.8265    15.4926    15.1357
   94.0000   107.1252    15.7016    15.4553
   94.5000   104.9100    16.0218    15.7818
   95.0000   100.6837    16.3457    16.0032
   95.5000    99.2724    16.5634    16.3450
   96.0000   102.8894    16.5522    16.5705
   96.5000   104.6964    16.5409    16.6863
   97.0000   105.2968    16.7612    16.8030
   97.5000   104.9922    16.7469    16.8030
   98.0000   104.3859    16.7355    16.8030
   98.5000   102.5730    16.7241    16.8030
   99.0000    98.6484    16.5969    16.8030
   99.5000    96.5339    16.4706    16.8030
  100.0000    95.6259    16.3453    16.5696
  100.5000    95.9517    15.8913    16.4489
  101.0000    96.5792    15.5578    15.8803
  101.5000    98.6425    15.4447    15.5466
