~VERSION INFORMATION
 VERS.                2.0:   CWLS LOG ASCII STANDARD - VERSION 2.0
 WRAP.                 NO:   ONE LINE PER DEPTH STEP
~WELL INFORMATION
#MNEM.UNIT      DATA TYPE    INFORMATION
#----------   ------------   ------------------------------
 STRT.F           80.0000:   START DEPTH
 STOP.F          718.0000:   STOP DEPTH
 STEP.F            0.5000:   STEP LENGTH
 NULL.          -999.2500:   NO VALUE
 COMP. U S NAVY-INTEX OIL:   COMPANY
 WELL. RES 3 TEAPOT DOM #11SX-2:   WELL
 FLD .             TEAPOT:   FIELD
 LOC .       S2 T38N R78W:   LOCATION
 CNTY.            NATRONA:   COUNTY
 STAT.            WYOMING:   STATE
 CTRY. UNITED STATES OF AMERICA:   COUNTRY
 SRVC.       Schlumberger:   SERVICE COMPANY
 DATE.        05-AUG-1961:   LOGDATE
 API .       490250647900:   API NUMBER
~CURVE INFORMATION
#MNEM.UNIT       API CODE    CURVE DESCRIPTION
#----------   ------------   ------------------------------
 DEPT.F                  :   
 ILD .OHMM   05 120 46 00:   INDUCTION LOG DEEP
 ASN .OHMM   05 041 16 00:   AMPLIFIED SHORT NORMAL 16"
 SPR .MV     05 010 01 00:   SPONTANEOUS POTENTIAL FROM RES.
 CILD.MMHO   05 110 46 00:   CONDUCTIVITY INDUCTION LOG DEEP
 GR  .GAPI   30 310 01 00:   GAMMA RAY
~PARAMETER INFORMATION
#MNEM.UNIT          VALUE    DESCRIPTION
#----------   ------------   ------------------------------
 LMF .                 KB:   LOG MEASURED FROM
 DMF .                 KB:   DRILLING MEASURED FROM
 EKB .F              5105:   KELLING BUSHING
 EGL .F              5100:   GROUND LEVEL
 DATE.           8-5-1961:   RUN DATE
 RUN .                  1:   RUN NUMBER
 DD  .F               715:   DEPTH DRILLER
 DL  .F               719:   DEPTH LOGGER
 BLI .F               718:   BOTTOM LOG INTERVAL
 TLI .F               120:   TOP LOG INTERVAL
 BS  .IN             6.75:   BIT SIZE
 BSD .F               715:   BIT SIZE AT DEPTH
 DFT .       OIL EMULSION:   DRILLING FLUID TYPE
 DFV .                 40:   DRILLING FLUID VISCOSITY
 RMS .OHMM           1.11:   RESISTIVITY MUD SAMPLE
 MST .F                68:   MUD SAMPLE TEMPERATURE
 TCS .HRS               2:   TIME CURCULATED STOPPED
 LUN .               2544:   LOGGING UNIT NUMBER
 LUL .                 NC:   LOGGING UNIT LOCATION
 ENGI.            EARNEST:   RECORDING ENGINEER
 WITN.          JORGENSEN:   WITNESSED BY
 CLNT.            A2DTECH:   CLIENT CODE
 ORIG.      2" & 5" PRINT:   ORIGIN OF DATA
 UWI .       490250647900:   UNIQUE WELL ID
 DICO. A2D Technologies, Inc.:   DIGITIZING COMPANY
~OTHER INFORMATION
~A   DEPT        ILD        ASN      SPR        CILD        GR   
# ...
  202.0000     7.5755     4.6903   -53.8791   142.7648  -999.2500
  202.5000     7.7829     4.1843   -53.6229   137.0238  -999.2500
  203.0000     7.9906     5.3817   -53.3659   134.1521  -999.2500
  203.5000     8.1982     7.1627   -53.1088   132.1785  -999.2500
  204.0000     8.4058     7.1466   -52.8536   130.1789  -999.2500
  204.5000     8.6134     6.2001   -52.6614   126.7412  -999.2500
  205.0000     8.8210     5.3252   -52.6653   119.4334  -999.2500
  205.5000     9.0282     6.7164   -52.6488   115.8611  -999.2500
  206.0000     9.2344     7.7796   -53.2122   113.3698  -999.2500
  206.5000     9.4478     8.6404   -53.9055   111.5267  -999.2500
  207.0000     9.7483     8.9817   -54.6074   109.8658  -999.2500
  207.5000    10.3105     9.0566   -55.3218   108.2049  -999.2500
  208.0000    12.3510     9.0652   -55.2625    93.4036  -999.2500
  208.5000    14.6795     9.0715   -55.0279    75.0676  -999.2500
  209.0000    16.5288     9.0902   -54.7865    63.7401  -999.2500
  209.5000    17.0296     9.1481   -54.5461    69.2209  -999.2500
  210.0000    17.5508     9.2090   -54.3064    66.5010  -999.2500
  210.5000    18.0787     9.0736   -54.0668    51.1928  -999.2500
  211.0000    18.6102     8.8998   -53.8283    52.7932  -999.2500
  211.5000    19.1867     8.7236   -53.6486    54.7863  -999.2500
  212.0000    20.4866     8.5445   -53.6180    54.4168  -999.2500
  212.5000    21.8970     8.3900   -53.5848    48.7699  -999.2500
  213.0000    23.3242     7.6879   -53.5511    43.1229  -999.2500
  213.5000    24.7650     6.6727   -53.5173    39.2644  -999.2500
  214.0000    24.6914     6.0280   -53.4869    39.2644  -999.2500
  214.5000    24.3267     7.0788   -53.5381    39.2644  -999.2500
  215.0000    23.9462     6.1847   -53.8145    39.2644  -999.2500
  215.5000    23.5329     5.0296   -54.0806    39.2644  -999.2500
  216.0000    24.5531     4.2480   -54.3468    39.2644  -999.2500
  216.5000    25.8157     4.2242   -54.6134    39.4848  -999.2500
  217.0000    25.5207     4.1964   -54.8766    40.1491  -999.2500
  217.5000    24.0255     4.1684   -55.0110    44.1435  -999.2500
  218.0000    19.9553     4.1785   -54.8415    51.9483  -999.2500
  218.5000    16.0364     4.2863   -54.6820    65.8996  -999.2500
  219.0000    12.9498     4.4027   -54.5226    79.8509  -999.2500
  219.5000    11.4050     4.4308   -54.3628    93.8022  -999.2500
  220.0000    10.5515     4.2468   -54.2031   101.1045  -999.2500
  220.5000    11.1036     4.3017   -54.0434    96.0112  -999.2500
  221.0000    11.6169     4.3902   -53.8836    90.9178  -999.2500
  221.5000    12.1355     4.2739   -53.7239    85.8245  -999.2500
  222.0000    12.3329     4.1236   -53.5647    80.7312  -999.2500
  222.5000    11.8984     4.0243   -53.4606    84.6741  -999.2500
  223.0000    11.4749     4.0262   -53.4634    90.0838  -999.2500
  223.5000    11.0547     4.0817   -53.5515    95.5024  -999.2500
  224.0000    10.8565     4.1819   -53.8036    98.9265  -999.2500
  224.5000    11.3728     4.2812   -54.0527    95.3416  -999.2500
  225.0000    12.4437     4.3447   -54.3014    85.6972  -999.2500
  225.5000    13.5072     4.3229   -54.4633    76.0437  -999.2500
  226.0000    14.1683     4.2995   -54.6049    72.0964  -999.2500
  226.5000    12.6121     4.3080   -54.6582    92.0376  -999.2500
  227.0000    10.8492     4.3718   -54.6570   107.9970  -999.2500
  227.5000     9.0877     4.4402   -54.5731   123.9563  -999.2500
  228.0000     7.8976     4.7017   -54.3494   137.5746  -999.2500
  228.5000     7.6699     4.3881   -54.1278   145.4589  -999.2500
  229.0000     7.4315     3.9740   -53.9061   150.1093  -999.2500
  229.5000     7.4042     3.9261   -53.6842   149.6232  -999.2500
  230.0000     7.4055     3.9579   -53.4623   148.5361  -999.2500
  230.5000     7.4567     4.0419   -53.2402   147.4489  -999.2500
  231.0000     7.5135     4.0195   -53.0194   146.3618  -999.2500
  231.5000     7.5698     3.9889   -52.8004   145.2747  -999.2500
  232.0000     7.5926     3.9579   -52.7008   144.9039  -999.2500
  232.5000     7.5640     3.9285   -52.7852   145.5683  -999.2500
  233.0000     7.5355     4.0462   -52.8681   146.2326  -999.2500
  233.5000     7.5056     4.2717   -52.9523   146.1223  -999.2500
  234.0000     7.5059     4.6333   -53.0365   144.9264  -999.2500
  234.5000     7.6093     5.3261   -53.1205   143.6382  -999.2500
  235.0000     7.7235     6.4938   -53.2046   140.4857  -999.2500
  235.5000     7.8375     7.7203   -53.2887   137.0690  -999.2500
  236.0000     7.9514     8.0181   -53.3736   133.6524  -999.2500
  236.5000     8.0654     8.1651   -53.4594   131.2467  -999.2500
  237.0000     8.1801     8.3144   -53.4630   130.1736  -999.2500
  237.5000     8.2966     8.4658   -53.4618   129.1004  -999.2500
  238.0000     8.3425     8.6185   -53.3819   128.0272  -999.2500
  238.5000     8.3863     8.7722   -53.1970   126.9540  -999.2500
  239.0000     8.4301     8.8010   -53.0131   125.8809  -999.2500
  239.5000     8.4738     8.8240   -52.8288   124.7515  -999.2500
  240.0000     8.4592     8.8478   -52.6441   125.5070  -999.2500
  240.5000     8.3704     8.8723   -52.4588   126.3042  -999.2500
  241.0000     8.2822     8.8945   -52.2745   128.2472  -999.2500
  241.5000     8.1936     8.8211   -52.3299   131.5688  -999.2500
  242.0000     8.1049     8.7409   -52.4711   134.8869  -999.2500
  242.5000     8.0163     8.6610   -52.6108   138.2017  -999.2500
  243.0000     7.9276     8.5812   -52.7506   141.6501  -999.2500
  243.5000     7.8395     8.5017   -52.8904   142.6441  -999.2500
  244.0000     7.7517     8.4224   -53.0301   142.6441  -999.2500
  244.5000     7.7555     8.3800   -53.1699   140.3425  -999.2500
  245.0000     7.8641     8.3798   -53.3097   137.9698  -999.2500
  245.5000     7.9723     8.3798   -53.4490   135.5971  -999.2500
  246.0000     8.0811     8.3802   -53.5883   133.2245  -999.2500
  246.5000     8.1899     8.4498   -53.6612   130.8518  -999.2500
  247.0000     8.2986     8.6003   -53.6608   128.4791  -999.2500
  247.5000     8.4073     8.8481   -53.6605   126.1065  -999.2500
  248.0000     8.5161     9.1031   -53.5256   123.7338  -999.2500
  248.5000     8.6249     9.3593   -53.2496   121.3611  -999.2500
  249.0000     8.7331     9.6035   -52.9739   118.9884  -999.2500
  249.5000     8.8412     9.5345   -52.6972   118.6587  -999.2500
  250.0000     8.8460     9.4568   -52.4203   120.4026  -999.2500
  250.5000     8.7471     9.4927   -52.1431   122.1465  -999.2500
  251.0000     8.6481     9.5346   -51.8772   123.8904  -999.2500
  251.5000     8.5990     9.5659   -51.9866   124.5141  -999.2500
  252.0000     8.5988     9.3626   -52.2203   124.0451  -999.2500
  252.5000     8.6277     9.1509   -52.4531   123.5762  -999.2500
  253.0000     8.6845     8.9404   -52.6864   123.1072  -999.2500
  253.5000     8.7414     8.7304   -52.9179   122.6383  -999.2500
  254.0000     8.7984     8.5201   -53.1502   122.1693  -999.2500
  254.5000     8.8553     8.3738   -53.1219   121.7004  -999.2500
  255.0000     8.9122     8.2851   -52.8576   121.2314  -999.2500
  255.5000     8.9693     8.2044   -52.5928   120.7754  -999.2500
  256.0000     8.9966     8.2740   -52.3263   120.7754  -999.2500
  256.5000     8.9925     8.3473   -52.0600   120.7754  -999.2500
  257.0000     8.8847     8.5441   -51.7938   120.7754  -999.2500
  257.5000     8.7752     8.8466   -51.5276   121.8439  -999.2500
  258.0000     8.6663     9.1491   -51.2613   123.8370  -999.2500
  258.5000     8.5576     9.4539   -50.9946   125.8300  -999.2500
  259.0000     8.4478     9.5986   -50.7288   127.8231  -999.2500
  259.5000     8.4048     9.6124   -50.4815   127.6392  -999.2500
  260.0000     8.5430     9.6261   -50.6626   125.6461  -999.2500
  260.5000     8.6819     9.5791   -50.9993   123.7630  -999.2500
  261.0000     8.8200     9.4850   -51.3362   124.3340  -999.2500
  261.5000     8.9580     9.3911   -51.6744   124.8737  -999.2500
  262.0000     9.0968     9.2961   -52.0130   125.4166  -999.2500
  262.5000     9.2360     9.2809   -52.3518   125.9602  -999.2500
