~VERSION INFORMATION
 VERS.                2.0:   CWLS LOG ASCII STANDARD - VERSION 2.0
 WRAP.                 NO:   ONE LINE PER DEPTH STEP
~WELL INFORMATION
#MNEM.UNIT      DATA TYPE    INFORMATION
#----------   ------------   ------------------------------
 STRT.F           24.0000:   START DEPTH
 STOP.F          570.0000:   STOP DEPTH
 STEP.F            0.5000:   STEP LENGTH
 NULL.          -999.2500:   NO VALUE
 COMP. FENIX & SCISSON INC:   COMPANY
 WELL.   NPR-3 #32SX10-10:   WELL
 FLD .  TEAPOT COME NPR-3:   FIELD
 LOC .      S10 T38N R78W:   LOCATION
 CNTY.            NATRONA:   COUNTY
 STAT.            WYOMING:   STATE
 CTRY. UNITED STATES OF AMERICA:   COUNTRY
 SRVC.            Unknown:   SERVICE COMPANY
 DATE.        27-JUN-1978:   LOGDATE
 API .       490251065300:   API NUMBER
~CURVE INFORMATION
#MNEM.UNIT       API CODE    CURVE DESCRIPTION
#----------   ------------   ------------------------------
 DEPT.F                  :   
 CALD.IN     45 280 60 00:   CALIPER FROM DENSITY LOG
 GRD .GAPI   45 310 01 00:   GAMMA RAY FROM DENSITY LOG
 CORR.G/C3   45 356 01 00:   DENSITY CORRECTION
 DPHI.DEC    45 890 12 00:   DENSITY POROSITY SANDSTONE
 RHOB.G/C3   45 350 01 00:   BULK DENSITY
 SPR .MV     05 010 01 00:   SPONTANEOUS POTENTIAL FROM RES.
 SN  .OHMM   05 040 16 00:   SHORT NORMAL 16"
 ILD .OHMM   05 120 46 00:   INDUCTION LOG DEEP
~PARAMETER INFORMATION
#MNEM.UNIT          VALUE    DESCRIPTION
#----------   ------------   ------------------------------
 PD  .                 GL:   PERMANENT DATUM
 EPD .F              5239:   ELEVATION PERMANENT DATUM
 LMF .                 GL:   LOG MEASURED FROM
 DAPD.F                 4:   FEET ABOVE PERMANENT DATUM
 DMF .                 GL:   DRILLING MEASURED FROM
 EKB .F              5243:   KELLING BUSHING
 EGL .F              5239:   GROUND LEVEL
 DATE.        27-JUN-1978:   RUN DATE
 RUN .                  1:   RUN NUMBER
 DD  .F               565:   DEPTH DRILLER
 DL  .F               574:   DEPTH LOGGER
 BLI .F               572:   BOTTOM LOG INTERVAL
 TLI .F                30:   TOP LOG INTERVAL
 CS  .IN            8.625:   CASING SIZE
 CBD .F                40:   CASING BOTTOM DRILLER
 CBL .F                40:   CASING BOTTOM LOGGER
 BS  .IN            7.875:   BIT SIZE
 BSD .F               565:   BIT SIZE AT DEPTH
 DFT .                KCL:   DRILLING FLUID TYPE
 DFD .                8.7:   DRILLING FLUID DENSITY
 DFV .                 35:   DRILLING FLUID VISCOSITY
 DFPH.                 10:   DRILLING FLUID PH
 DFL .                 14:   DRILLING FLUID LOSS
 MSS .           FLOWLINE:   MUD SAMPLE SOURCE
 RMS .OHMM            .36:   RESISTIVITY MUD SAMPLE
 MST .F                78:   MUD SAMPLE TEMPERATURE
 RMF .OHMM             .3:   RESISTIVITY MUD FILTRATE SAMPLE
 MFST.F                86:   MUD FILTRATE SAMPLE TEMPERATURE
 RMC .OHMM            .36:   RESISTIVITY MUD CAKE
 MCST.F                87:   MUD CAKE SAMPLE TEMPERATURE
 MFSS.               MEAS:   MUD FILTRATE SAMPLE SOURCE
 MCSS.               MEAS:   MUD CAKE SAMPLE SOURCE
 RMB .OHMM            3.9:   RESISTIVITY MUD AT BHT
 BHT .F                72:   BOTTOM HOLE TEMPERATURE
 TCS .HRS            0300:   TIME CURCULATED STOPPED
 MRT .F                72:   MAXIMUM RECORDED TEMPERATURE
 LUN .               2938:   LOGGING UNIT NUMBER
 LUL .               CASP:   LOGGING UNIT LOCATION
 ENGI.            POINTER:   RECORDING ENGINEER
 WITN.         ZARGARNIAN:   WITNESSED BY
 CLNT.            A2DTECH:   CLIENT CODE
 ORIG.     2.5", 5" PRINT:   ORIGIN OF DATA
 UWI .       490251065300:   UNIQUE WELL ID
 DICO. A2D Technologies, Inc.:   DIGITIZING COMPANY
~OTHER INFORMATION
~A   DEPT     CALD         GRD      CORR       DPHI       RHOB        SPR         SN        ILD   
# ...
  145.5000     7.7383   145.8824     0.0159     0.1218     2.4819   -27.1373     7.8263     8.6305
  146.0000     7.7255   145.9059     0.0191     0.1208     2.4820   -27.1403     7.8258     8.6809
  146.5000     7.7126   145.6264     0.0207     0.1181     2.4874   -27.1433     7.8253     8.8003
  147.0000     7.6841   146.1015     0.0223     0.1162     2.4905   -27.1463     7.8246     9.0443
  147.5000     7.5634   147.0166     0.0225     0.1153     2.4922   -27.1498     7.8241     9.1111
  148.0000     7.3696   146.4458     0.0212     0.1149     2.4923   -27.1528     7.8236     9.1685
  148.5000     7.2293   144.5376     0.0213     0.1155     2.4901   -27.1558     7.8230     9.2342
  149.0000     7.1717   142.4809     0.0215     0.1172     2.4851   -27.1587     7.8225     9.2329
  149.5000     7.1291   132.6976     0.0216     0.1189     2.4830   -27.1617     7.8220     9.2317
  150.0000     7.1013   127.2175     0.0217     0.1202     2.4823   -27.1647     7.8214     9.2304
  150.5000     7.0594   127.6470     0.0194     0.1206     2.4809   -27.1676     7.8209     9.2291
  151.0000     7.0176   128.0060     0.0172     0.1209     2.4804   -27.4691     7.8204     9.1024
  151.5000     6.9858   128.0259     0.0150     0.1211     2.4806   -27.4721     7.8198     9.1012
  152.0000     6.9605   126.7142     0.0142     0.1211     2.4815   -27.4750     7.8193     9.0340
  152.5000     6.9631   126.2890     0.0157     0.1204     2.4832   -27.4780     7.7123     8.9751
  153.0000     6.9801   126.0123     0.0157     0.1177     2.4878   -27.4810     7.6068     8.8519
  153.5000     7.0268   125.7305     0.0157     0.1136     2.4939   -27.4839     7.5028     8.7303
  154.0000     7.0736   125.3104     0.0155     0.1118     2.4986   -27.4869     7.4001     8.6105
  154.5000     7.1353   125.4795     0.0173     0.1106     2.5002   -27.7884     7.3996     8.5420
  155.0000     7.2417   127.5802     0.0175     0.1106     2.5004   -27.4925     7.2984     8.4238
  155.5000     7.3480   131.6126     0.0178     0.1105     2.4998   -27.4958     7.2979     8.3072
  156.0000     7.4842   134.1591     0.0180     0.1105     2.4992   -27.4988     7.2974     8.2594
  156.5000     7.6204   134.4768     0.0168     0.1101     2.4993   -27.2032     7.1976     8.1460
  157.0000     7.6970   133.9030     0.0155     0.1092     2.5005   -27.2062     7.1971     8.1449
  157.5000     7.7288   131.1003     0.0158     0.1076     2.5071   -27.2092     7.1966     8.1438
  158.0000     7.7309   130.0525     0.0160     0.1064     2.5073   -26.9134     7.1961     8.1427
  158.5000     7.7330   133.9645     0.0161     0.1072     2.5044   -26.6181     7.1956     8.1416
  159.0000     7.7350   134.7311     0.0157     0.1090     2.5001   -26.6210     7.2944     8.2526
  159.5000     7.7371   134.8971     0.0153     0.1092     2.4980   -26.6240     7.4966     8.2515
  160.0000     7.7392   129.6781     0.0156     0.1092     2.4974   -26.6270     7.5996     8.4793
  160.5000     7.7263   133.7545     0.0159     0.1094     2.4983   -26.6299     7.8103     8.5950
  161.0000     7.7289   134.0722     0.0161     0.1100     2.4984   -26.6329     7.9175     8.7122
  161.5000     7.7155   134.5385     0.0164     0.1118     2.4978   -26.6359     7.9170     8.9528
  162.0000     7.7026   140.3539     0.0181     0.1132     2.4957   -26.6388     7.9164     9.0751
  162.5000     7.6898   140.2259     0.0184     0.1131     2.4944   -26.9403     7.9159     9.1987
  163.0000     7.6770   138.0176     0.0186     0.1128     2.4945   -26.9433     7.8076     9.1974
  163.5000     7.6348   128.6770     0.0189     0.1130     2.4954   -26.9462     7.8071     9.1962
  164.0000     7.5922   125.2800     0.0191     0.1139     2.4956   -26.9493     7.8065     9.1949
  164.5000     7.5788   124.7010     0.0194     0.1159     2.4949   -27.2508     7.8060     9.1937
  165.0000     7.5069   127.9956     0.0211     0.1174     2.4904   -27.2537     7.6992     9.1924
  165.5000     7.3897   128.7590     0.0214     0.1188     2.4878   -27.2567     7.6987     9.1912
  166.0000     7.2576   126.2536     0.0201     0.1194     2.4887   -27.2597     7.6982     9.1899
  166.5000     7.2149   119.4383     0.0204     0.1148     2.4904   -27.2627     7.6976     9.1887
  167.0000     7.2170   119.7567     0.0206     0.1141     2.4928   -27.2657     7.6971     9.1874
  167.5000     7.2191   123.1947     0.0194     0.1141     2.4944   -27.2687     7.6966     9.1862
  168.0000     7.2211   125.3016     0.0181     0.1135     2.4960   -26.9729     7.6961     9.1849
  168.5000     7.2247   125.1392     0.0169     0.1092     2.4984   -26.9284     7.6955     9.1837
  169.0000     7.2403   122.6637     0.0142     0.1074     2.5016   -26.6803     7.6950     9.1824
  169.5000     7.3172   118.8243     0.0129     0.1064     2.5047   -26.6278     7.6945     9.1811
  170.0000     7.4385   118.5425     0.0116     0.1051     2.5064   -26.3284     7.6940     9.3064
  170.5000     7.5598   118.5681     0.0104     0.1060     2.5065   -26.0922     7.6934     9.3051
  171.0000     7.6066   118.7372     0.0092     0.1056     2.5059   -25.7294     7.7021     9.5620
  171.5000     7.6384   118.4605     0.0095     0.1044     2.5061   -25.5011     7.7985     9.5607
  172.0000     7.6405   114.0234     0.0097     0.1041     2.5077   -25.2056     7.9056     9.6912
  172.5000     7.6271   112.4043     0.0100     0.1064     2.5071   -25.1294     8.0142     9.8233
  173.0000     7.6143   113.3215     0.0087     0.1180     2.5014   -24.9130     8.1242     9.9575
  173.5000     7.6014   115.1251     0.0075     0.1195     2.4861   -24.8289     8.2358    10.0933
  174.0000     7.6040   121.9806     0.0078     0.1201     2.4828   -24.6204     8.3658    10.2309
  174.5000     7.6061   123.1898     0.0080     0.1197     2.4845   -24.6239     8.4818    10.2295
  175.0000     7.5931   123.2343     0.0067     0.1160     2.4869   -24.6269     8.6981    10.5119
  175.5000     7.5953   120.5563     0.0070     0.1142     2.4908   -24.6298     8.8176    10.5105
  176.0000     7.6122   112.4044     0.0073     0.1129     2.4947   -24.6328     8.9386    10.6539
  176.5000     7.6292   110.7896     0.0075     0.1126     2.4971   -24.6358     9.0859    10.6524
  177.0000     7.6313   109.9195     0.0108     0.1144     2.4965   -24.6388     9.1858    10.7977
  177.5000     7.6334   110.9015     0.0140     0.1177     2.4884   -24.6418     9.3119    11.0958
  178.0000     7.6355   118.0025     0.0173     0.1097     2.4870   -24.6448     9.3404    11.2472
  178.5000     7.6678   125.2890     0.0190     0.1079     2.4992   -24.6477     9.4391    11.4006
  179.0000     7.6996   127.0926     0.0208     0.1081     2.5016   -24.6508     9.6012    11.3991
  179.5000     7.7166   127.7075     0.0210     0.1084     2.5017   -24.6537     9.7001    11.3975
  180.0000     7.6883   126.5393     0.0198     0.1086     2.5019   -24.6567     9.8333    11.3960
  180.5000     7.6462   123.7366     0.0200     0.1086     2.5020   -24.6597     9.8326    11.3944
  181.0000     7.5737   121.0825     0.0203     0.1079     2.5029   -24.6627     9.8319    11.3928
  181.5000     7.4864   120.2115     0.0206     0.1061     2.5047   -24.6657     9.8312    11.3913
  182.0000     7.4139   118.1518     0.0208     0.1054     2.5071   -24.6687     9.8305    11.3845
  182.5000     7.3707   114.8932     0.0211     0.1054     2.5079   -24.5125     9.8299    11.2334
  183.0000     7.4031   112.6519     0.0213     0.1053     2.5058   -24.3761     9.6954    11.0792
  183.5000     7.5095   110.6353     0.0216     0.1056     2.5044   -24.3791     9.6947    11.0777
  184.0000     7.6308   119.5728     0.0218     0.1070     2.5023   -24.3821     9.6941    11.0761
  184.5000     7.6626   119.2962     0.0236     0.1118     2.4980   -24.2099     9.6934    11.0746
  185.0000     7.6498   118.1280     0.0268     0.1108     2.4989   -24.3887     9.6928    11.0731
  185.5000     7.6369   117.7027     0.0301     0.1098     2.5005   -24.3916     9.5601    11.0716
