~VERSION INFORMATION
 VERS.                2.0:   CWLS LOG ASCII STANDARD - VERSION 2.0
 WRAP.                 NO:   ONE LINE PER DEPTH STEP
~WELL INFORMATION
#MNEM.UNIT      DATA TYPE    INFORMATION
#----------   ------------   ------------------------------
 STRT.F           70.0000:   START DEPTH
 STOP.F         1072.0000:   STOP DEPTH
 STEP.F            0.5000:   STEP LENGTH
 NULL.          -999.2500:   NO VALUE
 COMP. LAWRENCE/ALLISON INC:   COMPANY
 WELL.    67-66 SX #11-11:   WELL
 FLD .             TEAPOT:   FIELD
 LOC .      S11 T38N R78W:   LOCATION
 CNTY.            NATRONA:   COUNTY
 STAT.            WYOMING:   STATE
 CTRY. UNITED STATES OF AMERICA:   COUNTRY
 SRVC.      Dresser Atlas:   SERVICE COMPANY
 DATE.        03-FEB-1986:   LOGDATE
 API .       490251105700:   API NUMBER
~CURVE INFORMATION
#MNEM.UNIT       API CODE    CURVE DESCRIPTION
#----------   ------------   ------------------------------
 DEPT.F                  :   
 RILD.OHMM   07 120 46 00:   RESISTIVITY INDUCTION LOG DEEP
 RILM.OHMM   07 120 44 00:   RESISTIVITY INDUCTION LOG MEDIUM
 GRD .GAPI   45 310 01 00:   GAMMA RAY FROM DENSITY LOG
 CALD.IN     45 280 60 00:   CALIPER FROM DENSITY LOG
 CORR.G/C3   45 356 01 00:   DENSITY CORRECTION
 PORD.DEC    45 890 12 00:   POROSITY DENSITY SANDSTONE
 DEN .G/C3   45 350 01 00:   COMPENSATED BULK DENSTIY
~PARAMETER INFORMATION
#MNEM.UNIT          VALUE    DESCRIPTION
#----------   ------------   ------------------------------
 PD  .                 GL:   PERMANENT DATUM
 EPD .F              5245:   ELEVATION PERMANENT DATUM
 LMF .                 GL:   LOG MEASURED FROM
 DMF .                 GL:   DRILLING MEASURED FROM
 EGL .F              5245:   GROUND LEVEL
 DATE.        03-FEB-1986:   RUN DATE
 RUN .                  1:   RUN NUMBER
 DD  .F              1120:   DEPTH DRILLER
 DL  .F              1074:   DEPTH LOGGER
 BLI .F              1068:   BOTTOM LOG INTERVAL
 TLI .F                86:   TOP LOG INTERVAL
 CS  .IN            8.625:   CASING SIZE
 CBD .F                86:   CASING BOTTOM DRILLER
 CBL .F                86:   CASING BOTTOM LOGGER
 BS  .IN             6.25:   BIT SIZE
 BSD .F              1120:   BIT SIZE AT DEPTH
 DFT .                AIR:   DRILLING FLUID TYPE
 TCS .HRS               2:   TIME CURCULATED STOPPED
 LUN .               6274:   LOGGING UNIT NUMBER
 LUL .           GILLETTE:   LOGGING UNIT LOCATION
 ENGI.             MILLER:   RECORDING ENGINEER
 WITN.           JENNINGS:   WITNESSED BY
 CLNT.            A2DTECH:   CLIENT CODE
 ORIG.           5" PRINT:   ORIGIN OF DATA
 UWI .       490251105700:   UNIQUE WELL ID
 DICO. A2D Technologies, Inc.:   DIGITIZING COMPANY
~OTHER INFORMATION
~A   DEPT     RILD       RILM        GRD       CALD       CORR       PORD        DEN   
# ...
  889.0000     4.8206     4.4387   157.7283     8.3505     0.0867     0.1859     2.3666
  889.5000     5.2089     4.7621   156.8564     8.3517     0.0749     0.1759     2.3871
  890.0000     5.5895     5.0588   158.4454     8.3529     0.0389     0.1449     2.4136
  890.5000     5.9564     5.3517   160.2116     8.3541     0.0632     0.1301     2.4595
  891.0000     6.1737     5.6544   156.9506     8.3554     0.0634     0.1270     2.4702
  891.5000     6.3106     5.8594   155.4951     8.3413     0.0635     0.1257     2.4718
  892.0000     6.2722     6.0650   155.2287     8.3400     0.0682     0.1245     2.4741
  892.5000     6.2358     6.1075   157.3555     8.3288     0.0744     0.1217     2.4802
  893.0000     6.3318     6.1147   160.0795     8.3300     0.0761     0.1176     2.4871
  893.5000     6.3830     6.2071   161.9065     8.3462     0.0763     0.1139     2.4912
  894.0000     6.4346     6.3010   162.5378     8.3624     0.0709     0.1112     2.4957
  894.5000     6.3972     6.3522   161.6743     8.3935     0.0447     0.1105     2.4994
  895.0000     6.3499     6.4036   159.3160     8.4093     0.0437     0.1111     2.4995
  895.5000     6.2268     6.3193   158.4442     8.3660     0.0605     0.1122     2.4973
  896.0000     6.1915     6.1578   159.3827     8.3520     0.0561     0.1134     2.4899
  896.5000     6.1194     6.1652   162.1067     8.3383     0.0473     0.1137     2.4900
  897.0000     6.1265     6.1986   166.3254     8.3398     0.0444     0.1109     2.4938
  897.5000     6.1333     6.2051   167.2556     8.3410     0.0522     0.1082     2.4984
  898.0000     6.0975     6.2115   165.4952     8.3572     0.0629     0.1048     2.5023
  898.5000     6.1044     6.2180   163.6264     8.3584     0.0856     0.1016     2.5084
  899.0000     6.1537     6.2678   161.0026     8.3593     0.0858     0.0996     2.5122
  899.5000     6.1606     6.2743   159.5914     8.3605     0.0875     0.0987     2.5138
  900.0000     6.1674     6.2808   159.6413     8.3617     0.0894     0.0983     2.5139
  900.5000     6.1948     6.2874   161.4667     8.3635     0.0966     0.0988     2.5133
  901.0000     6.2291     6.2939   162.9886     8.3650     0.0953     0.0995     2.5118
  901.5000     6.2633     6.3005   164.2116     8.3662     0.0940     0.0997     2.5139
  902.0000     6.2763     6.2634   163.9331     8.3677     0.0882     0.1009     2.5162
  902.5000     6.2385     6.2700   164.3398     8.3542     0.0814     0.1027     2.5095
  903.0000     6.1154     6.2331   167.6871     8.3707     0.0659     0.1050     2.5036
  903.5000     5.9122     6.1537   172.9996     8.3722     0.0681     0.1065     2.5045
  904.0000     5.6369     5.9501   173.0104     8.3737     0.0772     0.1077     2.5046
  904.5000     5.6029     5.6741   168.8522     8.3603     0.0846     0.1088     2.5016
  905.0000     5.6080     5.6407   166.1883     8.3618     0.0726     0.1109     2.4950
  905.5000     5.6522     5.6466   167.7107     8.3483     0.0653     0.1175     2.4875
  906.0000     5.6967     5.6525   171.0264     8.3348     0.0565     0.1250     2.4756
  906.5000     5.6232     5.5036   173.1463     8.3364     0.0492     0.1298     2.4659
  907.0000     5.4742     5.2710   173.4724     8.3379     0.0434     0.1346     2.4555
  907.5000     5.1832     4.9099   173.4996     8.3394     0.0481     0.1337     2.4571
  908.0000     4.7733     4.5487   169.9393     8.3409     0.0574     0.1240     2.4656
  908.5000     4.2755     4.0177   166.6712     8.3275     0.0594     0.1120     2.4822
  909.0000     4.0764     3.6497   167.9010     8.3436     0.0517     0.1097     2.4951
  909.5000     4.0801     3.6789   169.7219     8.3455     0.0474     0.1096     2.4950
  910.0000     4.1408     3.7602   171.5428     8.3918     0.0566     0.1120     2.4824
  910.5000     4.2318     3.8700   170.3741     8.4232     0.0704     0.1249     2.4576
  911.0000     4.3548     4.0386   165.9170     8.3949     0.0811     0.1634     2.4156
  911.5000     4.5441     4.2146   161.7588     8.3665     0.0858     0.1871     2.3622
  912.0000     4.7416     4.4597   157.3017     8.3527     0.0755     0.1916     2.3796
  912.5000     5.0518     4.7191   157.9268     8.3545     0.0546     0.1621     2.4151
  913.0000     5.3451     5.2057   158.8508     8.3407     0.0397     0.1368     2.4468
  913.5000     5.6554     5.5853   159.1770     8.3423     0.0520     0.1141     2.4823
  914.0000     5.9012     5.9101   157.7094     8.3438     0.0627     0.1030     2.5005
  914.5000     5.9477     5.9575   156.1324     8.3602     0.0750     0.1008     2.5096
  915.0000     5.7500     5.7604   154.3896     8.3617     0.0812     0.1035     2.5097
  915.5000     5.4067     5.3429   153.5988     8.3632     0.0754     0.1059     2.5066
  916.0000     4.7430     4.6235   153.9412     8.3647     0.0635     0.1073     2.4993
  916.5000     4.4289     4.3483   154.8529     8.3513     0.0607     0.1058     2.4972
  917.0000     4.3116     4.2621   156.0719     8.3528     0.0714     0.1039     2.5033
  917.5000     4.2855     4.2370   158.4907     8.3393     0.0777     0.1033     2.5079
  918.0000     4.2895     4.2721   163.6001     8.3409     0.0839     0.1045     2.5096
  918.5000     4.2934     4.2765   170.8022     8.3424     0.0841     0.1107     2.4984
  919.0000     4.4182     4.3408   171.1828     8.3589     0.0843     0.1336     2.4405
  919.5000     4.6424     4.6252   167.5681     8.3753     0.0784     0.1543     2.4255
  920.0000     5.1564     4.9549   163.4099     8.3619     0.0651     0.1483     2.4309
  920.5000     5.4180     5.5263   161.6366     8.3634     0.0487     0.1246     2.4536
  921.0000     5.6929     5.9290   162.2684     8.3496     0.0595     0.1180     2.4732
  921.5000     5.9817     6.2219   161.9966     8.3515     0.0672     0.1156     2.4839
  922.0000     6.1985     6.4564   158.1374     8.3530     0.0558     0.1125     2.4923
  922.5000     6.4232     6.6823   154.8761     8.3392     0.0434     0.1092     2.4984
  923.0000     6.6100     6.8773   153.1096     8.3257     0.0577     0.1050     2.5038
  923.5000     6.7552     7.0204   152.5320     8.3426     0.0758     0.1031     2.5076
  924.0000     6.8558     7.0766   153.7618     8.3441     0.0802     0.1031     2.5107
  924.5000     6.9579     7.1333   150.7995     8.3456     0.0562     0.1067     2.5056
  925.0000     7.0615     7.1407   144.8476     8.3443     0.0489     0.1108     2.4991
  925.5000     7.1171     7.1481   145.4727     8.3183     0.0567     0.1118     2.4914
  926.0000     7.1236     7.1556   148.4894     8.3199     0.0629     0.1071     2.4992
  926.5000     7.1300     7.1630   153.5988     8.3363     0.0616     0.1059     2.5044
  927.0000     7.1364     7.1206   153.5168     8.3378     0.0573     0.1065     2.5030
  927.5000     7.0932     7.0717   149.0034     8.3393     0.0605     0.1064     2.5024
  928.0000     7.0020     6.9885   146.1724     8.3408     0.0546     0.1064     2.5032
  928.5000     6.9596     6.9961   147.1559     8.3424     0.0518     0.1094     2.5033
  929.0000     6.9177     7.0034   150.1486     8.3439     0.0581     0.1108     2.4974
  929.5000     6.9242     7.0595   152.8582     8.3454     0.0612     0.1096     2.4952
  930.0000     7.0274     7.1160   155.5759     8.3469     0.0554     0.1089     2.4968
  930.5000     7.1817     7.1730   156.7989     8.3484     0.0752     0.1089     2.4977
  931.0000     7.4420     7.2872   156.5262     8.3499     0.0905     0.1080     2.4993
  931.5000     7.7655     7.6177   154.7606     8.3514     0.0997     0.1067     2.5017
  932.0000     8.1030     8.2089   150.0045     8.3529     0.0833     0.1052     2.5055
  932.5000     8.2237     8.1040   140.7641     8.3544     0.0700     0.1009     2.5116
  933.0000     7.9504     7.8119   138.3929     8.3709     0.0581     0.0973     2.5178
  933.5000     6.9744     6.9354   139.3237     8.3874     0.0689     0.0957     2.5201
  934.0000     5.2884     5.6787   140.5467     8.3590     0.0796     0.0948     2.5217
