~VERSION INFORMATION
 VERS.                2.0:   CWLS LOG ASCII STANDARD - VERSION 2.0
 WRAP.                 NO:   ONE LINE PER DEPTH STEP
~WELL INFORMATION
#MNEM.UNIT      DATA TYPE    INFORMATION
#----------   ------------   ------------------------------
 STRT.F           28.0000:   START DEPTH
 STOP.F          463.0000:   STOP DEPTH
 STEP.F            0.5000:   STEP LENGTH
 NULL.          -999.2500:   NO VALUE
 COMP.    FENIX & SCISSON:   COMPANY
 WELL.  NPR-3 #74 S 10-10:   WELL
 FLD .        TEAPOT DOME:   FIELD
 LOC .      S10 T38N R78W:   LOCATION
 CNTY.            NATRONA:   COUNTY
 STAT.            WYOMING:   STATE
 CTRY. UNITED STATES OF AMERICA:   COUNTRY
 SRVC.           BIRDWELL:   SERVICE COMPANY
 DATE.        12-FEB-1978:   LOGDATE
 API .       490251057000:   API NUMBER
~CURVE INFORMATION
#MNEM.UNIT       API CODE    CURVE DESCRIPTION
#----------   ------------   ------------------------------
 DEPT.F                  :   
 ILD .OHMM   05 120 46 00:   INDUCTION LOG DEEP
 SN  .OHMM   05 040 16 00:   SHORT NORMAL 16"
 SPR .MV     05 010 01 00:   SPONTANEOUS POTENTIAL FROM RES.
 CALD.IN     45 280 60 00:   CALIPER FROM DENSITY LOG
 CORR.G/C3   45 356 01 00:   DENSITY CORRECTION
 DPHI.DEC    45 890 12 00:   DENSITY POROSITY SANDSTONE
 GRD .GAPI   45 310 01 00:   GAMMA RAY FROM DENSITY LOG
 RHOB.G/C3   45 350 01 00:   BULK DENSITY
~PARAMETER INFORMATION
#MNEM.UNIT          VALUE    DESCRIPTION
#----------   ------------   ------------------------------
 PD  .                 GL:   PERMANENT DATUM
 EPD .F              5183:   ELEVATION PERMANENT DATUM
 LMF .                 KB:   LOG MEASURED FROM
 DAPD.F                 4:   FEET ABOVE PERMANENT DATUM
 DMF .                 KB:   DRILLING MEASURED FROM
 EKB .F              5187:   KELLING BUSHING
 EGL .F              5183:   GROUND LEVEL
 DATE.        12-FEB-1978:   RUN DATE
 RUN .                  1:   RUN NUMBER
 DD  .F               465:   DEPTH DRILLER
 DL  .F               465:   DEPTH LOGGER
 BLI .F               463:   BOTTOM LOG INTERVAL
 TLI .F                40:   TOP LOG INTERVAL
 CS  .IN            8.625:   CASING SIZE
 CBD .F                39:   CASING BOTTOM DRILLER
 BS  .IN            7.875:   BIT SIZE
 BSD .F               465:   BIT SIZE AT DEPTH
 DFT .         LIGNO-SULF:   DRILLING FLUID TYPE
 DFD .                8.8:   DRILLING FLUID DENSITY
 DFV .                 34:   DRILLING FLUID VISCOSITY
 DFPH.                 10:   DRILLING FLUID PH
 DFL .                4.0:   DRILLING FLUID LOSS
 MSS .                PIT:   MUD SAMPLE SOURCE
 RMS .OHMM            1.3:   RESISTIVITY MUD SAMPLE
 MST .F                62:   MUD SAMPLE TEMPERATURE
 RMF .OHMM            1.4:   RESISTIVITY MUD FILTRATE SAMPLE
 MFST.F                62:   MUD FILTRATE SAMPLE TEMPERATURE
 MCST.F                62:   MUD CAKE SAMPLE TEMPERATURE
 MFSS.               MEAS:   MUD FILTRATE SAMPLE SOURCE
 RMB .OHMM            1.3:   RESISTIVITY MUD AT BHT
 BHT .F                62:   BOTTOM HOLE TEMPERATURE
 TCS .HRS               2:   TIME CURCULATED STOPPED
 MRT .F                70:   MAXIMUM RECORDED TEMPERATURE
 LUN .               2953:   LOGGING UNIT NUMBER
 LUL .             CASPER:   LOGGING UNIT LOCATION
 ENGI.            POINTER:   RECORDING ENGINEER
 WITN.          MC GINLEY:   WITNESSED BY
 CLNT.            A2DTECH:   CLIENT CODE
 ORIG.           5" PRINT:   ORIGIN OF DATA
 UWI .       490251057000:   UNIQUE WELL ID
 DICO. A2D Technologies, Inc.:   DIGITIZING COMPANY
~OTHER INFORMATION
~A   DEPT      ILD         SN        SPR       CALD       CORR       DPHI         GRD      RHOB   
   28.0000  -999.2500  -999.2500  -999.2500  -999.2500  -999.2500  -999.2500    66.0254  -999.2500
   28.5000  -999.2500  -999.2500  -999.2500  -999.2500  -999.2500  -999.2500    66.0329  -999.2500
   29.0000  -999.2500  -999.2500  -999.2500  -999.2500  -999.2500  -999.2500    66.0403  -999.2500
   29.5000  -999.2500  -999.2500  -999.2500  -999.2500  -999.2500  -999.2500    65.8972  -999.2500
   30.0000  -999.2500  -999.2500  -999.2500  -999.2500  -999.2500  -999.2500    65.9046  -999.2500
   30.5000  -999.2500  -999.2500  -999.2500  -999.2500  -999.2500  -999.2500    66.0627  -999.2500
   31.0000  -999.2500  -999.2500  -999.2500  -999.2500  -999.2500  -999.2500    66.6725  -999.2500
   31.5000  -999.2500  -999.2500  -999.2500  -999.2500  -999.2500  -999.2500    69.0896  -999.2500
   32.0000  -999.2500  -999.2500  -999.2500  -999.2500  -999.2500  -999.2500    69.2458  -999.2500
   32.5000  -999.2500  -999.2500  -999.2500  -999.2500  -999.2500  -999.2500    68.2009  -999.2500
   33.0000  -999.2500  -999.2500  -999.2500  -999.2500  -999.2500  -999.2500    67.9052  -999.2500
   33.5000  -999.2500  -999.2500  -999.2500  -999.2500  -999.2500  -999.2500    67.3121  -999.2500
   34.0000  -999.2500  -999.2500  -999.2500  -999.2500  -999.2500  -999.2500    66.0904  -999.2500
   34.5000  -999.2500  -999.2500  -999.2500  -999.2500  -999.2500  -999.2500    67.3270  -999.2500
   35.0000  -999.2500  -999.2500  -999.2500  -999.2500  -999.2500  -999.2500    68.5393  -999.2500
   35.5000  -999.2500  -999.2500  -999.2500  -999.2500  -999.2500  -999.2500    67.0407  -999.2500
   36.0000  -999.2500  -999.2500  -999.2500  -999.2500  -999.2500  -999.2500    64.4879  -999.2500
   36.5000  -999.2500  -999.2500  -999.2500  -999.2500  -999.2500  -999.2500    65.8951  -999.2500
   37.0000  -999.2500  -999.2500  -999.2500  -999.2500  -999.2500  -999.2500    66.9127  -999.2500
   37.5000  -999.2500  -999.2500  -999.2500  -999.2500  -999.2500  -999.2500    66.9202  -999.2500
   38.0000  -999.2500  -999.2500  -999.2500  -999.2500  -999.2500  -999.2500    66.9292  -999.2500
   38.5000  -999.2500  -999.2500  -999.2500  -999.2500  -999.2500  -999.2500    67.0872  -999.2500
   39.0000  -999.2500  -999.2500  -999.2500  -999.2500  -999.2500  -999.2500    66.9422  -999.2500
   39.5000  -999.2500  -999.2500  -999.2500  -999.2500  -999.2500  -999.2500    65.5961  -999.2500
   40.0000  -999.2500  -999.2500  -999.2500     8.2523  -999.2500  -999.2500    64.6999  -999.2500
   40.5000  -999.2500  -999.2500  -999.2500     8.2518  -999.2500  -999.2500    63.0507  -999.2500
   41.0000  -999.2500  -999.2500  -999.2500     8.2513  -999.2500  -999.2500    62.1546  -999.2500
   41.5000  -999.2500  -999.2500  -999.2500     8.2509  -999.2500  -999.2500    60.8066  -999.2500
   42.0000  -999.2500  -999.2500  -999.2500     8.2504    -0.4569  -999.2500    51.7779  -999.2500
   42.5000  -999.2500  -999.2500  -999.2500     8.2500    -0.4229  -999.2500    51.6329  -999.2500
   43.0000  -999.2500  -999.2500  -999.2500     8.2495    -0.3539  -999.2500    52.8470  -999.2500
   43.5000  -999.2500  -999.2500  -999.2500     8.2642    -0.2783  -999.2500    57.5231  -999.2500
   44.0000  -999.2500  -999.2500  -999.2500     8.2636    -0.0958  -999.2500    65.0607  -999.2500
   44.5000  -999.2500  -999.2500   -46.1079     8.2782     0.1606  -999.2500    70.4898  -999.2500
   45.0000  -999.2500  -999.2500   -45.9416     8.2928     0.2134  -999.2500    73.5093  -999.2500
   45.5000  -999.2500  -999.2500   -46.2256     8.3073     0.2436  -999.2500    74.2697  -999.2500
   46.0000     1.8643     2.0384   -46.3565     8.3069     0.2677  -999.2500    73.2230  -999.2500
   46.5000     1.9351     2.1560   -46.7802     8.3064     0.2738  -999.2500    72.6280  -999.2500
   47.0000     2.0378     2.3949   -46.9156     8.3210     0.2692  -999.2500    72.9448  -999.2500
   47.5000     2.1396     2.6255   -47.0465     8.3356     0.2134  -999.2500    73.3961  -999.2500
   48.0000     2.4408     3.0028   -46.7273     8.3652     0.1983  -999.2500    73.3815  -999.2500
   48.5000     4.9085     3.3254   -46.6909     8.3797     0.1968  -999.2500    72.5090  -999.2500
   49.0000     2.5110     3.5311   -46.9892     8.4093     0.2014  -999.2500    71.4623  -999.2500
   49.5000     2.4431     3.5562   -47.4173     8.4389     0.2074  -999.2500    70.1143  -999.2500
   50.0000     2.5832     3.5566   -47.9941     8.4685     0.2164  -999.2500    67.8627  -999.2500
   50.5000     2.6750     3.5819   -48.1250     8.5431     0.2662  -999.2500    66.3641  -999.2500
   51.0000     2.7509     3.6073   -47.7969     8.6688     0.3039  -999.2500    62.4559  -999.2500
   51.5000     2.8095     3.6329   -47.3462    10.0512     0.3130  -999.2500    56.1380  -999.2500
   52.0000     2.8300     3.6587   -47.9485    11.4847     0.3401  -999.2500    51.3262  -999.2500
   52.5000     2.9305     3.6847   -48.6444    11.4229     0.3718  -999.2500    48.6228  -999.2500
   53.0000     3.0983     3.8954   -48.9283    11.4958     0.3899  -999.2500    48.4778  -999.2500
   53.5000     4.3193     4.1467   -47.8662    12.0389     0.3959  -999.2500    49.0895  -999.2500
   54.0000     3.6302     3.6607   -48.7401    11.8883     0.2979     0.3005    53.1632  -999.2500
   54.5000     3.6436     3.5610   -47.6823    11.9802     0.1968     0.2605    57.9899     2.0983
   55.0000     3.8981     3.4882   -49.4477    11.7998     0.1742     0.2894    59.0497     1.9773
   55.5000     3.9537     3.4645   -48.9843    11.2643     0.1772     0.3569    56.8000     1.8488
   56.0000     3.8738     3.4650   -48.3723     9.7392     0.2376     0.3754    55.6026     1.7967
   56.5000     3.8216     3.4655   -47.9089    11.8260     0.2014     0.3922    52.7486     1.7642
   57.0000     3.8498     3.4660   -47.7427    12.1709     0.2195     0.3797    46.2801     1.7952
   57.5000     3.9047     3.5169   -48.3179    12.0803     0.5001     0.3618    42.9543     1.8398
   58.0000     3.9879     3.6428   -48.1517    11.8246     0.5013     0.3915    40.3009     1.9342
   58.5000     4.0729     3.7471   -47.8369    12.0194     0.5025     0.0422    40.3774     2.5155
   59.0000     4.1886     3.7690   -47.5221    12.0790     0.5037     0.2175    40.4539     2.5351
   59.5000     4.3978     3.7957   -47.2073    12.1086     0.4918     0.2991    40.5304     2.5457
   60.0000     4.5540     3.8760   -47.3382    12.1231     0.2270     0.4107    40.9050     2.2668
   60.5000     4.8147     4.0134   -47.6177    12.1227     0.2074     0.4191    43.9245     1.7445
   61.0000     5.0903     4.4540   -48.1989    11.9270     0.2602     0.4199    44.8337     1.6969
   61.5000     5.6099     5.1174   -48.6270    10.9355     0.2783     0.4286    44.3893     1.6916
   62.0000     6.3556     5.7188   -48.7579    10.7999     0.3039     0.4430    44.5492     1.6584
   62.5000     6.4019     6.0459   -48.7359    10.7544     0.3311     0.4454    45.6109     1.6168
   63.0000     6.4041     6.1311   -48.5697    10.9041     0.3416     0.4466    48.6304     1.6145
   63.5000     6.4063     6.1747   -48.4034    11.6094     0.3401     0.4452    53.9089     1.6243
   64.0000     6.4085     6.1755   -48.3858    11.7891     0.2406     0.4027    55.1193     1.8987
   64.5000     6.3665     6.1764   -48.2196    11.7137     0.2179     0.4115    53.3214     2.0446
   65.0000     6.3687     6.2635   -48.2019    11.1876     0.2240     0.4502    52.1221     2.0060
   65.5000     6.3708     6.4406   -48.1842    11.8028     0.2134     0.4516    53.4869     2.0474
   66.0000     6.3285     6.5314   -48.1664    11.1717     0.1953     0.4258    55.4521     2.1119
   66.5000     6.2871     6.5323   -48.0000    10.1052     0.2738     0.3768    56.5221     2.0603
   67.0000     6.2898     6.4417   -47.8336    11.1258     0.2934     0.3558    61.1899     2.0393
   67.5000     6.2485     6.3995   -47.5186    10.2696     0.2994     0.2796    66.6190     2.0565
   68.0000     6.3819     6.4959   -47.3487    10.9447     0.2964     0.2582    79.2872     2.0868
