~VERSION INFORMATION
 VERS.                2.0:   CWLS LOG ASCII STANDARD - VERSION 2.0
 WRAP.                 NO:   ONE LINE PER DEPTH STEP
~WELL INFORMATION
#MNEM.UNIT      DATA TYPE    INFORMATION
#----------   ------------   ------------------------------
 STRT.F           36.0000:   START DEPTH
 STOP.F          564.0000:   STOP DEPTH
 STEP.F            0.5000:   STEP LENGTH
 NULL.          -999.2500:   NO VALUE
 COMP.    FENIX & SCISSON:   COMPANY
 WELL.        NPR #73-S-3:   WELL
 FLD .             TEAPOT:   FIELD
 LOC .       S3 T38N R78W:   LOCATION
 CNTY.            NATRONA:   COUNTY
 STAT.            WYOMING:   STATE
 CTRY. UNITED STATES OF AMERICA:   COUNTRY
 SRVC.       Schlumberger:   SERVICE COMPANY
 DATE.        19-FEB-1977:   LOGDATE
 API .       490251027900:   API NUMBER
~CURVE INFORMATION
#MNEM.UNIT       API CODE    CURVE DESCRIPTION
#----------   ------------   ------------------------------
 DEPT.F                  :   
 SPR .MV     07 010 01 00:   SPONTANEOUS POTENTIAL
 ILD .OHMM   07 120 46 00:   INDUCTION LOG DEEP
 ILM .OHMM   07 120 44 00:   INDUCTION LOG MEDIUM
 LL8 .OHMM   07 220 08 00:   LATEROLOG-8 RES.
 CALD.IN     45 280 60 00:   CALIPER FROM DENSITY LOG
 CORR.G/C3   45 356 01 00:   DENSITY CORRECTION
 RHOB.G/C3   45 350 01 00:   BULK DENSITY
 DPHI.DEC    45 890 12 00:   DENSITY POROSITY SANDSTONE
 GRD .GAPI   45 310 01 00:   GAMMA RAY FROM DENSITY LOG
~PARAMETER INFORMATION
#MNEM.UNIT          VALUE    DESCRIPTION
#----------   ------------   ------------------------------
 PD  .                 GL:   PERMANENT DATUM
 EPD .F              5128:   ELEVATION PERMANENT DATUM
 LMF .                 GL:   LOG MEASURED FROM
 DAPD.F                 5:   FEET ABOVE PERMANENT DATUM
 DMF .                 KB:   DRILLING MEASURED FROM
 EKB .F              5133:   KELLING BUSHING
 EGL .F              5128:   GROUND LEVEL
 DATE.        19-FEB-1977:   RUN DATE
 RUN .                  1:   RUN NUMBER
 DD  .F               570:   DEPTH DRILLER
 DL  .F               565:   DEPTH LOGGER
 BLI .F               564:   BOTTOM LOG INTERVAL
 TLI .F                36:   TOP LOG INTERVAL
 CS  .IN            8.625:   CASING SIZE
 CBD .F                40:   CASING BOTTOM DRILLER
 CBL .F                41:   CASING BOTTOM LOGGER
 BS  .IN            7.875:   BIT SIZE
 BSD .F               570:   BIT SIZE AT DEPTH
 DFT .                FGM:   DRILLING FLUID TYPE
 DFD .                8.9:   DRILLING FLUID DENSITY
 DFV .                 31:   DRILLING FLUID VISCOSITY
 DFPH.                8.2:   DRILLING FLUID PH
 DFL .                9.2:   DRILLING FLUID LOSS
 MSS .            MUD PIT:   MUD SAMPLE SOURCE
 RMS .OHMM           .244:   RESISTIVITY MUD SAMPLE
 MST .F                78:   MUD SAMPLE TEMPERATURE
 RMF .OHMM           .233:   RESISTIVITY MUD FILTRATE SAMPLE
 MFST.F                68:   MUD FILTRATE SAMPLE TEMPERATURE
 RMC .OHMM            .36:   RESISTIVITY MUD CAKE
 MCST.F                78:   MUD CAKE SAMPLE TEMPERATURE
 MFSS.               MEAS:   MUD FILTRATE SAMPLE SOURCE
 MCSS.               CALC:   MUD CAKE SAMPLE SOURCE
 RMB .OHMM            .35:   RESISTIVITY MUD AT BHT
 BHT .F                55:   BOTTOM HOLE TEMPERATURE
 TCS .HRS               2:   TIME CURCULATED STOPPED
 MRT .F                55:   MAXIMUM RECORDED TEMPERATURE
 LUN .               7711:   LOGGING UNIT NUMBER
 LUL .               CSPR:   LOGGING UNIT LOCATION
 ENGI.                FIX:   RECORDING ENGINEER
 WITN.           VOORHEES:   WITNESSED BY
 CLNT.            A2DTECH:   CLIENT CODE
 ORIG.           5" PRINT:   ORIGIN OF DATA
 UWI .       490251027900:   UNIQUE WELL ID
 DICO. A2D Technologies, Inc.:   DIGITIZING COMPANY
~OTHER INFORMATION
~A   DEPT      SPR        ILD        ILM        LL8       CALD       CORR       RHOB       DPHI        GRD   
# ...
  401.0000   -45.1287    17.4525    15.2583    13.0741     8.3679     0.0188     2.3750     0.1666    87.0297
  401.5000   -45.4128    16.9901    15.0581    13.0821     8.3837     0.0280     2.3894     0.1558    86.9702
  402.0000   -45.6815    16.5400    14.5478    13.0893     8.3846     0.0364     2.4015     0.1509    86.6913
  402.5000   -45.9811    16.1018    14.2675    13.0964     8.3555     0.0447     2.4083     0.1449    86.5301
  403.0000   -46.4381    15.8920    14.2755    13.1036     8.3266     0.0376     2.4094     0.1461    86.3845
  403.5000   -46.5224    16.0132    14.4976    13.1107     8.3277     0.0317     2.3927     0.1551    86.2664
  404.0000   -46.2022    16.2462    14.5892    13.1179     8.3435     0.0256     2.3830     0.1635    86.7228
  404.5000   -46.3334    16.4827    14.2987    13.1251     8.3444     0.0287     2.3853     0.1613    87.9224
  405.0000   -46.7628    16.6079    14.6068    13.2228     8.3453     0.0445     2.4026     0.1517    90.3143
  405.5000   -47.0475    16.6193    14.2182    13.0944     8.3610     0.0447     2.3997     0.1541    91.6630
  406.0000   -47.0253    16.4003    13.4643    12.7034     8.3619     0.0508     2.3998     0.1510    92.2665
  406.5000   -47.1610    15.8531    12.8384    12.1968     8.3479     0.0530     2.4036     0.1471    92.4230
  407.0000   -47.2923    15.3330    12.4951    12.1199     8.3042     0.0433     2.3961     0.1558    92.1323
  407.5000   -47.5681    15.0182    12.4162    12.2101     8.2604     0.0531     2.3938     0.1554    90.6494
  408.0000   -47.8484    14.8345    12.4247    12.3011     8.2167     0.0592     2.4134     0.1428    87.3781
  408.5000   -47.8307    14.9476    12.6037    12.4782     8.2475     0.0472     2.4288     0.1344    85.2991
  409.0000   -47.9664    15.2721    12.8735    12.7451     8.3379     0.0435     2.4310     0.1339    86.4987
  409.5000   -47.7951    15.2825    13.1491    12.8400     8.4291     0.0420     2.4340     0.1274    89.1887
  410.0000   -47.4793    14.8751    13.1563    12.8470     8.5030     0.0398     2.4251     0.1284    90.8354
  410.5000   -47.1635    14.3841    13.1635    12.3347     8.4592     0.0391     2.4237     0.1343    92.3332
  411.0000   -46.9967    14.0973    12.9908    11.8429     8.4750     0.0196     2.4125     0.1425    93.5328
  411.5000   -46.8299    14.0102    12.6451    11.6876     8.4927     0.0114     2.4140     0.1411    93.6892
  412.0000   -46.9656    14.0222    12.3920    11.6940     8.5214     0.0077     2.4224     0.1399    92.6534
  412.5000   -47.0969    14.0318    12.3138    11.7004     8.5397     0.0122     2.4224     0.1357    90.7234
  413.0000   -47.3727    14.1383    12.3222    11.7068     8.5679     0.0175     2.4248     0.1356    91.6250
  413.5000   -47.3549    14.2457    12.3289    11.7939     8.5838     0.0258     2.4278     0.1311    92.8247
  414.0000   -47.3372    14.3539    12.4208    11.8818     8.5996     0.0348     2.4407     0.1239    93.1283
  414.5000   -47.3194    14.5629    12.6867    11.9703     8.6153     0.0401     2.4490     0.1193    91.3492
  415.0000   -47.1526    14.6735    13.2285    12.0594     8.6311     0.0409     2.4408     0.1226    90.3133
  415.5000   -47.2846    14.8871    13.6050    12.3174     8.6320     0.0342     2.4356     0.1301    89.8733
  416.0000   -47.7132    15.0001    13.8010    12.7550     8.6180     0.0290     2.4237     0.1376    89.4337
  416.5000   -48.2916    15.1141    13.6199    13.0279     8.5891     0.0253     2.4237     0.1361    89.1431
  417.0000   -48.8699    15.1244    13.3490    12.5947     8.5603     0.0223     2.4200     0.1397    89.1507
  417.5000   -49.2993    15.1347    13.0835    12.2598     8.5165     0.0178     2.4111     0.1463    89.6052
  418.0000   -49.7286    15.0412    13.0907    12.4363     8.4579     0.0239     2.4051     0.1471    89.9107
  418.5000   -50.0089    14.8457    13.2793    12.6153     8.4139     0.0262     2.4150     0.1408    89.9181
  419.0000   -50.4401    14.4523    13.1955    12.4499     8.3704     0.0255     2.4120     0.1438    89.0293
  419.5000   -50.7243    14.1666    13.1120    11.9534     8.3117     0.0240     2.4144     0.1425    88.4367
  420.0000   -50.9988    13.7913    12.9400    11.4768     8.2829     0.0270     2.4137     0.1392    88.9271
  420.5000   -50.9806    13.5184    12.7703    11.3263     8.2686     0.0226     2.4250     0.1356    91.4798
  421.0000   -50.9627    13.1603    12.6027    11.2549     8.2846     0.0181     2.4318     0.1328    92.3398
  421.5000   -50.9449    12.9003    12.2671    11.1839     8.2855     0.0174     2.4342     0.1301    92.3472
  422.0000   -50.7779    12.7326    12.0212    11.0372     8.3013     0.0212     2.4417     0.1265    91.5321
  422.5000   -50.4584    12.6539    12.0301    10.9676     8.2871     0.0250     2.4478     0.1222    89.3830
  423.0000   -50.1426    12.6626    11.9541    10.9743     8.2882     0.0258     2.4509     0.1192    89.2395
  423.5000   -49.6778    12.4129    11.6285    11.0560     8.3040     0.0303     2.4517     0.1195    91.3352
  424.0000   -49.5110    12.5072    11.3264    11.1385     8.3197     0.0251     2.4405     0.1282    93.2800
  424.5000   -49.4932    12.6022    11.2549    11.2987     8.3355     0.0124     2.4271     0.1345    93.7327
  425.0000   -49.4754    12.9629    11.3393    11.3440     8.3364     0.0124     2.4241     0.1360    92.8477
  425.5000   -49.4577    13.4260    11.7425    11.5072     8.3522     0.0124     2.4294     0.1341    92.1100
  426.0000   -49.4399    14.1958    12.0767    11.8345     8.3530     0.0147     2.4318     0.1296    91.5213
  426.5000   -48.9750    15.3229    12.4204    12.2549     8.3539     0.0200     2.4371     0.1284    90.7835
  427.0000   -48.0631    16.8846    13.4040    12.8221     8.3399     0.0253     2.4266     0.1302    90.4910
  427.5000   -47.1511    18.3511    14.7670    13.8373     8.3259     0.0261     2.4049     0.1443    90.3494
  428.0000   -46.2392    20.0902    16.7225    15.2434     8.2822     0.0224     2.3727     0.1656    88.5702
  428.5000   -45.6253    22.6188    18.6783    17.8639     8.2384     0.0179     2.3329     0.1945    81.8712
  429.0000   -45.0114    25.6548    21.1667    21.0792     8.1649     0.0209     2.2969     0.2195    78.5999
  429.5000   -44.6956    29.7402    24.4669    23.5425     8.1063     0.0195     2.2797     0.2264    76.2228
  430.0000   -44.6778    38.4133    27.1754    25.2314     8.1667     0.0210     2.2971     0.2244    76.3793
  430.5000   -44.6600    43.7144    29.9019    26.8562     8.2569     0.0331     2.3212     0.2012    77.1300
  431.0000   -44.7913    47.4132    30.9702    28.7828     8.2429     0.0376     2.3363     0.1912    76.0960
  431.5000   -44.7735    48.7119    31.8568    30.6363     8.2140     0.0338     2.3409     0.1865    75.5073
  432.0000   -44.7558    48.7452    31.8093    31.0773     8.2149     0.0248     2.3425     0.1852    75.0676
  432.5000   -44.8915    48.1115    30.6694    30.2510     8.2307     0.0174     2.3305     0.1902    74.6261
  433.0000   -45.0228    46.5155    28.7572    28.8458     8.2316     0.0137     2.3065     0.2072    76.2747
  433.5000   -45.0005    43.7511    30.6105    27.8865     8.2324     0.0199     2.2938     0.2135    77.3253
  434.0000   -44.9828    41.1510    29.7961    29.8870     8.2482     0.0188     2.3006     0.2156    77.4817
  434.5000   -44.9650    38.9727    25.6257    26.4234     8.2640     0.0108     2.3074     0.2041    77.6382
  435.0000   -44.9473    37.1647    24.1006    24.0124     8.2649     0.0248     2.3278     0.1987    78.8378
  435.5000   -44.9295    35.9318    22.6642    22.8969     8.2658     0.0259     2.3249     0.2035    80.1865
  436.0000   -44.6137    34.5016    21.6106    22.9094     8.2667     0.0230     2.3187     0.1962    80.3429
  436.5000   -44.2978    33.3571    23.1739    23.0801     8.2676     0.0245     2.3273     0.1950    80.2012
  437.0000   -43.9820    32.2505    21.8983    22.9345     8.2685     0.0238     2.3311     0.1959    80.8048
