~VERSION INFORMATION
 VERS.                2.0:   CWLS LOG ASCII STANDARD - VERSION 2.0
 WRAP.                 NO:   ONE LINE PER DEPTH STEP
~WELL INFORMATION
#MNEM.UNIT      DATA TYPE    INFORMATION
#----------   ------------   ------------------------------
 STRT.F           26.0000:   START DEPTH
 STOP.F          484.0000:   STOP DEPTH
 STEP.F            0.5000:   STEP LENGTH
 NULL.          -999.2500:   NO VALUE
 COMP.    FENIX & SCISSON:   COMPANY
 WELL.        NPR #44-S-3:   WELL
 FLD .              NPR-3:   FIELD
 LOC .       S3 T38N R78W:   LOCATION
 CNTY.            NATRONA:   COUNTY
 STAT.            WYOMING:   STATE
 CTRY. UNITED STATES OF AMERICA:   COUNTRY
 SRVC.              Welex:   SERVICE COMPANY
 DATE.        22-APR-1977:   LOGDATE
 API .       490251034000:   API NUMBER
~CURVE INFORMATION
#MNEM.UNIT       API CODE    CURVE DESCRIPTION
#----------   ------------   ------------------------------
 DEPT.F                  :   
 SPR .MV     07 010 01 00:   SPONTANEOUS POTENTIAL
 ILD .OHMM   07 120 46 00:   INDUCTION LOG DEEP
 ILM .OHMM   07 120 44 00:   INDUCTION LOG MEDIUM
 SGRD.OHMM   07 221 05 00:   SHALLOW SHORT GUARD RESISTIVITY
 GRD .GAPI   45 310 01 00:   GAMMA RAY FROM DENSITY LOG
 CALD.IN     45 280 60 00:   CALIPER FROM DENSITY LOG
 CORR.G/C3   45 356 01 00:   DENSITY CORRECTION
 RHOB.G/C3   45 350 01 00:   BULK DENSITY
 DPHI.DEC    45 890 12 00:   DENSITY POROSITY SANDSTONE
~PARAMETER INFORMATION
#MNEM.UNIT          VALUE    DESCRIPTION
#----------   ------------   ------------------------------
 PD  .                 GL:   PERMANENT DATUM
 EPD .F              5160:   ELEVATION PERMANENT DATUM
 LMF .                 GL:   LOG MEASURED FROM
 DMF .                 GL:   DRILLING MEASURED FROM
 EGL .F              5160:   GROUND LEVEL
 DATE.        22-APR-1977:   RUN DATE
 RUN .                  1:   RUN NUMBER
 DD  .F               490:   DEPTH DRILLER
 DL  .F               486:   DEPTH LOGGER
 BLI .F               484:   BOTTOM LOG INTERVAL
 TLI .F                30:   TOP LOG INTERVAL
 CS  .IN            8.625:   CASING SIZE
 CBD .F                40:   CASING BOTTOM DRILLER
 CBL .F                38:   CASING BOTTOM LOGGER
 BS  .IN            7.875:   BIT SIZE
 BSD .F               490:   BIT SIZE AT DEPTH
 DFT .            KCL GEL:   DRILLING FLUID TYPE
 DFD .                8.8:   DRILLING FLUID DENSITY
 DFV .                 36:   DRILLING FLUID VISCOSITY
 DFPH.                8.0:   DRILLING FLUID PH
 DFL .                6.4:   DRILLING FLUID LOSS
 MSS .            MUD PIT:   MUD SAMPLE SOURCE
 RMS .OHMM            .36:   RESISTIVITY MUD SAMPLE
 MST .F                60:   MUD SAMPLE TEMPERATURE
 RMF .OHMM            .30:   RESISTIVITY MUD FILTRATE SAMPLE
 MFST.F                60:   MUD FILTRATE SAMPLE TEMPERATURE
 RMC .OHMM            .42:   RESISTIVITY MUD CAKE
 MCST.F                60:   MUD CAKE SAMPLE TEMPERATURE
 MFSS.               MEAS:   MUD FILTRATE SAMPLE SOURCE
 MCSS.               MEAS:   MUD CAKE SAMPLE SOURCE
 RMB .OHMM            .30:   RESISTIVITY MUD AT BHT
 BHT .F                70:   BOTTOM HOLE TEMPERATURE
 TCS .HRS            0200:   TIME CURCULATED STOPPED
 MRT .F                70:   MAXIMUM RECORDED TEMPERATURE
 LUN .               8611:   LOGGING UNIT NUMBER
 LUL .             CASPER:   LOGGING UNIT LOCATION
 ENGI.          T. JOYNER:   RECORDING ENGINEER
 WITN.           ROB LYON:   WITNESSED BY
 CLNT.            A2DTECH:   CLIENT CODE
 ORIG.           5" PRINT:   ORIGIN OF DATA
 UWI .       490251034000:   UNIQUE WELL ID
 DICO. A2D Technologies, Inc.:   DIGITIZING COMPANY
~OTHER INFORMATION
~A   DEPT      SPR        ILD        ILM       SGRD        GRD       CALD       CORR       RHOB       DPHI   
   26.0000  -999.2500  -999.2500  -999.2500  -999.2500   100.0030  -999.2500  -999.2500  -999.2500  -999.2500
   26.5000  -999.2500  -999.2500  -999.2500  -999.2500   100.1701  -999.2500  -999.2500  -999.2500  -999.2500
   27.0000  -999.2500  -999.2500  -999.2500  -999.2500   100.9316  -999.2500  -999.2500  -999.2500  -999.2500
   27.5000  -999.2500  -999.2500  -999.2500  -999.2500   100.8015  -999.2500  -999.2500  -999.2500  -999.2500
   28.0000  -999.2500  -999.2500  -999.2500  -999.2500    99.7799  -999.2500  -999.2500  -999.2500  -999.2500
   28.5000  -999.2500  -999.2500  -999.2500  -999.2500    98.1639  -999.2500  -999.2500  -999.2500  -999.2500
   29.0000  -999.2500  -999.2500  -999.2500  -999.2500    98.1825  -999.2500  -999.2500  -999.2500  -999.2500
   29.5000  -999.2500  -999.2500  -999.2500  -999.2500    98.9439  -999.2500  -999.2500  -999.2500     0.2510
   30.0000  -999.2500  -999.2500  -999.2500  -999.2500   100.2998     7.9067    -0.1700     2.2377     0.2469
   30.5000  -999.2500  -999.2500  -999.2500  -999.2500   102.2499     7.9232    -0.1653     2.2451     0.2413
   31.0000  -999.2500  -999.2500  -999.2500  -999.2500   104.4973     7.9249    -0.1607     2.2519     0.2389
   31.5000  -999.2500  -999.2500  -999.2500  -999.2500   105.7045     7.9266    -0.1530     2.2578     0.2364
   32.0000  -999.2500  -999.2500  -999.2500  -999.2500   104.9801     7.9283    -0.1468     2.2624     0.2328
   32.5000  -999.2500  -999.2500  -999.2500  -999.2500   103.9538     7.9300    -0.1392     2.2684     0.2286
   33.0000  -999.2500  -999.2500  -999.2500  -999.2500   104.5714     7.9317    -0.1314     2.2785     0.2200
   33.5000  -999.2500  -999.2500  -999.2500  -999.2500   103.9955     7.9334    -0.1207     2.3024     0.2053
   34.0000  -999.2500  -999.2500  -999.2500  -999.2500   101.1909     7.9051    -0.1070     2.3211     0.1959
   34.5000  -999.2500  -999.2500  -999.2500  -999.2500    99.2731     7.8771    -0.0961     2.3285     0.1911
   35.0000  -999.2500  -999.2500  -999.2500  -999.2500   100.3364     7.8793    -0.0827     2.3367     0.1848
   35.5000  -999.2500  -999.2500  -999.2500  -999.2500   102.2866     7.8810    -0.0690     2.3479     0.1794
   36.0000  -999.2500  -999.2500  -999.2500  -999.2500   104.6825     7.8975    -0.0529     2.3598     0.1731
   36.5000  -999.2500  -999.2500  -999.2500  -999.2500   107.5242     7.8843    -0.0378     2.3702     0.1677
   37.0000  -999.2500  -999.2500  -999.2500  -999.2500   109.4744     7.8564    -0.0196     2.3866     0.1618
   37.5000  -999.2500  -999.2500  -999.2500  -999.2500   110.5330     7.8285    -0.0075     2.4142     0.1371
   38.0000   -36.2629  -999.2500  1177.6401  -999.2500   112.1860     7.8154     0.0001     2.4433     0.1230
   38.5000   -37.5923     0.8179   543.7426     5.7911   116.5136     7.8023     0.0033     2.4605     0.1110
   39.0000   -38.1832     0.5080    11.3210     6.2529   121.5841     7.8040     0.0019     2.4784     0.1051
   39.5000   -38.6263     0.3111     2.5450     6.7050   123.2371     7.8057     0.0005     2.4716     0.1084
   40.0000   -38.9217     0.2566     3.4776     7.2396   122.6613     7.8074    -0.0009     2.4776     0.1095
   40.5000   -39.2171     0.2497     4.8515     7.7096   118.2221     7.8091    -0.0008     2.4716     0.1056
   41.0000   -39.3648     0.3012     5.0274     8.2101   117.4977     7.8108    -0.0006     2.4685     0.1050
   41.5000   -39.3648     0.4857     4.9527     8.6431   117.8134     7.8125    -0.0005     2.4775     0.1088
   42.0000   -39.3648     1.0765     5.4361     9.1277   119.7636     7.8143    -0.0004     2.4789     0.1106
   42.5000   -39.3648     1.7239     5.8718     9.2523   125.5771     7.8160    -0.0003     2.4722     0.1094
   43.0000   -39.3648     3.8741     6.1269     9.1901   124.1097     7.8177    -0.0002     2.4684     0.1087
   43.5000   -39.5126     5.2918     6.1759     9.0138   123.3807     7.7897     0.0000     2.4661     0.1126
   44.0000   -39.5145     5.5198     6.1382     8.8342   128.1586     7.7914     0.0001     2.4638     0.1155
   44.5000   -39.6785     5.4093     5.9785     8.5425   128.9155     7.7491     0.0002     2.4615     0.1137
   45.0000   -39.8080     5.8016     5.8604     8.2589   125.3725     7.7356     0.0003     2.4593     0.1104
   45.5000   -39.8080     6.1784     5.8261     8.2653   126.4311     7.7377     0.0004     2.4630     0.1086
   46.0000   -39.9062     6.3114     6.6527     8.5621   131.3531     7.7394     0.0006     2.4682     0.1062
   46.5000   -40.0367     6.2652     7.0385     8.7480   130.9258     7.7411     0.0007     2.4712     0.1044
   47.0000   -40.3154     6.2827     6.9973     8.6942   127.6754     7.7576     0.0008     2.4742     0.1037
   47.5000   -40.4459     6.4230     7.0532     8.6410   129.9228     7.7741     0.0009     2.4764     0.1043
   48.0000   -40.4273     6.7864     7.3089     9.0761   128.9012     7.7906     0.0010     2.4792     0.1046
   48.5000   -40.4095     7.1268     7.7327    10.0049   124.1649     7.8072     0.0012     2.4799     0.1037
   49.0000   -40.3917     7.3281     8.1247    10.5083   120.6173     7.8089     0.0013     2.4799     0.1018
   49.5000   -40.5224     7.2313     8.3037    10.3721   118.2584     7.8106     0.0014     2.4806     0.0994
   50.0000   -40.5045     7.2877     8.2401    10.5902   117.9792     7.8123     0.0015     2.4798     0.1006
   50.5000   -40.3928     7.4841     8.0871    11.3599   117.4039     7.8140     0.0016     2.4775     0.1041
   51.0000   -40.3292     7.4513     7.9314    11.0566   114.4506     7.8009     0.0018     2.4730     0.1077
   51.5000   -40.3158     7.3540     7.7209    11.2958   112.9829     7.7729     0.0019     2.4663     0.1095
   52.0000   -40.3023     7.2081     7.5667    11.9439   115.9736     7.7594     0.0020     2.4610     0.1100
   52.5000   -40.1405     7.1621     7.5728    11.5451   118.3695     7.7463     0.0021     2.4707     0.1076
   53.0000   -39.9787     7.0200     7.5786    11.2058   116.0106     7.7332     0.0022     2.4691     0.1052
   53.5000   -39.6685     6.9296     7.5844    10.7604   114.2459     7.7353     0.0023     2.4698     0.1043
   54.0000   -39.6551     6.8380     7.6428    10.6433   116.7906     7.7518     0.0025     2.4713     0.1063
   54.5000   -39.3449     6.7023     7.7601    11.0235   118.2950     7.7684     0.0026     2.4735     0.1066
   55.0000   -39.1831     6.6607     7.8185    11.0296   119.0565     7.7701     0.0027     2.4779     0.1021
   55.5000   -39.1696     6.6194     7.9847    11.2726   114.3086     7.7718     0.0028     2.4839     0.0991
   56.0000   -39.6013     6.7174     8.0463    11.6731   113.7443     7.7735     0.0029     2.4883     0.0958
   56.5000   -40.1847     6.8630     8.0524    11.7562   117.3642     7.7752     0.0046     2.4913     0.0940
   57.0000   -40.9097     6.8678     8.1145    12.0926   120.6363     7.7769     0.0047     2.4920     0.0936
   57.5000   -41.7865     6.8252     8.1244    12.4375   122.1211     7.7786     0.0033     2.4882     0.0942
   58.0000   -42.3665     6.7350     8.1269    12.2738   119.7326     7.7650     0.0034     2.4837     0.0957
   58.5000   -42.9465     6.6932     8.0769    12.0287   119.3347     7.7523     0.0035     2.4792     0.0983
   59.0000   -43.5266     6.8394     8.0276    11.9526   120.6905     7.7392     0.0022     2.4754     0.1013
   59.5000   -43.9582     6.8917     7.9234    12.0422   119.2232     7.7261     0.0023     2.4716     0.1040
   60.0000   -44.2449     7.0013     7.8206    12.0489   123.8479     7.7278     0.0009     2.4701     0.1054
   60.5000   -44.2281     7.0449     7.7711    11.8085   121.2866     7.7295     0.0025     2.4731     0.1045
   61.0000   -44.3664     7.0987     7.7786    11.2576   119.5369     7.7312     0.0011     2.4775     0.1030
   61.5000   -44.3496     7.1529     7.7845    11.0326   118.2571     7.7329     0.0013     2.4797     0.1012
   62.0000   -44.4879     7.3079     7.8990    11.2701   119.9101     7.7346     0.0014     2.4812     0.0991
