~VERSION INFORMATION
 VERS.                2.0:   CWLS LOG ASCII STANDARD - VERSION 2.0
 WRAP.                 NO:   ONE LINE PER DEPTH STEP
~WELL INFORMATION
#MNEM.UNIT      DATA TYPE    INFORMATION
#----------   ------------   ------------------------------
 STRT.F           32.0000:   START DEPTH
 STOP.F          571.0000:   STOP DEPTH
 STEP.F            0.5000:   STEP LENGTH
 NULL.          -999.2500:   NO VALUE
 COMP. FENIX & SCISSON INCORP.:   COMPANY
 WELL.      NPR-3 #21-S-3:   WELL
 FLD .             TEAPOT:   FIELD
 LOC .       S3 T38N R78W:   LOCATION
 CNTY.            NATRONA:   COUNTY
 STAT.            WYOMING:   STATE
 CTRY. UNITED STATES OF AMERICA:   COUNTRY
 SRVC.           BIRDWELL:   SERVICE COMPANY
 DATE.        25-JUL-1978:   LOGDATE
 API .       490251067100:   API NUMBER
~CURVE INFORMATION
#MNEM.UNIT       API CODE    CURVE DESCRIPTION
#----------   ------------   ------------------------------
 DEPT.F                  :   
 CALD.IN     45 280 60 00:   CALIPER FROM DENSITY LOG
 CORR.G/C3   45 356 01 00:   DENSITY CORRECTION
 DPHI.DEC    45 890 10 00:   DENSITY POROSITY LIMESTONE
 GRD .GAPI   45 310 01 00:   GAMMA RAY FROM DENSITY LOG
 RHOB.G/C3   45 350 01 00:   BULK DENSITY
 ILD .OHMM   05 120 46 00:   INDUCTION LOG DEEP
 SN  .OHMM   05 040 16 00:   SHORT NORMAL 16"
 SPR .MV     05 010 01 00:   SPONTANEOUS POTENTIAL FROM RES.
 NPHI.DEC    42 890 01 00:   NEUTRON POROSITY LIMESTONE
~PARAMETER INFORMATION
#MNEM.UNIT          VALUE    DESCRIPTION
#----------   ------------   ------------------------------
 PD  .                 GL:   PERMANENT DATUM
 EPD .F              5203:   ELEVATION PERMANENT DATUM
 LMF .                 KB:   LOG MEASURED FROM
 DAPD.F                 4:   FEET ABOVE PERMANENT DATUM
 DMF .                 KB:   DRILLING MEASURED FROM
 EKB .F              5207:   KELLING BUSHING
 EGL .F              5203:   GROUND LEVEL
 DATE.        25-JUL-1978:   RUN DATE
 RUN .                  1:   RUN NUMBER
 DD  .F               565:   DEPTH DRILLER
 DL  .F               573:   DEPTH LOGGER
 BLI .F               566:   BOTTOM LOG INTERVAL
 TLI .F                46:   TOP LOG INTERVAL
 CS  .IN            8.625:   CASING SIZE
 CBD .F                40:   CASING BOTTOM DRILLER
 CBL .F                48:   CASING BOTTOM LOGGER
 BS  .IN            7.875:   BIT SIZE
 BSD .F               565:   BIT SIZE AT DEPTH
 DFT .                KCL:   DRILLING FLUID TYPE
 DFD .                8.6:   DRILLING FLUID DENSITY
 DFV .                 30:   DRILLING FLUID VISCOSITY
 DFPH.                  9:   DRILLING FLUID PH
 MSS .           FLOWLINE:   MUD SAMPLE SOURCE
 LUN .               2958:   LOGGING UNIT NUMBER
 LUL .               CASP:   LOGGING UNIT LOCATION
 WITN.           MCGINLEY:   WITNESSED BY
 CLNT.            A2DTECH:   CLIENT CODE
 ORIG.           5" PRINT:   ORIGIN OF DATA
 UWI .       490251067100:   UNIQUE WELL ID
 DICO. A2D Technologies, Inc.:   DIGITIZING COMPANY
~OTHER INFORMATION
~A   DEPT     CALD       CORR       DPHI         GRD      RHOB        ILD         SN        SPR       NPHI   
# ...
   68.5000     6.9952     0.0184     0.1455   106.2242     2.4518     7.2644     7.7560    -4.9286  -999.2500
   69.0000     7.0415     0.0199     0.1434   106.7813     2.4480     7.2663     7.8133    -5.0586  -999.2500
   69.5000     7.1208     0.0213     0.1378   106.7842     2.4465     7.2682     7.9255    -5.4857  -999.2500
   70.0000     7.2961     0.0213     0.1410   106.6370     2.4577     7.2203     7.9293    -6.2101  -999.2500
   70.5000     7.3863     0.0213     0.1419   105.1385     2.4531     7.2222     7.8783    -7.5288  -999.2500
   71.0000     7.4766     0.0243     0.1413   102.2885     2.4524     7.2241     7.8829    -8.7142  -999.2500
   71.5000     7.5519     0.0347     0.1404   101.0903     2.4523     7.2265     7.8324   -10.0129  -999.2500
   72.0000     7.6123     0.0604     0.1404   101.6938     2.4545     7.2284     7.7813   -11.1830  -999.2500
   72.5000     7.5979     0.0786     0.1443   103.4985     2.4537     7.1802     7.6265   -11.9073  -999.2500
   73.0000     7.5088     0.0932     0.1501   105.1662     2.4507     7.1329     7.5228   -12.6317  -999.2500
   73.5000     7.4193     0.1127     0.1561   105.4563     2.4364     7.0858     7.3749   -13.3560  -999.2500
   74.0000     7.2786     0.1397     0.1576   103.9585     2.4266     7.0395     7.3276   -14.0804  -999.2500
   74.5000     7.0324     0.1667     0.1564   102.3098     2.4259     7.0428     7.3319   -15.0972  -999.2500
   75.0000     6.8536     0.1727     0.1432   101.5612     2.4303     7.0920     7.3353   -15.8262  -999.2500
   75.5000     6.7645     0.1726     0.1357   103.9673     2.4460     7.0943     7.3387   -16.5459  -999.2500
   76.0000     6.6306     0.1651     0.1417   104.7209     2.4670     7.0962     7.3421   -17.4188  -999.2500
   76.5000     6.5564     0.1275     0.1456   104.7239     2.4699     7.0981     7.3456   -18.2918  -999.2500
   77.0000     6.5269     0.0750     0.1501   104.5766     2.4669     7.0999     7.3498   -19.3133  -999.2500
   77.5000     6.5426     0.0554     0.1516   103.3708     2.4496     7.1018     7.4041   -19.9034  -999.2500
   78.0000     6.6179     0.0283     0.1522   100.7928     2.4361     7.1528     7.3558   -20.6087  -999.2500
   78.5000     6.7094     0.0102     0.1525    99.3309     2.4383     7.2043     7.4110   -21.0405  -999.2500
   79.0000     6.8584     0.0024     0.1516    99.0328     2.4345     7.2564     7.4144   -21.4630  -999.2500
   79.5000     6.9487    -0.0063     0.1504   101.2887     2.4337     7.2584     7.3669   -22.3360  -999.2500
   80.0000     7.0539    -0.0048     0.1480   105.6460     2.4412     7.2603     7.2703   -23.5061  -999.2500
   80.5000     7.2040    -0.0033     0.1441   105.1985     2.4442     7.2622     7.4256   -24.0877  -999.2500
   81.0000     7.3690     0.0011     0.1364   104.1503     2.4486     7.2642     7.4291   -24.9501  -999.2500
   81.5000     7.4891     0.0056     0.1325   103.4024     2.4613     7.2661     7.4840   -25.2287  -999.2500
   82.0000     7.6093     0.0101     0.1325   103.5556     2.4673     7.3183     7.4874   -25.6605  -999.2500
   82.5000     7.6398     0.0146     0.1331   105.2403     2.4657     7.3713     7.5949   -26.2362  -999.2500
   83.0000     7.6105     0.0205     0.1328   106.7377     2.4642     7.3733     7.6575   -26.5148  -999.2500
   83.5000     7.5961     0.0280     0.1319   106.2678     2.4634     7.4262     7.7617   -26.9373  -999.2500
   84.0000     7.5520     0.0385     0.1295   103.7182     2.4664     7.4282     7.7653   -28.0139  -999.2500
   84.5000     7.4928     0.0550     0.1271   101.0184     2.4723     7.4302     7.7690   -29.2775  -999.2500
   85.0000     7.3738     0.0776     0.1313   100.7203     2.4783     7.3811     7.7726   -29.4075  -999.2500
   85.5000     7.2099     0.0900     0.1454   100.2735     2.4685     7.3324     7.8300   -29.8300  -999.2500
   86.0000     7.0610     0.1525     0.1583    98.4746     2.4572     7.3349     7.8878   -30.4058  -999.2500
   86.5000     6.9271     0.1735     0.1598    96.9760     2.4317     7.3875     7.7834   -30.6850  -999.2500
   87.0000     6.7931     0.1765     0.1469    97.7297     2.4272     7.4920     7.7335   -31.2620  -999.2500
   87.5000     6.6592     0.1674     0.1361   103.2257     2.4429     7.5980     7.7916   -32.0084  -999.2500
   88.0000     6.5850     0.1193     0.1433   108.3963     2.4563     7.6000     7.9034   -32.5602  -999.2500
   88.5000     6.5707     0.0743     0.1529   106.2978     2.4465     7.6020     7.9618   -32.9827  -999.2500
   89.0000     6.6910     0.0427     0.1553   105.2497     2.4390     7.7095     8.1319   -33.5584  -999.2500
   89.5000     6.8111     0.0292     0.1491   104.8014     2.4352     7.7650     8.2552   -33.8370  -999.2500
   90.0000     6.9911     0.0231     0.1413   105.8561     2.4434     7.8212     8.3680   -33.9670  -999.2500
   90.5000     7.1113     0.0201     0.1352   105.5588     2.4516     7.8773     8.3719   -34.5552  -999.2500
   91.0000     7.2613     0.0231     0.1316   106.0122     2.4598     7.8794     8.3173   -35.1138  -999.2500
   91.5000     7.3815     0.0230     0.1302   106.9160     2.4643     7.8815     8.3221   -35.5410  -999.2500
   92.0000     7.4867     0.0260     0.1422   107.0731     2.4643     7.8836     8.2687   -35.9682  -999.2500
   92.5000     7.5022     0.0308     0.1458   108.1932     2.4611     7.9403     8.3299   -36.5439  -999.2500
   93.0000     7.5028     0.0455     0.1470   110.2288     2.4534     7.9472     8.3347   -37.1204  -999.2500
   93.5000     7.4735     0.0830     0.1476   111.5831     2.4462     7.9999     8.3963   -37.2506  -999.2500
   94.0000     7.4143     0.1160     0.1476   111.7362     2.4431     8.0021     8.4002   -37.6768  -999.2500
   94.5000     7.2954     0.1400     0.1464   111.7391     2.4416     8.0042     8.4041   -38.2479  -999.2500
   95.0000     7.1167     0.1730     0.1425   111.1414     2.4431     8.0063     8.4080   -38.5265  -999.2500
   95.5000     7.0126     0.1775     0.1308   110.9942     2.4520     8.0638     8.4701   -38.9537  -999.2500
   96.0000     6.8637     0.1759     0.1353   110.6967     2.4647     8.1217     8.5981   -40.1284  -999.2500
   96.5000     6.7298     0.1519     0.1440   110.0991     2.5021     8.2936     8.8370   -40.1052  -999.2500
   97.0000     6.6403     0.1248     0.1488   108.4294     2.5096     8.4695     8.9639   -40.0862  -999.2500
   97.5000     6.5944     0.0842     0.1572   106.6066     2.4900     8.7085     9.1555   -40.2165  -999.2500
   98.0000     6.5820     0.0436     0.1623   105.9044     2.4398     8.8927     9.2231   -40.3465  -999.2500
   98.5000     6.6724     0.0376     0.1645   105.4562     2.4173     9.2068     9.2912   -40.6251  -999.2500
   99.0000     6.7777     0.0373     0.1615   105.1588     2.4203     9.7310     9.2956   -41.0523  -999.2500
   99.5000     6.8679     0.0331     0.1432   105.4628     2.4330    10.0056     9.3653   -41.6234  -999.2500
  100.0000     7.0030     0.0285     0.1381   105.7658     2.4464     9.9402     9.2401   -42.4939  -999.2500
  100.5000     7.1382     0.0302     0.1415   106.8463     2.4539     9.9488     9.3755   -42.9253  -999.2500
  101.0000     7.2135     0.0314     0.1468   107.9520     2.4539     9.9574     9.2526   -43.3603  -999.2500
  101.5000     7.2589     0.0449     0.1507   109.0823     2.4517     9.9663     9.1946   -43.9403  -999.2500
  102.0000     7.2445     0.0719     0.1561   106.2350     2.4434     9.9062     9.2001   -44.9625  -999.2500
  102.5000     7.1996     0.1094     0.1589   109.9931     2.4315     9.9169     9.2056   -45.3987  -999.2500
  103.0000     7.1074     0.1424     0.1609   111.6492     2.4247    10.0632     9.2114   -46.1189  -999.2500
  103.5000     7.0073     0.1603     0.1600   111.3533     2.4248    10.0028     9.2181   -46.5503  -999.2500
  104.0000     6.8883     0.1648     0.1588   106.8532     2.4271     9.8745     9.2874   -46.9817  -999.2500
  104.5000     6.8291     0.1462     0.1570   103.8546     2.4494     9.8150     9.2278   -47.2681  -999.2500
