~VERSION INFORMATION
 VERS.                2.0:   CWLS LOG ASCII STANDARD - VERSION 2.0
 WRAP.                 NO:   ONE LINE PER DEPTH STEP
~WELL INFORMATION
#MNEM.UNIT      DATA TYPE    INFORMATION
#----------   ------------   ------------------------------
 STRT.F           40.0000:   START DEPTH
 STOP.F          468.0000:   STOP DEPTH
 STEP.F            0.5000:   STEP LENGTH
 NULL.          -999.2500:   NO VALUE
 COMP. BROWN JOHN E&C INC:   COMPANY
 WELL. NAVAL PETROLEUM RESERVE 3 SX-1 #73-2-10:   WELL
 FLD .             TEAPOT:   FIELD
 LOC .      S10 T38N R78W:   LOCATION
 CNTY.            NATRONA:   COUNTY
 STAT.            WYOMING:   STATE
 CTRY. UNITED STATES OF AMERICA:   COUNTRY
 SRVC.     Atlas Wireline:   SERVICE COMPANY
 DATE.        05-MAY-1991:   LOGDATE
 API .       490251134000:   API NUMBER
~CURVE INFORMATION
#MNEM.UNIT       API CODE    CURVE DESCRIPTION
#----------   ------------   ------------------------------
 DEPT.F                  :   
 RILD.OHMM   07 120 46 00:   INDUCTION LOG DEEP RESISTIVITY
 RILM.OHMM   07 120 44 00:   INDUCTION LOG MEDIUM RESISTIVITY
 GRD .GAPI   45 310 01 00:   GAMMA RAY FROM DENSITY LOG
 CALD.IN     45 280 60 00:   CALIPER FROM DENSITY LOG
 CORR.G/C3   45 356 01 00:   DENSITY CORRECTION
 PORD.DEC    45 890 12 00:   POROSITY DENSITY SANDSTONE
 DEN .G/C3   45 350 01 00:   COMPENSATED BULK DENSTIY
~PARAMETER INFORMATION
#MNEM.UNIT          VALUE    DESCRIPTION
#----------   ------------   ------------------------------
 PD  .                 GL:   PERMANENT DATUM
 EPD .F              5178:   ELEVATION PERMANENT DATUM
 LMF .                 KB:   LOG MEASURED FROM
 DAPD.F                 5:   FEET ABOVE PERMANENT DATUM
 DMF .                 KB:   DRILLING MEASURED FROM
 EKB .F              5183:   KELLING BUSHING
 EGL .F              5178:   GROUND LEVEL
 DATE.        05-MAY-1991:   RUN DATE
 RUN .                  1:   RUN NUMBER
 DD  .F               470:   DEPTH DRILLER
 DL  .F               470:   DEPTH LOGGER
 BLI .F               468:   BOTTOM LOG INTERVAL
 TLI .F                 0:   TOP LOG INTERVAL
 CS  .IN            8.625:   CASING SIZE
 CBD .F                45:   CASING BOTTOM DRILLER
 CBL .F                45:   CASING BOTTOM LOGGER
 BS  .IN            7.875:   BIT SIZE
 BSD .F               470:   BIT SIZE AT DEPTH
 DFT .                AIR:   DRILLING FLUID TYPE
 LUN .            HL-6272:   LOGGING UNIT NUMBER
 LUL .             CASPER:   LOGGING UNIT LOCATION
 ENGI.            KINNETT:   RECORDING ENGINEER
 WITN.             STRONG:   WITNESSED BY
 CLNT.            A2DTECH:   CLIENT CODE
 ORIG.           5" PRINT:   ORIGIN OF DATA
 UWI .       490251134000:   UNIQUE WELL ID
 DICO. A2D Technologies, Inc.:   DIGITIZING COMPANY
~OTHER INFORMATION
~A   DEPT     RILD       RILM          GRD     CALD       CORR       PORD        DEN   
# ...
  358.5000    25.6516    27.8811    10.4773     8.3698     0.0220     0.2062     2.3079
  359.0000    25.6498    27.3042    15.9259     8.3700     0.0160     0.2062     2.3094
  359.5000    25.4702    26.9257    20.0129     8.3701     0.0115     0.2059     2.3108
  360.0000    25.2921    26.5524    24.0998     8.3551     0.0115     0.2053     2.3116
  360.5000    25.2904    25.8231    22.0598     8.3553     0.0115     0.2044     2.3123
  361.0000    24.9398    25.6426    19.7927     8.3554     0.0131     0.2035     2.3153
  361.5000    24.9381    25.2871    18.2065     8.3556     0.0146     0.2007     2.3191
  362.0000    24.9364    25.1104    19.7973     8.3557     0.0161     0.1974     2.3244
  362.5000    24.7621    25.1087    22.2958     8.3559     0.0192     0.1944     2.3296
  363.0000    24.4188    24.9331    24.5673     8.3560     0.0237     0.1946     2.3281
  363.5000    24.2481    24.7588    24.3427     8.3562     0.0240     0.1987     2.3228
  364.0000    24.0786    24.4152    20.0333     8.3563     0.0223     0.2029     2.3161
  364.5000    23.7448    24.2446    17.9932     8.3716     0.0193     0.2032     2.3168
  365.0000    23.4156    23.9085    20.0378     8.3718     0.0148     0.1975     2.3251
  365.5000    22.9312    23.5770    21.6286     8.3871     0.0118     0.1921     2.3326
  366.0000    22.3013    23.2501    22.9924     8.3721     0.0119     0.1897     2.3386
  366.5000    21.8263    22.9278    24.1293     8.3723     0.0119     0.1891     2.3401
  367.0000    21.5142    22.4535    25.0393     8.3724     0.0149     0.1882     2.3363
  367.5000    21.0912    21.9889    25.9493     8.3726     0.0195     0.1873     2.3371
  368.0000    20.6548    21.6841    26.6324     8.3727     0.0226     0.1834     2.3506
  368.5000    20.2275    21.2355    27.0885     8.3729     0.0256     0.1768     2.3619
  369.0000    19.9471    20.6522    27.0908     8.3730     0.0224     0.1708     2.3717
  369.5000    19.5344    20.2249    27.5469     8.3883     0.0148     0.1690     2.3709
  370.0000    19.2636    19.9445    28.9107     8.3885     0.0091     0.1747     2.3589
  370.5000    18.8650    19.6680    30.2746     8.3734     0.0106     0.1762     2.3611
  371.0000    18.6035    19.5125    32.5461     8.3736     0.0167     0.1747     2.3649
  371.5000    18.4735    19.3937    31.8676     8.3738     0.0227     0.1735     2.3656
  372.0000    18.3443    19.2581    27.1044     8.3587     0.0152     0.1732     2.3641
  372.5000    18.2161    19.1235    25.5182     8.3589     0.0093     0.1729     2.3641
  373.0000    18.0888    18.9899    25.5204     8.3591     0.0078     0.1723     2.3656
  373.5000    17.9624    18.8571    25.9766     8.3440     0.0078     0.1714     2.3686
  374.0000    17.9611    18.7253    24.8442     8.3290     0.0093     0.1699     2.3709
  374.5000    17.9599    18.4657    22.5772     8.3140     0.0094     0.1696     2.3701
  375.0000    17.9379    18.3367    22.8064     8.3141     0.0109     0.1723     2.3671
  375.5000    17.8328    18.0824    24.3971     8.3143     0.0124     0.1774     2.3588
  376.0000    17.5856    17.9561    24.8533     8.2993     0.0155     0.1795     2.3513
  376.5000    17.3418    17.8306    22.5862     8.2994     0.0185     0.1813     2.3498
  377.0000    17.2208    17.7059    23.2693     8.2996     0.0171     0.1816     2.3497
  377.5000    16.9819    17.4605    25.3139     8.2997     0.0156     0.1816     2.3512
  378.0000    16.8632    17.4512    22.5930     8.2999     0.0156     0.1804     2.3558
  378.5000    16.6294    17.2172    19.1914     8.3000     0.0156     0.1762     2.3648
  379.0000    16.5132    17.0966    20.1014     8.3002     0.0172     0.1675     2.3738
  379.5000    16.3977    16.9771    22.1460     8.2851     0.0187     0.1633     2.3813
  380.0000    16.2831    16.9759    22.1483     8.2701     0.0187     0.1612     2.3798
  380.5000    16.0574    16.8573    21.0159     8.2703     0.0173     0.1624     2.3783
  381.0000    15.9451    16.7394    19.6566     8.2552     0.0173     0.1645     2.3783
  381.5000    15.8337    16.7382    18.0703     8.2554     0.0173     0.1639     2.3798
  382.0000    15.7230    16.6213    15.8033     8.2707     0.0158     0.1612     2.3843
  382.5000    15.6005    16.5051    14.6710     8.2709     0.0159     0.1582     2.3903
  383.0000    15.5039    16.5040    18.0772     8.2710     0.0144     0.1554     2.3971
  383.5000    15.2888    16.3886    20.5756     8.2712     0.0099     0.1512     2.4039
  384.0000    15.1819    16.2741    19.4433     8.2713     0.0054     0.1452     2.4106
  384.5000    15.0758    16.1603    20.3533     8.2715     0.0040     0.1416     2.4174
  385.0000    14.9704    16.0474    23.5325     8.2716     0.0040     0.1401     2.4204
  385.5000    14.8658    16.0388    26.9387     8.2718     0.0025     0.1386     2.4219
  386.0000    14.7619    15.9341    23.9909     8.2720     0.0040     0.1368     2.4242
  386.5000    14.6587    15.7130    18.5469     8.2721     0.0059     0.1350     2.4279
  387.0000    14.5562    15.6033    14.6914     8.2723     0.0086     0.1347     2.4294
  387.5000    14.4545    15.4941    17.4168     8.2724     0.0102     0.1360     2.4264
  388.0000    14.2541    15.2477    20.8230     8.2726     0.0147     0.1375     2.4219
  388.5000    14.2531    15.0674    22.6407     8.2575     0.0208     0.1389     2.4204
  389.0000    14.1535    14.7557    24.4584     8.2729     0.0298     0.1374     2.4249
  389.5000    13.9573    14.6526    26.7300     8.2730     0.0344     0.1353     2.4286
  390.0000    13.8597    14.3494    27.8669     8.2732     0.0254     0.1335     2.4316
  390.5000    13.6675    14.2491    26.7345     8.2733     0.0209     0.1320     2.4331
  391.0000    13.5718    14.0516    26.9637     8.2735     0.0194     0.1317     2.4346
  391.5000    13.3837    13.9534    29.0083     8.2736     0.0224     0.1296     2.4391
  392.0000    13.1981    13.6647    32.1876     8.2738     0.0255     0.1251     2.4444
  392.5000    13.1059    13.5692    35.3669     8.2739     0.0270     0.1227     2.4474
  393.0000    12.9242    13.3810    33.3268     8.2741     0.0270     0.1227     2.4481
  393.5000    12.7450    13.2875    30.8328     8.2742     0.0241     0.1215     2.4489
  394.0000    12.7441    13.1944    29.0197     8.2592     0.0226     0.1200     2.4519
  394.5000    12.5675    13.1935    26.7526     8.2594     0.0181     0.1155     2.4579
  395.0000    12.3932    13.1013    24.0318     8.2595     0.0151     0.1113     2.4662
  395.5000    12.3066    13.0097    23.8071     8.2597     0.0136     0.1071     2.4730
  396.0000    12.1360    12.9188    28.5749     8.2929     0.0137     0.1065     2.4684
  396.5000    12.0512    12.8285    29.7118     8.2930     0.0122     0.1107     2.4632
  397.0000    11.9669    12.8276    30.1679     8.2931     0.0107     0.1143     2.4594
  397.5000    11.8833    12.7380    31.3048     8.3084     0.0108     0.1155     2.4579
  398.0000    11.8002    12.7371    33.5764     8.3085     0.0108     0.1161     2.4579
  398.5000    11.7177    12.7362    35.8480     8.3101     0.0138     0.1164     2.4586
  399.0000    11.7167    12.6472    33.3540     8.3255     0.0184     0.1155     2.4601
  399.5000    11.7159    12.5588    30.8601     8.3393     0.0214     0.1140     2.4654
  400.0000    11.7182    12.5641    33.3585     8.3394     0.0214     0.1122     2.4691
  400.5000    11.7535    12.5882    34.7250     8.3395     0.0196     0.1083     2.4782
  401.0000    11.7889    12.6124    35.4092     8.3397     0.0177     0.1098     2.4654
  401.5000    11.8242    12.6375    33.1456     8.3398     0.0169     0.1122     2.4623
  402.0000    11.8595    12.6349    31.1077     8.3379     0.0169     0.1131     2.4646
  402.5000    11.7846    12.6323    30.8842     8.3249     0.0169     0.1125     2.4699
  403.0000    11.7006    12.5417    32.2514     8.3250     0.0154     0.1110     2.4752
  403.5000    11.6982    12.4528    33.3906     8.3251     0.0154     0.1088     2.4699
