~VERSION INFORMATION
 VERS.                2.0:   CWLS LOG ASCII STANDARD - VERSION 2.0
 WRAP.                 NO:   ONE LINE PER DEPTH STEP
~WELL INFORMATION
#MNEM.UNIT      DATA TYPE    INFORMATION
#----------   ------------   ------------------------------
 STRT.F           66.0000:   START DEPTH
 STOP.F          892.0000:   STOP DEPTH
 STEP.F            0.5000:   STEP LENGTH
 NULL.          -999.2500:   NO VALUE
 COMP. LAWRENCE/ALLISON INC:   COMPANY
 WELL. NPR #3 #31-11 SX 2:   WELL
 FLD .             TEAPOT:   FIELD
 LOC .       S2 T38N R78W:   LOCATION
 CNTY.            NATRONA:   COUNTY
 STAT.            WYOMING:   STATE
 CTRY. UNITED STATES OF AMERICA:   COUNTRY
 SRVC.      Dresser Atlas:   SERVICE COMPANY
 DATE.        10-AUG-1985:   LOGDATE
 API .       490251103900:   API NUMBER
~CURVE INFORMATION
#MNEM.UNIT       API CODE    CURVE DESCRIPTION
#----------   ------------   ------------------------------
 DEPT.F                  :   
 PORD.DEC    45 890 12 00:   POROSITY DENSITY SANDSTONE
 CNC .DEC    42 890 03 00:   NEUTRON POROSITY SANDSTONE
 CORR.G/C3   45 356 01 00:   DENSITY CORRECTION
 DEN .G/C3   45 350 01 00:   COMPENSATED BULK DENSTIY
 CALD.IN     45 280 60 00:   CALIPER FROM DENSITY LOG
 SPR .MV     07 010 01 00:   SPONTANEOUS POTENTIAL
 RILD.OHMM   07 120 46 00:   INDUCTION LOG DEEP RESISTIVITY
 RILM.OHMM   07 120 44 00:   INDUCTION LOG MEDIUM RESISTIVITY
 RFOC.OHMM   07 220 04 00:   RESISTIVITY FOCUSED LOG
~PARAMETER INFORMATION
#MNEM.UNIT          VALUE    DESCRIPTION
#----------   ------------   ------------------------------
 PD  .                 GL:   PERMANENT DATUM
 EPD .F              5110:   ELEVATION PERMANENT DATUM
 LMF .                 GL:   LOG MEASURED FROM
 DMF .                 GL:   DRILLING MEASURED FROM
 EKB .F              5115:   KELLING BUSHING
 EGL .F              5110:   GROUND LEVEL
 DATE.        10-AUG-1985:   RUN DATE
 RUN .                  1:   RUN NUMBER
 DD  .F               899:   DEPTH DRILLER
 DL  .F               895:   DEPTH LOGGER
 BLI .F               892:   BOTTOM LOG INTERVAL
 CS  .IN            8.625:   CASING SIZE
 CBD .F                75:   CASING BOTTOM DRILLER
 CBL .F                78:   CASING BOTTOM LOGGER
 BS  .IN            7.875:   BIT SIZE
 BSD .F               899:   BIT SIZE AT DEPTH
 DFT .                KCL:   DRILLING FLUID TYPE
 MSS .           FLOWLINE:   MUD SAMPLE SOURCE
 RMS .OHMM            .21:   RESISTIVITY MUD SAMPLE
 MST .F                75:   MUD SAMPLE TEMPERATURE
 TCS .HRS            0200:   TIME CURCULATED STOPPED
 MRT .F               100:   MAXIMUM RECORDED TEMPERATURE
 LUN .               6274:   LOGGING UNIT NUMBER
 LUL .               GLTE:   LOGGING UNIT LOCATION
 ENGI.             RAUTIO:   RECORDING ENGINEER
 WITN.        LINDA FIVAS:   WITNESSED BY
 CLNT.            A2DTECH:   CLIENT CODE
 ORIG.           5" PRINT:   ORIGIN OF DATA
 UWI .       490251103900:   UNIQUE WELL ID
 DICO. A2D Technologies, Inc.:   DIGITIZING COMPANY
~OTHER INFORMATION
~A   DEPT     PORD        CNC       CORR        DEN       CALD        SPR       RILD       RILM       RFOC   
# ...
  321.5000     0.1685     0.2966    -0.0138     2.3989     8.0910   -66.9561     7.2809     7.2610     7.7022
  322.0000     0.1661     0.3014    -0.0230     2.4004     8.0899   -67.1180     7.4341     7.3624     7.9755
  322.5000     0.1661     0.3017    -0.0530     2.4019     8.0890   -67.5804     7.5380     7.5174     7.8112
  323.0000     0.1640     0.2987    -0.0394     2.4056     8.0882   -68.0429     7.5903     7.6223     7.7575
  323.5000     0.1592     0.2977    -0.0003     2.4116     8.0722   -68.2028     7.6429     7.7288     7.7580
  324.0000     0.1543     0.3074     0.0132     2.4199     8.0864   -68.3648     7.6958     7.7281     7.8129
  324.5000     0.1580     0.3077     0.0057     2.4169     8.0854   -68.3734     7.7492     7.7276     7.8678
  325.0000     0.1583     0.3083    -0.0049     2.4146     8.0844   -68.2307     7.6947     7.6735     7.8138
  325.5000     0.1534     0.3128     0.0011     2.4178     8.0836   -67.9365     7.5876     7.6730     7.8144
  326.0000     0.1477     0.3158     0.0196     2.4281     8.0827   -67.7940     7.5870     7.6191     7.8151
  326.5000     0.1438     0.3134     0.0252     2.4364     8.0819   -67.9560     7.5338     7.5657     7.6540
  327.0000     0.1480     0.3104     0.0116     2.4341     8.0810   -68.1159     7.4810     7.5127     7.4963
  327.5000     0.1492     0.3122    -0.0110     2.4296     8.0801   -68.2758     7.3769     7.4082     7.3419
  328.0000     0.1464     0.3207    -0.0125     2.4318     8.0790   -68.1291     7.2236     7.3051     7.1907
  328.5000     0.1431     0.3390     0.0040     2.4356     8.0782   -67.6878     7.0736     7.3046     7.1912
  329.0000     0.1419     0.3496     0.0251     2.4408     8.0924   -67.3960     7.0240     7.2031     7.1417
  329.5000     0.1401     0.3580     0.0281     2.4438     8.0914   -67.2511     6.9747     7.1029     7.0927
  330.0000     0.1456     0.3595     0.0115     2.4378     8.0906   -66.6567     6.9743     7.1025     7.0932
  330.5000     0.1471     0.3598     0.0025     2.4332     8.0896   -66.0623     6.9737     7.1019     7.0444
  331.0000     0.1477     0.3562     0.0190     2.4325     8.0888   -65.9175     6.9732     7.1014     6.9960
  331.5000     0.1480     0.3393     0.0130     2.4325     8.0878   -65.9282     7.0216     7.1009     6.9966
  332.0000     0.1504     0.3267    -0.0066     2.4316     8.0869   -66.2394     7.0211     7.1005     6.9971
  332.5000     0.1552     0.3248    -0.0172     2.4196     8.1012   -66.7120     7.0696     7.0506     6.9976
  333.0000     0.1600     0.3218    -0.0232     2.4144     8.1002   -67.4690     7.0692     7.0012     7.1458
  333.5000     0.1603     0.3160    -0.0295     2.4121     8.1146   -68.2340     7.0687     6.9521     7.2464
  334.0000     0.1567     0.3076    -0.0383     2.4136     8.1136   -68.8477     7.0682     6.9517     7.3999
  334.5000     0.1540     0.3185    -0.0247     2.4166     8.1278   -69.1589     7.0186     6.9512     7.5567
  335.0000     0.1513     0.3122     0.0114     2.4211     8.1267   -69.0184     7.0181     6.9506     7.5572
  335.5000     0.1510     0.3061     0.0294     2.4264     8.1258   -68.7244     6.9689     6.9988     7.4014
  336.0000     0.1516     0.3176     0.0174     2.4248     8.1250   -68.4304     6.9684     6.9983     7.2489
  336.5000     0.1490     0.3385    -0.0007     2.4263     8.1241   -68.1362     6.9679     6.9978     7.0443
  337.0000     0.1419     0.3468    -0.0022     2.4330     8.1232   -67.9937     7.0161     6.9487     7.0019
  337.5000     0.1358     0.3333     0.0308     2.4466     8.1224   -68.0045     7.0157     6.9482     7.0514
  338.0000     0.1322     0.3079     0.0639     2.4571     8.1213   -68.0131     7.0643     6.9964     7.1507
  338.5000     0.1349     0.3008     0.0669     2.4488     8.1204   -68.0216     7.0638     7.0448     7.2012
  339.0000     0.1456     0.2961     0.0308     2.4351     8.1045   -68.0303     7.0632     7.0978     7.3537
  339.5000     0.1485     0.2987    -0.0023     2.4322     8.1036   -68.0410     7.0628     7.1427     7.7215
  340.0000     0.1434     0.3185    -0.0324     2.4352     8.1027   -67.8961     7.1615     7.1421     7.8850
  340.5000     0.1370     0.3227    -0.0291     2.4435     8.1017   -67.9069     7.2111     7.1917     7.8855
  341.0000     0.1322     0.3176    -0.0009     2.4547     8.1008   -67.9155     7.3629     7.3943     7.7771
  341.5000     0.1289     0.3124     0.0322     2.4615     8.1000   -67.9244     7.3113     7.2408     7.5640
  342.0000     0.1274     0.3055     0.0292     2.4653     8.0991   -68.0861     6.9626     6.7530     7.1547
  342.5000     0.1259     0.3100     0.0232     2.4683     8.0982   -68.0947     6.4932     6.6129     6.8148
  343.0000     0.1240     0.3280     0.0232     2.4720     8.0973   -67.9498     6.5840     6.5210     6.8684
  343.5000     0.1237     0.3598     0.0247     2.4735     8.1115   -67.4987     6.4923     6.4709     6.8634
  344.0000     0.1261     0.3712     0.0369     2.4720     8.1105   -66.9101     6.3133     6.3408     6.6291
  344.5000     0.1277     0.3682     0.0652     2.4674     8.1249   -66.9209     6.2691     6.3404     6.3582
  345.0000     0.1286     0.3610     0.0938     2.4659     8.1238   -67.0808     6.4011     6.4739     6.4032
  345.5000     0.1322     0.3489     0.1043     2.4644     8.1381   -67.2406     6.4454     6.3839     6.4037
  346.0000     0.1479     0.3364     0.1149     2.4479     8.1370   -67.5539     6.3115     6.1648     6.6310
  346.5000     0.1488     0.3211     0.1194     2.4320     8.1361   -67.8651     6.2237     6.0791     7.0112
  347.0000     0.1455     0.3145     0.1133     2.4388     8.1353   -67.8737     6.0945     6.0787     7.4133
  347.5000     0.1331     0.3115     0.0712     2.4568     8.1344   -67.8823     6.0516     6.0361     7.6232
  348.0000     0.1125     0.3275     0.0497     2.4861     8.1335   -67.7396     6.0937     6.0402     7.3119
  348.5000     0.1095     0.3416     0.0411     2.4975     8.1326   -67.5969     6.1787     6.2058     6.8206
  349.0000     0.1101     0.3538     0.0365     2.4890     8.1165   -67.3051     6.3089     6.2488     6.5877
  349.5000     0.1195     0.3582     0.0395     2.4756     8.1156   -67.1602     6.3085     6.1619     6.4924
  350.0000     0.1252     0.3507     0.0541     2.4703     8.1148   -67.6248     6.2207     6.1615     6.3632
  350.5000     0.1249     0.3256     0.0726     2.4710     8.1139   -67.9086     6.3357     6.2279     6.3636
  351.0000     0.1231     0.3106     0.0680     2.4741     8.1130   -68.0915     6.4423     6.3808     6.4534
  351.5000     0.1213     0.3075     0.0379     2.4747     8.1120   -68.0975     6.5490     6.5160     6.5900
  352.0000     0.1228     0.3078     0.0032     2.4725     8.1111   -67.4982     6.7166     6.6541     6.7296
  352.5000     0.1237     0.3130     0.0062     2.4717     8.1102   -66.7477     6.9548     6.8434     7.1155
  353.0000     0.1237     0.3202     0.0242     2.4717     8.1094   -66.7537     6.9548     6.8909     7.1657
  353.5000     0.1234     0.3247     0.0407     2.4724     8.1083   -66.7596     6.9065     6.7960     7.1662
  354.0000     0.1234     0.3187     0.0385     2.4709     8.1074   -66.7655     6.9548     7.0867     7.2167
  354.5000     0.1267     0.3077     0.0045     2.4641     8.1066   -66.7716     7.1515     7.2875     7.2172
  355.0000     0.1321     0.2991     0.0360     2.4536     8.1057   -66.7776     7.3538     7.4419     7.3769
  355.5000     0.1369     0.2976     0.0721     2.4498     8.1048   -66.7848     7.5092     7.4945     7.6317
  356.0000     0.1357     0.3021     0.0781     2.4573     8.1039   -66.9420     7.5092     7.4950     8.3552
  356.5000     0.1297     0.3187     0.0657     2.4791     8.1029   -67.4018     7.5092     7.4955     9.1473
  357.0000     0.1209     0.3232     0.0524     2.4881     8.1171   -67.8616     7.5092     7.3923     8.5327
  357.5000     0.1146     0.3212     0.0418     2.4881     8.1162   -68.4727     7.4570     7.1896     7.2707
