~VERSION INFORMATION
 VERS.                2.0:   CWLS LOG ASCII STANDARD - VERSION 2.0
 WRAP.                 NO:   ONE LINE PER DEPTH STEP
~WELL INFORMATION
#MNEM.UNIT      DATA TYPE    INFORMATION
#----------   ------------   ------------------------------
 STRT.F            6.0000:   START DEPTH
 STOP.F          475.0000:   STOP DEPTH
 STEP.F            0.5000:   STEP LENGTH
 NULL.          -999.2500:   NO VALUE
 COMP. BROWN JOHN E&C INC:   COMPANY
 WELL.       SX 74 #32-10:   WELL
 FLD .             TEAPOT:   FIELD
 LOC .      S10 T38N R78W:   LOCATION
 CNTY.            NATRONA:   COUNTY
 STAT.            WYOMING:   STATE
 CTRY. UNITED STATES OF AMERICA:   COUNTRY
 SRVC.       Schlumberger:   SERVICE COMPANY
 DATE.        06-SEP-1990:   LOGDATE
 API .       490251132500:   API NUMBER
~CURVE INFORMATION
#MNEM.UNIT       API CODE    CURVE DESCRIPTION
#----------   ------------   ------------------------------
 DEPT.F                  :   
 GRR .GAPI   07 310 01 00:   GAMMA RAY FROM RES. LOG.
 ILD .OHMM   07 120 46 00:   INDUCTION LOG DEEP
 ILM .OHMM   07 120 44 00:   INDUCTION LOG MEDIUM
~PARAMETER INFORMATION
#MNEM.UNIT          VALUE    DESCRIPTION
#----------   ------------   ------------------------------
 PD  .                 GL:   PERMANENT DATUM
 EPD .F              5180:   ELEVATION PERMANENT DATUM
 LMF .                 KB:   LOG MEASURED FROM
 DAPD.F                10:   FEET ABOVE PERMANENT DATUM
 DMF .                 KB:   DRILLING MEASURED FROM
 EKB .F              5190:   KELLING BUSHING
 EGL .F              5180:   GROUND LEVEL
 DATE.         6-SEP-1990:   RUN DATE
 RUN .                  1:   RUN NUMBER
 DD  .F               480:   DEPTH DRILLER
 DL  .F               481:   DEPTH LOGGER
 BLI .F               475:   BOTTOM LOG INTERVAL
 TLI .F                10:   TOP LOG INTERVAL
 CS  .IN            8.625:   CASING SIZE
 CBD .F                42:   CASING BOTTOM DRILLER
 CBL .F                42:   CASING BOTTOM LOGGER
 BS  .IN            7.875:   BIT SIZE
 BSD .F               480:   BIT SIZE AT DEPTH
 DFT .                AIR:   DRILLING FLUID TYPE
 MFSS.               MEAS:   MUD FILTRATE SAMPLE SOURCE
 MCSS.               CALC:   MUD CAKE SAMPLE SOURCE
 BHT .F                69:   BOTTOM HOLE TEMPERATURE
 TLAB.HRS            0919:   TIME LOGGER AT BOTTOM
 MRT .F                69:   MAXIMUM RECORDED TEMPERATURE
 LUN .               8199:   LOGGING UNIT NUMBER
 LUL .             CASPER:   LOGGING UNIT LOCATION
 ENGI.                LEE:   RECORDING ENGINEER
 WITN.          G. STRONG:   WITNESSED BY
 CLNT.            A2DTECH:   CLIENT CODE
 ORIG.        2" 5" PRINT:   ORIGIN OF DATA
 UWI .       490251132500:   UNIQUE WELL ID
 DICO. A2D Technologies, Inc.:   DIGITIZING COMPANY
~OTHER INFORMATION
~A    DEPT      GRR       ILD        ILM   
    6.0000    27.2891  -999.2500  -999.2500
    6.5000    23.0444  -999.2500  -999.2500
    7.0000    20.8078  -999.2500  -999.2500
    7.5000    19.0123  -999.2500  -999.2500
    8.0000    16.7822  -999.2500  -999.2500
    8.5000    14.5311  -999.2500  -999.2500
    9.0000    12.3013  -999.2500  -999.2500
    9.5000    10.8984  -999.2500  -999.2500
   10.0000    10.6918  -999.2500  -999.2500
   10.5000    11.1883  -999.2500  -999.2500
   11.0000    16.2217  -999.2500  -999.2500
   11.5000    27.4470  -999.2500  -999.2500
   12.0000    39.0116  -999.2500  -999.2500
   12.5000    50.8509  -999.2500  -999.2500
   13.0000    53.8312  -999.2500  -999.2500
   13.5000    54.7527  -999.2500  -999.2500
   14.0000    55.6106  -999.2500  -999.2500
   14.5000    57.8535  -999.2500  -999.2500
   15.0000    63.9464  -999.2500  -999.2500
   15.5000    71.6992  -999.2500  -999.2500
   16.0000    77.8953  -999.2500  -999.2500
   16.5000    79.7891  -999.2500  -999.2500
   17.0000    78.8914  -999.2500  -999.2500
   17.5000    77.4817  -999.2500  -999.2500
   18.0000    77.1907  -999.2500  -999.2500
   18.5000    76.8864  -999.2500  -999.2500
   19.0000    75.8439  -999.2500  -999.2500
   19.5000    72.6190  -999.2500  -999.2500
   20.0000    69.1494  -999.2500  -999.2500
   20.5000    66.9147  -999.2500  -999.2500
   21.0000    67.5414  -999.2500  -999.2500
   21.5000    69.5842  -999.2500  -999.2500
   22.0000    71.1457  -999.2500  -999.2500
   22.5000    68.9871  -999.2500  -999.2500
   23.0000    65.2558  -999.2500  -999.2500
   23.5000    62.9075  -999.2500  -999.2500
   24.0000    62.9058  -999.2500  -999.2500
   24.5000    64.4300  -999.2500  -999.2500
   25.0000    65.5642  -999.2500  -999.2500
   25.5000    64.8018  -999.2500  -999.2500
   26.0000    63.7723  -999.2500  -999.2500
   26.5000    62.7637  -999.2500  -999.2500
   27.0000    61.0803  -999.2500  -999.2500
   27.5000    57.9176  -999.2500  -999.2500
   28.0000    53.6113  -999.2500  -999.2500
   28.5000    52.4378  -999.2500  -999.2500
   29.0000    56.3999  -999.2500  -999.2500
   29.5000    60.2810  -999.2500  -999.2500
   30.0000    61.3671  -999.2500  -999.2500
   30.5000    60.9680  -999.2500  -999.2500
   31.0000    60.1107  -999.2500  -999.2500
   31.5000    60.2724  -999.2500  -999.2500
   32.0000    60.7514  -999.2500  -999.2500
   32.5000    61.1609  -999.2500  -999.2500
   33.0000    59.0027  -999.2500  -999.2500
   33.5000    56.2195  -999.2500  -999.2500
   34.0000    54.3759  -999.2500  -999.2500
   34.5000    54.6226  -999.2500  -999.2500
   35.0000    57.4520  -999.2500  -999.2500
   35.5000    61.4257  -999.2500  -999.2500
   36.0000    64.3198  -999.2500  -999.2500
   36.5000    65.7832  -999.2500  -999.2500
   37.0000    66.5514  -999.2500  -999.2500
   37.5000    67.3310  -999.2500  -999.2500
   38.0000    67.7759  -999.2500  -999.2500
   38.5000    66.8516  -999.2500  -999.2500
   39.0000    66.3610  -999.2500  -999.2500
   39.5000    67.2779  -999.2500  -999.2500
   40.0000    68.2746  -999.2500  -999.2500
   40.5000    66.5874  -999.2500  -999.2500
   41.0000    62.0103  -999.2500  -999.2500
   41.5000    57.6620  -999.2500    12.8886
   42.0000    53.8479   200.4615    12.9361
   42.5000    53.7648   777.1878    13.1120
   43.0000    56.1467  1509.7599    13.1039
   43.5000    59.3985  1544.5021    13.5959
   44.0000    60.6771   568.1768    15.7922
   44.5000    62.2793   698.5108    19.8019
   45.0000    66.1513  1815.4653    23.8354
   45.5000    70.9332  1972.5317    22.4863
   46.0000    74.9090  1985.0836    25.0445
   46.5000    72.4527  1998.0580    32.3027
   47.0000    69.5615  2011.1171   710.8744
   47.5000    68.3631  2024.2616  1614.1240
   48.0000    69.9717  2027.8218  2009.2408
   48.5000    76.4273  2027.9216  2004.8302
   49.0000    83.3274  2028.0005  2000.9998
   49.5000    90.2356  2017.7883  1997.1768
   50.0000   102.0499  1999.1270  1993.3610
   50.5000   116.0706  1990.8016  1592.3224
   51.0000   126.6910  1197.6980   575.1336
   51.5000   133.4426   494.7928    36.7328
   52.0000   135.2226    15.7662     8.7802
   52.5000   134.5241     1.4728     4.5251
   53.0000   134.7559     1.6842     2.7008
   53.5000   135.0936     2.4636     2.5594
   54.0000   135.2568     5.5994     2.7547
   54.5000   131.8801    14.6345     3.1000
   55.0000   128.2126    18.6443     3.6119
   55.5000   125.9035     6.0834     4.0290
   56.0000   125.5589     3.3029     4.0958
   56.5000   129.5809     3.2828     3.8387
   57.0000   131.5430     3.4064     4.1752
   57.5000   134.0648     3.5645     5.3135
   58.0000   136.8635     3.8115     6.6728
   58.5000   141.7638     4.0772     5.6059
   59.0000   144.5786     4.3308     4.5891
   59.5000   140.7601     4.2737     4.0710
   60.0000   134.1295     4.1618     3.9841
   60.5000   128.3017     4.0518     4.0156
   61.0000   129.3902     3.9475     4.0493
   61.5000   131.5481     3.9889     4.0832
   62.0000   134.3770     4.0297     4.1338
   62.5000   137.9214     4.0710     4.1153
   63.0000   140.6656     4.1127     4.0806
   63.5000   143.5546     4.1548     4.0461
   64.0000   144.4630     4.1974     4.0210
   64.5000   143.2985     4.2646     4.1290
   65.0000   139.8675     4.3442     4.2162
   65.5000   134.1351     4.4251     4.3055
   66.0000   131.3204     4.5076     4.3966
   66.5000   130.0661     4.5917     4.4896
   67.0000   129.4421     4.6954     4.5846
   67.5000   129.7891     4.8096     4.6816
   68.0000   134.3112     4.9265     4.7984
   68.5000   137.1250     5.0463     4.9233
   69.0000   136.9836     5.1690     5.0514
   69.5000   134.2619     5.2946     5.1829
   70.0000   132.9621     5.4233     5.3178
   70.5000   134.9316     5.5371     5.4562
   71.0000   136.8214     5.6309     5.5982
   71.5000   137.6379     5.7274     5.7439
   72.0000   139.4477     5.8248     5.8142
   72.5000   139.7013     5.8900     5.8142
   73.0000   138.6278     5.9273     5.8142
   73.5000   137.5692     5.9773     5.8142
   74.0000   142.0658     5.9646     5.8142
   74.5000   144.7962     5.9461     5.8142
   75.0000   144.1395     5.9277     5.8142
   75.5000   140.9444     5.9094     5.8143
   76.0000   138.9375     5.8911     5.8142
   76.5000   139.1720     5.8729     5.8154
   77.0000   138.9214     5.8681     5.7781
   77.5000   134.4666     5.8681     5.7124
   78.0000   130.1707     5.8681     5.6474
   78.5000   129.4098     5.8681     5.5523
   79.0000   130.9326     6.0182     5.6593
   79.5000   133.6784     6.1467     5.8733
   80.0000   136.5398     6.2780     6.0954
   80.5000   138.0113     6.4121     6.3259
   81.0000   135.9133     6.5491     6.5651
   81.5000   133.7299     6.8482     6.8134
   82.0000   134.4330     7.3214     7.0711
   82.5000   137.9402     7.5750     7.3377
   83.0000   143.5185     7.8385     7.5964
   83.5000   145.3133     8.1123     7.8610
   84.0000   143.6807     8.4072     8.1168
   84.5000   139.0101     8.7582     8.4022
   85.0000   131.0512     9.1402     8.7921
   85.5000   124.5844     9.5389     9.2002
   86.0000   121.8781     9.9550     9.6272
   86.5000   122.0523    10.3893    10.0740
   87.0000   122.5781    10.8425    10.5415
   87.5000   123.1418    11.3154    11.0308
   88.0000   122.1840    11.8090    11.4416
   88.5000   117.2367    12.1801    11.6089
   89.0000   112.4988    12.2534    11.6682
   89.5000   112.2983    12.2692    11.7298
   90.0000   119.0140    12.1014    11.7933
   90.5000   123.6723    11.9825    11.8245
   91.0000   121.2452    11.8649    11.6916
   91.5000   119.1869    11.7486    11.6019
   92.0000   119.2850    11.6334    11.5135
   92.5000   123.4159    11.5193    11.4247
   93.0000   126.0930    11.3980    11.2298
   93.5000   126.1499    11.1874    10.9896
   94.0000   124.8937    10.9635    10.7547
   94.5000   124.7418    10.7443    10.4894
   95.0000   126.6606    10.5865    10.5865
   95.5000   128.7945    10.7600    10.8438
   96.0000   127.6249    10.8987    11.0308
   96.5000   125.9829    11.0609    11.2212
