~VERSION INFORMATION
 VERS.                2.0:   CWLS LOG ASCII STANDARD - VERSION 2.0
 WRAP.                 NO:   ONE LINE PER DEPTH STEP
~WELL INFORMATION
#MNEM.UNIT      DATA TYPE    INFORMATION
#----------   ------------   ------------------------------
 STRT.F           36.0000:   START DEPTH
 STOP.F          442.0000:   STOP DEPTH
 STEP.F            0.5000:   STEP LENGTH
 NULL.          -999.2500:   NO VALUE
 COMP.    FENIX & SCISSON:   COMPANY
 WELL.      NPR #66-SX-10:   WELL
 FLD .             TEAPOT:   FIELD
 LOC .      S10 T38N R78W:   LOCATION
 CNTY.            NATRONA:   COUNTY
 STAT.            WYOMING:   STATE
 CTRY. UNITED STATES OF AMERICA:   COUNTRY
 SRVC.              Welex:   SERVICE COMPANY
 DATE.        19-APR-1977:   LOGDATE
 API .       490251036100:   API NUMBER
~CURVE INFORMATION
#MNEM.UNIT       API CODE    CURVE DESCRIPTION
#----------   ------------   ------------------------------
 DEPT.F                  :   
 CALD.IN     45 280 60 00:   CALIPER FROM DENSITY LOG
 DPHI.DEC    45 890 12 00:   DENSITY POROSITY SANDSTONE
 DRHO.G/C3   45 356 01 00:   DENSITY CORRECTION
 GRD .GAPI   45 310 01 00:   GAMMA RAY FROM DENSITY LOG
 RHOB.G/C3   45 350 01 00:   BULK DENSITY
 ILD .OHMM   07 120 46 00:   INDUCTION LOG DEEP
 ILM .OHMM   07 120 44 00:   INDUCTION LOG MEDIUM
 SGRD.OHMM   07 221 05 00:   SHALLOW SHORT GUARD RESISTIVITY
 SPR .MV     07 010 01 00:   SPONTANEOUS POTENTIAL
~PARAMETER INFORMATION
#MNEM.UNIT          VALUE    DESCRIPTION
#----------   ------------   ------------------------------
 PD  .                 GL:   PERMANENT DATUM
 EPD .F              5200:   ELEVATION PERMANENT DATUM
 LMF .                 GL:   LOG MEASURED FROM
 DMF .                 GL:   DRILLING MEASURED FROM
 EGL .F              5200:   GROUND LEVEL
 DATE.        19-APR-1977:   RUN DATE
 RUN .                  1:   RUN NUMBER
 DD  .F               476:   DEPTH DRILLER
 DL  .F               447:   DEPTH LOGGER
 BLI .F               445:   BOTTOM LOG INTERVAL
 TLI .F                35:   TOP LOG INTERVAL
 CS  .IN            8.625:   CASING SIZE
 CBD .F                42:   CASING BOTTOM DRILLER
 CBL .F                42:   CASING BOTTOM LOGGER
 BS  .IN            7.875:   BIT SIZE
 BSD .F               476:   BIT SIZE AT DEPTH
 DFT .            KCL MUD:   DRILLING FLUID TYPE
 DFD .                8.8:   DRILLING FLUID DENSITY
 DFV .                 37:   DRILLING FLUID VISCOSITY
 MSS .           FLOWLINE:   MUD SAMPLE SOURCE
 RMS .OHMM           1.06:   RESISTIVITY MUD SAMPLE
 MST .F                48:   MUD SAMPLE TEMPERATURE
 RMF .OHMM           1.03:   RESISTIVITY MUD FILTRATE SAMPLE
 MFST.F                48:   MUD FILTRATE SAMPLE TEMPERATURE
 RMC .OHMM           1.18:   RESISTIVITY MUD CAKE
 MCST.F                48:   MUD CAKE SAMPLE TEMPERATURE
 MFSS.               MEAS:   MUD FILTRATE SAMPLE SOURCE
 MCSS.               MEAS:   MUD CAKE SAMPLE SOURCE
 RMB .OHMM           0.86:   RESISTIVITY MUD AT BHT
 BHT .F                59:   BOTTOM HOLE TEMPERATURE
 TCS .HRS               5:   TIME CURCULATED STOPPED
 MRT .F                59:   MAXIMUM RECORDED TEMPERATURE
 LUN .               8611:   LOGGING UNIT NUMBER
 LUL .             CASPER:   LOGGING UNIT LOCATION
 ENGI.               DOAK:   RECORDING ENGINEER
 WITN.        MR. R. LYON:   WITNESSED BY
 CLNT.            A2DTECH:   CLIENT CODE
 ORIG.      2.5" 5" PRINT:   ORIGIN OF DATA
 UWI .       490251036100:   UNIQUE WELL ID
 DICO. A2D Technologies, Inc.:   DIGITIZING COMPANY
~OTHER INFORMATION
~A   DEPT     CALD       DPHI       DRHO         GRD      RHOB        ILD        ILM       SGRD        SPR   
# ...
  109.0000     7.8416     0.0947     0.0142    96.1362     2.4878    10.5305    10.8172    14.4788   -40.1150
  109.5000     7.8582     0.0917     0.0143    94.4497     2.4893    10.6660    10.8767    14.8665   -40.1313
  110.0000     7.8690     0.0961     0.0113    92.6864     2.4797    10.8037    11.0155    15.2646   -40.1475
  110.5000     7.8703     0.1003     0.0129    90.4790     2.4730    10.7949    11.0067    15.6733   -40.1637
  111.0000     7.8716     0.1011     0.0161    89.0118     2.4821    10.7715    11.3021    15.6595   -40.1799
  111.5000     7.8730     0.0972     0.0176    87.8374     2.4830    10.4876    11.4483    15.4336   -40.1962
  112.0000     7.8743     0.0984     0.0131    91.7024     2.4703    10.4507    11.4391    15.4199   -40.5074
  112.5000     7.8608     0.1052     0.0072    94.2319     2.4651    10.2938    11.4300    15.1293   -40.5236
  113.0000     7.8622     0.1064     0.0027    95.5772     2.4653    10.0429    11.4208    14.5329   -40.5398
  113.5000     7.8637     0.1070     0.0028    96.9225     2.4682     9.8989    11.2571    14.3647   -40.5589
  114.0000     7.8798     0.1078     0.0059    98.8599     2.4683     9.8373    11.0955    14.4124   -40.5748
  114.5000     7.8660     0.1096     0.0045    98.8729     2.4632     9.7490    11.0865    14.5385   -40.5885
  115.0000     7.8676     0.1131     0.0027    98.1217     2.4356     9.6092    10.9273    13.9409   -40.6064
  115.5000     7.8688     0.1164    -0.0062    98.3102     2.4282     9.6013    10.8939    13.9285   -40.6223
  116.0000     7.8703     0.1202    -0.0105    98.6193     2.4320     9.5920    10.7615    13.6358   -40.6381
  116.5000     7.8716     0.1199    -0.0119    97.8922     2.4418     9.5843    10.6070    13.0689   -40.6540
  117.0000     7.8754     0.1186    -0.0102    96.8691     2.4515     9.5767    10.5761    13.0799   -40.6698
  117.5000     7.8889     0.1133    -0.0069    97.1782     2.4613     9.7003    10.4461    13.5034   -40.6858
  118.0000     7.9050     0.1070     0.0039    98.2274     2.4681     9.5614    10.3801    13.6770   -40.7021
  118.5000     7.9211     0.1028     0.0084    98.8326     2.4734     9.5538    10.2877    13.8529   -40.7542
  119.0000     7.9242     0.1033     0.0070    99.4377     2.4749     9.5462    10.2793    14.0311   -41.0295
  119.5000     7.9536     0.1081     0.0042   100.4870     2.4683     9.4095    10.1317    13.4566   -40.9813
  120.0000     7.9549     0.1131    -0.0047   101.0921     2.4505     9.4020    10.1218    12.9057   -40.7648
  120.5000     7.9710     0.1164    -0.0135    98.5766     2.4550     9.3943     9.9766    12.8946   -40.7832
  121.0000     7.9871     0.1161    -0.0224    98.4537     2.4581     9.3866     9.9687    13.0604   -40.7994
  121.5000     7.9884     0.1160    -0.0328    99.3582     2.4559     9.2520     9.9607    13.4101   -40.8156
  122.0000     8.0045     0.1202    -0.0447    98.6311     2.4253     9.2445     9.9527    13.0280   -40.8319
  122.5000     8.0058     0.1207    -0.0596    95.9797     2.4164     9.2369     9.9448    12.6752   -40.7731
  123.0000     7.9920     0.1185    -0.0248    95.6934     2.4479     9.2294     9.9373    13.0406   -40.5693
  123.5000     7.9722     0.1171     0.0010    96.1538     2.4532     9.2218     9.9289    13.1826   -40.5887
  124.0000     7.9653     0.1189    -0.0006    98.9794     2.4465     9.2143     9.7865    12.5599   -40.6045
  124.5000     7.9519     0.1185    -0.0062    98.6964     2.4451     9.3331     9.7739    12.2903   -40.6204
  125.0000     7.9236     0.1179    -0.0030    94.2686     2.4481     9.3254     9.6381    12.2240   -40.6362
  125.5000     7.9170     0.1182     0.0047    92.8014     2.4437     9.3178     9.6217    12.1043   -40.6520
  126.0000     7.9115     0.1205     0.0109    91.6303     2.4397     9.1827     9.4920    15.0129   -40.6667
  126.5000     7.9131     0.1214     0.0005    92.1000     2.4364     9.1754     9.4549    13.5151   -40.6837
  127.0000     7.9144     0.1205    -0.0084    93.4086     2.4357     9.0440     9.3130    12.0701   -40.9945
  127.5000     7.9155     0.1190    -0.0022    97.7418     2.4395     8.9145     9.0889    12.2251   -41.0104
  128.0000     7.9168     0.1183    -0.0003    99.3831     2.4515     8.7869     8.9584    12.7225   -41.0265
  128.5000     7.9036     0.1183    -0.0064    99.1001     2.4449     8.5439     8.8999    13.2426   -41.0688
  129.0000     7.8898     0.1179    -0.0092    99.5572     2.4371     8.3076     8.7663    13.4129   -41.3540
  129.5000     7.8914     0.1167    -0.0014   101.3466     2.4450     8.1886     8.5780    12.1805   -41.6652
  130.0000     7.8927     0.1164     0.0001   103.2807     2.4436     7.9621     8.4548    11.3673   -41.6814
  130.5000     7.8940     0.1182    -0.0042    99.7411     2.4377     7.7365     8.4466    11.2036   -41.9926
  131.0000     7.8953     0.1193    -0.0040   100.4976     2.4389     7.4156     8.4398    10.8925   -42.0088
  131.5000     7.8966     0.1169     0.0007   100.6707     2.4535     7.3043     8.4331    10.5901   -42.3201
  132.0000     7.8979     0.1050     0.0144    97.7112     2.4760     7.1166     8.3122    10.2961   -42.3363
  132.5000     7.8844     0.0981     0.0146    98.7977     2.4775     7.2090     8.4203    10.7318   -42.3525
  133.0000     7.8858     0.1052     0.0117   100.9945     2.4761     7.3021     8.4129    11.4759   -42.2144
  133.5000     7.8874     0.1096     0.0073   102.1911     2.4687     7.2953     8.4062    11.7707   -42.0900
  134.0000     7.8887     0.1153     0.0016   101.6121     2.4568     7.3905     8.5150    11.9221   -42.1092
  134.5000     7.8898     0.1170    -0.0014   103.4047     2.4509     7.4288     8.6251    11.6796   -42.1250
  135.0000     7.8762     0.1137     0.0004   105.6381     2.4555     7.5297     8.7423    11.0751   -42.1409
  135.5000     7.8778     0.1056     0.0067   105.9473     2.4704     7.6320     8.9710    10.6600   -42.1567
  136.0000     7.8790     0.1032     0.0112   104.3320     2.4742     7.7777     9.2118    10.7032   -42.1726
  136.5000     7.8804     0.1017     0.0068    99.7562     2.4765     7.8780     9.3309    11.1476   -42.1884
  137.0000     7.8818     0.1023     0.0070   100.8055     2.4744     8.0890     9.3537    11.5250   -42.2043
  137.5000     7.8830     0.1025     0.0056   103.6310     2.4737     8.1924     9.4440    11.9288   -41.9251
  138.0000     7.8843     0.1010     0.0058   106.4566     2.4768     8.2989     9.4351    11.6511   -41.9410
  138.5000     7.8857     0.0995     0.0029   104.5332     2.4783     8.4053     9.4274    10.8367   -41.9572
  139.0000     7.8870     0.1018    -0.0029   104.4103     2.4791     8.3986     9.4197    11.1865   -41.9735
  139.5000     7.8735     0.1054    -0.0057   106.4990     2.4762     8.5072     9.5413    11.3304   -42.2847
  140.0000     7.8748     0.1057    -0.0026   105.6239     2.4673     8.5003     9.5335    12.4552   -42.3009
  140.5000     7.8614     0.1041    -0.0009    99.5679     2.4726     8.4933     9.6018    13.3230   -42.3171
  141.0000     7.8630     0.1018    -0.0022    97.8013     2.4772     8.4864     9.6487    13.4954   -42.4208
  141.5000     7.8641     0.0987    -0.0020    99.4459     2.4795     8.4794     9.6395    13.3000   -42.6445
  142.0000     7.8656     0.1038    -0.0034   103.1596     2.4818     8.4732     9.6318    13.2884   -42.6608
  142.5000     7.8518     0.1106    -0.0032   108.7977     2.4681     8.5826     9.6241    12.2333   -42.6770
  143.0000     7.8681     0.1124    -0.0046   110.2910     2.4584     8.5747     9.6171    11.8936   -42.6932
  143.5000     7.8695     0.1135    -0.0044   108.9718     2.4521     8.5677     9.7408    12.5499   -43.0044
  144.0000     7.8560     0.1141    -0.0027   106.7645     2.4492     8.5607     9.7330    12.5204   -43.1937
  144.5000     7.8573     0.1141    -0.0011   108.7638     2.4500     8.5537     9.7252    12.1901   -43.3347
  145.0000     7.8586     0.1137     0.0006   111.4540     2.4598     8.5467     9.5857    11.9817   -43.3506
