~VERSION INFORMATION
 VERS.                2.0:   CWLS LOG ASCII STANDARD - VERSION 2.0
 WRAP.                 NO:   ONE LINE PER DEPTH STEP
~WELL INFORMATION
#MNEM.UNIT      DATA TYPE    INFORMATION
#----------   ------------   ------------------------------
 STRT.F           24.0000:   START DEPTH
 STOP.F          570.0000:   STOP DEPTH
 STEP.F            0.5000:   STEP LENGTH
 NULL.          -999.2500:   NO VALUE
 COMP. FENIX & SCISSON INC:   COMPANY
 WELL.   NPR-3 #32SX10-10:   WELL
 FLD .  TEAPOT COME NPR-3:   FIELD
 LOC .      S10 T38N R78W:   LOCATION
 CNTY.            NATRONA:   COUNTY
 STAT.            WYOMING:   STATE
 CTRY. UNITED STATES OF AMERICA:   COUNTRY
 SRVC.            Unknown:   SERVICE COMPANY
 DATE.        27-JUN-1978:   LOGDATE
 API .       490251065300:   API NUMBER
~CURVE INFORMATION
#MNEM.UNIT       API CODE    CURVE DESCRIPTION
#----------   ------------   ------------------------------
 DEPT.F                  :   
 CALD.IN     45 280 60 00:   CALIPER FROM DENSITY LOG
 GRD .GAPI   45 310 01 00:   GAMMA RAY FROM DENSITY LOG
 CORR.G/C3   45 356 01 00:   DENSITY CORRECTION
 DPHI.DEC    45 890 12 00:   DENSITY POROSITY SANDSTONE
 RHOB.G/C3   45 350 01 00:   BULK DENSITY
 SPR .MV     05 010 01 00:   SPONTANEOUS POTENTIAL FROM RES.
 SN  .OHMM   05 040 16 00:   SHORT NORMAL 16"
 ILD .OHMM   05 120 46 00:   INDUCTION LOG DEEP
~PARAMETER INFORMATION
#MNEM.UNIT          VALUE    DESCRIPTION
#----------   ------------   ------------------------------
 PD  .                 GL:   PERMANENT DATUM
 EPD .F              5239:   ELEVATION PERMANENT DATUM
 LMF .                 GL:   LOG MEASURED FROM
 DAPD.F                 4:   FEET ABOVE PERMANENT DATUM
 DMF .                 GL:   DRILLING MEASURED FROM
 EKB .F              5243:   KELLING BUSHING
 EGL .F              5239:   GROUND LEVEL
 DATE.        27-JUN-1978:   RUN DATE
 RUN .                  1:   RUN NUMBER
 DD  .F               565:   DEPTH DRILLER
 DL  .F               574:   DEPTH LOGGER
 BLI .F               572:   BOTTOM LOG INTERVAL
 TLI .F                30:   TOP LOG INTERVAL
 CS  .IN            8.625:   CASING SIZE
 CBD .F                40:   CASING BOTTOM DRILLER
 CBL .F                40:   CASING BOTTOM LOGGER
 BS  .IN            7.875:   BIT SIZE
 BSD .F               565:   BIT SIZE AT DEPTH
 DFT .                KCL:   DRILLING FLUID TYPE
 DFD .                8.7:   DRILLING FLUID DENSITY
 DFV .                 35:   DRILLING FLUID VISCOSITY
 DFPH.                 10:   DRILLING FLUID PH
 DFL .                 14:   DRILLING FLUID LOSS
 MSS .           FLOWLINE:   MUD SAMPLE SOURCE
 RMS .OHMM            .36:   RESISTIVITY MUD SAMPLE
 MST .F                78:   MUD SAMPLE TEMPERATURE
 RMF .OHMM             .3:   RESISTIVITY MUD FILTRATE SAMPLE
 MFST.F                86:   MUD FILTRATE SAMPLE TEMPERATURE
 RMC .OHMM            .36:   RESISTIVITY MUD CAKE
 MCST.F                87:   MUD CAKE SAMPLE TEMPERATURE
 MFSS.               MEAS:   MUD FILTRATE SAMPLE SOURCE
 MCSS.               MEAS:   MUD CAKE SAMPLE SOURCE
 RMB .OHMM            3.9:   RESISTIVITY MUD AT BHT
 BHT .F                72:   BOTTOM HOLE TEMPERATURE
 TCS .HRS            0300:   TIME CURCULATED STOPPED
 MRT .F                72:   MAXIMUM RECORDED TEMPERATURE
 LUN .               2938:   LOGGING UNIT NUMBER
 LUL .               CASP:   LOGGING UNIT LOCATION
 ENGI.            POINTER:   RECORDING ENGINEER
 WITN.         ZARGARNIAN:   WITNESSED BY
 CLNT.            A2DTECH:   CLIENT CODE
 ORIG.     2.5", 5" PRINT:   ORIGIN OF DATA
 UWI .       490251065300:   UNIQUE WELL ID
 DICO. A2D Technologies, Inc.:   DIGITIZING COMPANY
~OTHER INFORMATION
~A   DEPT     CALD         GRD      CORR       DPHI       RHOB        SPR         SN        ILD   
# ...
  307.5000     7.4801   139.7413     0.0066     0.1146     2.4872   -27.8028     6.3842     6.4980
  308.0000     7.4825   133.3741     0.0038     0.1130     2.4926   -27.7651     6.6045     6.8657
  308.5000     7.4693   131.7385    -0.0004     0.1157     2.4917   -27.7274     6.8008     7.1784
  309.0000     7.4723   134.0124    -0.0017     0.1207     2.4808   -27.6898     6.9786     7.4581
  309.5000     7.4746   139.2350    -0.0030     0.1237     2.4787   -27.6521     6.9795     7.6408
  310.0000     7.4620   140.5944    -0.0027     0.1242     2.4780   -27.6144     7.0770     7.6418
  310.5000     7.4644   139.3833    -0.0024     0.1239     2.4774   -27.5767     7.2747     7.6429
  311.0000     7.4519   135.2301    -0.0007     0.1238     2.4776   -27.5391     7.2757     7.6439
  311.5000     7.4691   134.2711     0.0010     0.1235     2.4777   -27.5014     7.3771     7.6450
  312.0000     7.4865   138.6077     0.0043     0.1219     2.4785   -27.4627     7.3781     7.6461
  312.5000     7.5186   141.1557     0.0075     0.1207     2.4794   -27.4627     7.3791     7.6471
  313.0000     7.5364   141.7720     0.0107     0.1200     2.4810   -27.4627     7.4820     7.6847
  313.5000     7.5387   141.4914     0.0140     0.1206     2.4826   -27.4627     7.4830     7.7546
  314.0000     7.5411   140.4788     0.0172     0.1208     2.4835   -27.4627     7.3820     7.6500
  314.5000     7.5434   141.2437     0.0174     0.1214     2.4814   -27.4627     7.3831     7.6513
  315.0000     7.5309   145.7234     0.0177     0.1220     2.4800   -27.3727     7.3841     7.6523
  315.5000     7.5177   149.9059     0.0180     0.1219     2.4801   -27.3698     7.3851     7.6534
  316.0000     7.4903   152.0081     0.0182     0.1212     2.4802   -27.3668     7.3861     7.6544
  316.5000     7.4634   152.7731     0.0184     0.1209     2.4804   -27.3638     7.3872     7.6555
  317.0000     7.4503   152.4979     0.0171     0.1212     2.4805   -27.3609     7.3882     7.6093
  317.5000     7.4234   148.8052     0.0174     0.1223     2.4806   -27.3579     7.3892     7.5535
  318.0000     7.4107   145.2611     0.0191     0.1280     2.4770   -27.3549     7.3902     7.5545
  318.5000     7.3982   145.1338     0.0194     0.1333     2.4666   -27.3520     7.3912     7.5049
  319.0000     7.3857   147.6826     0.0211     0.1417     2.4495   -27.6475     7.2915     7.4539
  319.5000     7.4031   150.8250     0.0333     0.1425     2.4459   -27.6446     7.2926     7.4022
  320.0000     7.4957   151.1441     0.0380     0.1410     2.4468   -27.6416     7.1943     7.3546
  320.5000     7.5736   149.9628     0.0323     0.1319     2.4506   -27.6386     7.1952     7.3556
  321.0000     7.6337   148.7964     0.0250     0.1139     2.4882   -27.6357     7.0983     7.3006
  321.5000     7.6514   148.6842     0.0193     0.1144     2.4951   -27.6327     7.0992     7.2576
  322.0000     7.6538   145.5913     0.0165     0.1141     2.4922   -27.6297     7.1002     7.1599
  322.5000     7.6406   145.1621     0.0153     0.1122     2.4953   -27.6268     7.0045     7.0636
  323.0000     7.6281   145.6354     0.0155     0.1119     2.4976   -27.6238     6.8160     6.9685
  323.5000     7.6155   146.6975     0.0157     0.1121     2.4970   -27.6208     6.7242     6.8749
  324.0000     7.6035   147.0167     0.0175     0.1127     2.4912   -27.9164     6.6335     6.7824
  324.5000     7.6059   145.7014     0.0178     0.1147     2.4913   -27.9134     6.4550     6.6910
  325.0000     7.5928   143.9403     0.0180     0.1141     2.4922   -28.2090     6.3680     6.6009
  325.5000     7.5510   141.5849     0.0182     0.1146     2.4915   -28.2060     6.2811     6.5121
  326.0000     7.5086   140.5613     0.0185     0.1179     2.4864   -28.2030     6.1110     6.3373
  326.5000     7.4663   141.7776     0.0202     0.1202     2.4797   -28.2000     5.9487     6.2520
  327.0000     7.4387   143.1369     0.0219     0.1215     2.4791   -28.1970     5.8643     6.1678
  327.5000     7.4113   148.8052     0.0267     0.1281     2.4703   -28.1940     5.6329     6.0021
  328.0000     7.4137   148.5301     0.0314     0.1327     2.4629   -28.1911     5.5510     5.9212
  328.5000     7.4011   147.5120     0.0286     0.1281     2.4668   -27.8896     5.3338     5.8416
  329.0000     7.4035   147.2368     0.0229     0.1122     2.4901   -27.8547     5.2543     5.9229
  329.5000     7.3909   146.8130     0.0201     0.1131     2.4947   -27.5493     5.3622     5.9237
  330.0000     7.3492   146.0921     0.0189     0.1136     2.4963   -27.2836     5.8370     6.0890
  330.5000     7.2919   140.4457     0.0176     0.1130     2.4973   -27.2806     6.3296     6.3450
  331.0000     7.2346   139.5840     0.0193     0.1096     2.5004   -27.2776     6.6910     6.7029
  331.5000     7.1923   142.2362     0.0196     0.1072     2.5027   -27.5734     7.0556     6.9848
  332.0000     7.1946   143.6597     0.0198     0.1062     2.5028   -27.5701     7.3175     7.0820
  332.5000     7.2566   143.6817     0.0201     0.1062     2.5037   -27.8660     7.2986     6.9866
  333.0000     7.2738   142.3664     0.0188     0.1067     2.5030   -28.1615     6.9842     6.7066
  333.5000     7.2607   135.4048     0.0175     0.1067     2.5024   -28.4571     6.7218     6.4377
  334.0000     7.2189   132.9008     0.0163     0.1063     2.5018   -28.7526     6.4508     6.1796
  334.5000     7.1909   132.0258     0.0166     0.1063     2.5027   -28.8249     6.2546     5.9318
  335.0000     7.1640   136.9567     0.0152     0.1065     2.5035   -29.0452     6.0230     5.6940
  335.5000     7.1515   138.7618     0.0140     0.1065     2.5044   -29.0418     5.8377     5.6173
  336.0000     7.1538   139.3781     0.0143     0.1055     2.5053   -29.3377     5.6235     5.4664
  336.5000     7.1725   135.0911     0.0130     0.1049     2.5061   -29.3343     5.4712     5.3928
  337.0000     7.3272   133.0329     0.0117     0.1042     2.5077   -29.3313     5.4200     5.4679
  337.5000     7.4590   132.4550     0.0120     0.1030     2.5086   -29.3284     5.4458     5.6204
  338.0000     7.4619   138.1289     0.0107     0.1101     2.5056   -28.9234     5.6762     5.7782
  338.5000     7.4338   142.1628     0.0095     0.1125     2.4989   -28.3194     5.9459     5.9427
  339.0000     7.4517   143.8193     0.0082     0.1134     2.4933   -27.6039     6.2842     6.2767
  339.5000     7.4838   144.2942     0.0084     0.1139     2.4934   -26.9283     6.7334     6.5468
  340.0000     7.5309   140.7430     0.0087     0.1126     2.4935   -26.6269     7.0770     6.9122
  340.5000     7.5630   140.3192     0.0090     0.1108     2.4959   -26.3254     7.3764     7.2042
  341.0000     7.5803   137.7867     0.0107     0.1099     2.4990   -26.0239     7.4368     7.3969
  341.5000     7.5671   131.9317     0.0139     0.1089     2.5006   -25.7224     7.4830     7.5000
  342.0000     7.5254   131.0242     0.0157     0.1080     2.5015   -25.7194     7.5887     7.5134
  342.5000     7.4979   137.5896     0.0159     0.1076     2.5016   -25.5771     7.6466     7.7102
  343.0000     7.4852   139.8404     0.0191     0.1076     2.5002   -25.5582     7.7532     7.8175
  343.5000     7.5175   141.9427     0.0209     0.1084     2.5003   -25.8577     7.7543     7.8185
  344.0000     7.5348   142.7076     0.0241     0.1090     2.5004   -26.4557     7.8624     7.8196
  344.5000     7.5520   137.5290     0.0273     0.1098     2.4998   -26.6000     7.8635     7.8207
  345.0000     7.5544   132.6962     0.0306     0.1107     2.4984   -26.5970     7.8645     7.8217
  345.5000     7.5717   124.7963     0.0353     0.1118     2.4954   -26.5940     7.8656     7.8228
  346.0000     7.5741   122.8811     0.0445     0.1142     2.4911   -26.7582     7.8667     7.8239
  346.5000     7.5769   130.3381     0.0522     0.1156     2.4890   -26.8865     7.8677     7.8249
  347.0000     7.5941   134.3720     0.0704     0.1162     2.4892   -26.8836     7.8688     7.9339
  347.5000     7.5965   135.4341     0.0827     0.1161     2.4893   -26.8800     7.8699     7.8270
