~VERSION INFORMATION
 VERS.                2.0:   CWLS LOG ASCII STANDARD - VERSION 2.0
 WRAP.                 NO:   ONE LINE PER DEPTH STEP
~WELL INFORMATION
#MNEM.UNIT      DATA TYPE    INFORMATION
#----------   ------------   ------------------------------
 STRT.F           30.0000:   START DEPTH
 STOP.F          620.0000:   STOP DEPTH
 STEP.F            0.5000:   STEP LENGTH
 NULL.          -999.2500:   NO VALUE
 COMP. FENIX & SCISSON INC:   COMPANY
 WELL.       NPR-3 #62-15:   WELL
 FLD .             TEAPOT:   FIELD
 LOC .      S15 T38N R78W:   LOCATION
 CNTY.            NATRONA:   COUNTY
 STAT.            WYOMING:   STATE
 CTRY. UNITED STATES OF AMERICA:   COUNTRY
 SRVC.           BIRDWELL:   SERVICE COMPANY
 DATE.        08-JUN-1978:   LOGDATE
 API .       490251063700:   API NUMBER
~CURVE INFORMATION
#MNEM.UNIT       API CODE    CURVE DESCRIPTION
#----------   ------------   ------------------------------
 DEPT.F                  :   
 SPR .MV     05 010 01 00:   SPONTANEOUS POTENTIAL FROM RES.
 SN  .OHMM   05 040 16 00:   SHORT NORMAL 16"
 ILD .OHMM   05 120 46 00:   INDUCTION LOG DEEP
 CALD.IN     45 280 60 00:   CALIPER FROM DENSITY LOG
 GRD .GAPI   45 310 01 00:   GAMMA RAY FROM DENSITY LOG
 CORR.G/C3   45 356 01 00:   DENSITY CORRECTION
 DPHI.DEC    45 890 12 00:   DENSITY POROSITY SANDSTONE
 DEN .G/C3   45 350 01 00:   DENSITY
~PARAMETER INFORMATION
#MNEM.UNIT          VALUE    DESCRIPTION
#----------   ------------   ------------------------------
 PD  .                 GL:   PERMANENT DATUM
 EPD .F              5246:   ELEVATION PERMANENT DATUM
 LMF .                 KB:   LOG MEASURED FROM
 DAPD.F                 4:   FEET ABOVE PERMANENT DATUM
 DMF .                 KB:   DRILLING MEASURED FROM
 EKB .F              5250:   KELLING BUSHING
 EGL .F              5246:   GROUND LEVEL
 DATE.        08-JUN-1978:   RUN DATE
 RUN .                  1:   RUN NUMBER
 DD  .F               620:   DEPTH DRILLER
 DL  .F               627:   DEPTH LOGGER
 BLI .F               620:   BOTTOM LOG INTERVAL
 TLI .F                42:   TOP LOG INTERVAL
 CS  .IN            8.625:   CASING SIZE
 CBD .F                40:   CASING BOTTOM DRILLER
 CBL .F                42:   CASING BOTTOM LOGGER
 BS  .IN            7.875:   BIT SIZE
 BSD .F               620:   BIT SIZE AT DEPTH
 DFT .                KCL:   DRILLING FLUID TYPE
 DFD .                8.7:   DRILLING FLUID DENSITY
 DFV .                 31:   DRILLING FLUID VISCOSITY
 DFPH.               10.5:   DRILLING FLUID PH
 DFL .                 10:   DRILLING FLUID LOSS
 MSS .           FLOWLINE:   MUD SAMPLE SOURCE
 RMS .OHMM            .26:   RESISTIVITY MUD SAMPLE
 MST .F                76:   MUD SAMPLE TEMPERATURE
 RMF .OHMM            .28:   RESISTIVITY MUD FILTRATE SAMPLE
 MFST.F                76:   MUD FILTRATE SAMPLE TEMPERATURE
 RMC .OHMM            .40:   RESISTIVITY MUD CAKE
 MCST.F                77:   MUD CAKE SAMPLE TEMPERATURE
 MFSS.               MEAS:   MUD FILTRATE SAMPLE SOURCE
 MCSS.               MEAS:   MUD CAKE SAMPLE SOURCE
 RMB .OHMM            .28:   RESISTIVITY MUD AT BHT
 BHT .F                70:   BOTTOM HOLE TEMPERATURE
 TCS .HRS            0400:   TIME CURCULATED STOPPED
 MRT .F                70:   MAXIMUM RECORDED TEMPERATURE
 LUN .               2958:   LOGGING UNIT NUMBER
 LUL .               CASP:   LOGGING UNIT LOCATION
 ENGI.             MILLER:   RECORDING ENGINEER
 WITN.           MCGINLEY:   WITNESSED BY
 CLNT.            A2DTECH:   CLIENT CODE
 ORIG.           5" PRINT:   ORIGIN OF DATA
 UWI .       490251063700:   UNIQUE WELL ID
 DICO. A2D Technologies, Inc.:   DIGITIZING COMPANY
~OTHER INFORMATION
~A   DEPT      SPR         SN        ILD       CALD        GRD       CORR       DPHI        DEN   
# ...
  597.0000   -34.9942    11.6606     7.8096     7.7747    72.3648     0.0288     0.0937     2.5245
  597.5000   -34.9752    11.5881     7.8150     7.8042    73.2653     0.0227     0.0979     2.5162
  598.0000   -34.9562    11.5141     7.8757     7.8337    73.5626     0.0062     0.1051     2.5073
  598.5000   -34.7875    11.4432     7.8810     7.8181    73.5580     0.0077     0.1090     2.4990
  599.0000   -34.7685    11.3733     7.8862     7.7873    71.7435     0.0151     0.1093     2.4952
  599.5000   -34.7495    11.3809     7.8915     7.7717    69.0241     0.0225     0.1099     2.4989
  600.0000   -34.7305    11.3886     7.9060     7.7711    72.0362     0.0312     0.1045     2.5112
  600.5000   -34.7136    11.3431     7.8990     7.7700    73.8387     0.0464     0.0958     2.5222
  601.0000   -34.6991    11.2539     7.8479     7.7688    75.1967     0.0478     0.0901     2.5311
  601.5000   -34.6846    11.1876     7.8506     7.7676    74.5887     0.0403     0.0883     2.5303
  602.0000   -34.6701    11.1241     7.7985     7.7818    72.7749     0.0373     0.0925     2.5145
  602.5000   -34.6555    11.0590     7.8017     7.7804    70.0572     0.0342     0.0940     2.5174
  603.0000   -34.7907    11.0705     7.8044     7.7946    73.3707     0.0327     0.0943     2.5183
  603.5000   -34.9223    11.0840     7.8070     7.7932    74.4227     0.0297     0.0946     2.5144
  604.0000   -34.9078    11.0951     7.8096     7.7920    73.8156     0.0311     0.0951     2.5106
  604.5000   -35.0466    11.1062     7.7584     7.8062    72.3035     0.0356     0.0960     2.5128
  605.0000   -35.0284    11.1174     7.7617     7.8048    72.2998     0.0415     0.0936     2.5300
  605.5000   -35.0139    11.2057     7.7643     7.8190    72.5976     0.0505     0.0768     2.5480
  606.0000   -34.9994    11.2169     7.7134     7.8176    70.4822     0.0579     0.0726     2.5547
  606.5000   -34.9849    11.2284     7.6628     7.8165    72.1376     0.0519     0.0738     2.5554
  607.0000   -35.1201    11.2423     7.5602     7.8154    75.4521     0.0489     0.0756     2.5584
  607.5000   -35.1019    11.2536     7.4589     7.8142    80.1240     0.0458     0.0790     2.5591
  608.0000   -35.0874    11.1873     7.3590     7.8131    74.6904     0.0323     0.0922     2.5301
  608.5000   -35.0729    11.0421     7.2543     7.8119    70.1617     0.0278     0.0931     2.5145
  609.0000   -35.0584    10.9042     7.1145     7.8259    72.2695     0.0293     0.0940     2.5069
  609.5000   -35.0439    10.8396     7.0673     7.8549    76.9415     0.0307     0.0964     2.5049
  610.0000   -35.0293    10.7761     6.9732     7.8691    78.8985     0.0322     0.0952     2.5249
  610.5000   -35.0148    10.7127     6.9756     7.8375    77.8389     0.0321     0.0895     2.5303
  611.0000   -35.0000    10.6496     6.8821     7.7912    75.5727     0.0306     0.0886     2.5303
  611.5000   -34.9822    10.5869     6.8370     7.7600    74.0615     0.0291     0.0898     2.5295
  612.0000   -34.9676    10.5245     6.7922     7.7588    82.3524     0.0260     0.0913     2.5272
  612.5000   -34.9531    10.5377     6.7946     7.7730    84.6111     0.0230     0.0925     2.5204
  613.0000   -34.9386    10.4730     6.7500     7.7870    84.3057     0.0230     0.0937     2.5159
  613.5000   -34.9241    10.4138     6.7058     7.7855    77.0621     0.0229     0.0950     2.5166
  614.0000   -34.9096    10.2814     6.6618     7.7846    74.6460     0.0259     0.0953     2.5173
  614.5000   -34.8951    10.2208     6.6182     7.7986    77.2053     0.0274     0.0950     2.5158
  615.0000   -34.8802    10.1606     6.5753     7.8125    78.7099     0.0318     0.0947     2.5189
  615.5000   -34.8624    10.0312     6.5775     7.8265    78.5552     0.0363     0.0932     2.5271
  616.0000   -34.9976     9.9747     6.5344     7.8404    78.7023     0.0437     0.0872     2.5330
  616.5000   -34.9850     9.9847     6.4916     7.8392    79.6035     0.0467     0.0782     2.5376
  617.0000   -34.9685    10.2040     6.4496     7.8532    80.6555     0.0406     0.0791     2.5412
  617.5000   -35.1074    11.0973     6.4518     7.8520    81.2551     0.0316     0.0812     2.5403
  618.0000   -35.2389    11.1858     6.4539     7.8509    79.4413     0.0301     0.0791     2.5320
  618.5000   -35.2244    11.2771     6.4561     7.8498    77.0243     0.0345     0.0767     2.5327
  619.0000   -35.2096    11.2884     6.4583     7.8486    76.4181     0.0345     0.0788     2.5357
  619.5000   -35.1917    11.2219     6.4604     7.8325    77.7709     0.0345     0.0800     2.5402
  620.0000   -35.1796    10.6773     6.4626     7.8012    79.0246     0.0329     0.0800     2.5424
