~VERSION INFORMATION
 VERS.                2.0:   CWLS LOG ASCII STANDARD - VERSION 2.0
 WRAP.                 NO:   ONE LINE PER DEPTH STEP
~WELL INFORMATION
#MNEM.UNIT      DATA TYPE    INFORMATION
#----------   ------------   ------------------------------
 STRT.F           34.0000:   START DEPTH
 STOP.F          445.0000:   STOP DEPTH
 STEP.F            0.5000:   STEP LENGTH
 NULL.          -999.2500:   NO VALUE
 COMP. FENIX & SCISSON U.S. NAVY:   COMPANY
 WELL.       NPR #64-S-10:   WELL
 FLD .             TEAPOT:   FIELD
 LOC .      S10 T38N R78W:   LOCATION
 CNTY.            NATRONA:   COUNTY
 STAT.            WYOMING:   STATE
 CTRY. UNITED STATES OF AMERICA:   COUNTRY
 SRVC.              Welex:   SERVICE COMPANY
 DATE.        08-APR-1977:   LOGDATE
 API .       490251033400:   API NUMBER
~CURVE INFORMATION
#MNEM.UNIT       API CODE    CURVE DESCRIPTION
#----------   ------------   ------------------------------
 DEPT.F                  :   
 SPR .MV     07 010 01 00:   SPONTANEOUS POTENTIAL
 ILD .OHMM   07 120 46 00:   INDUCTION LOG DEEP
 ILM .OHMM   07 120 44 00:   INDUCTION LOG MEDIUM
 SGRD.OHMM   07 221 05 00:   SHALLOW SHORT GUARD RESISTIVITY
 CALD.IN     45 280 60 00:   CALIPER FROM DENSITY LOG
 GRD .GAPI   45 310 01 00:   GAMMA RAY FROM DENSITY LOG
 CORR.G/C3   45 356 01 00:   DENSITY CORRECTION
 RHOB.G/C3   45 350 01 00:   BULK DENSITY
 DPHI.DEC    45 890 12 00:   DENSITY POROSITY SANDSTONE
~PARAMETER INFORMATION
#MNEM.UNIT          VALUE    DESCRIPTION
#----------   ------------   ------------------------------
 PD  .                 GL:   PERMANENT DATUM
 EPD .F              5183:   ELEVATION PERMANENT DATUM
 LMF .                 GL:   LOG MEASURED FROM
 DMF .                 GL:   DRILLING MEASURED FROM
 EGL .F              5183:   GROUND LEVEL
 DATE.        08-APR-1977:   RUN DATE
 RUN .                  1:   RUN NUMBER
 DD  .F               455:   DEPTH DRILLER
 DL  .F               447:   DEPTH LOGGER
 BLI .F               445:   BOTTOM LOG INTERVAL
 TLI .F                34:   TOP LOG INTERVAL
 CS  .IN            8.625:   CASING SIZE
 BS  .IN            7.875:   BIT SIZE
 BSD .F               455:   BIT SIZE AT DEPTH
 DFT .           KCL- GEL:   DRILLING FLUID TYPE
 DFD .                8.3:   DRILLING FLUID DENSITY
 TCS .HRS            0100:   TIME CURCULATED STOPPED
 MRT .F                62:   MAXIMUM RECORDED TEMPERATURE
 ENGI.        E. CALLAHAN:   RECORDING ENGINEER
 WITN.            R. LYON:   WITNESSED BY
 CLNT.            A2DTECH:   CLIENT CODE
 ORIG.           5" PRINT:   ORIGIN OF DATA
 UWI .       490251033400:   UNIQUE WELL ID
 DICO. A2D Technologies, Inc.:   DIGITIZING COMPANY
~OTHER INFORMATION
~A   DEPT      SPR        ILD        ILM       SGRD       CALD        GRD        CORR        RHOB     DPHI   
# ...
  362.5000   -33.2706    12.7423    14.2871    17.5325     7.6482    89.8231     0.0462     2.4292     0.1321
  363.0000   -33.2724    12.7390    14.1864    17.5296     7.6502    90.5590     0.0404     2.4188     0.1339
  363.5000   -33.1231    12.8238    14.1841    17.5273     7.6372    90.7215     0.0330     2.4129     0.1449
  364.0000   -32.9741    12.9092    14.2814    17.5250     7.6391    89.9661     0.0316     2.4099     0.1416
  364.5000   -32.9759    12.9957    14.1804    17.7672     7.6261    89.4031     0.0393     2.4100     0.1398
  365.0000   -32.8270    12.9922    14.1785    18.0128     7.6281    89.7160     0.0439     2.4109     0.1424
  365.5000   -32.6781    12.9888    14.0786    17.7620     7.6146    90.7947     0.0425     2.4162     0.1397
  366.0000   -32.6799    12.8506    13.8824    17.5152     7.5871    91.7040     0.0337     2.4261     0.1349
  366.5000   -32.5306    12.8023    13.7847    17.0340     7.5736    92.1476     0.0263     2.4202     0.1375
  367.0000   -32.3820    12.7104    13.6876    16.7974     7.5606    91.5476     0.0189     2.4128     0.1432
  367.5000   -32.3834    12.7071    13.6858    16.5639     7.5631    91.1282     0.0160     2.4076     0.1462
  368.0000   -32.3852    12.7037    13.7792    16.5612     7.5650    91.3194     0.0207     2.4040     0.1485
  368.5000   -32.2359    12.5686    13.5871    16.7901     7.5669    92.5397     0.0358     2.3996     0.1455
  369.0000   -32.2377    12.4347    13.4914    17.0222     7.5689    94.0448     0.0525     2.4207     0.1286
  369.5000   -32.2392    12.3455    13.3038    17.1389     7.5858    95.5391     0.0556     2.4388     0.1217
  370.0000   -32.2406    12.1723    13.1188    17.0177     7.5877    96.2880     0.0618     2.4457     0.1208
  370.5000   -32.2424    12.0849    13.0207    16.4354     7.5897    96.4408     0.0664     2.4510     0.1189
  371.0000   -32.0931    11.9149    12.7561    16.0951     7.5916    95.9900     0.0696     2.4564     0.1165
  371.5000   -32.0949    11.7473    12.7544    16.0930     7.5936    95.2581     0.0667     2.4595     0.1153
  372.0000   -32.0963    11.6630    12.7527    16.0909     7.6105    94.6816     0.0623     2.4581     0.1170
  372.5000   -31.9474    11.6600    12.8399    15.7577     7.6124    94.4020     0.0580     2.4529     0.1200
  373.0000   -31.9488    11.5763    12.8381    15.6468     7.6144    94.5650     0.0536     2.4455     0.1230
  373.5000   -31.7999    11.5729    12.7473    16.3085     7.6163    94.8804     0.0492     2.4396     0.1250
  374.0000   -31.8017    11.5694    12.9236    16.9987     7.6033    95.4908     0.0509     2.4359     0.1256
  374.5000   -31.5024    11.6469    13.1028    17.5957     7.6053    96.2506     0.0585     2.4428     0.1235
  375.0000   -31.3534    11.6438    12.8309    17.7157     7.5918    96.7115     0.0632     2.4489     0.1204
  375.5000   -31.3549    11.7217    12.6498    16.2993     7.5942    96.8754     0.0648     2.4513     0.1198
  376.0000   -31.2059    11.7591    12.5629    16.0728     7.5812    96.7385     0.0634     2.4438     0.1234
  376.5000   -31.2077    11.8784    12.8254    15.9597     7.5084    96.6024     0.0575     2.4387     0.1242
  377.0000   -30.9084    11.8753    12.9133    15.9576     7.4057    96.3169     0.0532     2.4455     0.1203
  377.5000   -30.9099    11.8721    12.7334    15.8453     7.3773    96.3305     0.0518     2.4486     0.1209
  378.0000   -30.7609    11.8690    12.6425    15.8427     7.4843    96.9418     0.0549     2.4435     0.1259
  378.5000   -30.6120    11.7831    12.4675    15.8406     7.5461    98.3006     0.0566     2.4346     0.1247
  379.0000   -30.4631    11.6986    12.2941    15.7291     7.4882    99.2109     0.0612     2.4474     0.1202
  379.5000   -30.3141    11.6146    12.1231    15.7271     7.3856    99.3739     0.0659     2.4573     0.1162
  380.0000   -30.1652    11.5313    12.0377    15.5085     7.3571    99.5368     0.0690     2.4657     0.1132
  380.5000   -30.0166    11.3695    11.8704    15.2925     7.4343    99.9988     0.0692     2.4673     0.1126
  381.0000   -30.0180    11.2872    11.7049    15.1849     7.5110   101.2080     0.0678     2.4629     0.1149
  381.5000   -30.0198    11.1287    11.5421    14.9739     7.5578   102.1184     0.0679     2.4577     0.1185
  382.0000   -29.8705    11.0489    11.3816    14.7659     7.5597   102.8792     0.0681     2.4548     0.1176
  382.5000   -29.7216    10.9697    11.2234    14.5607     7.5617   103.0422     0.0652     2.4624     0.1142
  383.0000   -29.7234    10.8910    11.0673    14.3579     7.5636   102.7567     0.0638     2.4572     0.1184
  383.5000   -29.5745    10.6632    10.8376    14.2569     7.5656   102.3218     0.0624     2.4491     0.1220
  384.0000   -29.4255    10.5867    10.6869    13.9617     7.5675   102.3352     0.0596     2.4454     0.1183
  384.5000   -29.2766    10.3660    10.5383    13.7677     7.5694   102.9466     0.0582     2.4613     0.1141
  385.0000   -29.1276    10.2205    10.3918    13.5764     7.5710   105.0528     0.0568     2.4644     0.1150
  385.5000   -29.1294     9.9725    10.1764    13.2948     7.5729   106.4115     0.0570     2.4570     0.1192
  386.0000   -28.9804     9.7303    10.0238    13.1101     7.5749   107.9198     0.0571     2.4503     0.1218
  386.5000   -28.9819     9.5015     9.7588    12.9279     7.5768   110.0259     0.0618     2.4497     0.1215
  387.0000   -28.8330     9.2726     9.4905    12.6602     7.5788   111.2352     0.0679     2.4580     0.1175
  387.5000   -28.6844     9.0083     9.2361    12.3125     7.5807   113.0424     0.0771     2.4664     0.1132
  388.0000   -28.6859     8.4025     8.9138    11.9739     7.5676   115.7465     0.0817     2.4755     0.1103
  388.5000   -28.5366     7.6562     8.6437    11.7259     7.5846   118.6000     0.0833     2.4809     0.1076
  389.0000   -28.3880     7.0779     7.8852    11.2469     7.5865   120.4072     0.0850     2.4772     0.1090
  389.5000   -28.2390     6.4995     7.1267    10.7129     7.5885   121.4670     0.0836     2.4638     0.1170
  390.0000   -28.2408     5.9212     6.3682    10.1338     7.5904   122.2279     0.0717     2.4451     0.1257
  390.5000   -28.2423     5.4205     5.5970     8.1702     7.5924   122.2414     0.0628     2.4241     0.1332
  391.0000   -28.2437     5.3074     5.3264     5.8951     7.6093   121.0590     0.0570     2.4115     0.1452
  391.5000   -28.2452     5.5315     5.8079     4.7262     7.6129   118.3819     0.0556     2.4101     0.1371
  392.0000   -28.5473     5.8051     6.4568     7.9316     7.6281   115.5553     0.0572     2.4380     0.1202
  392.5000   -28.6995     6.1770     7.1057    12.6410     7.6300   108.6929     0.0634     2.4929     0.1000
  393.0000   -28.4002     6.5277     7.7546    12.9049     7.6320   105.7168     0.0665     2.5013     0.0943
  393.5000   -28.2509     6.9946     8.4981    12.4633     7.6339   103.0397     0.0712     2.4939     0.0922
  394.0000   -27.9516     7.6526     9.2128    13.0811     7.6209   103.3521     0.0728     2.4992     0.0903
  394.5000   -27.8030     8.3145     9.6030    13.2624     7.6229   104.4119     0.0744     2.5023     0.0888
  395.0000   -27.8048     8.8471     9.8719    13.3524     7.6248   102.6317     0.0761     2.5054     0.0876
  395.5000   -27.6555     9.2848    10.0781    13.2580     7.6267   103.8410     0.0777     2.5100     0.0848
  396.0000   -27.6573     9.5435    10.2886    13.0738     7.6137   105.6482     0.0779     2.5109     0.0830
  396.5000   -27.3580     9.7415    10.4309    13.1630     7.6157   106.2596     0.0780     2.5012     0.0875
  397.0000   -27.3594    10.0474    10.5752    13.2528     7.6176   105.5257     0.0736     2.4885     0.1010
  397.5000   -27.2105    10.2912    10.7958    13.5294     7.6046   103.7454     0.0707     2.4849     0.0994
  398.0000   -27.0619    10.5048    11.0213    13.8113     7.6066   104.6557     0.0634     2.4857     0.0985
  398.5000   -27.0634    10.6487    11.2575    14.1977     7.6235   105.5627     0.0575     2.4866     0.1042
