~VERSION INFORMATION
 VERS.                2.0:   CWLS LOG ASCII STANDARD - VERSION 2.0
 WRAP.                 NO:   ONE LINE PER DEPTH STEP
~WELL INFORMATION
#MNEM.UNIT      DATA TYPE    INFORMATION
#----------   ------------   ------------------------------
 STRT.F           28.0000:   START DEPTH
 STOP.F          636.0000:   STOP DEPTH
 STEP.F            0.5000:   STEP LENGTH
 NULL.          -999.2500:   NO VALUE
 COMP. FENIX & SCISSON INC:   COMPANY
 WELL.    NPR-3 #12S14-14:   WELL
 FLD .             TEAPOT:   FIELD
 LOC .      S14 T38N R78W:   LOCATION
 CNTY.            NATRONA:   COUNTY
 STAT.            WYOMING:   STATE
 CTRY. UNITED STATES OF AMERICA:   COUNTRY
 SRVC.           BIRDWELL:   SERVICE COMPANY
 DATE.        21-JUN-1978:   LOGDATE
 API .       490251065000:   API NUMBER
~CURVE INFORMATION
#MNEM.UNIT       API CODE    CURVE DESCRIPTION
#----------   ------------   ------------------------------
 DEPT.F                  :   
 SPR .MV     07 010 01 00:   SPONTANEOUS POTENTIAL
 ILD .OHMM   07 120 46 00:   INDUCTION LOG DEEP
 SN  .OHMM   07 040 16 00:   SHORT NORMAL 16"
 GRD .GAPI   45 310 01 00:   GAMMA RAY FROM DENSITY LOG
 CORR.G/C3   45 356 01 00:   DENSITY CORRECTION
 DEN .G/C3   45 350 01 00:   COMPENSATED BULK DENSTIY
 DPHI.DEC    45 890 12 00:   DENSITY POROSITY SANDSTONE
~PARAMETER INFORMATION
#MNEM.UNIT          VALUE    DESCRIPTION
#----------   ------------   ------------------------------
 PD  .                 GL:   PERMANENT DATUM
 EPD .F              5237:   ELEVATION PERMANENT DATUM
 LMF .                 KB:   LOG MEASURED FROM
 DMF .                 KB:   DRILLING MEASURED FROM
 EKB .F              5241:   KELLING BUSHING
 EGL .F              5237:   GROUND LEVEL
 DATE.        21-JUN-1978:   RUN DATE
 RUN .                  1:   RUN NUMBER
 DD  .F               637:   DEPTH DRILLER
 DL  .F               642:   DEPTH LOGGER
 BLI .F               636:   BOTTOM LOG INTERVAL
 TLI .F                40:   TOP LOG INTERVAL
 CS  .IN            8.625:   CASING SIZE
 CBD .F                40:   CASING BOTTOM DRILLER
 CBL .F                40:   CASING BOTTOM LOGGER
 BS  .IN            7.875:   BIT SIZE
 BSD .F               637:   BIT SIZE AT DEPTH
 DFT .                KCL:   DRILLING FLUID TYPE
 DFD .                8.7:   DRILLING FLUID DENSITY
 DFV .                 32:   DRILLING FLUID VISCOSITY
 DFPH.                 10:   DRILLING FLUID PH
 MSS .           FLOWLINE:   MUD SAMPLE SOURCE
 RMS .OHMM            .18:   RESISTIVITY MUD SAMPLE
 MST .F                84:   MUD SAMPLE TEMPERATURE
 RMF .OHMM            .17:   RESISTIVITY MUD FILTRATE SAMPLE
 MFST.F                72:   MUD FILTRATE SAMPLE TEMPERATURE
 RMC .OHMM            .28:   RESISTIVITY MUD CAKE
 MCST.F                82:   MUD CAKE SAMPLE TEMPERATURE
 MFSS.               MEAS:   MUD FILTRATE SAMPLE SOURCE
 MCSS.               MEAS:   MUD CAKE SAMPLE SOURCE
 BHT .F                72:   BOTTOM HOLE TEMPERATURE
 TCS .HRS            0230:   TIME CURCULATED STOPPED
 MRT .F                72:   MAXIMUM RECORDED TEMPERATURE
 LUN .               2958:   LOGGING UNIT NUMBER
 LUL .               CASP:   LOGGING UNIT LOCATION
 ENGI.             MILLER:   RECORDING ENGINEER
 WITN.           MCGINLEY:   WITNESSED BY
 CLNT.            A2DTECH:   CLIENT CODE
 ORIG.           5" PRINT:   ORIGIN OF DATA
 UWI .       490251065000:   UNIQUE WELL ID
 DICO. A2D Technologies, Inc.:   DIGITIZING COMPANY
~OTHER INFORMATION
~A   DEPT      SPR        ILD         SN        GRD       CORR        DEN       DPHI   
# ...
  574.0000   -36.9556     8.7335    10.4560    71.5844    -0.0089     2.3826     0.1702
  574.5000   -35.8915     8.7970    10.5312    70.9719    -0.0059     2.3788     0.1756
  575.0000   -34.6779     8.9222    10.6070    68.5576    -0.0030     2.3548     0.1768
  575.5000   -34.6601     9.0493    10.7571    61.3384     0.0029     2.3239     0.1950
  576.0000   -34.4929     9.3701    10.8345    57.1223     0.0089     2.3045     0.2168
  576.5000   -33.8772     9.8371    11.0639    56.0594     0.0133     2.3023     0.2212
  577.0000   -32.9625    10.1943    11.3764    57.3988     0.0177     2.3110     0.2212
  577.5000   -32.3468    10.7194    11.6173    59.3388     0.0222     2.3289     0.2174
  578.0000   -32.3289    11.2400    11.9453    60.6783     0.0236     2.3463     0.2063
  578.5000   -32.4608    11.8684    12.2861    60.9820     0.0280     2.3582     0.1950
  579.0000   -32.4424    12.1207    12.5509    58.7025     0.0325     2.3911     0.1911
  579.5000   -32.5747    12.2933    12.8215    55.8377     0.0354     2.4270     0.1687
  580.0000   -32.7064    12.3826    13.2620    54.4745     0.0278     2.4629     0.1226
  580.5000   -32.6842    12.4726    13.6366    54.4626     0.0142     2.4793     0.1139
  581.0000   -32.8203    12.5632    13.8296    55.5115     0.0068     2.4748     0.1124
  581.5000   -32.7981    12.5675    14.1225    55.6399     0.0067     2.4687     0.1140
  582.0000   -32.7804    12.6588    14.1263    54.7271     0.0096     2.4178     0.1353
  582.5000   -32.9165    12.4896    13.7449    55.1657     0.0113     2.3915     0.1544
  583.0000   -32.7448    11.9872    13.3756    55.3039     0.0140     2.3623     0.1784
  583.5000   -32.5776    11.6649    13.0153    53.1869     0.0109     2.3338     0.1953
  584.0000   -32.5598    11.1957    12.7515    52.5744     0.0094     2.3300     0.2061
  584.5000   -32.5420    10.7454    12.5812    53.7637     0.0048     2.3412     0.2035
  585.0000   -32.5242    10.3131    12.4115    58.7067     0.0048     2.3427     0.1976
  585.5000   -32.5065    10.0342    12.1615    61.1002     0.0047     2.3419     0.1971
  586.0000   -32.4887     9.7607    11.9158    59.2835     0.0047     2.3403     0.1981
  586.5000   -32.4709     9.4946    11.7558    57.9202     0.0046     2.3455     0.1984
  587.0000   -32.3037     9.2487    11.5980    57.7582     0.0060     2.3515     0.1963
  587.5000   -31.9869     9.1242    11.4423    57.8994     0.0075     2.3544     0.1909
  588.0000   -31.9692     8.9411    11.1302    59.2358     0.0074     2.3446     0.1925
  588.5000   -31.9514     8.8819    10.9013    61.7765     0.0074     2.3371     0.2003
  589.0000   -31.9336     8.8239    10.6038    64.0168     0.0073     2.3453     0.2018
  589.5000   -31.9158     8.8276    10.4729    66.1070     0.0072     2.3482     0.1929
  590.0000   -31.8981     8.8306    10.1915    66.3984     0.0042     2.3437     0.1971
  590.5000   -31.8803     8.7729     9.9849    63.9811     0.0041     2.3377     0.2004
  591.0000   -31.7130     8.7148     9.9190    63.3716     0.0026     2.3376     0.2058
  591.5000   -31.6951     8.6578     9.8535    65.1614     0.0025     2.3344     0.2040
  592.0000   -31.6771     8.6615     9.7885    61.9934     0.0025     2.3301     0.2029
  592.5000   -31.8092     8.6644     9.8596    58.9785     0.0024     2.3300     0.2098
  593.0000   -31.7914     8.7878     9.8623    57.7654     0.0023     2.3300     0.2119
  593.5000   -31.7728     8.7908     9.9332    57.6033     0.0008     2.3329     0.2092
  594.0000   -31.6019     8.8547     9.9359    57.7417    -0.0023     2.3418     0.2051
  594.5000   -31.5842     8.8577    10.0073    59.6816    -0.0038     2.3463     0.1997
  595.0000   -31.8654     8.8608    10.0793    65.6757    -0.0039     2.3440     0.1937
  595.5000   -32.2960     8.8638    10.2927    67.7659    -0.0040     2.3417     0.1947
  596.0000   -33.1751     8.8675    10.3668    63.1889     0.0036     2.3447     0.2010
  596.5000   -33.4607     8.8705    10.5863    60.0541     0.0064     2.3656     0.1922
  597.0000   -33.4385     8.9350    10.6624    58.8713     0.0078     2.3775     0.1790
  597.5000   -33.7197     8.9380    10.7441    63.5630     0.0080     2.3820     0.1740
  598.0000   -34.2998     9.0029    10.9815    70.5562     0.0122     2.3827     0.1720
  598.5000   -34.4491     8.9869    11.0675    69.0428     0.0137     2.3961     0.1685
  599.0000   -34.7381     8.9963    11.2265    68.4303     0.0151     2.4050     0.1589
  599.5000   -35.0308     9.0074    11.3918    68.4183     0.0150     2.4162     0.1542
  600.0000   -35.4706     9.0165    11.3995    68.7352     0.0156     2.4172     0.1506
  600.5000   -35.9105     9.0256    11.4071    69.0441     0.0229     2.4231     0.1475
  601.0000   -36.1997     9.0347    11.4938    69.7440     0.0238     2.4303     0.1443
  601.5000   -36.5003     9.0438    11.5812    70.1888     0.0208     2.4512     0.1312
  602.0000   -36.7813     9.1156    11.5890    70.4816     0.0192     2.4548     0.1258
  602.5000   -36.9231     9.1248    11.6771    69.7214     0.0207     2.4698     0.1240
  603.0000   -37.0649     9.2609    11.7658    68.2124     0.0221     2.4772     0.1115
  603.5000   -37.2067     9.4643    12.0201    65.5021     0.0205     2.5138     0.0917
  604.0000   -37.3486     9.6812    12.2912    60.6898     0.0190     2.5347     0.0762
  604.5000   -37.4888    10.0934    12.6338    55.5771     0.0144     2.5496     0.0672
  605.0000   -37.6304    10.6035    12.9961    54.0681     0.0084     2.5323     0.0708
  605.5000   -37.9410    11.0628    13.4613    53.4599     0.0128     2.5263     0.0810
  606.0000   -38.5084    11.3055    14.0396    53.1521     0.0143     2.5113     0.0969
  606.5000   -38.7992    11.3953    14.1464    56.7481    -0.0113     2.4588     0.1170
  607.0000   -38.9410    11.4068    14.2539    58.8427    -0.0128     2.4258     0.1422
  607.5000   -39.0847    11.4183    14.1654    60.4868     0.0006     2.3861     0.1604
  608.0000   -39.0756    11.3511    13.7891    61.8306     0.0065     2.3763     0.1745
  608.5000   -39.0684    10.9725    13.1449    62.7258     0.0080     2.3747     0.1758
  609.0000   -39.0611    10.5240    12.6119    63.0186     0.0109     2.3874     0.1704
  609.5000   -39.0522     9.8525    12.1215    63.4615     0.0108     2.3911     0.1659
  610.0000   -39.0316     9.4626    11.7440    58.1968     0.0108     2.3903     0.1650
  610.5000   -38.9732     9.2061    11.4456    69.4524     0.0107     2.3880     0.1671
  611.0000   -38.9582     9.2101    11.3709    61.4850     0.0107     2.3931     0.1675
  611.5000   -38.9433     9.1499    11.2201    61.4775     0.0106     2.3968     0.1642
  612.0000   -38.9283     9.0893    11.1459    61.1432     0.0105     2.3960     0.1630
  612.5000   -38.9134     8.9686    11.0732    60.4132     0.0105     2.3982     0.1627
  613.0000   -38.8984     8.9717    11.0009    62.5116     0.0104     2.4139     0.1580
  613.5000   -38.8835     8.9748    10.8540    67.6454     0.0104     2.4310     0.1460
  614.0000   -38.8685     8.9154    10.7832    70.4507     0.0103     2.4399     0.1367
  614.5000   -38.8536     8.8579    10.7128    69.3400     0.0087     2.4354     0.1355
  615.0000   -38.8387     8.8609    10.7174    67.1021     0.0087     2.4323     0.1377
  615.5000   -38.8237     8.8030    10.7211    66.5241     0.0101     2.4315     0.1401
  616.0000   -38.8088     8.7454    10.6502    66.9670     0.0101     2.4315     0.1413
  616.5000   -38.7938     8.6883    10.5807    66.8073     0.0100     2.4329     0.1410
  617.0000   -38.7789     8.4627    10.5853    65.6006     0.0099     2.4351     0.1383
  617.5000   -38.7639     8.4743    10.4440    63.4909     0.0099     2.4320     0.1378
  618.0000   -38.7490     8.4860    10.3758    63.6335     0.0098     2.4290     0.1387
  618.5000   -38.7341     8.4977    10.3794    64.6772     0.0098     2.4409     0.1366
  619.0000   -39.0167     8.4480    10.3108    65.2703     0.0097     2.4416     0.1333
