~VERSION INFORMATION
 VERS.                2.0:   CWLS LOG ASCII STANDARD - VERSION 2.0
 WRAP.                 NO:   ONE LINE PER DEPTH STEP
~WELL INFORMATION
#MNEM.UNIT      DATA TYPE    INFORMATION
#----------   ------------   ------------------------------
 STRT.F           95.0000:   START DEPTH
 STOP.F          922.0000:   STOP DEPTH
 STEP.F            0.5000:   STEP LENGTH
 NULL.          -999.2500:   NO VALUE
 COMP.          U.S. NAVY:   COMPANY
 WELL. RES 3 TEAPOT DOM #57S-11:   WELL
 FLD .             TEAPOT:   FIELD
 LOC .      S11 T38N R78W:   LOCATION
 CNTY.            NATRONA:   COUNTY
 STAT.            WYOMING:   STATE
 CTRY. UNITED STATES OF AMERICA:   COUNTRY
 SRVC.       Schlumberger:   SERVICE COMPANY
 DATE.        02-AUG-1961:   LOGDATE
 API .       490250632800:   API NUMBER
~CURVE INFORMATION
#MNEM.UNIT       API CODE    CURVE DESCRIPTION
#----------   ------------   ------------------------------
 DEPT.F                  :   
 GR  .GAPI   30 310 01 00:   GAMMA RAY
 SPR .MV     05 010 01 00:   SPONTANEOUS POTENTIAL FROM RES.
 CILD.MMHO   05 110 46 00:   CONDUCTIVITY INDUCTION LOG DEEP
 ASN .OHMM   05 041 16 00:   AMPLIFIED SHORT NORMAL 16"
 ILD .OHMM   05 120 46 00:   INDUCTION LOG DEEP
~PARAMETER INFORMATION
#MNEM.UNIT          VALUE    DESCRIPTION
#----------   ------------   ------------------------------
 PD  .                 GL:   PERMANENT DATUM
 EPD .F              5213:   ELEVATION PERMANENT DATUM
 LMF .                 KB:   LOG MEASURED FROM
 DAPD.F                 6:   FEET ABOVE PERMANENT DATUM
 DMF .                 KB:   DRILLING MEASURED FROM
 EKB .F              5219:   KELLING BUSHING
 EGL .F              5213:   GROUND LEVEL
 DATE.             8-2-61:   RUN DATE
 RUN .                  1:   RUN NUMBER
 DD  .F               920:   DEPTH DRILLER
 DL  .F               921:   DEPTH LOGGER
 BLI .F               920:   BOTTOM LOG INTERVAL
 TLI .F               100:   TOP LOG INTERVAL
 BS  .IN             6.75:   BIT SIZE
 BSD .F               920:   BIT SIZE AT DEPTH
 DFT .       OIL EMULSION:   DRILLING FLUID TYPE
 DFD .                9.2:   DRILLING FLUID DENSITY
 DFV .                 55:   DRILLING FLUID VISCOSITY
 MFSS.                  M:   MUD FILTRATE SAMPLE SOURCE
 MCSS.                  M:   MUD CAKE SAMPLE SOURCE
 RMB .OHMM            .75:   RESISTIVITY MUD AT BHT
 BHT .F                80:   BOTTOM HOLE TEMPERATURE
 TCS .HRS               1:   TIME CURCULATED STOPPED
 MRT .F                80:   MAXIMUM RECORDED TEMPERATURE
 LUN .               2552:   LOGGING UNIT NUMBER
 LUL .                RIV:   LOGGING UNIT LOCATION
 ENGI.             RANDLE:   RECORDING ENGINEER
 WITN.          VORGENSEN:   WITNESSED BY
 CLNT.            A2DTECH:   CLIENT CODE
 ORIG.       2", 5" PRINT:   ORIGIN OF DATA
 UWI .       490250632800:   UNIQUE WELL ID
 DICO. A2D Technologies, Inc.:   DIGITIZING COMPANY
~OTHER INFORMATION
~A   DEPT       GR        SPR       CILD        ASN        ILD   
# ...
  827.0000    40.3178   -32.7975    90.3639    11.7852    10.8174
  827.5000    39.6237   -32.2770    90.7363    11.7855    10.7767
  828.0000    44.5205   -31.2842    92.7830    11.7853    10.7395
  828.5000    38.1796   -30.9209    95.7964    11.7854    10.6918
  829.0000    36.8368   -31.7523    94.1505    11.7854    10.7255
  829.5000    36.5370   -32.1513    91.7753    11.7852    10.8190
  830.0000    37.6482   -32.2061    92.7783    11.7855    10.9004
  830.5000    42.1053   -32.2946    94.3104    11.7848    10.9808
  831.0000    46.6307   -32.3875    94.7843    11.7898    11.0789
  831.5000    45.5426   -32.6493    94.4078    11.8017    11.1972
  832.0000    46.2151   -32.5079    93.9509    11.8130    11.3225
  832.5000    39.5712   -32.1403    93.4941    11.8245    11.4042
  833.0000    36.1406   -32.3018    93.0373    11.8362    11.4306
  833.5000    36.7870   -32.5334    92.5805    11.8471    11.4669
  834.0000    35.5306   -32.6384    92.1236    11.8598    11.5000
  834.5000    36.0668   -32.0205    91.6668    11.8690    11.5319
  835.0000    32.3155   -31.6398    91.2100    11.8848    11.5707
  835.5000    32.2249   -31.5787    90.7723    11.8572    11.5769
  836.0000    34.6531   -32.0221    91.1601    11.7989    11.4930
  836.5000    33.9052   -32.1298    91.5324    11.7495    11.4210
  837.0000    34.4720   -31.9298    91.9046    11.6960    11.3463
  837.5000    32.6431   -31.3895    92.2768    11.6447    11.2733
  838.0000    34.7385   -31.0077    92.6491    11.5893    11.1992
  838.5000    32.0496   -30.9107    93.5072    11.5590    11.1260
  839.0000    34.4734   -30.7431    94.6239    11.5298    11.0514
  839.5000    37.3727   -30.7553    95.7405    11.5002    10.9843
  840.0000    40.4530   -31.2620    96.7904    11.4703    10.9468
  840.5000    43.8447   -31.7876    96.0295    11.4414    10.9139
  841.0000    41.6219   -32.3489    96.9983    11.4101    10.8799
  841.5000    42.2360   -32.9866    98.8256    11.3898    10.8470
  842.0000    41.0951   -33.4349    99.1288    11.4303    10.8123
  842.5000    43.0167   -33.3800    97.7934    11.4755    10.7851
  843.0000    42.0092   -33.0947    98.1294    11.5193    10.7967
  843.5000    40.6464   -32.9660    98.4435    11.5640    10.8105
  844.0000    42.1341   -32.8760    98.7575    11.6072    10.8258
  844.5000    39.2583   -32.9263    99.0716    11.6537    10.8375
  845.0000    37.8225   -32.7531    99.3857    11.6994    10.8560
  845.5000    41.3022   -32.3390    99.6997    11.8158    10.8599
  846.0000    45.9509   -31.8898    98.4273    11.9473    10.9199
  846.5000    43.7407   -31.6276    96.4173    12.0646    11.3071
  847.0000    42.5685   -31.5252    94.4072    12.2202    11.7130
  847.5000    37.1716   -31.5597    90.3210    12.6576    12.1014
  848.0000    33.3396   -32.4005    85.7573    13.0865    12.5274
  848.5000    33.9870   -33.1834    81.7948    13.5340    12.9833
  849.0000    35.4064   -33.8210    78.1656    13.9346    13.5376
  849.5000    34.2279   -34.8214    74.5364    14.4050    14.1200
  850.0000    34.7545   -35.7034    69.7121    14.9763    14.7179
  850.5000    31.9129   -36.2654    65.5856    15.3352    15.1449
  851.0000    33.0373   -36.4309    63.3567    15.7214    15.3852
  851.5000    29.8066   -36.6499    62.3370    16.1149    15.6636
  852.0000    27.5276   -36.8335    61.8088    16.3705    15.9084
  852.5000    30.6448   -36.9489    61.3123    16.4942    16.1114
  853.0000    34.0830   -36.9976    60.8131    16.6243    16.3316
  853.5000    37.7140   -37.0709    60.6638    16.7611    16.4141
  854.0000    41.8538   -37.0881    60.6678    16.7623    16.3390
  854.5000    40.1150   -36.9216    61.0050    16.6304    16.2026
  855.0000    36.6188   -36.7542    62.1241    16.4993    16.0752
  855.5000    33.1680   -36.5893    63.2422    16.3703    15.9386
  856.0000    34.3991   -36.3850    64.3597    16.2404    15.8164
  856.5000    33.1915   -36.1284    64.8073    16.1221    15.7440
  857.0000    31.0520   -35.8870    64.9691    16.1687    15.6532
  857.5000    28.6304   -35.6226    65.1309    16.2592    15.5716
  858.0000    27.9527   -35.4632    65.2926    16.3366    15.4874
  858.5000    28.7904   -35.4311    65.4544    16.4297    15.4030
  859.0000    30.8461   -35.3594    65.6162    16.4999    15.4123
  859.5000    33.8660   -35.3366    65.4881    16.5978    15.4553
  860.0000    36.6995   -35.1052    65.0702    16.2593    15.4933
  860.5000    38.9945   -34.7362    64.6941    16.1515    15.5308
  861.0000    41.3907   -34.4173    64.6941    16.4041    15.5758
  861.5000    42.9718   -34.1072    64.6941    16.6577    15.5861
  862.0000    41.4000   -34.2096    65.9398    16.5431    15.3761
  862.5000    43.6060   -34.4374    67.0722    16.2141    15.1182
  863.0000    45.9906   -34.6180    68.2046    15.9524    14.8719
  863.5000    48.2027   -34.8036    69.3370    15.6703    14.6138
  864.0000    43.7967   -34.9744    70.4695    15.3734    14.4113
  864.5000    42.6667   -35.1430    71.7151    15.1511    14.2636
  865.0000    38.4554   -35.2842    71.5480    15.0999    14.1043
  865.5000    39.2984   -35.2053    71.3622    15.0864    14.1086
  866.0000    39.9621   -35.1236    71.1765    15.1653    14.3171
  866.5000    39.6334   -34.8958    70.9908    15.2856    14.5080
  867.0000    41.2782   -34.3779    70.8050    15.4038    14.7069
  867.5000    39.7458   -34.1175    71.6674    15.4554    14.4559
  868.0000    41.1611   -34.5918    73.5779    15.0234    13.9950
  868.5000    34.4425   -34.5570    75.4884    14.6217    13.6365
  869.0000    35.4863   -34.2610    77.3989    14.1531    13.3075
  869.5000    37.3703   -33.9957    79.3380    13.8119    13.0190
  870.0000    37.2275   -33.9328    81.3440    13.6591    12.7466
  870.5000    31.8420   -34.0471    83.1244    13.4680    12.4714
  871.0000    27.6096   -34.1234    84.3781    13.2758    12.3503
  871.5000    29.1662   -34.2122    85.6319    13.1639    12.3080
  872.0000    34.2131   -34.3189    86.8857    13.1451    12.2826
  872.5000    38.4459   -34.6328    87.5581    13.1082    12.2868
  873.0000    37.6187   -34.9736    86.8743    13.0803    12.2884
  873.5000    33.8421   -35.2684    86.1904    13.0476    12.3223
  874.0000    34.1969   -35.1693    85.5065    13.0170    12.3696
  874.5000  -999.2500   -35.1086    84.7543    12.9874    12.3757
  875.0000  -999.2500   -35.3013    85.1304    12.9574    12.3288
  875.5000  -999.2500   -35.5027    85.5540    12.9289    12.2863
  876.0000  -999.2500   -35.6788    86.0280    12.9001    12.2411
  876.5000  -999.2500   -35.6033    86.9332    12.8717    12.1973
  877.0000  -999.2500   -35.5125    87.7492    12.8427    12.1528
  877.5000  -999.2500   -35.5828    87.4551    12.8149    12.1084
  878.0000  -999.2500   -35.7014    87.1902    12.7840    12.0758
  878.5000  -999.2500   -35.6185    86.9279    12.7246    12.0105
  879.0000  -999.2500   -35.4434    87.0656    12.6658    11.9296
  879.5000  -999.2500   -35.2887    88.1346    12.6079    11.8696
  880.0000  -999.2500   -35.1273    89.2030    12.5487    11.8370
  880.5000  -999.2500   -34.9665    90.2702    12.4920    11.7961
  881.0000  -999.2500   -34.8675    91.3368    12.4306    11.7843
  881.5000  -999.2500   -34.8232    92.4034    12.3778    11.7854
  882.0000  -999.2500   -34.7701    93.4697    12.3085    11.7851
  882.5000  -999.2500   -34.7231    93.7897    12.3424    11.7853
  883.0000  -999.2500   -34.6700    93.7813    12.3220    11.7855
  883.5000  -999.2500   -34.6256    93.5374    12.2552    11.7840
  884.0000  -999.2500   -34.5669    93.2663    12.2052    11.7705
  884.5000  -999.2500   -34.5357    92.9952    12.1460    11.7569
  885.0000  -999.2500   -34.3495    92.7241    12.0925    11.7433
  885.5000  -999.2500   -34.0275    92.4530    12.0343    11.7299
  886.0000  -999.2500   -33.7890    92.1820    11.9905    11.7159
  886.5000  -999.2500   -33.5737    91.9109    12.0137    11.7030
  887.0000  -999.2500   -33.3720    91.7753    12.0473    11.6884
  887.5000  -999.2500   -33.1544    92.1933    12.0793    11.6917
