~VERSION INFORMATION
 VERS.                2.0:   CWLS LOG ASCII STANDARD - VERSION 2.0
 WRAP.                 NO:   ONE LINE PER DEPTH STEP
~WELL INFORMATION
#MNEM.UNIT      DATA TYPE    INFORMATION
#----------   ------------   ------------------------------
 STRT.F           34.0000:   START DEPTH
 STOP.F          514.0000:   STOP DEPTH
 STEP.F            0.5000:   STEP LENGTH
 NULL.          -999.2500:   NO VALUE
 COMP. FENIX & SCISSON INC:   COMPANY
 WELL. NPR 3 #41 SX 10-10:   WELL
 FLD .             TEAPOT:   FIELD
 LOC .      S10 T38N R78W:   LOCATION
 CNTY.            NATRONA:   COUNTY
 STAT.            WYOMING:   STATE
 CTRY. UNITED STATES OF AMERICA:   COUNTRY
 SRVC.           BIRDWELL:   SERVICE COMPANY
 DATE.        25-JUN-1978:   LOGDATE
 API .       490251065200:   API NUMBER
~CURVE INFORMATION
#MNEM.UNIT       API CODE    CURVE DESCRIPTION
#----------   ------------   ------------------------------
 DEPT.F                  :   
 SPR .MV     07 010 01 00:   SPONTANEOUS POTENTIAL
 ILD .OHMM   07 120 46 00:   INDUCTION LOG DEEP
 SN  .OHMM   07 040 16 00:   SHORT NORMAL 16"
 CALD.IN     45 280 60 00:   CALIPER FROM DENSITY LOG
 GRD .GAPI   45 310 01 00:   GAMMA RAY FROM DENSITY LOG
 CORR.G/C3   45 356 01 00:   DENSITY CORRECTION
 DPHI.DEC    45 890 12 00:   DENSITY POROSITY SANDSTONE
 DEN .G/C3   45 350 01 00:   COMPENSATED BULK DENSTIY
 GRN .GAPI   35 310 01 00:   GAMMA RAY
 NEUT.NAPI   35 330 01 00:   NEUTRON
~PARAMETER INFORMATION
#MNEM.UNIT          VALUE    DESCRIPTION
#----------   ------------   ------------------------------
 PD  .                 GL:   PERMANENT DATUM
 EPD .F              5235:   ELEVATION PERMANENT DATUM
 LMF .                 KB:   LOG MEASURED FROM
 DAPD.F                 4:   FEET ABOVE PERMANENT DATUM
 DMF .                 KB:   DRILLING MEASURED FROM
 EKB .F              5239:   KELLING BUSHING
 EGL .F              5235:   GROUND LEVEL
 DATE.        25-JUN-1978:   RUN DATE
 RUN .                  1:   RUN NUMBER
 DD  .F               510:   DEPTH DRILLER
 DL  .F               514:   DEPTH LOGGER
 BLI .F               514:   BOTTOM LOG INTERVAL
 TLI .F                30:   TOP LOG INTERVAL
 CS  .IN            8.625:   CASING SIZE
 CBD .F                40:   CASING BOTTOM DRILLER
 CBL .F                40:   CASING BOTTOM LOGGER
 BS  .IN            7.875:   BIT SIZE
 BSD .F               510:   BIT SIZE AT DEPTH
 DFT .                KCL:   DRILLING FLUID TYPE
 DFD .                8.6:   DRILLING FLUID DENSITY
 DFV .                 31:   DRILLING FLUID VISCOSITY
 DFPH.                9.5:   DRILLING FLUID PH
 DFL .                 17:   DRILLING FLUID LOSS
 MSS .           FLOWLINE:   MUD SAMPLE SOURCE
 RMS .OHMM             .5:   RESISTIVITY MUD SAMPLE
 MST .F                74:   MUD SAMPLE TEMPERATURE
 RMF .OHMM            .54:   RESISTIVITY MUD FILTRATE SAMPLE
 MFST.F                72:   MUD FILTRATE SAMPLE TEMPERATURE
 RMC .OHMM            1.0:   RESISTIVITY MUD CAKE
 MCST.F                66:   MUD CAKE SAMPLE TEMPERATURE
 MFSS.               MEAS:   MUD FILTRATE SAMPLE SOURCE
 MCSS.               MEAS:   MUD CAKE SAMPLE SOURCE
 BHT .F                74:   BOTTOM HOLE TEMPERATURE
 TCS .HRS            0100:   TIME CURCULATED STOPPED
 MRT .F                74:   MAXIMUM RECORDED TEMPERATURE
 LUN .               2958:   LOGGING UNIT NUMBER
 LUL .               CASP:   LOGGING UNIT LOCATION
 ENGI.           REYNOLDS:   RECORDING ENGINEER
 CLNT.            A2DTECH:   CLIENT CODE
 ORIG.           5" PRINT:   ORIGIN OF DATA
 UWI .       490251065200:   UNIQUE WELL ID
 DICO. A2D Technologies, Inc.:   DIGITIZING COMPANY
~OTHER INFORMATION
~A   DEPT      SPR        ILD         SN       CALD        GRD       CORR       DPHI        DEN        GRN       NEUT   
# ...
  168.0000   -65.3293     8.1534     8.4408     8.2586    94.8055     0.0330     0.1552     2.4541    48.9985  1534.0779
  168.5000   -65.3353     8.0381     8.3214     8.2740    95.7120     0.0360     0.1570     2.4315    49.5964  1535.3787
  169.0000   -65.3414     7.9245     8.2011     8.2743    97.5234     0.0480     0.1672     2.4255    49.7459  1539.3973
  169.5000   -65.3474     7.8125     8.0870     8.2421    98.7567     0.0631     0.1655     2.4200    48.1764  1531.2527
  170.0000   -65.3534     7.7555     7.9727     8.2296    97.5266     0.0631     0.1476     2.4113    48.6298  1517.7205
  170.5000   -65.3594     7.6451     7.8600     8.2299    97.6789     0.0465     0.1310     2.4210    49.5217  1496.9561
  171.0000   -65.3654     7.5894     7.8027     8.2151    96.1721     0.0360     0.1307     2.4631    48.5501  1479.8517
  171.5000   -65.3714     7.5341     7.7996     8.1852    94.8160     0.0420     0.1440     2.4737    50.2691  1489.2581
  172.0000   -65.3774     7.5311     7.7426     8.1704    96.3258     0.0450     0.1575     2.4676    46.0090  1490.5782
  172.5000   -65.3835     7.6330     7.7934     8.1254    98.5900     0.0450     0.1527     2.4466    45.7100  1493.2281
  173.0000   -65.3895     7.6882     7.8436     8.0955   100.4015     0.0450     0.1569     2.4354    44.1405  1508.0317
  173.5000   -65.3955     7.8402     7.8405     8.0806    99.6487     0.0450     0.1515     2.4384    46.6069  1509.3422
  174.0000   -65.4018     7.8915     7.8926     8.0658    96.9353     0.0465     0.1512     2.4376    50.5680  1526.8347
  174.5000   -65.3957     7.9439     7.9440     8.0511    99.1992     0.0465     0.1509     2.4388    50.1196  1541.6383
  175.0000   -65.3894     7.9951     7.9954     8.0362   100.8597     0.0465     0.1494     2.4467    48.7743  1547.0063
  175.5000   -65.3831     7.9920     8.0477     8.0366    99.8557     0.0480     0.1494     2.4482    45.6980  1529.4261
  176.0000   -65.3767     7.9880     8.1004     8.0217    96.9414     0.0480     0.1463     2.4504    43.9163  1544.2200
  176.5000   -65.3704     7.9298     8.1534     8.0221    96.3392     0.0450     0.1394     2.4519    45.1121  1553.6263
  177.0000   -65.3641     7.9266     8.2060     8.0224    95.8885     0.0450     0.1282     2.4527    47.4290  1554.9368
  177.5000   -65.3578     7.9235     8.2596     8.0390    93.7783     0.0495     0.1333     2.4744    48.9238  1544.0934
  178.0000   -65.3515     7.9456     8.3137     8.0985    92.7240     0.0556     0.1379     2.4775    49.6712  1515.7186
  178.5000   -65.3451     7.9969     8.3095     8.1441    93.6808     0.0601     0.1276     2.4708    48.8333  1519.7277
  179.0000   -65.3388     8.0482     8.3647     8.2351    98.0063     0.0631     0.1283     2.4798    47.8027  1531.8326
  179.5000   -65.3325     8.0996     8.3606     8.2807   100.2702     0.0661     0.1294     2.4828    47.8027  1537.1919
  180.0000   -65.3262     8.1509     8.3570     8.3263    99.9700     0.0646     0.1233     2.4828    46.7564  1527.4371
  180.5000   -65.3198     8.2022     8.3537     8.3871    98.7648     0.0646     0.1197     2.4903    47.8027  1516.8733
  181.0000   -65.3135     8.2359     8.3503     8.4629    99.3695     0.0646     0.1206     2.4918    49.5964  1533.0165
  181.5000   -65.3072     8.1187     8.4050     8.4632   100.7288     0.0661     0.1243     2.4918    50.1943  1526.2310
  182.0000   -65.3009     8.0039     8.4591     8.4635    98.0153     0.0601     0.1191     2.4911    48.4006  1543.7330
  182.5000   -65.2946     7.9456     8.4558     8.4638    96.9606     0.0571     0.1197     2.4896    49.8954  1550.6444
  183.0000   -65.2882     7.8876     8.4524     8.4807    97.4149     0.0571     0.1293     2.4911    52.8849  1546.3361
  183.5000   -65.2819     7.8837     8.3908     8.5248    96.5114     0.0571     0.1339     2.4783    55.5755  1532.1572
  184.0000   -65.2756     7.8806     8.3874     8.5553    97.1161     0.0540     0.1296     2.4746    52.6607  1511.1837
  184.5000   -65.2693     7.9330     8.3255     8.6009   100.0085     0.0405     0.1278     2.4769    55.1271  1527.3367
  185.0000   -65.2630     8.0395     8.3222     8.6314    98.0244     0.0390     0.1326     2.4776    56.8460  1532.7048
  185.5000   -65.2566     8.0931     8.3189     8.6622    96.5175     0.0405     0.1367     2.4769    57.2945  1519.1628
  186.0000   -65.2503     8.1451     8.3155     8.7076    95.1611     0.0420     0.1405     2.4709    54.8281  1509.6787
  186.5000   -65.2520     8.1410     8.2549     8.7230    99.6878     0.0405     0.1393     2.4664    54.0807  1527.4584
  187.0000   -65.2571     8.0817     8.2474     8.7233   102.4042     0.0359     0.1371     2.4664    52.2870  1523.0842
  187.5000   -65.2632     8.0228     8.0781     8.7236   103.1599     0.0345     0.1329     2.4686    51.9880  1517.6577
  188.0000   -65.2692     7.9643     7.9639     8.6937   102.1058     0.0360     0.1254     2.4747    50.4933  1544.5956
  188.5000   -65.2752     7.9061     7.7972     8.6637    98.1857     0.0345     0.1356     2.4777    49.8954  1548.6143
  189.0000   -65.2812     7.8478     7.6869     8.6037    96.9802     0.0330     0.1335     2.4769    48.7743  1559.3602
  189.5000   -65.2872     7.7369     7.5260     8.4680   100.6019     0.0330     0.1419     2.4668    48.6996  1570.3489
  190.0000   -65.2932     7.5749     7.4127     8.4079   103.0166     0.0330     0.1341     2.4589    46.0090  1580.8715
  190.5000   -65.2992     7.4163     7.2636     8.4082   103.1692     0.0330     0.1308     2.4649    47.4290  1551.1376
  191.0000   -65.3053     7.2110     7.2607     8.4085   101.5116     0.0330     0.1298     2.4739    48.9985  1547.0507
  191.5000   -65.3113     7.1577     7.3082     8.3483    99.4014     0.0330     0.1298     2.4747    50.4185  1547.0117
  192.0000   -65.3173     7.1549     7.4071     8.3034    96.2354     0.0315     0.1331     2.4762    49.8954  1540.2262
  192.5000   -65.3233     7.2024     7.5595     8.3339    95.1811     0.0285     0.1350     2.4761    49.2975  1529.3927
  193.0000   -65.3293     7.2999     7.6610     8.3493    94.8808     0.0285     0.1310     2.4732    50.5680  1515.6707
  193.5000   -65.3353     7.2963     7.7119     8.3798    95.2091     0.0300     0.1374     2.4725    50.4185  1503.6678
  194.0000   -65.3414     7.2866     7.7624     8.4123    95.7891     0.0315     0.1343     2.4717    49.9701  1511.7249
  194.5000   -65.3474     7.1896     7.7585     8.4257    95.7905     0.0315     0.1506     2.4672    49.7459  1507.6379
  195.0000   -65.3534     7.0879     7.6488     8.4109    95.8886     0.0345     0.1501     2.4560    50.4933  1498.1536
  195.5000   -65.3594     6.9877     7.5367     8.4112    95.5617     0.0346     0.1422     2.4455    51.5511  1488.6694
  196.0000   -65.3654     6.8890     7.3312     8.4115    94.6805     0.0360     0.1479     2.4500    51.9880  1477.4044
  196.5000   -65.3714     6.7447     7.1777     8.4269    96.3356     0.0345     0.1557     2.4507    51.0912  1481.8351
  197.0000   -65.3774     6.6487     7.0275     8.4272    97.3887     0.0330     0.1591     2.4402    49.2227  1497.9880
  197.5000   -65.3837     6.6003     6.9762     8.4275    97.2363     0.0285     0.1524     2.4320    48.3259  1493.9011
  198.0000   -65.3895     6.6441     6.9734     8.4278    96.6324     0.0270     0.1451     2.4395    44.8849  1477.6703
  198.5000   -65.2242     6.7334     6.9772     8.4734    93.0165     0.0270     0.1473     2.4605    46.0704  1469.5354
  199.0000   -65.2025     6.8245     7.1134     8.5492    92.8648     0.0270     0.1518     2.4538    48.0269  1462.7496
  199.5000   -65.1809     6.9169     7.2103     8.6100    93.6159     0.0270     0.1533     2.4470    49.5964  1465.3998
  200.0000   -65.1592     7.0585     7.3587     8.6494    94.8193     0.0255     0.1487     2.4399    50.7925  1468.0692
  200.5000   -65.1376     7.1058     7.3548     8.7313    96.8178     0.0270     0.1312     2.4380    50.1960  1478.8326
  201.0000   -65.1243     7.1028     7.7167     8.7163    99.0328     0.0270     0.1345     2.4673    49.3002  1488.2521
