~VERSION INFORMATION
 VERS.                2.0:   CWLS LOG ASCII STANDARD - VERSION 2.0
 WRAP.                 NO:   ONE LINE PER DEPTH STEP
~WELL INFORMATION
#MNEM.UNIT      DATA TYPE    INFORMATION
#----------   ------------   ------------------------------
 STRT.F            0.0000:   START DEPTH
 STOP.F         2838.0000:   STOP DEPTH
 STEP.F            0.5000:   STEP LENGTH
 NULL.          -999.2500:   NO VALUE
 COMP. INTEX OIL CO U S NAVY:   COMPANY
 WELL. NAVAL PETROLEUM RESERVE 3 29 #NPR #3 (204A29)-29:   WELL
 FLD .                N/A:   FIELD
 LOC .      S29 T39N R78W:   LOCATION
 CNTY.            NATRONA:   COUNTY
 STAT.            WYOMING:   STATE
 CTRY. UNITED STATES OF AMERICA:   COUNTRY
 SRVC.      NL McCullough:   SERVICE COMPANY
 DATE.        24-JUN-1965:   LOGDATE
 API .       490251021700:   API NUMBER
~CURVE INFORMATION
#MNEM.UNIT       API CODE    CURVE DESCRIPTION
#----------   ------------   ------------------------------
 DEPT.F                  :   
 GR  .GAPI   30 310 01 00:   GAMMA RAY
 HD  .IN     70 280 01 00:   DAIMETER
~PARAMETER INFORMATION
#MNEM.UNIT          VALUE    DESCRIPTION
#----------   ------------   ------------------------------
 PD  .                 GL:   PERMANENT DATUM
 LMF .                 GL:   LOG MEASURED FROM
 EDF .F              5016:   DRILLING FLOOR
 DATE.        24-JUN-1965:   RUN DATE
 RUN .                  1:   RUN NUMBER
 DD  .F              2838:   DEPTH DRILLER
 DL  .F              2838:   DEPTH LOGGER
 BLI .F              2836:   BOTTOM LOG INTERVAL
 TLI .F              2400:   TOP LOG INTERVAL
 CS  .IN            6.625:   CASING SIZE
 CBD .F              2820:   CASING BOTTOM DRILLER
 BSD .F              2838:   BIT SIZE AT DEPTH
 LUN .               1497:   LOGGING UNIT NUMBER
 ENGI.         COWLTHORPE:   RECORDING ENGINEER
 WITN.         MR. HUDSON:   WITNESSED BY
 CLNT.            A2DTECH:   CLIENT CODE
 ORIG.           5" PRINT:   ORIGIN OF DATA
 UWI .       490251021700:   UNIQUE WELL ID
 DICO. A2D Technologies, Inc.:   DIGITIZING COMPANY
~OTHER INFORMATION
~A    DEPT      GR           HD 
# ...
 2308.5000  -999.2500     6.4312
 2309.0000  -999.2500     6.4310
 2309.5000  -999.2500     6.4366
 2310.0000  -999.2500     6.4458
 2310.5000  -999.2500     6.4456
 2311.0000  -999.2500     6.4455
 2311.5000  -999.2500     6.4438
 2312.0000  -999.2500     6.4452
 2312.5000  -999.2500     6.4450
 2313.0000  -999.2500     6.4449
 2313.5000  -999.2500     6.4598
 2314.0000  -999.2500     6.4597
 2314.5000  -999.2500     6.4595
 2315.0000  -999.2500     6.4744
 2315.5000  -999.2500     6.4742
 2316.0000  -999.2500     6.4741
 2316.5000  -999.2500     6.4762
 2317.0000  -999.2500     6.4888
 2317.5000  -999.2500     6.4887
 2318.0000  -999.2500     6.4886
 2318.5000  -999.2500     6.4884
 2319.0000  -999.2500     6.5033
 2319.5000  -999.2500     6.4881
 2320.0000  -999.2500     6.5030
 2320.5000  -999.2500     6.5029
 2321.0000  -999.2500     6.5027
 2321.5000  -999.2500     6.5026
 2322.0000  -999.2500     6.5024
 2322.5000  -999.2500     6.5022
 2323.0000  -999.2500     6.5021
 2323.5000  -999.2500     6.5020
 2324.0000  -999.2500     6.5018
 2324.5000  -999.2500     6.5017
 2325.0000  -999.2500     6.4865
 2325.5000  -999.2500     6.4863
 2326.0000  -999.2500     6.5012
 2326.5000  -999.2500     6.5312
 2327.0000  -999.2500     6.5461
 2327.5000  -999.2500     6.5761
 2328.0000  -999.2500     6.5910
 2328.5000  -999.2500     6.6059
 2329.0000  -999.2500     6.6057
 2329.5000  -999.2500     6.6056
 2330.0000  -999.2500     6.6205
 2330.5000  -999.2500     6.6203
 2331.0000  -999.2500     6.6353
 2331.5000  -999.2500     6.6351
 2332.0000  -999.2500     6.6500
 2332.5000  -999.2500     6.6498
 2333.0000  -999.2500     6.6497
 2333.5000  -999.2500     6.6495
 2334.0000  -999.2500     6.6494
 2334.5000  -999.2500     6.6492
 2335.0000  -999.2500     6.6491
 2335.5000  -999.2500     6.6490
 2336.0000  -999.2500     6.6488
 2336.5000  -999.2500     6.6486
 2337.0000  -999.2500     6.6485
 2337.5000  -999.2500     6.6333
 2338.0000  -999.2500     6.6306
 2338.5000  -999.2500     6.6271
 2339.0000  -999.2500     6.6236
 2339.5000  -999.2500     6.6200
 2340.0000  -999.2500     6.6165
 2340.5000  -999.2500     6.6130
 2341.0000  -999.2500     6.6095
 2341.5000  -999.2500     6.6060
 2342.0000  -999.2500     6.6018
 2342.5000  -999.2500     6.6016
 2343.0000  -999.2500     6.6166
 2343.5000  -999.2500     6.6164
 2344.0000  -999.2500     6.6163
 2344.5000  -999.2500     6.6161
 2345.0000  -999.2500     6.6160
 2345.5000  -999.2500     6.6309
 2346.0000  -999.2500     6.6307
 2346.5000  -999.2500     6.6305
 2347.0000  -999.2500     6.6304
 2347.5000  -999.2500     6.6303
 2348.0000  -999.2500     6.6301
 2348.5000  -999.2500     6.6300
 2349.0000  -999.2500     6.6298
 2349.5000  -999.2500     6.6146
 2350.0000  -999.2500     6.6145
 2350.5000  -999.2500     6.6143
 2351.0000  -999.2500     6.5991
 2351.5000  -999.2500     6.5989
 2352.0000  -999.2500     6.5837
 2352.5000  -999.2500     6.5822
 2353.0000  -999.2500     6.5805
 2353.5000  -999.2500     6.5788
 2354.0000  -999.2500     6.5771
 2354.5000  -999.2500     6.5754
 2355.0000  -999.2500     6.5737
 2355.5000  -999.2500     6.5720
 2356.0000  -999.2500     6.5703
 2356.5000  -999.2500     6.5693
 2357.0000  -999.2500     6.5542
 2357.5000  -999.2500     6.5542
 2358.0000  -999.2500     6.5693
 2358.5000  -999.2500     6.5693
 2359.0000  -999.2500     6.5693
 2359.5000  -999.2500     6.5693
 2360.0000  -999.2500     6.5542
 2360.5000  -999.2500     6.5542
 2361.0000  -999.2500     6.5542
 2361.5000  -999.2500     6.5542
 2362.0000  -999.2500     6.5542
 2362.5000  -999.2500     6.5392
 2363.0000  -999.2500     6.5392
 2363.5000  -999.2500     6.5392
 2364.0000  -999.2500     6.5392
 2364.5000  -999.2500     6.5241
 2365.0000  -999.2500     6.5241
 2365.5000  -999.2500     6.5090
 2366.0000  -999.2500     6.5090
 2366.5000  -999.2500     6.5090
 2367.0000  -999.2500     6.5090
 2367.5000  -999.2500     6.4940
 2368.0000  -999.2500     6.4940
 2368.5000  -999.2500     6.4940
 2369.0000  -999.2500     6.4940
 2369.5000  -999.2500     6.4940
 2370.0000  -999.2500     6.4940
 2370.5000  -999.2500     6.4789
 2371.0000  -999.2500     6.4789
 2371.5000  -999.2500     6.4789
 2372.0000  -999.2500     6.4789
 2372.5000  -999.2500     6.4789
 2373.0000  -999.2500     6.4789
 2373.5000  -999.2500     6.4789
 2374.0000  -999.2500     6.4940
 2374.5000  -999.2500     6.4940
 2375.0000  -999.2500     6.4940
 2375.5000  -999.2500     6.4940
 2376.0000  -999.2500     6.4940
 2376.5000  -999.2500     6.4940
 2377.0000  -999.2500     6.4940
 2377.5000  -999.2500     6.4921
 2378.0000  -999.2500     6.4789
 2378.5000  -999.2500     6.4789
 2379.0000  -999.2500     6.4789
 2379.5000  -999.2500     6.4789
 2380.0000  -999.2500     6.4789
 2380.5000  -999.2500     6.4789
 2381.0000  -999.2500     6.4789
 2381.5000  -999.2500     6.4639
 2382.0000  -999.2500     6.4639
 2382.5000  -999.2500     6.4639
 2383.0000  -999.2500     6.4639
 2383.5000  -999.2500     6.4626
 2384.0000  -999.2500     6.4488
 2384.5000  -999.2500     6.4488
 2385.0000  -999.2500     6.4488
 2385.5000  -999.2500     6.4488
 2386.0000  -999.2500     6.4337
 2386.5000  -999.2500     6.4337
 2387.0000  -999.2500     6.4337
 2387.5000  -999.2500     6.4337
 2388.0000  -999.2500     6.4337
 2388.5000  -999.2500     6.4337
 2389.0000  -999.2500     6.4337
 2389.5000  -999.2500     6.4337
 2390.0000  -999.2500     6.4488
 2390.5000  -999.2500     6.4337
 2391.0000  -999.2500     6.4337
 2391.5000  -999.2500     6.4337
 2392.0000  -999.2500     6.4337
 2392.5000  -999.2500     6.4337
 2393.0000  -999.2500     6.4488
 2393.5000  -999.2500     6.4337
 2394.0000  -999.2500     6.4337
 2394.5000  -999.2500     6.4488
 2395.0000  -999.2500     6.4463
 2395.5000  -999.2500     6.4337
 2396.0000  -999.2500     6.4337
 2396.5000  -999.2500     6.4337
 2397.0000  -999.2500     6.4337
 2397.5000  -999.2500     6.4337
 2398.0000  -999.2500     6.4337
 2398.5000  -999.2500     6.4337
 2399.0000  -999.2500     6.4337
 2399.5000  -999.2500     6.4337
 2400.0000    47.0318     6.4337
 2400.5000    49.0584     6.4337
 2401.0000    50.5554     6.4369
 2401.5000    50.5554     6.4639
 2402.0000    48.7660     6.4940
 2402.5000    47.5614     6.5090
 2403.0000    48.6307     6.5392
 2403.5000    50.1277     6.5542
 2404.0000    50.5554     6.5693
 2404.5000    50.2346     6.5693
 2405.0000    48.8446     6.5693
 2405.5000    48.5238     6.5693
 2406.0000    46.6604     6.5693
 2406.5000    46.2783     6.5693
 2407.0000    47.3476     6.5693
 2407.5000    47.5614     6.5693
 2408.0000    49.2723     6.5693
 2408.5000    50.0208     6.5843
 2409.0000    47.8822     6.5843
 2409.5000    47.5391     6.5843
 2410.0000    47.9892     6.5843
 2410.5000    46.7060     6.5693
 2411.0000    47.7753     6.5542
 2411.5000    47.4545     6.5542
 2412.0000    46.2783     6.5392
 2412.5000    44.8883     6.5241
 2413.0000    43.7120     6.5090
 2413.5000    44.9952     6.5090
 2414.0000    45.8506     6.5090
 2414.5000    44.9952     6.5090
 2415.0000    46.4922     6.4940
 2415.5000    47.1337     6.4789
 2416.0000    49.0584     6.4789
 2416.5000    50.1277     6.4789
 2417.0000    49.2723     6.4789
 2417.5000    48.6307     6.4789
 2418.0000    46.4922     6.4789
 2418.5000    46.0417     6.4789
 2419.0000    46.7060     6.4789
 2419.5000    47.5614     6.4940
 2420.0000    45.8506     6.4940
 2420.5000    43.6051     6.4940
 2421.0000    46.2783     6.4940
 2421.5000    46.4222     6.5090
 2422.0000    45.4229     6.5090
 2422.5000    43.2275     6.5090
 2423.0000    40.3973     6.5018
 2423.5000    40.0765     6.4940
 2424.0000    40.9319     6.4789
 2424.5000    41.6804     6.4639
 2425.0000    40.7181     6.4488
 2425.5000    41.1458     6.4488
 2426.0000    40.7181     6.4488
 2426.5000    40.2848     6.4488
 2427.0000    39.1897     6.4488
 2427.5000    37.7241     6.4488
 2428.0000    35.5855     6.4639
 2428.5000    35.3717     6.4639
 2429.0000    36.7617     6.4639
 2429.5000    39.0072     6.4639
