~VERSION INFORMATION
 VERS.                2.0:   CWLS LOG ASCII STANDARD - VERSION 2.0
 WRAP.                 NO:   ONE LINE PER DEPTH STEP
~WELL INFORMATION
#MNEM.UNIT      DATA TYPE    INFORMATION
#----------   ------------   ------------------------------
 STRT.F           24.5000:   START DEPTH
 STOP.F          750.0000:   STOP DEPTH
 STEP.F            0.5000:   STEP LENGTH
 NULL.          -999.2500:   NO VALUE
 COMP. FENIX & SCISSON INC:   COMPANY
 WELL.    NPR 3 SX #35-11:   WELL
 FLD .          N.P.R. #3:   FIELD
 LOC .      S11 T38N R78W:   LOCATION
 CNTY.            NATRONA:   COUNTY
 STAT.            WYOMING:   STATE
 CTRY. UNITED STATES OF AMERICA:   COUNTRY
 SRVC.            Unknown:   SERVICE COMPANY
 DATE.        23-FEB-1978:   LOGDATE
 API .       490251027200:   API NUMBER
~CURVE INFORMATION
#MNEM.UNIT       API CODE    CURVE DESCRIPTION
#----------   ------------   ------------------------------
 DEPT.F                  :   
 ILM .OHMM   07 120 44 00:   INDUCTION LOG MEDIUM
 ILD .OHMM   07 120 46 00:   INDUCTION LOG DEEP
 LL8 .OHMM   07 220 08 00:   LATEROLOG-8 RES.
 SPR .MV     07 010 01 00:   SPONTANEOUS POTENTIAL
 CALD.IN     45 280 60 00:   CALIPER FROM DENSITY LOG
 CORR.G/C3   45 356 01 00:   DENSITY CORRECTION
 DPHI.DEC    45 890 12 00:   DENSITY POROSITY SANDSTONE
 GRD .GAPI   45 310 01 00:   GAMMA RAY FROM DENSITY LOG
 RHOB.G/C3   45 350 01 00:   BULK DENSITY
 IL  .OHMM   05 120 40 00:   INDUCTION RESISTIVITY
 SN  .OHMM   05 040 16 00:   SHORT NORMAL 16"
 SPR1.MV     05 010 01 00:   SPONTANEOUS POTENTIAL INDUCTION ELECTRICAL LOG
~PARAMETER INFORMATION
#MNEM.UNIT          VALUE    DESCRIPTION
#----------   ------------   ------------------------------
 PD  .                 GL:   PERMANENT DATUM
 EPD .F              5204:   ELEVATION PERMANENT DATUM
 LMF .                 KB:   LOG MEASURED FROM
 DAPD.F                 4:   FEET ABOVE PERMANENT DATUM
 DMF .                 KB:   DRILLING MEASURED FROM
 EKB .F              5208:   KELLING BUSHING
 EGL .F              5204:   GROUND LEVEL
 DATE.        23-FEB-1978:   RUN DATE
 RUN .                  1:   RUN NUMBER
 DD  .F               755:   DEPTH DRILLER
 DL  .F               751:   DEPTH LOGGER
 BLI .F               745:   BOTTOM LOG INTERVAL
 TLI .F                45:   TOP LOG INTERVAL
 CS  .IN            8.625:   CASING SIZE
 CBD .F                40:   CASING BOTTOM DRILLER
 CBL .F                40:   CASING BOTTOM LOGGER
 BS  .IN            7.875:   BIT SIZE
 BSD .F               755:   BIT SIZE AT DEPTH
 DFT .         LIGNO SULF:   DRILLING FLUID TYPE
 DFD .                8.7:   DRILLING FLUID DENSITY
 DFV .                 33:   DRILLING FLUID VISCOSITY
 DFPH.                 10:   DRILLING FLUID PH
 DFL .                  4:   DRILLING FLUID LOSS
 MSS .           FLOWLINE:   MUD SAMPLE SOURCE
 RMS .OHMM            2.0:   RESISTIVITY MUD SAMPLE
 MST .F                60:   MUD SAMPLE TEMPERATURE
 RMF .OHMM            1.9:   RESISTIVITY MUD FILTRATE SAMPLE
 MFST.F                62:   MUD FILTRATE SAMPLE TEMPERATURE
 RMC .OHMM            3.5:   RESISTIVITY MUD CAKE
 MCST.F                60:   MUD CAKE SAMPLE TEMPERATURE
 MFSS.               MEAS:   MUD FILTRATE SAMPLE SOURCE
 RMB .OHMM           1.69:   RESISTIVITY MUD AT BHT
 BHT .F                71:   BOTTOM HOLE TEMPERATURE
 TCS .HRS               3:   TIME CURCULATED STOPPED
 MRT .F                71:   MAXIMUM RECORDED TEMPERATURE
 CLNT.            A2DTECH:   CLIENT CODE
 ORIG.           5" PRINT:   ORIGIN OF DATA
 UWI .       490251027200:   UNIQUE WELL ID
 DICO. A2D Technologies, Inc.:   DIGITIZING COMPANY
~OTHER INFORMATION
~A   DEPT      ILM        ILD        LL8        SPR       CALD       CORR       DPHI         GRD      RHOB         IL         SN       SPR1   
# ...
  360.5000     8.8841     8.7754     9.2102   -26.7526     8.2743     0.0110     0.1222   113.0041     2.4460     7.9528     9.0025   -34.8728
  361.0000     8.8918     8.8442     9.2185   -26.2860     8.2766     0.0217     0.1227   114.5161     2.4424     7.9544     9.0287   -35.4604
  361.5000     8.9605     8.8522     9.2268   -25.9679     8.2791     0.0180     0.1191   114.2424     2.4523     7.9561     9.0705   -35.8889
  362.0000     8.9679     8.8602     9.2351   -26.1008     8.2661     0.0159     0.1153   113.9627     2.4592     7.9596     9.0732   -36.0187
  362.5000     8.9754     8.9296     9.2434   -26.0747     8.2538     0.0145     0.1233   114.1414     2.4345     8.0148     9.0966   -35.9842
  363.0000     8.9209     8.9377     9.2518   -26.0537     8.2570     0.0139     0.1208   113.7189     2.4497     8.0168     9.1414   -35.6550
  363.5000     8.9286     8.8822     9.1332   -26.0328     8.2595     0.0185     0.1173   112.5523     2.4588     8.0743     9.1440   -35.1983
  364.0000     8.8135     8.8922     9.0141   -26.1657     8.2621     0.0277     0.1154   112.4214     2.4575     8.0760     9.1465   -34.8952
  364.5000     8.8209     8.9003     9.0243   -26.4420     8.2646     0.0173     0.1166   113.8676     2.4546     8.1339     9.1491   -34.7472
  365.0000     8.7316     8.8451     9.0324   -26.7131     8.2671     0.0099     0.1189   115.4712     2.4494     8.1923     9.2156   -35.0487
  365.5000     8.7127     8.8551     9.1031   -26.9893     8.2846     0.0055     0.1216   115.7670     2.4427     8.3085     9.2877   -35.1852
  366.0000     8.7822     8.8021     9.2380   -27.1170     8.2871     0.0147     0.1252   115.4932     2.4451     8.3795     9.4873   -35.3016
  366.5000     8.7889     8.7495     9.2463   -27.6905     8.2003     0.0396     0.1264   116.3312     2.4354     8.5459     9.7588   -35.0860
  367.0000     8.7969     8.7574     9.0650   -27.9667     7.9197     0.0654     0.1221   118.8452     2.4454     8.6672    10.0381   -34.7941
  367.5000     8.8042     8.7653     8.8242   -28.0996     7.7136     0.0934     0.1197   119.8810     2.4538     8.8514    10.2537   -34.6277
  368.0000     8.8116     8.7732     9.0814   -28.2273     7.6559     0.1003     0.1247   119.3091     2.4381     8.9783    10.5472   -34.4910
  368.5000     8.8189     8.7811     9.2159   -28.3550     7.8528     0.1101     0.1068   119.4896     2.4789     9.1401    10.8370   -34.5079
  369.0000     8.8263     8.7891     9.3524   -28.9232     7.8398     0.0734     0.1059   119.9524     2.4572     9.3625    10.9920   -34.6445
  369.5000     8.8336     8.8579     9.3608   -29.6453     7.9026     0.0464     0.1203   116.1022     2.4249     9.5615    11.0863   -34.8166
  370.0000     8.9022     8.9258     9.3028   -29.6285     8.0149     0.0398     0.1305   115.2381     2.4325     9.8327    11.3093   -35.1048
  370.5000     8.9714     9.0596     9.3231   -29.3105     8.1334     0.0361     0.1178   113.9227     2.4462    10.0417    11.4710   -35.4323
  371.0000     9.1036     9.1305     9.4704   -29.1174     8.1779     0.0325     0.1186   112.1609     2.4539    10.2551    11.8806   -35.7485
  371.5000     9.1743     9.2641     9.8673   -28.5260     8.1954     0.0311     0.1183   112.3336     2.4608    10.5459    12.3909   -35.6905
  372.0000     9.3096     9.3366    10.0727   -28.2080     8.1979     0.0320     0.1131   113.5480     2.4737    10.7700    12.8333   -35.5689
  372.5000     9.4559     9.4836    10.0820   -28.4849     8.2004     0.0351     0.1022   115.0600     2.4888    10.9228    13.1078   -35.6007
  373.0000     9.6525     9.6223    10.1609   -28.7612     8.2179     0.0293     0.1118   114.7863     2.4664    11.0012    13.2030   -35.7859
  373.5000     9.7948     9.8306    10.2405   -28.7400     8.2204     0.0234     0.1160   112.8757     2.4567    10.9273    12.7549   -36.0236
  374.0000    10.0081     9.9057    10.4669   -28.2616     8.2379     0.0197     0.1180   110.9651     2.4508    10.8943    12.4947   -36.1602
  374.5000    10.1539    10.1201    10.8411   -27.2095     8.2404     0.0221     0.1195   110.9890     2.4472    10.8562    12.4106   -36.2425
  375.0000    10.3036    10.2681    10.8509   -26.7459     8.2429     0.0192     0.1200   111.7570     2.4541    10.8587    12.4144   -36.1714
  375.5000    10.5278    10.4923    10.7117   -26.5764     8.2306     0.0216     0.1152   112.3761     2.4625    10.8608    12.4184   -35.9469
  376.0000    10.6173    10.7957    10.6447   -26.7043     8.2331     0.0172     0.1127   114.1857     2.4679    10.8630    12.4218   -35.6886
  376.5000    10.9155    11.0315    10.9556   -26.8321     8.2357     0.0264     0.1120   115.4001     2.4695    10.8653    12.5121   -35.5838
  377.0000    11.0799    11.1949    11.4290   -26.9599     8.2382     0.0295     0.1090   113.3407     2.4741    10.8250    12.3425   -35.5689
  377.5000    11.3971    11.4394    11.5186   -26.9386     8.2407     0.0253     0.1047   112.1741     2.4780    10.7138    12.1744   -35.6849
  378.0000    11.6438    11.7702    11.8516   -27.0669     8.2432     0.0170     0.1023   107.5849     2.4766    10.6480    12.0936   -36.0404
  378.5000    12.1462    12.1944    12.3638   -27.0453     8.2458     0.0133     0.1055   106.4184     2.4760    10.5766    12.0131   -36.4109
  379.0000    12.2405    12.3751    13.2591   -27.1730     8.2484     0.0135     0.1067   105.5494     2.4761    10.5056    11.9567   -36.5569
  379.5000    12.3355    12.3863    12.3009   -27.5979     8.2359     0.0159     0.1042   104.9781     2.4770    10.3633    11.9239   -36.5419
  380.0000    12.3458    12.4833    12.2268   -27.7256     8.2386     0.0243     0.1051   105.5972     2.4779    10.3655    11.8565   -36.5270
  380.5000    12.4417    12.4946    12.4944   -28.0018     8.2405     0.0296     0.1092   107.4069     2.4690    10.2959    11.6966   -36.4353
  381.0000    12.4521    12.5059    12.5923   -28.2781     8.2286     0.0260     0.1134   108.9189     2.4616    10.2263    11.5381   -36.1901
  381.5000    12.4625    12.5172    12.6036   -28.7082     8.2311     0.0239     0.1156   108.6451     2.4572    10.1579    11.4604   -35.8720
  382.0000    12.3845    12.5285    12.5254   -28.9844     8.2190     0.0232     0.1179   108.0738     2.4535    10.0895    11.3841   -35.5539
  382.5000    12.3096    12.5398    12.5395   -29.2555     8.2215     0.0272     0.1187   107.3537     2.4627    10.0217    11.2306   -35.5726
  383.0000    12.3225    12.5511    12.3788   -29.2346     8.2240     0.0295     0.1168   106.7764     2.4553     9.9545    11.1550   -35.7747
  383.5000    12.2479    12.4761    11.9698   -29.2137     8.1968     0.0237     0.1186   103.2348     2.4516     9.9571    11.0807   -35.9993
  384.0000    12.2582    12.2287    11.8955   -29.3414     8.1993     0.0185     0.1205   101.9135     2.4427     9.9591    11.0845   -36.1078
  384.5000    12.2684    12.1556    11.9914   -29.4743     8.2019     0.0202     0.1287   104.0267     2.4315     9.9612    11.0099   -35.9094
  385.0000    12.2786    11.9200    12.0022   -29.7505     8.2044     0.0284     0.1232   104.6458     2.4426     9.9632    10.8607   -35.7785
  385.5000    12.2044    11.8460    12.0130   -29.4272     8.2067     0.0362     0.1180   105.2650     2.4509     9.9653    10.7135   -36.0498
  386.0000    12.0446    11.7752    11.9411   -29.1091     8.2092     0.0293     0.1189   106.4794     2.4522     9.9673    10.6227   -36.2949
  386.5000    11.5682    11.7885    11.6265   -29.0882     8.2270     0.0274     0.1210   105.7592     2.4461     9.8320    10.4979   -36.3323
  387.0000    11.3406    11.7180    11.2423   -28.9187     8.2292     0.0226     0.1236   104.2951     2.4360     9.6309    10.3985   -36.0142
  387.5000    11.2696    11.4883    11.0957   -28.7492     8.2321     0.0264     0.1284   102.8309     2.4300     9.5005    10.3585   -35.6475
  388.0000    11.2814    11.2631    11.1082   -28.5797     8.2197     0.0334     0.1259   102.1107     2.4455     9.4367    10.2895   -35.3294
