~VERSION INFORMATION
 VERS.                2.0:   CWLS LOG ASCII STANDARD - VERSION 2.0
 WRAP.                 NO:   ONE LINE PER DEPTH STEP
~WELL INFORMATION
#MNEM.UNIT      DATA TYPE    INFORMATION
#----------   ------------   ------------------------------
 STRT.F           60.0000:   START DEPTH
 STOP.F          945.0000:   STOP DEPTH
 STEP.F            0.5000:   STEP LENGTH
 NULL.          -999.2500:   NO VALUE
 COMP.          U.S. NAVY:   COMPANY
 WELL. RES 3 TEAPOT DOM #48S-35:   WELL
 FLD .           TEAPOT E:   FIELD
 LOC .      S35 T39N R78W:   LOCATION
 CNTY.            NATRONA:   COUNTY
 STAT.            WYOMING:   STATE
 CTRY. UNITED STATES OF AMERICA:   COUNTRY
 SRVC.       Schlumberger:   SERVICE COMPANY
 DATE.        15-JUL-1964:   LOGDATE
 API .       490250649200:   API NUMBER
~CURVE INFORMATION
#MNEM.UNIT       API CODE    CURVE DESCRIPTION
#----------   ------------   ------------------------------
 DEPT.F                  :   
 SPR .MV     05 010 01 00:   SPONTANEOUS POTENTIAL FROM RES.
 ILD .OHMM   05 120 46 00:   INDUCTION LOG DEEP
 ASN .OHMM   05 041 18 00:   AMPLIFIED SHORT NORMAL 18"
 CILD.MMHO   05 110 46 00:   CONDUCTIVITY INDUCTION LOG DEEP
 CALS.IN     60 280 50 00:   CALIPER FROM SONIC LOG
 DT  .US/F   60 520 00 00:   INTERVAL TRANSIT TIME
 GR  .GAPI   30 310 01 00:   GAMMA RAY
~PARAMETER INFORMATION
#MNEM.UNIT          VALUE    DESCRIPTION
#----------   ------------   ------------------------------
 PD  .                 GL:   PERMANENT DATUM
 EPD .F              5123:   ELEVATION PERMANENT DATUM
 LMF .                 KB:   LOG MEASURED FROM
 DAPD.F                 5:   FEET ABOVE PERMANENT DATUM
 DMF .                 KB:   DRILLING MEASURED FROM
 EKB .F              5128:   KELLING BUSHING
 EGL .F              5123:   GROUND LEVEL
 DATE.        15-JUL-1964:   RUN DATE
 RUN .                  1:   RUN NUMBER
 DD  .F               945:   DEPTH DRILLER
 DL  .F               946:   DEPTH LOGGER
 BLI .F               945:   BOTTOM LOG INTERVAL
 TLI .F                94:   TOP LOG INTERVAL
 CS  .IN            8.625:   CASING SIZE
 CBD .F                10:   CASING BOTTOM DRILLER
 BS  .IN             6.75:   BIT SIZE
 BSD .F               945:   BIT SIZE AT DEPTH
 DFT .                GEL:   DRILLING FLUID TYPE
 DFD .                9.5:   DRILLING FLUID DENSITY
 DFV .                 44:   DRILLING FLUID VISCOSITY
 DFPH.                8.0:   DRILLING FLUID PH
 DFL .               10.5:   DRILLING FLUID LOSS
 MSS .           FLOWLINE:   MUD SAMPLE SOURCE
 RMS .OHMM           3.37:   RESISTIVITY MUD SAMPLE
 MST .F                74:   MUD SAMPLE TEMPERATURE
 RMF .OHMM           2.97:   RESISTIVITY MUD FILTRATE SAMPLE
 MFST.F                78:   MUD FILTRATE SAMPLE TEMPERATURE
 MFSS.                 FP:   MUD FILTRATE SAMPLE SOURCE
 TCS .HRS             1.5:   TIME CURCULATED STOPPED
 MRT .F       T. L. T. M.:   MAXIMUM RECORDED TEMPERATURE
 LUN .               3527:   LOGGING UNIT NUMBER
 LUL .               CSPR:   LOGGING UNIT LOCATION
 ENGI.            WINKLER:   RECORDING ENGINEER
 WITN.          JORGENSEN:   WITNESSED BY
 CLNT.            A2DTECH:   CLIENT CODE
 ORIG.           2" PRINT:   ORIGIN OF DATA
 UWI .       490250649200:   UNIQUE WELL ID
 DICO. A2D Technologies, Inc.:   DIGITIZING COMPANY
~OTHER INFORMATION
~A   DEPT      SPR        ILD        ASN       CILD         CALS       DT         GR   
# ...
  196.5000   -60.4198     7.6134     8.6117   136.8177     6.7571   114.7222  -999.2500
  197.0000   -60.4198     7.7377     8.6917   135.4323     6.7568   114.7237  -999.2500
  197.5000   -60.5697     7.7807     8.7617   133.5028     6.7564   114.5744  -999.2500
  198.0000   -60.5697     7.8150     8.8192   132.7451     6.7561   113.3702  -999.2500
  198.5000   -60.5697     7.8162     8.8571   132.5314     6.7558   112.7688  -999.2500
  199.0000   -60.5697     7.8173     8.9116   131.9833     6.7555   113.2224  -999.2500
  199.5000   -60.5697     7.8184     8.9416   131.9797     6.7401   112.9978  -999.2500
  200.0000   -60.5547     7.8195     8.9774   132.0129     6.7398   112.0950  -999.2500
  200.5000   -60.4794     8.0455     8.9679   132.1965     6.7534   112.3210  -999.2500
  201.0000   -60.4041     8.0459     8.9282   132.3802     6.7670   112.6225  -999.2500
  201.5000   -60.3287     7.9711     8.8729   132.5638     6.7696   112.5471  -999.2500
  202.0000   -60.2534     7.9258     8.8400   132.9311     6.7695   112.4717  -999.2500
  202.5000   -60.1781     7.8020     8.8094   133.4653     6.7693   112.5471  -999.2500
  203.0000   -60.1155     7.7466     8.7683   135.4198     6.7691   112.6225  -999.2500
  203.5000   -60.1147     7.6296     8.7301   136.8538     6.7690   113.0746  -999.2500
  204.0000   -60.1140     7.4306     8.6905   138.7328     6.7688   113.9035  -999.2500
  204.5000   -60.1132     7.2215     8.6336   140.3307     6.7687   114.8078  -999.2500
  205.0000   -60.1124     7.1077     8.5812   142.0691     6.7685   114.0543  -999.2500
  205.5000   -60.1117     6.9840     8.5070   144.7546     6.7684   113.1500  -999.2500
  206.0000   -60.0760     6.8467     8.4238   147.0537     6.7531   114.2050  -999.2500
  206.5000   -59.9602     6.7008     8.3368   150.1634     6.7529   113.9789  -999.2500
  207.0000   -59.7271     6.5374     8.2543   152.2847     6.7377   112.9992  -999.2500
  207.5000   -59.6589     6.3967     8.1538   153.7896     6.7224   113.3007  -999.2500
  208.0000   -59.6581     6.3218     8.0908   154.5403     6.7223   114.3557  -999.2500
  208.5000   -59.6574     6.3222     8.0166   155.2899     6.7070   114.7450  -999.2500
  209.0000   -59.6567     6.3226     7.9440   155.2865     6.6917   114.1296  -999.2500
  209.5000   -59.6559     6.3229     7.9035   155.2828     6.6764   113.7528  -999.2500
  210.0000   -59.8801     6.3233     7.8541   155.2785     6.6763   113.4514  -999.2500
  210.5000   -59.9543     6.3238     7.7950   155.5933     6.6761   113.2881  -999.2500
  211.0000   -59.9534     6.3241     7.7162   156.0835     6.6760   113.8282  -999.2500
  211.5000   -59.9528     6.3244     7.6142   156.7760     6.6758   114.6948  -999.2500
  212.0000   -59.9520     6.3248     7.4400   158.8637     6.6605   115.1846  -999.2500
  212.5000   -59.9512     6.2499     7.1898   161.3563     6.6604   114.5064  -999.2500
  213.0000   -59.9505     6.1000     7.4946   165.8138     6.6602   111.5674  -999.2500
  213.5000   -59.7998     5.9053     7.8467   168.8684     6.6601   110.7385  -999.2500
  214.0000   -59.6491     5.7063     7.7988   174.1225     6.6750   110.6631  -999.2500
  214.5000   -59.4985     5.5748     7.4502   179.1115     6.7051   111.2284  -999.2500
  215.0000   -59.4978     5.4248     7.1947   184.3389     6.7201   112.0196  -999.2500
  215.5000   -59.3470     5.3500     6.9792   189.1741     6.7351   112.3964  -999.2500
  216.0000   -59.3463     5.3504     6.7892   189.1705     6.7350   115.7875  -999.2500
  216.5000   -59.3456     5.3508     6.6871   188.2001     6.7499   116.6918  -999.2500
  217.0000   -59.3447     5.3511     6.6392   186.9003     6.7498   117.2946  -999.2500
  217.5000   -59.3441     5.3515     6.6846   186.1425     6.7496   118.5255  -999.2500
  218.0000   -59.3433     5.3519     6.7690   184.4445     6.7495   119.4047  -999.2500
  218.5000   -59.3424     5.3522     6.8678   183.1182     6.7644   120.1582  -999.2500
  219.0000   -59.3943     5.3527     6.9560   181.1865     6.7643   120.6858  -999.2500
  219.5000   -59.4910     5.3530     6.9915   179.9348     6.7642   121.1379  -999.2500
  220.0000   -59.4903     5.3534     6.9714   178.5819     6.7640   121.0625  -999.2500
  220.5000   -59.4895     5.3538     6.9025   177.4309     6.7638   119.9447  -999.2500
  221.0000   -59.4888     5.3542     6.7719   176.1789     6.7637   119.1786  -999.2500
  221.5000   -59.4880     5.3545     6.7616   175.5539     6.7484   119.0279  -999.2500
  222.0000   -59.4873     5.3550     6.7979   175.5505     6.7483   119.4800  -999.2500
  222.5000   -59.4865     5.3553     6.9011   176.5146     6.7481   120.0829  -999.2500
  223.0000   -59.4858     5.3556     7.0179   179.3133     6.7328   120.5350  -999.2500
  223.5000   -59.4850     5.3560     7.0317   182.1813     6.7327   120.7611  -999.2500
  224.0000   -59.4842     5.2811     6.9462   187.0888     6.7325   120.0829  -999.2500
  224.5000   -59.4835     5.1312     6.8081   192.1224     6.7324   119.6307  -999.2500
  225.0000   -59.4828     5.0877     6.6503   194.5704     6.7322   119.2540  -999.2500
  225.5000   -59.4820     5.0391     6.4919   198.9569     6.7321   119.1786  -999.2500
  226.0000   -59.3962     4.8316     6.2975   199.6531     6.7471   119.2540  -999.2500
  226.5000   -59.3306     4.8320     6.1353   199.6493     6.7318   119.4173  -999.2500
  227.0000   -59.3298     4.8323     6.0573   198.8914     6.7316   119.7061  -999.2500
  227.5000   -59.3291     4.8327     6.1177   198.1328     6.7315   120.1582  -999.2500
  228.0000   -59.1484     4.8702     6.2352   195.3446     6.7313   121.3640  -999.2500
  228.5000   -59.0277     4.9838     6.4091   190.5782     6.6858   122.7958  -999.2500
  229.0000   -58.8770     4.9843     6.5996   184.3336     6.6403   122.9465  -999.2500
  229.5000   -58.8763     5.0598     6.7006   180.0676     6.6098   123.1977  -999.2500
  230.0000   -58.8755     5.0676     6.7353   178.5067     6.6702   124.2276  -999.2500
  230.5000   -58.8748     5.1358     6.7604   177.7489     6.7154   124.0015  -999.2500
  231.0000   -58.8740     5.2416     6.7900   178.4999     6.7304   121.8915  -999.2500
  231.5000   -58.7233     5.2909     6.8413   178.4953     6.7605   120.0829  -999.2500
  232.0000   -58.7227     5.3625     6.8896   178.4917     6.7226   118.3497  -999.2500
  232.5000   -58.7219     5.4649     6.9357   177.5515     6.6543   116.8174  -999.2500
  233.0000   -58.7210     5.5894     6.9923   175.4673     6.5936   117.5207  -999.2500
  233.5000   -58.7204     5.6643     7.0475   173.4616     6.5481   118.0482  -999.2500
  234.0000   -58.7197     5.7634     7.1402   171.5336     6.6236   117.9729  -999.2500
  234.5000   -58.5689     5.8906     7.2186   168.6686     6.6840   117.9729  -999.2500
  235.0000   -58.5682     6.0125     6.8879   167.1316     6.7217   118.1989  -999.2500
  235.5000   -58.5562     6.1371     6.7228   165.2562     6.7442   118.5004  -999.2500
  236.0000   -58.4167     6.1925     6.8433   161.8699     6.7440   118.1236  -999.2500
  236.5000   -58.4160     6.0747     7.1556   160.3582     6.7439   117.4454  -999.2500
  237.0000   -58.4153     5.9676     7.4452   161.9659     6.7437   115.9382  -999.2500
  237.5000   -58.2645     5.8929     7.3252   162.6132     6.7587   115.5614  -999.2500
  238.0000   -58.2639     5.8932     7.0487   164.4544     6.7585   115.4107  -999.2500
  238.5000   -58.2631     5.8936     6.8287   165.6988     6.7584   114.9334  -999.2500
  239.0000   -58.2622     5.8940     6.8251   166.3726     6.7582   114.1296  -999.2500
  239.5000   -58.2616     5.8944     7.0592   166.3688     6.7278   114.2050  -999.2500
  240.0000   -58.2609     5.8947     7.3414   166.4654     6.7126   115.7121  -999.2500
  240.5000   -58.2601     5.8952     7.3912   168.6230     6.6670   116.0262  -999.2500
  241.0000   -58.2594     5.8955     7.3824   168.6199     6.6215   115.7121  -999.2500
  241.5000   -58.2586     5.8958     7.2969   168.6161     6.6213   116.1266  -999.2500
