~VERSION INFORMATION
 VERS.                2.0:   CWLS LOG ASCII STANDARD - VERSION 2.0
 WRAP.                 NO:   ONE LINE PER DEPTH STEP
~WELL INFORMATION
#MNEM.UNIT      DATA TYPE    INFORMATION
#----------   ------------   ------------------------------
 STRT.F            0.0000:   START DEPTH
 STOP.F          601.0000:   STOP DEPTH
 STEP.F            0.5000:   STEP LENGTH
 NULL.          -999.2500:   NO VALUE
 COMP. Fluor Daniel (NPOSR) Inc:   COMPANY
 WELL.  NPR ##3 84-STX-33:   WELL
 FLD .          N.P.R. #3:   FIELD
 LOC .      S33 T39N R78W:   LOCATION
 CNTY.            NATRONA:   COUNTY
 STAT.            WYOMING:   STATE
 CTRY. UNITED STATES OF AMERICA:   COUNTRY
 SRVC.      Western Atlas:   SERVICE COMPANY
 DATE.        31-JAN-1995:   LOGDATE
 API .       490252269500:   API NUMBER
~CURVE INFORMATION
#MNEM.UNIT       API CODE    CURVE DESCRIPTION
#----------   ------------   ------------------------------
 DEPT.F                  :   
 GRR .GAPI   07 310 01 00:   GAMMA RAY FROM RES. LOG.
 RILD.OHMM   07 120 46 00:   INDUCTION LOG DEEP RESISTIVITY
 RILM.OHMM   07 120 44 00:   INDUCTION LOG MEDIUM RESISTIVITY
 RFOC.OHMM   07 220 04 00:   RESISTIVITY FOCUSED LOG
~PARAMETER INFORMATION
#MNEM.UNIT          VALUE    DESCRIPTION
#----------   ------------   ------------------------------
 PD  .                 GL:   PERMANENT DATUM
 EPD .F              5105:   ELEVATION PERMANENT DATUM
 LMF .                 KB:   LOG MEASURED FROM
 DAPD.F                10:   FEET ABOVE PERMANENT DATUM
 DMF .                 KB:   DRILLING MEASURED FROM
 EKB .F              5115:   KELLING BUSHING
 EDF .F              5114:   DRILLING FLOOR
 EGL .F              5105:   GROUND LEVEL
 DATE.        31-JAN-1995:   RUN DATE
 RUN .                  1:   RUN NUMBER
 DD  .F               615:   DEPTH DRILLER
 DL  .F               609:   DEPTH LOGGER
 BLI .F               601:   BOTTOM LOG INTERVAL
 CS  .IN            9.625:   CASING SIZE
 CBD .F                54:   CASING BOTTOM DRILLER
 CBL .F                52:   CASING BOTTOM LOGGER
 BS  .IN             8.75:   BIT SIZE
 BSD .F               615:   BIT SIZE AT DEPTH
 DFT .              WATER:   DRILLING FLUID TYPE
 MRT .F                92:   MAXIMUM RECORDED TEMPERATURE
 LUN .            HL-6274:   LOGGING UNIT NUMBER
 LUL .             CASPER:   LOGGING UNIT LOCATION
 ENGI.             RAUTIO:   RECORDING ENGINEER
 WITN.             STRONG:   WITNESSED BY
 CLNT.            A2DTECH:   CLIENT CODE
 ORIG.       2", 5" PRINT:   ORIGIN OF DATA
 UWI .       490252269500:   UNIQUE WELL ID
 DICO. A2D Technologies, Inc.:   DIGITIZING COMPANY
~OTHER INFORMATION
~A    DEPT      GRR      RILD       RILM       RFOC   
# ...
  292.0000   104.2715     7.5546     8.0550    11.5542
  292.5000   103.1401     7.5826     8.0820    10.8200
  293.0000   105.6474     7.6107     8.1345    10.1325
  293.5000   108.4190     7.6476     8.1983    10.0379
  294.0000   108.4017     7.6290     8.2433    10.7442
  294.5000   105.1387     7.6024     8.1488    11.8561
  295.0000   107.1518     7.5761     8.0768    12.6904
  295.5000   111.0471     7.5497     8.0055    11.9959
  296.0000   112.6173     7.5236     7.9347    11.1288
  296.5000   110.9061     7.4870     7.8646    11.4464
  297.0000   110.2688     7.4259     7.7945    11.7730
  297.5000   112.1565     7.3660     7.7215    10.9790
  298.0000   112.8057     7.3068     7.6030    10.1325
  298.5000   108.5815     7.2467     7.4777     9.9441
  299.0000   105.9314     7.0929     7.3658    10.8595
  299.5000   104.8987     6.9029     7.0973    11.2865
  300.0000   105.9232     6.7180     6.8617    11.0477
  300.5000   106.4981     6.5203     6.6339    10.8449
  301.0000   106.5049     6.2886     6.4173    12.1405
  301.5000   106.5477     5.9227     6.2216    11.3289
  302.0000   109.1522     5.4688     5.7583     9.1392
  302.5000   111.9228     4.9883     5.3323     7.8577
  303.0000   112.2112     4.4946     4.9058     7.8238
  303.5000   112.2274     3.9477     4.3427     7.8051
  304.0000   112.0800     3.4296     3.7812     7.7908
  304.5000   110.7307     3.0217     3.2923     8.3337
  305.0000   108.7207     2.6906     2.6737     8.4199
  305.5000   106.6746     2.4683     2.6755     6.6502
  306.0000   104.6376     2.3238     2.4365     5.5162
  306.5000   102.7209     2.3011     2.3678     4.6909
  307.0000   100.8568     2.3148     2.3864     4.4838
  307.5000    95.7490     2.3532     2.5455     4.4708
  308.0000    93.2256     2.4670     2.8335     5.2397
  308.5000   102.5170     2.6007     3.1541     6.1060
  309.0000   112.8239     3.0099     3.6374     6.3991
  309.5000   117.7232     3.4377     4.2590     6.7064
  310.0000   115.3236     3.9262     4.9010     7.4135
  310.5000   112.3813     4.4841     5.6117     8.8441
  311.0000   113.5679     5.0794     5.8241    11.7730
  311.5000   114.2483     5.6447     6.0599    11.8840
  312.0000   114.4979     5.9012     6.2802     9.2253
  312.5000   117.0675     6.0541     6.2918     8.1664
  313.0000   119.9847     6.1635     6.3046     8.4945
  313.5000   118.9690     6.1635     6.3175     8.9862
  314.0000   117.9974     6.1637     6.3302     9.9753
  314.5000   119.2130     6.1637     6.3397    11.4464
  315.0000   120.3331     6.1629     6.3390    10.9220
  315.5000   119.8588     6.1652     6.3415     9.4000
  316.0000   118.3967     5.9817     6.3420     9.0539
  316.5000   116.3603     5.7375     6.0668     9.9967
  317.0000   114.5441     5.4560     5.8643    10.8355
  317.5000   114.5210     5.1917     5.6690    10.6284
  318.0000   115.5390     4.9542     5.1744     9.0257
  318.5000   119.7935     4.7591     4.9075     7.8380
  319.0000   125.0342     4.5716     4.7044     6.8739
  319.5000   126.3591     4.4284     4.5761     6.3325
  320.0000   122.6908     4.3257     4.4571     6.3376
  320.5000   118.7262     4.2741     4.3962     7.0174
  321.0000   116.3422     4.2741     4.3956     7.1615
  321.5000   115.8726     4.3552     4.6140     7.1540
  322.0000   116.3175     4.4388     4.7862     7.1505
  322.5000   119.2865     4.6497     5.0156     7.7316
  323.0000   123.9576     4.8297     5.3086     7.7215
  323.5000   126.3707     5.1000     5.6186     7.3520
  324.0000   126.8141     5.3588     5.9468     7.1615
  324.5000   124.1649     5.6308     6.2193     8.0901
  325.0000   120.3242     5.9088     6.4689     8.7615
  325.5000   116.6217     6.1925     6.7117     8.9507
  326.0000   115.4607     6.4898     6.9625     9.0539
  326.5000   117.9402     6.7442     7.2289     9.6683
  327.0000   121.0336     6.8719     7.2289     9.5780
  327.5000   121.9455     6.9628     7.1280     9.2861
  328.0000   121.5950     6.8219     7.0374     9.0539
  328.5000   121.2646     6.6941     6.9479     9.4110
  329.0000   120.1842     6.5695     6.8596     9.7479
  329.5000   119.0274     6.4292     6.7027    10.7316
  330.0000   116.5278     6.1966     6.5203    10.9220
  330.5000   117.8232     5.9791     6.3429     8.4785
  331.0000   120.3870     5.7693     6.1480     8.1664
  331.5000   122.4487     5.5668     5.9088     8.3797
  332.0000   122.4164     5.2142     5.6789     8.6391
  332.5000   122.8660     4.8411     5.2798     8.5451
  333.0000   123.9612     4.5122     4.8260     8.3994
  333.5000   125.0526     4.3272     4.4203     8.0901
  334.0000   125.7520     4.2752     4.0795     7.0614
  334.5000   122.3968     4.3408     4.3028     5.4560
  335.0000   120.2272     4.3984     4.5654     5.2551
  335.5000   121.5138     4.4809     4.8440     6.3163
  336.0000   123.3852     4.5654     5.1093     8.1536
  336.5000   123.5475     4.8433     5.4967     8.8027
  337.0000   121.3469     5.2060     5.8742     8.3210
  337.5000   119.1569     5.6606     6.1285     8.5475
  338.0000   117.3488     6.0447     6.4013     8.8856
  338.5000   116.7768     6.3748     6.6862     8.7540
  339.0000   116.6847     6.5137     6.8590     8.5694
  339.5000   117.2270     6.6112     6.9454     8.4785
  340.0000   117.8537     6.6638     7.0328     9.2037
  340.5000   117.2710     6.7185     7.0946     9.6753
  341.0000   116.8458     6.7710     7.0284     9.4912
  341.5000   117.5383     6.8654     7.1280     9.3943
  342.0000   117.2650     6.9628     7.2403     9.8340
  342.5000   117.6622     6.9465     7.2971    10.0379
  343.0000   118.5323     6.9284     7.2526     9.5531
  343.5000   123.0210     6.9103     7.2231     8.9662
  344.0000   124.8425     6.8770     7.1934     9.2744
  344.5000   124.2024     6.8082     7.1618     9.9034
  345.0000   122.8373     6.7402     7.1483    10.6189
  345.5000   121.5238     6.7064     7.1337    10.4804
  346.0000   123.0188     6.7064     7.1192    10.0850
  346.5000   127.4330     6.7064     7.1047     9.6192
  347.0000   129.1967     6.7064     7.0948     9.3093
  347.5000   126.8343     6.7063     7.0946     9.6501
  348.0000   125.2899     6.7064     7.0952     9.9441
  348.5000   127.5657     6.7064     7.0942     9.8398
  349.0000   129.2915     6.6205     7.0429     9.7251
  349.5000   128.9855     6.4889     6.9628     9.4594
  350.0000   128.6507     6.3133     6.7239     9.0553
  350.5000   128.3238     6.1395     6.4681     8.6684
  351.0000   128.0918     5.9719     6.2220     8.4731
  351.5000   128.9265     5.8123     6.0567     8.3531
  352.0000   133.4395     5.7094     5.9622     8.1028
  352.5000   135.2054     5.6075     5.8811     7.7944
  353.0000   133.3184     5.5399     5.8804     7.8446
  353.5000   130.5556     5.4821     5.8815     8.0629
  354.0000   126.2232     5.3519     5.8403     8.2919
  354.5000   123.3290     5.1658     5.7864     8.7008
  355.0000   123.1550     4.9862     5.5370     9.2761
  355.5000   125.0277     4.8232     5.2405     9.8895
  356.0000   126.0773     4.6831     4.9592    10.0379
  356.5000   126.0624     4.6519     4.6920     7.8461
  357.0000   125.7557     4.6519     4.4399     6.1489
  357.5000   125.0943     4.6519     4.6497     5.3944
  358.0000   123.8342     4.6519     4.8752     5.9210
  358.5000   120.1038     4.7945     5.1615     7.2892
  359.0000   116.6907     4.9424     5.4658     8.4839
  359.5000   115.5053     5.1242     5.7756     8.3335
  360.0000   115.8005     5.4373     6.0546     8.0934
  360.5000   117.7632     5.7671     6.3471     8.3925
  361.0000   118.4174     6.1060     6.4619     8.8856
  361.5000   119.6659     6.2216     6.5203     8.9693
  362.0000   121.2363     6.0820     6.4938     8.7066
  362.5000   123.8457     5.9021     6.4683     8.4792
  363.0000   125.1558     5.7049     6.2891     8.5863
  363.5000   123.4237     5.4402     5.9313     8.6735
  364.0000   119.9479     5.2060     5.6094     8.8167
  364.5000   119.5411     4.9503     5.2217     9.0539
