~VERSION INFORMATION
 VERS.                2.0:   CWLS LOG ASCII STANDARD - VERSION 2.0
 WRAP.                 NO:   ONE LINE PER DEPTH STEP
~WELL INFORMATION
#MNEM.UNIT      DATA TYPE    INFORMATION
#----------   ------------   ------------------------------
 STRT.F           22.0000:   START DEPTH
 STOP.F          453.0000:   STOP DEPTH
 STEP.F            0.5000:   STEP LENGTH
 NULL.          -999.2500:   NO VALUE
 COMP. LAWRENCE/ALLISON INC:   COMPANY
 WELL.    53-41 SX #10-10:   WELL
 FLD .             TEAPOT:   FIELD
 LOC .      S10 T38N R78W:   LOCATION
 CNTY.            NATRONA:   COUNTY
 STAT.            WYOMING:   STATE
 CTRY. UNITED STATES OF AMERICA:   COUNTRY
 SRVC.           Gearhart:   SERVICE COMPANY
 DATE.        29-MAY-1988:   LOGDATE
 API .       490251122500:   API NUMBER
~CURVE INFORMATION
#MNEM.UNIT       API CODE    CURVE DESCRIPTION
#----------   ------------   ------------------------------
 DEPT.F                  :   
 GRR .GAPI   07 310 01 00:   GAMMA RAY
 ILD .OHMM   07 120 46 00:   INDUCTION LOG DEEP
 ILM .OHMM   07 120 44 00:   INDUCTION LOG MEDIUM
~PARAMETER INFORMATION
#MNEM.UNIT          VALUE    DESCRIPTION
#----------   ------------   ------------------------------
 PD  .                 GL:   PERMANENT DATUM
 EPD .F              5172:   ELEVATION PERMANENT DATUM
 LMF .                 KB:   LOG MEASURED FROM
 DAPD.F                 5:   FEET ABOVE PERMANENT DATUM
 DMF .                 KB:   DRILLING MEASURED FROM
 EKB .F              5177:   KELLING BUSHING
 EGL .F              5172:   GROUND LEVEL
 DATE.        29-MAY-1988:   RUN DATE
 RUN .                  1:   RUN NUMBER
 DD  .F               470:   DEPTH DRILLER
 DL  .F               461:   DEPTH LOGGER
 BLI .F               453:   BOTTOM LOG INTERVAL
 CS  .IN            8.625:   CASING SIZE
 CBD .F                43:   CASING BOTTOM DRILLER
 CBL .F                43:   CASING BOTTOM LOGGER
 BS  .IN            7.875:   BIT SIZE
 BSD .F               470:   BIT SIZE AT DEPTH
 DFT .                AIR:   DRILLING FLUID TYPE
 TLAB.HRS            0530:   TIME LOGGER AT BOTTOM
 MRT .F                70:   MAXIMUM RECORDED TEMPERATURE
 LUN .               7597:   LOGGING UNIT NUMBER
 LUL .           GILLETTE:   LOGGING UNIT LOCATION
 ENGI.          HUCKFELDT:   RECORDING ENGINEER
 WITN.             STRONG:   WITNESSED BY
 CLNT.            A2DTECH:   CLIENT CODE
 ORIG.       2", 5" PRINT:   ORIGIN OF DATA
 UWI .       490251122500:   UNIQUE WELL ID
 DICO. A2D Technologies, Inc.:   DIGITIZING COMPANY
~OTHER INFORMATION
~A   DEPT       GRR       ILD        ILM   
   22.0000    66.3349  -999.2500  -999.2500
   22.5000    65.7689  -999.2500  -999.2500
   23.0000    65.7863  -999.2500  -999.2500
   23.5000    66.1072  -999.2500  -999.2500
   24.0000    66.4281  -999.2500  -999.2500
   24.5000    66.4016  -999.2500  -999.2500
   25.0000    65.2533  -999.2500  -999.2500
   25.5000    64.9628  -999.2500  -999.2500
   26.0000    65.5916  -999.2500  -999.2500
   26.5000    65.9125  -999.2500  -999.2500
   27.0000    66.5372  -999.2500  -999.2500
   27.5000    66.5586  -999.2500  -999.2500
   28.0000    67.1830  -999.2500  -999.2500
   28.5000    67.5038  -999.2500  -999.2500
   29.0000    67.8247  -999.2500  -999.2500
   29.5000    67.8422  -999.2500  -999.2500
   30.0000    67.5560  -999.2500  -999.2500
   30.5000    67.5778  -999.2500  -999.2500
   31.0000    67.5952  -999.2500  -999.2500
   31.5000    68.5230  -999.2500  -999.2500
   32.0000    69.4509  -999.2500  -999.2500
   32.5000    70.3794  -999.2500  -999.2500
   33.0000    71.0075  -999.2500  -999.2500
   33.5000    71.3284  -999.2500  -999.2500
   34.0000    69.5249  -999.2500  -999.2500
   34.5000    67.7213  -999.2500  -999.2500
   35.0000    66.5247  -999.2500  -999.2500
   35.5000    66.2387  -999.2500  -999.2500
   36.0000    66.8674  -999.2500  -999.2500
   36.5000    67.4918  -999.2500  -999.2500
   37.0000    67.8126  -999.2500  -999.2500
   37.5000    67.2231  -999.2500  -999.2500
   38.0000    63.9064  -999.2500  -999.2500
   38.5000    62.1029  -999.2500  -999.2500
   39.0000    62.4238  -999.2500  -999.2500
   39.5000    63.9586  -999.2500  -999.2500
   40.0000    67.0109  -999.2500  -999.2500
   40.5000    67.9393  -999.2500  -999.2500
   41.0000    67.9605  -999.2500  -999.2500
   41.5000    69.4954  -999.2500  -999.2500
   42.0000    73.1547  -999.2500  -999.2500
   42.5000    82.2768  -999.2500  -999.2500
   43.0000    95.8098    52.2925   287.5272
   43.5000   107.8091     5.9744    43.1119
   44.0000   115.7172     2.3032     2.7167
   44.5000   118.4660     2.1938     2.2335
   45.0000   119.0904     3.6488     2.9972
   45.5000   118.5008     7.2737     3.6722
   46.0000   117.6077    18.2717     5.3595
   46.5000   118.8435    15.4406     6.2089
   47.0000   119.7713     9.4167     7.2434
   47.5000   120.3957     8.1929     9.1906
   48.0000   120.4131     7.9688     9.7321
   48.5000   120.4310     8.1995     8.9887
   49.0000   120.1487     8.5464     8.3364
   49.5000   119.8627     9.1006     8.1071
   50.0000   117.4521     9.6908     8.1654
   50.5000   115.9514     9.9660     8.3983
   51.0000   115.0590     9.8981     8.8262
   51.5000   112.9563     9.8998     9.5957
   52.0000   112.3624     9.9703    10.0085
   52.5000   112.6876     9.9716    10.0099
   53.0000   112.0937    10.0427    10.0815
   53.5000   111.5085    10.0471    10.1537
   54.0000   111.5751    10.1156    10.2982
   54.5000   111.8511    10.2592    10.5184
   55.0000   111.8685    10.4773    10.7431
   55.5000   111.8859    10.7000    11.0495
   56.0000   109.4754    11.0038    11.3648
   56.5000   107.9474    11.3167    11.7044
   57.0000   107.0822    11.5572    12.1073
   57.5000   106.4970    11.8029    12.3658
   58.0000   104.9970    11.9701    12.6299
   58.5000   102.2829    12.1397    12.7203
   59.0000   101.0864    12.2266    12.8114
   59.5000   102.3221    12.3137    12.8135
   60.0000   103.8569    12.4014    12.8152
   60.5000   104.1778    12.4898    12.8169
   61.0000   104.1952    12.4914    12.7288
   61.5000   104.8196    12.4068    12.6421
   62.0000   106.3996    12.4084    12.3811
   62.5000   107.8936    12.1530    12.2111
   63.0000   108.8215    11.9036    12.0430
   63.5000   107.9284    11.8225    11.8767
   64.0000   106.1249    11.7420    11.7136
   64.5000   104.6009    11.7439    11.6335
   65.0000   103.4326    11.8276    11.5539
   65.5000   104.3605    11.8292    11.5558
   66.0000   104.6814    11.8704    11.5574
   66.5000   105.0023    11.9151    11.6401
   67.0000   105.0197    11.9170    11.8069
   67.5000   104.1309    11.9186    11.8907
   68.0000   102.0239    11.9202    11.8922
   68.5000   101.1265    11.8390    11.8938
   69.0000   100.8404    11.8406    11.8954
   69.5000   101.1656    11.7599    11.8140
   70.0000   101.7906    11.5991    11.6406
   70.5000   102.1152    11.4402    11.3316
   71.0000   102.4361    11.2833    11.0973
   71.5000   101.8422    10.9654    10.9445
   72.0000   101.5599    10.6749    10.7942
   72.5000   101.9019    10.6018    10.7154
   73.0000   103.7240    10.4565    10.6470
   73.5000   104.3484    10.3856    10.6488
   74.0000   104.6693    10.4597    10.6501
   74.5000   102.5623    10.3884    10.6516
   75.0000   100.7587    10.3901    10.6530
   75.5000   100.4726    10.3915    10.6548
   76.0000   101.4049    10.3929    10.5816
   76.5000   101.7257    10.3943    10.5092
   77.0000   101.7431    10.3234    10.3645
   77.5000   101.4568    10.2531    10.2221
   78.0000   101.4750    10.0427    10.0730
   78.5000   101.4962     9.9050     9.9426
   79.0000   101.5136     9.7693     9.8746
   79.5000   101.5310     9.7028     9.8070
   80.0000   101.5484     9.6367     9.7402
   80.5000   101.5660     9.6383     9.8100
   81.0000   101.5875     9.7070     9.8805
   81.5000   101.3014     9.7083     9.9512
   82.0000   101.3188     9.7778    10.0225
   82.5000   101.0284     9.7790    10.0942
   83.0000   101.0501     9.8487    10.0252
   83.5000   100.7640     9.8500     9.9569
   84.0000   100.7858     9.8514     9.8884
   84.5000   101.4102     9.7166     9.6846
   85.0000   102.6415     9.3201     9.4847
   85.5000   105.0868     9.0651     9.2241
   86.0000   107.2291     8.8788     8.9640
   86.5000   107.8574     8.6949     8.7244
   87.0000   109.0888     8.4587     8.5443
   87.5000   110.6236     8.2846     8.4855
   88.0000   111.8550     8.1143     8.5466
   88.5000   111.8724     8.2295     8.5477
   89.0000   109.1627     8.3461     8.6092
   89.5000   105.8417     8.4058     8.6103
   90.0000   103.4312     8.4070     8.6115
   90.5000   102.2346     8.3496     8.6126
   91.0000   102.2520     8.3508     8.6138
   91.5000   103.8847     8.3808     8.6150
   92.0000   105.6295     8.4115     8.6164
   92.5000   105.9461     8.4128     8.6175
   93.0000   102.9329     8.4727     8.6187
   93.5000   102.6181     8.4739     8.6804
   94.0000   105.7279     8.4750     8.6873
   94.5000   107.5418     8.5357     8.8054
   95.0000   108.4697     8.5965     8.9307
   95.5000   109.0941     8.6578     9.0578
   96.0000   107.8975     8.8418     9.1226
   96.5000   107.6114     8.9048     9.2525
   97.0000   107.9367     9.0990     9.3845
   97.5000   107.9541     9.2343     9.5180
   98.0000   108.2749     9.3539     9.6535
   98.5000   108.5958     9.4205     9.7226
   99.0000   108.9167     9.3564     9.5887
   99.5000   109.2382     9.1640     9.3812
  100.0000   109.2593     9.0384     9.2615
  100.5000   109.2767     8.9769     9.1985
  101.0000   109.9011     8.9157     9.1997
  101.5000   110.8313     8.9172     9.1364
  102.0000   110.8486     8.9184     9.1379
  102.5000   110.6222     8.9199     9.1395
  103.0000   109.6611     8.9211     9.1407
  103.5000   108.1732     8.9222     9.1419
  104.0000   104.8520     8.9234     9.1431
  104.5000   105.4762     8.9870     9.1443
  105.0000   107.6179     8.9885     9.1458
  105.5000   109.7639     9.0526     9.1470
  106.0000   111.6020     8.8812     9.1482
  106.5000   112.8332     8.9462     9.1494
  107.0000   112.8505     8.9485     9.0868
  107.5000   111.0268     8.8265     9.0246
  108.0000   108.9439     8.5193     8.8386
  108.5000   108.3498     8.2373     8.7781
  109.0000   108.9783     8.1255     8.6572
  109.5000   109.6025     8.0712     8.5980
  110.0000   109.3163     8.0178     8.5395
  110.5000   107.5126     8.0765     8.5406
  111.0000   107.8376     8.1920     8.4821
  111.5000   108.7653     8.2514     8.4241
  112.0000   108.7830     8.2536     8.3664
  112.5000   109.1076     8.2563     8.3092
