~VERSION INFORMATION
 VERS.                2.0:   CWLS LOG ASCII STANDARD - VERSION 2.0
 WRAP.                 NO:   ONE LINE PER DEPTH STEP
~WELL INFORMATION
#MNEM.UNIT      DATA TYPE    INFORMATION
#----------   ------------   ------------------------------
 STRT.F            0.0000:   START DEPTH
 STOP.F          497.0000:   STOP DEPTH
 STEP.F            0.5000:   STEP LENGTH
 NULL.          -999.2500:   NO VALUE
 COMP. LAWRENCE/ALLISON INC:   COMPANY
 WELL.   73-66 STX #10-10:   WELL
 FLD .             TEAPOT:   FIELD
 LOC .      S10 T38N R78W:   LOCATION
 CNTY.            NATRONA:   COUNTY
 STAT.            WYOMING:   STATE
 CTRY. UNITED STATES OF AMERICA:   COUNTRY
 SRVC.           Gearhart:   SERVICE COMPANY
 DATE.        15-JUN-1987:   LOGDATE
 API .       490251112900:   API NUMBER
~CURVE INFORMATION
#MNEM.UNIT       API CODE    CURVE DESCRIPTION
#----------   ------------   ------------------------------
 DEPT.F                  :   
 RILD.OHMM   07 120 46 00:   INDUCTION LOG DEEP RESISTIVITY
 RILM.OHMM   07 120 44 00:   INDUCTION LOG MEDIUM RESISTIVITY
 GRR .GAPI   07 310 01 00:   GAMMA RAY FROM RES. LOG.
~PARAMETER INFORMATION
#MNEM.UNIT          VALUE    DESCRIPTION
#----------   ------------   ------------------------------
 PD  .                 GL:   PERMANENT DATUM
 EPD .F              5174:   ELEVATION PERMANENT DATUM
 LMF .                 KB:   LOG MEASURED FROM
 DAPD.F                 8:   FEET ABOVE PERMANENT DATUM
 DMF .                 KB:   DRILLING MEASURED FROM
 EKB .F              5182:   KELLING BUSHING
 EDF .F              5180:   DRILLING FLOOR
 EGL .F              5174:   GROUND LEVEL
 DATE.            6-15-87:   RUN DATE
 RUN .                  1:   RUN NUMBER
 DD  .F               550:   DEPTH DRILLER
 DL  .F               505:   DEPTH LOGGER
 BLI .F               502:   BOTTOM LOG INTERVAL
 TLI .F                41:   TOP LOG INTERVAL
 CS  .IN            8.625:   CASING SIZE
 CBD .F                47:   CASING BOTTOM DRILLER
 CBL .F                41:   CASING BOTTOM LOGGER
 BS  .IN            7.875:   BIT SIZE
 BSD .F               550:   BIT SIZE AT DEPTH
 DFT .               FOAM:   DRILLING FLUID TYPE
 TCS .HRS            1715:   TIME CURCULATED STOPPED
 TLAB.HRS            2144:   TIME LOGGER AT BOTTOM
 LUN .               7597:   LOGGING UNIT NUMBER
 LUL .           GILLETTE:   LOGGING UNIT LOCATION
 ENGI.             SLATKY:   RECORDING ENGINEER
 WITN.             STRONG:   WITNESSED BY
 CLNT.            A2DTECH:   CLIENT CODE
 ORIG.     1", 2.5" PRINT:   ORIGIN OF DATA
 UWI .       490251112900:   UNIQUE WELL ID
 DICO. A2D Technologies, Inc.:   DIGITIZING COMPANY
~OTHER INFORMATION
~A    DEPT    RILD       RILM         GRR  
# ...
  182.0000     6.1151     6.0148    89.4681
  182.5000     6.3845     6.3714    88.7350
  183.0000     6.6659     6.7311    88.1185
  183.5000     6.9596     7.0299    87.4181
  184.0000     7.1975     7.3279    86.6162
  184.5000     7.3818     7.6594    87.1643
  185.0000     7.4916     7.7352    89.3493
  185.5000     7.6110     7.8762    91.3768
  186.0000     7.7290     8.0199    93.4049
  186.5000     7.8466     8.1661    95.6144
  187.0000     7.9659     8.3150    96.9968
  187.5000     8.0870     8.4667    95.6921
  188.0000     8.2100     8.6231    93.5297
  188.5000     8.3349     8.7807    91.3720
  189.0000     8.4616     8.8881    90.4958
  189.5000     8.5903     8.9079    91.1088
  190.0000     8.7158     8.9275    91.7437
  190.5000     8.7158     8.9471    91.2939
  191.0000     8.7158     8.9669    90.3266
  191.5000     8.7158     8.9868    89.4234
  192.0000     8.7159     9.0064    88.7184
  192.5000     8.7162     9.0268    88.4404
  193.0000     8.7165     9.0430    88.1803
  193.5000     8.7167     9.0083    87.9345
  194.0000     8.7168     8.9658    87.6447
  194.5000     8.6752     8.9235    87.4331
  195.0000     8.5888     8.8813    87.2213
  195.5000     8.5033     8.8390    88.4517
  196.0000     8.4182     8.7972    89.8689
  196.5000     8.3346     8.7554    90.2009
  197.0000     8.2518     8.7152    89.6180
  197.5000     8.1698     8.6021    90.3061
  198.0000     8.0955     8.4936    91.7189
  198.5000     8.0436     8.3865    93.0198
  199.0000     7.9960     8.2808    93.5975
  199.5000     7.9475     8.1774    92.2308
  200.0000     7.6737     8.0964    90.3558
  200.5000     7.4022     7.8527    88.5319
  201.0000     7.1402     7.6561    87.1981
  201.5000     6.8876     7.4649    87.0419
  202.0000     6.6080     7.0960    88.3374
  202.5000     5.9918     6.6480    90.5685
  203.0000     5.3399     5.9819    91.9884
  203.5000     4.7589     5.2645    91.9663
  204.0000     4.2411     4.6436    91.5573
  204.5000     3.7797     4.0959    90.1545
  205.0000     3.3379     3.6128    88.8206
  205.5000     3.2171     3.1867    87.4641
  206.0000     3.0909     2.8270    86.9467
  206.5000     2.9880     2.7246    86.7374
  207.0000     2.9333     2.6748    86.5133
  207.5000     2.9333     2.7185    86.2968
  208.0000     3.0436     2.8702    86.8526
  208.5000     3.3511     3.1450    88.0989
  209.0000     3.6924     3.4455    89.7175
  209.5000     4.0684     3.7741    91.7460
  210.0000     4.4828     4.1334    93.8236
  210.5000     5.0099     4.5264    93.9875
  211.0000     5.2922     4.9563    93.3776
  211.5000     5.6431     5.3733    92.8703
  212.0000     6.0174     5.6736    93.7222
  212.5000     6.2376     6.0233    95.7321
  213.0000     6.3685     6.2298    97.4059
  213.5000     6.4871     6.4909    99.1728
  214.0000     6.4871     6.3595    98.7539
  214.5000     6.3153     6.1269    97.7335
  215.0000     6.0900     5.9025    98.9144
  215.5000     5.8730     5.6857   101.3876
  216.0000     5.7000     5.4772   103.5629
  216.5000     5.6469     5.2764   105.8065
  217.0000     5.5940     5.1499   104.5839
  217.5000     5.5935     5.1032   101.8240
  218.0000     5.7320     5.2566    99.1836
  218.5000     5.9617     5.5186    96.5936
  219.0000     6.2035     5.7937    95.3430
  219.5000     6.4516     6.0825    95.8204
  220.0000     6.7097     6.3857    96.8029
  220.5000     6.9782     6.7039    97.9344
  221.0000     7.2573     7.0381    98.0351
  221.5000     7.5477     7.3889    97.0322
  222.0000     7.8496     7.7572    96.1680
  222.5000     8.1636     8.2463    95.2608
  223.0000     8.4000     8.1944    95.1800
  223.5000     8.4000     8.0469    96.4716
  224.0000     8.2509     7.9021    98.1805
  224.5000     8.0605     7.7599    99.8616
  225.0000     7.8745     7.6203    98.9742
  225.5000     7.6927     7.4831    97.9455
  226.0000     7.5152     7.3485    98.0055
  226.5000     7.3418     7.1566    98.9215
  227.0000     7.1723     6.7825    99.7438
  227.5000     6.8526     6.4278   100.5405
  228.0000     6.4698     6.0917   101.3653
  228.5000     6.1085     5.7732   102.1815
  229.0000     5.7673     5.4714   102.6422
  229.5000     5.4452     5.1853   102.9103
  230.0000     5.2951     4.9142   103.1735
  230.5000     5.1983     4.7400   102.6991
  231.0000     5.3755     4.6533   102.1662
  231.5000     5.5282     4.8392   101.0735
  232.0000     5.7527     5.1327    98.5706
  232.5000     6.0419     5.4440    96.8590
  233.0000     6.3455     5.7741    96.9374
  233.5000     6.6644     6.1243   100.4070
  234.0000     6.9993     6.4958   103.2588
  234.5000     7.3518     6.8906   108.5660
  235.0000     7.7219     7.3087   107.9173
  235.5000     8.1104     7.7521   107.2015
  236.0000     8.2632     8.0968   106.1536
  236.5000     8.2857     8.0965   105.1407
  237.0000     8.3081     8.0962   103.8957
  237.5000     8.3305     8.0960   102.5927
  238.0000     8.3529     8.0959   101.7085
  238.5000     8.3755     8.0955   102.1138
  239.0000     8.4000     8.0955   102.4966
  239.5000     8.3868     8.0955   102.9096
  240.0000     8.3729     8.0955   103.3280
  240.5000     8.3589     8.0955   103.7255
  241.0000     8.3450     8.0955   104.1206
  241.5000     8.3311     8.0955   104.6212
  242.0000     8.3172     8.0955   104.4513
  242.5000     8.3034     8.0954   103.0377
  243.0000     8.2895     8.0966   103.0656
  243.5000     8.2754     8.0853   105.2297
  244.0000     8.2619     8.0664   107.2918
  244.5000     8.2471     8.0486   107.9389
  245.0000     8.2463     8.0309   107.2568
  245.5000     8.2442     8.0139   106.6304
  246.0000     8.2459     7.9950   106.0359
  246.5000     8.2463     7.9769   105.3381
  247.0000     8.1604     7.9592   104.8234
  247.5000     7.9981     7.8614   104.1735
  248.0000     7.8391     7.6108   106.2485
  248.5000     7.6833     7.3682   108.6504
  249.0000     7.5306     7.1333   108.6544
  249.5000     7.3809     6.9060   108.5381
  250.0000     7.2341     6.6860   108.3191
  250.5000     7.0903     6.4727   108.1668
  251.0000     6.9022     6.2661   108.0449
  251.5000     6.5824     6.0659   108.0366
  252.0000     6.2520     5.8720   108.0373
  252.5000     6.0848     5.6840   108.0494
  253.0000     5.9071     5.5019   107.8721
  253.5000     5.7213     5.3257   107.3534
  254.0000     5.7584     5.1032   106.2885
  254.5000     5.8109     5.2508   105.0038
  255.0000     5.8010     5.4703   103.7045
  255.5000     6.1172     5.6991   102.9480
  256.0000     6.3745     5.9374   102.5549
  256.5000     6.7049     6.1857   102.1431
  257.0000     7.0004     6.4444   101.7157
  257.5000     7.3091     6.7139   101.3434
  258.0000     7.6235     7.0022   100.9048
  258.5000     7.8021     7.3755   101.4864
  259.0000     7.6594     7.0891   102.6948
  259.5000     7.2119     6.6690   102.7098
  260.0000     6.7485     6.2737   100.7603
  260.5000     6.3149     5.9021   100.9849
  261.0000     5.9152     5.5528   103.7322
  261.5000     5.7009     5.2035   105.7440
  262.0000     5.7009     4.9114   106.4056
  262.5000     5.7009     4.9223   104.6011
  263.0000     5.7009     5.1621   102.6629
  263.5000     5.8096     5.4412   100.5428
  264.0000     6.1353     5.7356   101.6967
  264.5000     6.4793     6.0465   104.3763
  265.0000     6.8426     6.3746   105.0145
  265.5000     7.2262     6.7209   103.0170
  266.0000     7.6314     7.0862   101.3102
  266.5000     8.0592     7.4712    99.3516
  267.0000     8.5111     7.8771    96.8355
  267.5000     8.7158     8.3053    95.3024
  268.0000     8.7929     8.4288    95.8226
  268.5000     8.8590     8.5019    97.1037
  269.0000     8.9256     8.5758    98.7529
  269.5000     8.9941     8.6497    98.0421
  270.0000     9.0610     8.7246    96.1412
  270.5000     9.1288     8.8002    96.8208
  271.0000     9.2122     8.8764    97.5586
  271.5000     9.2041     8.9533    97.5845
  272.0000     9.1834     9.0436    97.6007
  272.5000     9.1625     8.9959    97.6384
