~VERSION INFORMATION
 VERS.                2.0:   CWLS LOG ASCII STANDARD - VERSION 2.0
 WRAP.                 NO:   ONE LINE PER DEPTH STEP
~WELL INFORMATION
#MNEM.UNIT      DATA TYPE    INFORMATION
#----------   ------------   ------------------------------
 STRT.F          588.0000:   START DEPTH
 STOP.F         1583.5000:   STOP DEPTH
 STEP.F            0.5000:   STEP LENGTH
 NULL.          -999.2500:   NO VALUE
 COMP.   FENIX & SCISSONS:   COMPANY
 WELL.   NPR 3 #23STX1-11:   WELL
 FLD .             TEAPOT:   FIELD
 LOC .      S11 T38N R78W:   LOCATION
 CNTY.            NATRONA:   COUNTY
 STAT.            WYOMING:   STATE
 CTRY. UNITED STATES OF AMERICA:   COUNTRY
 SRVC.            Unknown:   SERVICE COMPANY
 DATE.        15-JUN-1979:   LOGDATE
 API .       490251078300:   API NUMBER
~CURVE INFORMATION
#MNEM.UNIT       API CODE    CURVE DESCRIPTION
#----------   ------------   ------------------------------
 DEPT.F                  :   
 RHOB.G/C3   45 350 01 00:   BULK DENSITY
 DPHI.DEC    45 890 10 00:   DENSITY POROSITY LIMESTONE
 CORR.G/C3   45 356 01 00:   DENSITY CORRECTION
 GRD .GAPI   45 310 01 00:   GAMMA RAY FROM DENSITY LOG
 CALD.IN     45 280 60 00:   CALIPER FROM DENSITY LOG
~PARAMETER INFORMATION
#MNEM.UNIT          VALUE    DESCRIPTION
#----------   ------------   ------------------------------
 PD  .                 GL:   PERMANENT DATUM
 EPD .F              5168:   ELEVATION PERMANENT DATUM
 LMF .                 KB:   LOG MEASURED FROM
 DAPD.F                10:   FEET ABOVE PERMANENT DATUM
 DMF .                 KB:   DRILLING MEASURED FROM
 EKB .F              5178:   KELLING BUSHING
 EGL .F              5168:   GROUND LEVEL
 DATE.            6-15-79:   RUN DATE
 RUN .                  1:   RUN NUMBER
 DD  .F              1580:   DEPTH DRILLER
 DL  .F              1580:   DEPTH LOGGER
 BLI .F              1578:   BOTTOM LOG INTERVAL
 TLI .F               680:   TOP LOG INTERVAL
 CS  .IN            9.625:   CASING SIZE
 CBD .F               660:   CASING BOTTOM DRILLER
 CBL .F               670:   CASING BOTTOM LOGGER
 BS  .IN             8.75:   BIT SIZE
 BSD .F              1580:   BIT SIZE AT DEPTH
 DFT .                OIL:   DRILLING FLUID TYPE
 TCS .HRS               4:   TIME CURCULATED STOPPED
 MRT .F                80:   MAXIMUM RECORDED TEMPERATURE
 LUN .               3029:   LOGGING UNIT NUMBER
 LUL .             CASPER:   LOGGING UNIT LOCATION
 ENGI.            MULLINS:   RECORDING ENGINEER
 CLNT.            A2DTECH:   CLIENT CODE
 ORIG.     1", 2.5" PRINT:   ORIGIN OF DATA
 UWI .       490251078300:   UNIQUE WELL ID
 DICO. A2D Technologies, Inc.:   DIGITIZING COMPANY
~OTHER INFORMATION
~A   DEPT     RHOB       DPHI       CORR         GRD      CALD   
# ...
  893.0000     2.4854     0.0405    -0.0102    93.6792     9.2734
  893.5000     2.4939     0.0356    -0.0022    90.0972     9.2740
  894.0000     2.5031     0.0304     0.0115    87.7935     9.2746
  894.5000     2.5103     0.0260     0.0143    87.2779     9.2752
  895.0000     2.5031     0.0313     0.0088    86.7093     9.2758
  895.5000     2.4958     0.0344     0.0044    86.0886     9.2764
  896.0000     2.5052     0.0319     0.0003    86.5936     9.2770
  896.5000     2.5073     0.0291     0.0000    88.4254     9.2775
  897.0000     2.5044     0.0307     0.0000    90.2168     9.2781
  897.5000     2.4997     0.0342     0.0000    90.8135     9.2787
  898.0000     2.4937     0.0373    -0.0001    90.7495     9.2793
  898.5000     2.4936     0.0358     0.0016    90.9855     9.2799
  899.0000     2.5040     0.0340     0.0070    91.3239     9.2805
  899.5000     2.5135     0.0227     0.0121    92.9768     9.2810
  900.0000     2.5209     0.0206     0.0158    94.6675     9.2816
  900.5000     2.5233     0.0186     0.0124    96.5871     9.2822
  901.0000     2.5284     0.0165     0.0094    97.2725     9.2828
  901.5000     2.5374     0.0144     0.0061    94.2070     9.2834
  902.0000     2.5503     0.0048     0.0070    89.9691     9.2840
  902.5000     2.5612    -0.0009     0.0159    84.5321     9.2846
  903.0000     2.5564     0.0007     0.0087    78.1790     9.2851
  903.5000     2.5523     0.0022     0.0011    80.3858     9.2857
  904.0000     2.5482     0.0037     0.0100    84.4403     9.2863
  904.5000     2.5363     0.0086     0.0137    88.8919     9.2869
  905.0000     2.5194     0.0243     0.0044    87.1247     9.2875
  905.5000     2.5106     0.0286     0.0043    84.4228     9.2881
  906.0000     2.5033     0.0324     0.0039    81.4251     9.2886
  906.5000     2.5034     0.0317     0.0037    80.2639     9.2892
  907.0000     2.5038     0.0311     0.0030    83.5179     9.2898
  907.5000     2.5044     0.0308     0.0024    85.9439     9.2904
  908.0000     2.5049     0.0308     0.0018    86.5125     9.2910
  908.5000     2.5051     0.0308     0.0011    88.4364     9.2916
  909.0000     2.5048     0.0291     0.0008    91.7416     9.2921
  909.5000     2.5080     0.0251     0.0004    90.8621     9.2927
  910.0000     2.5159     0.0228     0.0080    87.3030     9.2933
  910.5000     2.5197     0.0218     0.0157    87.2419     9.2939
  911.0000     2.5191     0.0211     0.0205    88.3430     9.2945
  911.5000     2.5191     0.0230     0.0181    90.7193     9.2951
  912.0000     2.5202     0.0266     0.0111    93.2150     9.2956
  912.5000     2.5039     0.0397    -0.0047    95.0965     9.2962
  913.0000     2.4894     0.0397    -0.0108    94.0691     9.2968
  913.5000     2.4944     0.0350    -0.0047    92.2434     9.2974
  914.0000     2.5016     0.0308    -0.0004    89.6057     9.2980
  914.5000     2.5002     0.0348    -0.0019    87.9514     9.2986
  915.0000     2.4955     0.0381    -0.0034    88.7177     9.2992
  915.5000     2.4913     0.0373    -0.0023    89.4680     9.2997
  916.0000     2.4945     0.0317     0.0077    89.4768     9.3003
  916.5000     2.5104     0.0178     0.0223    89.3402     9.3009
  917.0000     2.5246     0.0203     0.0338    88.1809     9.3015
  917.5000     2.5202     0.0243     0.0281    84.3861     9.3021
  918.0000     2.5156     0.0199     0.0211    79.6343     9.3027
  918.5000     2.5321     0.0130     0.0216    80.5791     9.3033
  919.0000     2.5340     0.0158     0.0238    82.2284     9.3038
  919.5000     2.5275     0.0194     0.0207    84.0444     9.3044
  920.0000     2.5210     0.0269     0.0117    86.1184     9.3050
  920.5000     2.5054     0.0334     0.0041    88.5072     9.3056
  921.0000     2.4958     0.0364    -0.0030    87.5207     9.3062
  921.5000     2.4972     0.0348     0.0052    86.3581     9.3068
  922.0000     2.5078     0.0289     0.0142    88.0920     9.3073
  922.5000     2.5185     0.0211     0.0248    89.8528     9.3079
  923.0000     2.5192     0.0251     0.0213    91.9918     9.3085
  923.5000     2.5076     0.0300     0.0109    92.4621     9.3091
  924.0000     2.5088     0.0288     0.0059    89.9829     9.3097
  924.5000     2.5103     0.0275     0.0030    89.9844     9.3103
  925.0000     2.5107     0.0299     0.0014    89.8518     9.3109
  925.5000     2.5097     0.0266     0.0006    88.6502     9.3114
  926.0000     2.5187     0.0171     0.0071    88.2956     9.3120
  926.5000     2.5282     0.0136     0.0136    89.5249     9.3126
  927.0000     2.5371     0.0094     0.0189    89.9292     9.3128
  927.5000     2.5443     0.0081     0.0169    90.2675     9.3119
  928.0000     2.5285     0.0211     0.0091    91.8567     9.3110
  928.5000     2.5139     0.0247     0.0017    94.0588     9.3101
  929.0000     2.5027     0.0284    -0.0001    95.5418     9.3092
  929.5000     2.5079     0.0294     0.0012    96.1498     9.3083
  930.0000     2.5122     0.0268     0.0061    95.4590     9.3074
  930.5000     2.5172     0.0242     0.0117    92.9028     9.3065
  931.0000     2.5178     0.0219     0.0081    90.1362     9.3056
  931.5000     2.5141     0.0241     0.0040    86.3796     9.3048
  932.0000     2.5117     0.0262     0.0007    88.2731     9.3039
  932.5000     2.5179     0.0229     0.0094    92.9380     9.3030
  933.0000     2.5231     0.0186     0.0169    89.4447     9.3021
  933.5000     2.5300     0.0168     0.0259    87.2139     9.3012
  934.0000     2.5249     0.0178     0.0238    87.1206     9.3003
  934.5000     2.5115     0.0259     0.0142    90.2934     9.2994
  935.0000     2.5035     0.0297     0.0072    95.1121     9.2985
  935.5000     2.5062     0.0305     0.0045    97.3110     9.2976
  936.0000     2.5058     0.0326     0.0012    93.2528     9.2967
  936.5000     2.5012     0.0348    -0.0001    91.4186     9.2958
  937.0000     2.4993     0.0348     0.0012    92.8710     9.2950
  937.5000     2.5011     0.0348     0.0022    94.2368     9.2941
  938.0000     2.5022     0.0316     0.0032    92.1742     9.2932
  938.5000     2.5064     0.0284     0.0052    93.1360     9.2923
  939.0000     2.5141     0.0253     0.0099    95.1180     9.2914
  939.5000     2.5210     0.0222     0.0146    94.2772     9.2905
  940.0000     2.5270     0.0194     0.0193    92.5985     9.2896
  940.5000     2.5247     0.0206     0.0241    89.5044     9.2887
  941.0000     2.5225     0.0216     0.0258    87.3023     9.2879
  941.5000     2.5205     0.0235     0.0281    88.7081     9.2870
  942.0000     2.5154     0.0255     0.0249    90.6115     9.2861
  942.5000     2.5074     0.0275     0.0158    89.7054     9.2852
  943.0000     2.5058     0.0275     0.0082    86.8174     9.2843
  943.5000     2.5082     0.0275     0.0131    84.4480     9.2834
  944.0000     2.5079     0.0286     0.0160    86.3684     9.2825
  944.5000     2.5036     0.0322     0.0137    89.8951     9.2816
  945.0000     2.4981     0.0357     0.0120    92.0330     9.2807
  945.5000     2.4891     0.0393     0.0050    94.2057     9.2798
  946.0000     2.4871     0.0401    -0.0025    96.7084     9.2789
  946.5000     2.4952     0.0369    -0.0065    99.3685     9.2781
  947.0000     2.5022     0.0336    -0.0004    98.3025     9.2772
  947.5000     2.5092     0.0281     0.0057    96.6757     9.2763
  948.0000     2.5185     0.0210     0.0125    95.6302     9.2754
  948.5000     2.5189     0.0248     0.0139    96.6843     9.2745
  949.0000     2.4996     0.0323     0.0048    95.4119     9.2736
  949.5000     2.4947     0.0379    -0.0044    93.8617     9.2726
  950.0000     2.5104     0.0283     0.0044    92.3259     9.2732
  950.5000     2.5175     0.0236     0.0113    90.9762     9.2750
  951.0000     2.5134     0.0261     0.0074    93.6588     9.2767
  951.5000     2.5048     0.0318     0.0046    96.1176     9.2783
  952.0000     2.4874     0.0461     0.0137    98.5230     9.2800
  952.5000     2.4852     0.0419     0.0227    96.8676     9.2817
  953.0000     2.4991     0.0332     0.0290    93.7571     9.2834
  953.5000     2.5098     0.0256     0.0282    89.9144     9.2850
