~VERSION INFORMATION
 VERS.                2.0:   CWLS LOG ASCII STANDARD - VERSION 2.0
 WRAP.                 NO:   ONE LINE PER DEPTH STEP
~WELL INFORMATION
#MNEM.UNIT      DATA TYPE    INFORMATION
#----------   ------------   ------------------------------
 STRT.F           70.0000:   START DEPTH
 STOP.F          853.0000:   STOP DEPTH
 STEP.F            0.5000:   STEP LENGTH
 NULL.          -999.2500:   NO VALUE
 COMP. U S NAVY/INTEX OIL CO:   COMPANY
 WELL.     31S-2 NPR #3-2:   WELL
 FLD .             TEAPOT:   FIELD
 LOC .       S2 T38N R78W:   LOCATION
 CNTY.            NATRONA:   COUNTY
 STAT.            WYOMING:   STATE
 CTRY. UNITED STATES OF AMERICA:   COUNTRY
 SRVC.         Lane Wells:   SERVICE COMPANY
 DATE.        17-MAR-1960:   LOGDATE
 API .       490250648000:   API NUMBER
~CURVE INFORMATION
#MNEM.UNIT       API CODE    CURVE DESCRIPTION
#----------   ------------   ------------------------------
 DEPT.F                  :   
 ASN .OHMM   05 041 16 00:   AMPLIFIED SHORT NORMAL 16"
 CILD.MMHO   05 110 46 00:   CONDUCTIVITY INDUCTION LOG DEEP
 ILD .OHMM   05 120 46 00:   INDUCTION LOG DEEP
 SPR .MV     05 010 01 00:   SPONTANEOUS POTENTIAL FROM RES.
~PARAMETER INFORMATION
#MNEM.UNIT          VALUE    DESCRIPTION
#----------   ------------   ------------------------------
 PD  .                 GL:   PERMANENT DATUM
 EPD .F              5118:   ELEVATION PERMANENT DATUM
 LMF .                 KB:   LOG MEASURED FROM
 DAPD.F                 5:   FEET ABOVE PERMANENT DATUM
 DMF .                 KB:   DRILLING MEASURED FROM
 EKB .F              5123:   KELLING BUSHING
 EGL .F              5118:   GROUND LEVEL
 DATE.        17-MAR-1960:   RUN DATE
 RUN .                  1:   RUN NUMBER
 DD  .F               860:   DEPTH DRILLER
 DL  .F               855:   DEPTH LOGGER
 BLI .F               853:   BOTTOM LOG INTERVAL
 TLI .F                70:   TOP LOG INTERVAL
 CS  .IN            8.625:   CASING SIZE
 CBD .F                12:   CASING BOTTOM DRILLER
 BS  .IN            7.875:   BIT SIZE
 BSD .F               860:   BIT SIZE AT DEPTH
 DFT .  GEL- OIL EMULSION:   DRILLING FLUID TYPE
 DFD .                9.7:   DRILLING FLUID DENSITY
 DFV .                 40:   DRILLING FLUID VISCOSITY
 MSS .    CIRC.- FLOWLINE:   MUD SAMPLE SOURCE
 RMS .OHMM           1.75:   RESISTIVITY MUD SAMPLE
 MST .F                60:   MUD SAMPLE TEMPERATURE
 RMF .OHMM            1.2:   RESISTIVITY MUD FILTRATE SAMPLE
 MFST.F                60:   MUD FILTRATE SAMPLE TEMPERATURE
 RMC .OHMM            2.4:   RESISTIVITY MUD CAKE
 MCST.F                60:   MUD CAKE SAMPLE TEMPERATURE
 MFSS.                MUD:   MUD FILTRATE SAMPLE SOURCE
 MCSS.              PRESS:   MUD CAKE SAMPLE SOURCE
 RMB .OHMM            1.5:   RESISTIVITY MUD AT BHT
 BHT .F                70:   BOTTOM HOLE TEMPERATURE
 MRT .F                70:   MAXIMUM RECORDED TEMPERATURE
 LUN .            HL 4474:   LOGGING UNIT NUMBER
 LUL .             CASPER:   LOGGING UNIT LOCATION
 ENGI.             NELSON:   RECORDING ENGINEER
 WITN.   JORGENSEN-HUDSON:   WITNESSED BY
 CLNT.            A2DTECH:   CLIENT CODE
 ORIG.        2" 5" PRINT:   ORIGIN OF DATA
 UWI .       490250648000:   UNIQUE WELL ID
 DICO. A2D Technologies, Inc.:   DIGITIZING COMPANY
~OTHER INFORMATION
~A   DEPT        ASN      CILD         ILD      SPR   
# ...
  216.0000     3.6038   271.9949     4.5933   -39.4909
  216.5000     3.7399   258.9931     4.7899   -39.4914
  217.0000     3.9213   251.2073     4.9245   -39.6287
  217.5000     4.0909   244.8052     5.0215   -39.5474
  218.0000     4.2171   240.9864     5.0585   -39.4934
  218.5000     4.3691   236.5568     5.0572   -39.3576
  219.0000     4.4830   233.9516     5.0335   -39.2927
  219.5000     4.5862   233.9652     4.8515   -39.0858
  220.0000     4.5681   233.9794     4.7418   -38.9500
  220.5000     4.5197   234.7617     4.5620   -38.8140
  221.0000     4.4233   237.2648     4.5087   -38.6782
  221.5000     4.2958   242.1905     4.3383   -38.8154
  222.0000     4.1303   248.7928     4.2351   -38.9854
  222.5000     3.9349   263.6385     4.1659   -39.0900
  223.0000     3.7693   283.0795     4.0442   -39.0906
  223.5000     3.5699   295.9169     3.9573   -39.1077
  224.0000     3.3650   303.5281     3.7790   -39.2286
  224.5000     3.2488   306.5869     3.6865   -39.2292
  225.0000     3.0665   310.7035     3.6175   -39.2299
  225.5000     2.9778   314.4624     3.5113   -39.2306
  226.0000     2.9172   317.2345     3.4117   -39.0946
  226.5000     2.9172   321.6914     3.4105   -39.0954
  227.0000     2.9100   326.7583     3.3795   -38.8903
  227.5000     2.8517   331.4107     3.2677   -38.6688
  228.0000     2.7137   335.0621     3.1357   -38.4147
  228.5000     2.5970   341.3480     2.9760   -38.1731
  229.0000     2.4649   348.4734     2.8621   -38.0062
  229.5000     2.3066   356.7797     2.8611   -38.0069
  230.0000     2.2207   366.8685     2.8442   -38.0076
  230.5000     2.1438   381.2919     2.7910   -38.0083
  231.0000     2.0950   405.8380     2.7221   -38.2165
  231.5000     2.0896   420.5145     2.6532   -38.3028
  232.0000     2.1167   420.8404     2.7200   -38.4201
  232.5000     2.1981   407.2413     2.9082   -38.5573
  233.0000     2.3021   394.7125     3.1288   -38.5580
  233.5000     2.4423   378.6733     3.3495   -38.5587
  234.0000     2.6160   367.1407     3.5023   -38.5593
  234.5000     2.8566   351.1082     3.6660   -38.5601
  235.0000     3.2384   331.0600     3.8383   -38.5607
  235.5000     3.4532   311.0645     3.9481   -38.5614
  236.0000     3.5142   292.9610     4.0027   -38.5622
  236.5000     3.5142   294.3392     3.9338   -38.6993
  237.0000     3.5115   296.0257     3.9275   -38.8366
  237.5000     3.4600   302.7043     3.7957   -38.8373
  238.0000     3.4075   309.3828     3.7038   -38.8379
  238.5000     3.3012   314.6997     3.6297   -38.8387
  239.0000     3.1208   321.6375     3.5780   -38.5662
  239.5000     3.0194   330.1922     3.5041   -38.2936
  240.0000     2.9308   336.3690     3.4216   -38.1579
  240.5000     2.8250   348.9106     3.3821   -38.1585
  241.0000     2.7264   358.8850     3.3043   -38.2958
  241.5000     2.6323   371.1095     3.2441   -38.4331
  242.0000     2.5418   377.5454     3.1073   -38.4756
  242.5000     2.4288   376.1951     2.9688   -38.5710
  243.0000     2.4288   373.4857     2.9015   -38.5716
  243.5000     2.4541   367.3903     3.0559   -38.5723
  244.0000     2.5436   355.1043     3.2391   -38.5731
  244.5000     2.7951   340.8497     3.4489   -38.6338
  245.0000     3.0846   320.2116     3.6696   -38.7200
  245.5000     3.3786   298.4130     3.9153   -38.8483
  246.0000     3.6364   278.2590     4.0734   -39.0291
  246.5000     3.9263   265.6170     4.2637   -39.1227
  247.0000     4.3148   249.3374     4.4557   -39.2017
  247.5000     4.4708   234.7304     4.6818   -39.2606
  248.0000     4.5934   226.2632     4.9293   -39.2614
  248.5000     4.6947   215.6934     5.0785   -39.1254
  249.0000     4.7761   207.3465     5.2991   -39.1043
  249.5000     4.9154   201.5552     5.5376   -38.5806
  250.0000     5.1018   196.6731     5.6726   -38.3991
  250.5000     5.6065   192.6960     5.8253   -38.3087
  251.0000     5.9023   188.2662     6.0100   -38.5826
  251.5000     6.0163   183.0991     6.1039   -38.7197
  252.0000     6.1601   179.4070     6.2138   -38.4474
  252.5000     6.4179   174.9547     6.3236   -38.2477
  253.0000     6.5183   171.3964     6.3460   -38.1755
  253.5000     6.5699   169.5334     6.3447   -38.1764
  254.0000     6.5400   169.5501     6.3813   -38.3135
  254.5000     6.4609   169.5628     6.4108   -38.4508
  255.0000     6.3772   169.5764     6.4095   -38.5880
  255.5000     6.3686   170.9534     6.4086   -38.7004
  256.0000     6.3501   170.9652     6.4756   -38.8626
  256.5000     6.3908   172.3404     6.4743   -39.0653
  257.0000     6.4179   172.3567     6.4852   -39.1370
  257.5000     6.3863   172.3676     6.5404   -39.4110
  258.0000     6.3229   171.0202     6.5394   -39.4607
  258.5000     6.2840   169.6717     6.6065   -39.6854
  259.0000     6.2668   169.6853     6.6052   -39.9901
  259.5000     6.2144   169.7003     6.6043   -40.2329
  260.0000     6.1918   169.7126     6.6123   -39.6875
  260.5000     6.2144   168.3638     6.7380   -39.2802
  261.0000     6.2442   167.0189     6.7371   -38.5634
  261.5000     6.2782   166.5378     6.7361   -38.3237
  262.0000     6.3636   164.3208     6.8030   -38.1879
  262.5000     6.4722   164.3344     6.8701   -38.1885
  263.0000     6.5898   162.6369     6.8688   -38.4114
  263.5000     6.7571   161.6384     6.8679   -38.6342
  264.0000     6.8982   159.5824     6.8668   -39.0101
  264.5000     7.0303   158.9412     6.8657   -39.2165
  265.0000     7.1189   158.9579     6.9022   -39.4393
  265.5000     7.2076   157.6082     6.8638   -39.5584
  266.0000     7.2999   157.6853     6.8626   -39.6956
  266.5000     7.3618   158.9997     6.8383   -39.5597
  267.0000     7.3813   159.0106     6.7928   -39.4730
  267.5000     7.3813   160.3863     6.7505   -39.1513
  268.0000     7.3487   162.5415     6.7065   -39.0155
  268.5000     7.2497   165.0559     6.5859   -38.8086
  269.0000     7.0556   169.9590     6.5507   -38.5871
  269.5000     6.9444   176.6066     6.4389   -38.3348
  270.0000     6.6621   185.6429     6.3110   -38.2807
  270.5000     6.3089   199.9553     6.2151   -38.0629
  271.0000     5.7730   220.5091     6.0333   -38.0636
  271.5000     4.8847   247.6354     5.1813   -38.0260
  272.0000     4.3474   283.5946     4.0534   -37.9284
  272.5000     3.5640   321.7205     3.5886   -37.7925
  273.0000     2.8358   355.2415     3.1268   -37.7713
  273.5000     2.5911   367.8039     2.7714   -37.6573
  274.0000     2.4830   384.4872     2.7703   -37.7144
  274.5000     2.4966   389.3225     3.1332   -37.9373
  275.0000     2.5418   387.4055     3.4647   -38.0690
  275.5000     2.6866   382.0129     3.8541   -38.3829
  276.0000     2.8168   356.6865     4.1277   -38.6167
  276.5000     3.1597   324.1257     4.6674   -38.6920
  277.0000     4.0977   281.8250     5.0625   -38.9149
  277.5000     4.6540   256.8546     5.3776   -39.1651
  278.0000     5.8924   228.8944     5.7513   -39.3606
  278.5000     6.7028   175.6640     6.0234   -39.5834
  279.0000     7.0855   157.4177     6.4658   -39.7135
  279.5000     7.4247   150.9047     6.9030   -39.5773
  280.0000     8.5120   141.6664     7.2690   -39.4416
  280.5000     9.4423   139.8192     7.6485   -39.3658
  281.0000     9.8064   138.9682     7.3313   -39.1697
  281.5000     9.5029   143.4160     6.9270   -39.0340
  282.0000     8.1438   152.3655     6.6263   -38.8379
  282.5000     7.4084   163.5183     6.3077   -38.6255
  283.0000     6.9760   173.1892     5.9742   -38.4898
  283.5000     6.2999   181.4561     5.7400   -38.3101
  284.0000     5.7802   179.8989     5.8007   -38.2179
  284.5000     5.6642   173.5477     6.0951   -38.2186
  285.0000     5.6309   164.6748     6.5521   -38.2466
  285.5000     5.8476   155.4323     6.7582   -38.6297
  286.0000     6.4713   149.6521     7.0258   -38.9527
  286.5000     7.0285   139.1185     7.2853   -39.3467
  287.0000     7.3496   133.4765     7.6683   -39.8610
  287.5000     7.9353   129.0469     7.9738   -40.1802
  288.0000     8.7246   122.8213     8.3143   -40.5451
  288.5000     9.1732   117.4644     8.6020   -40.9791
