~VERSION INFORMATION
 VERS.                2.0:   CWLS LOG ASCII STANDARD - VERSION 2.0
 WRAP.                 NO:   ONE LINE PER DEPTH STEP
~WELL INFORMATION
#MNEM.UNIT      DATA TYPE    INFORMATION
#----------   ------------   ------------------------------
 STRT.F           50.0000:   START DEPTH
 STOP.F          854.0000:   STOP DEPTH
 STEP.F            0.5000:   STEP LENGTH
 NULL.          -999.2500:   NO VALUE
 COMP. FENIX & SCISSON INC:   COMPANY
 WELL.    45 SX 11 #45-11:   WELL
 FLD .             TEAPOT:   FIELD
 LOC .      S11 T38N R78W:   LOCATION
 CNTY.            NATRONA:   COUNTY
 STAT.            WYOMING:   STATE
 CTRY. UNITED STATES OF AMERICA:   COUNTRY
 SRVC.           BIRDWELL:   SERVICE COMPANY
 DATE.        01-MAR-1978:   LOGDATE
 API .       490251058600:   API NUMBER
~CURVE INFORMATION
#MNEM.UNIT       API CODE    CURVE DESCRIPTION
#----------   ------------   ------------------------------
 DEPT.F                  :   
 CALD.IN     45 280 60 00:   CALIPER
 CORR.G/C3   45 356 01 00:   DENSITY CORRECTION
 RHOB.G/C3   45 350 01 00:   BULK DENSITY
 DPOR.DEC    45 890 12 00:   DENSITY POROSITY SANDSTONE
 GRD .GAPI   45 310 01 00:   GAMMA RAY FROM DENSITY LOG
 SPR .MV     05 010 01 00:   SPONTANEOUS POTENTIAL FROM RES.
 SN  .OHMM   05 040 16 00:   SHORT NORMAL 16"
 ILD .OHMM   05 120 46 00:   INDUCTION LOG DEEP
~PARAMETER INFORMATION
#MNEM.UNIT          VALUE    DESCRIPTION
#----------   ------------   ------------------------------
 PD  .                 GL:   PERMANENT DATUM
 EPD .F              5186:   ELEVATION PERMANENT DATUM
 LMF .                 KB:   LOG MEASURED FROM
 DAPD.F                 4:   FEET ABOVE PERMANENT DATUM
 DMF .                 KB:   DRILLING MEASURED FROM
 EKB .F              5190:   KELLING BUSHING
 EGL .F              5186:   GROUND LEVEL
 DATE.           3-1-1978:   RUN DATE
 RUN .                  1:   RUN NUMBER
 DD  .F               848:   DEPTH DRILLER
 DL  .F               856:   DEPTH LOGGER
 BLI .F               851:   BOTTOM LOG INTERVAL
 TLI .F                50:   TOP LOG INTERVAL
 CS  .IN            8.625:   CASING SIZE
 CBD .F                40:   CASING BOTTOM DRILLER
 CBL .F                40:   CASING BOTTOM LOGGER
 BS  .IN            7.875:   BIT SIZE
 BSD .F               848:   BIT SIZE AT DEPTH
 DFT .          LIGNOSULF:   DRILLING FLUID TYPE
 DFD .                8.5:   DRILLING FLUID DENSITY
 DFV .                 30:   DRILLING FLUID VISCOSITY
 DFPH.               11.5:   DRILLING FLUID PH
 MSS .                PIT:   MUD SAMPLE SOURCE
 RMS .OHMM              2:   RESISTIVITY MUD SAMPLE
 MST .F                59:   MUD SAMPLE TEMPERATURE
 RMF .OHMM            1.8:   RESISTIVITY MUD FILTRATE SAMPLE
 MFST.F                60:   MUD FILTRATE SAMPLE TEMPERATURE
 RMC .OHMM            2.2:   RESISTIVITY MUD CAKE
 MCST.F                60:   MUD CAKE SAMPLE TEMPERATURE
 MFSS.               MEAS:   MUD FILTRATE SAMPLE SOURCE
 MCSS.               MEAS:   MUD CAKE SAMPLE SOURCE
 RMB .OHMM           1.69:   RESISTIVITY MUD AT BHT
 BHT .F                70:   BOTTOM HOLE TEMPERATURE
 TCS .HRS               3:   TIME CURCULATED STOPPED
 MRT .F                70:   MAXIMUM RECORDED TEMPERATURE
 LUN .               2959:   LOGGING UNIT NUMBER
 LUL .               CASP:   LOGGING UNIT LOCATION
 ENGI.            POINTER:   RECORDING ENGINEER
 WITN.         HARRINGTON:   WITNESSED BY
 CLNT.            A2DTECH:   CLIENT CODE
 ORIG.       2", 5" PRINT:   ORIGIN OF DATA
 UWI .       490251058600:   UNIQUE WELL ID
 DICO. A2D Technologies, Inc.:   DIGITIZING COMPANY
~OTHER INFORMATION
~A   DEPT       CALD      CORR      RHOB       DPOR        GRD        SPR         SN        ILD   
# ...
  576.5000     7.9280     0.0465     2.4577     0.1070   112.4500   -19.7689     7.2211     6.4583
  577.0000     7.9278     0.0447     2.4572     0.1088   118.0993   -19.6454     7.2211     6.4583
  577.5000     7.9276     0.0415     2.4690     0.1105   128.4289   -19.5205     7.2211     6.4583
  578.0000     7.9275     0.0384     2.4752     0.1123   126.4215   -19.3961     7.2211     6.4583
  578.5000     7.9273     0.0378     2.4720     0.1137   123.0681   -19.3080     7.2211     6.4583
  579.0000     7.9271     0.0396     2.4687     0.1145   119.7561   -19.2275     7.2211     6.4583
  579.5000     7.9270     0.0348     2.4659     0.1153   120.0302   -19.1472     7.2211     6.4583
  580.0000     7.9268     0.0304     2.4637     0.1165   122.8225   -19.0667     7.2211     6.4583
  580.5000     7.9267     0.0317     2.4562     0.1240   125.5242   -18.9817     7.2211     6.4583
  581.0000     7.9265     0.0352     2.4461     0.1275   125.4692   -19.0565     7.2211     6.4583
  581.5000     7.9263     0.0359     2.4414     0.1286   124.7392   -19.1786     7.2211     6.4584
  582.0000     7.9262     0.0338     2.4445     0.1250   123.3255   -19.3019     7.2211     6.4584
  582.5000     7.9260     0.0321     2.4480     0.1238   123.3619   -19.4249     7.2212     6.4584
  583.0000     7.9258     0.0399     2.4507     0.1286   121.3563   -19.5484     7.2216     6.4592
  583.5000     7.9257     0.0484     2.4537     0.1330   117.6940   -19.6713     7.2211     6.4120
  584.0000     7.9255     0.0552     2.4445     0.1339   115.3308   -19.7635     7.1498     6.3748
  584.5000     7.9254     0.0571     2.4332     0.1324   115.8496   -19.6354     7.0818     6.3379
  585.0000     7.9252     0.0593     2.4466     0.1294   116.6196   -19.5091     7.0149     6.1393
  585.5000     7.9242     0.0607     2.4443     0.1298   119.2134   -19.3830     6.9077     5.9616
  586.0000     7.9221     0.0544     2.4407     0.1315   124.9066   -19.2590     6.5628     5.7738
  586.5000     7.9199     0.0433     2.4370     0.1276   131.1674   -19.2084     6.2339     5.6157
  587.0000     7.9177     0.0327     2.4414     0.1254   134.8305   -19.3912     6.0491     5.5764
  587.5000     7.9156     0.0302     2.4465     0.1262   132.5449   -19.5662     6.0514     5.5356
  588.0000     7.9134     0.0359     2.4417     0.1283   129.7977   -19.7462     6.0511     5.5130
  588.5000     7.9113     0.0429     2.4410     0.1326   127.0612   -19.6814     6.0511     5.4196
  589.0000     7.9091     0.0500     2.4350     0.1368   125.1186   -19.5606     6.0511     5.2852
  589.5000     7.9069     0.0567     2.4218     0.1396   123.7295   -19.4385     6.0511     5.1541
  590.0000     7.9048     0.0445     2.4213     0.1391   122.4785   -19.3169     5.9706     5.0238
  590.5000     7.9026     0.0533     2.4254     0.1375   121.0633   -19.1955     5.5317     4.8812
  591.0000     7.9005     0.0490     2.4387     0.1239   119.8413   -19.0739     5.2143     4.7399
  591.5000     7.8983     0.0413     2.4488     0.1055   118.6398   -18.9524     5.1605     4.6634
  592.0000     7.8962     0.0413     2.4344     0.1097   119.4424   -18.8318     5.3066     4.6761
  592.5000     7.8940     0.0432     2.4805     0.1167   120.2201   -18.7767     5.4202     4.6863
  593.0000     7.8918     0.0444     2.4542     0.1242   120.9791   -18.8112     5.6171     4.6964
  593.5000     7.8897     0.0417     2.4506     0.1171   121.1611   -18.8447     6.0071     4.7051
  594.0000     7.8875     0.0371     2.4523     0.1085   121.4109   -18.8783     6.4583     4.9630
  594.5000     7.8854     0.0324     2.4769     0.1101   121.6572   -18.9120     6.4471     5.3172
  595.0000     7.8832     0.0277     2.4770     0.1129   121.5823   -18.9478     6.4357     5.6967
  595.5000     7.8810     0.0231     2.4746     0.1186   120.9360   -19.0983     6.4243     6.1077
  596.0000     7.8789     0.0232     2.4608     0.1298   124.5214   -19.4232     6.4129     6.0518
  596.5000     7.8767     0.0310     2.4465     0.1399   126.2941   -19.7438     6.3956     5.9698
  597.0000     7.8745     0.0386     2.4323     0.1451   124.3973   -19.7036     6.3315     5.8846
  597.5000     7.8724     0.0461     2.4211     0.1504   122.5508   -19.6196     6.3462     5.4995
  598.0000     7.8703     0.0459     2.4104     0.1557   122.9762   -19.5345     6.2241     5.1196
  598.5000     7.8682     0.0364     2.3951     0.1585   124.1171   -19.4488     5.7423     4.7659
  599.0000     7.8658     0.0407     2.3840     0.1495   122.6806   -19.3853     5.2959     4.6674
  599.5000     7.8526     0.0448     2.3933     0.1468   120.4938   -19.7046     5.0600     4.6193
  600.0000     7.8025     0.0597     2.4087     0.1462   120.3672   -20.0343     5.0238     4.5775
  600.5000     7.7540     0.0783     2.4171     0.1438   122.6888   -20.3666     5.0238     4.6143
  601.0000     7.7046     0.0953     2.4176     0.1385   124.2462   -20.1254     5.1744     4.6486
  601.5000     7.7024     0.0970     2.4241     0.1338   121.8035   -19.8317     5.7087     4.6827
  602.0000     7.7337     0.0793     2.4527     0.1295   119.1184   -19.6146     6.2826     4.8211
  602.5000     7.7678     0.0569     2.4701     0.1000   118.5561   -20.0720     6.3694     5.1930
  603.0000     7.8016     0.0625     2.4790     0.1094   116.8476   -20.1813     6.7533     5.5937
  603.5000     7.8356     0.0632     2.4884     0.1186   115.0364   -20.1839     7.2575     6.0511
  604.0000     7.8637     0.0536     2.4663     0.1109   115.5850   -20.1828     7.5830     6.3613
  604.5000     7.8643     0.0440     2.4611     0.0968   117.4147   -20.1826     7.9231     6.7077
  605.0000     7.8641     0.0346     2.4841     0.0972   117.8431   -20.1827     8.1516     7.0915
  605.5000     7.8630     0.0318     2.4880     0.1041   115.8021   -20.1832     8.1573     7.0865
  606.0000     7.8621     0.0293     2.4895     0.1101   116.5720   -20.1811     8.1631     7.0891
  606.5000     7.8611     0.0284     2.4774     0.1117   117.9617   -20.0551     8.1689     7.0880
  607.0000     7.8601     0.0288     2.4698     0.1129   119.7110   -19.9160     8.1747     7.0880
  607.5000     7.8591     0.0293     2.4704     0.1129   121.3567   -19.7777     8.1805     7.0880
  608.0000     7.8582     0.0297     2.4718     0.1122   120.5424   -19.6382     8.1863     7.0880
  608.5000     7.8572     0.0301     2.4718     0.1113   118.2733   -19.6186     8.1921     7.0880
  609.0000     7.8562     0.0277     2.4717     0.1104   116.6085   -19.6986     8.1979     7.0880
  609.5000     7.8553     0.0217     2.4712     0.1092   116.4214   -19.7796     8.2037     7.0880
  610.0000     7.8543     0.0162     2.4717     0.1073   113.7543   -19.8612     8.2096     7.0880
  610.5000     7.8533     0.0184     2.4756     0.1125   113.2143   -19.9417     8.2155     7.0879
  611.0000     7.8524     0.0211     2.4761     0.1186   113.9733   -20.1642     8.2210     7.0869
  611.5000     7.8514     0.0238     2.4620     0.1242   114.7273   -20.5014     8.2392     7.0860
  612.0000     7.8504     0.0264     2.4480     0.1262   118.9214   -20.8439     8.2993     7.2257
  612.5000     7.8494     0.0273     2.4497     0.1214   118.2094   -20.7094     8.3592     7.4507
  613.0000     7.8485     0.0232     2.4543     0.1171   115.7880   -20.2048     8.4196     7.6811
  613.5000     7.8475     0.0192     2.4571     0.1149   113.8507   -19.7705     8.4804     7.9183
  614.0000     7.8465     0.0163     2.4773     0.1192   118.2891   -20.0386     8.5375     8.0006
  614.5000     7.8455     0.0175     2.4670     0.1276   117.6304   -20.3269     8.4954     7.9602
  615.0000     7.8446     0.0249     2.4525     0.1349   117.4005   -20.3261     8.4564     7.9336
  615.5000     7.8326     0.0339     2.4334     0.1408   118.6520   -20.2223     8.4041     7.3342
  616.0000     7.8116     0.0565     2.4268     0.1526   120.1932   -20.1166     8.4092     6.5463
  616.5000     7.7905     0.0834     2.4128     0.1650   125.8530   -20.0112     7.3756     5.8431
