~VERSION INFORMATION
 VERS.                2.0:   CWLS LOG ASCII STANDARD - VERSION 2.0
 WRAP.                 NO:   ONE LINE PER DEPTH STEP
~WELL INFORMATION
#MNEM.UNIT      DATA TYPE    INFORMATION
#----------   ------------   ------------------------------
 STRT.F           28.0000:   START DEPTH
 STOP.F          494.0000:   STOP DEPTH
 STEP.F            0.5000:   STEP LENGTH
 NULL.          -999.2500:   NO VALUE
 COMP.    FENIX & SCISSON:   COMPANY
 WELL.        67-S-3 #3-3:   WELL
 FLD .             TEAPOT:   FIELD
 LOC .       S3 T38N R78W:   LOCATION
 CNTY.            NATRONA:   COUNTY
 STAT.            WYOMING:   STATE
 CTRY. UNITED STATES OF AMERICA:   COUNTRY
 SRVC.           BIRDWELL:   SERVICE COMPANY
 DATE.        15-OCT-1978:   LOGDATE
 API .       490251072100:   API NUMBER
~CURVE INFORMATION
#MNEM.UNIT       API CODE    CURVE DESCRIPTION
#----------   ------------   ------------------------------
 DEPT.F                  :   
 ILD .OHMM   05 120 46 00:   INDUCTION LOG DEEP
 SN  .OHMM   05 040 16 00:   SHORT NORMAL 16"
 SPR .MV     05 010 01 00:   SPONTANEOUS POTENTIAL FROM RES.
 CALD.IN     45 280 60 00:   CALIPER FROM DENSITY LOG
 CORR.G/C3   45 356 01 00:   DENSITY CORRECTION
 DPHI.DEC    45 890 12 00:   DENSITY POROSITY SANDSTONE
 GRD .GAPI   45 310 01 00:   GAMMA RAY FROM DENSITY LOG
 RHOB.G/C3   45 350 01 00:   BULK DENSITY
~PARAMETER INFORMATION
#MNEM.UNIT          VALUE    DESCRIPTION
#----------   ------------   ------------------------------
 PD  .                 GL:   PERMANENT DATUM
 EPD .F              5173:   ELEVATION PERMANENT DATUM
 LMF .                 KB:   LOG MEASURED FROM
 DAPD.F                 4:   FEET ABOVE PERMANENT DATUM
 DMF .                 KB:   DRILLING MEASURED FROM
 EKB .F              5177:   KELLING BUSHING
 EGL .F              5173:   GROUND LEVEL
 DATE.        15-OCT-1978:   RUN DATE
 RUN .                  1:   RUN NUMBER
 DD  .F               492:   DEPTH DRILLER
 DL  .F               494:   DEPTH LOGGER
 BLI .F               488:   BOTTOM LOG INTERVAL
 TLI .F                46:   TOP LOG INTERVAL
 CS  .IN            8.625:   CASING SIZE
 CBD .F                40:   CASING BOTTOM DRILLER
 BS  .IN            7.875:   BIT SIZE
 BSD .F               492:   BIT SIZE AT DEPTH
 DFT .                KCL:   DRILLING FLUID TYPE
 DFD .                8.7:   DRILLING FLUID DENSITY
 DFV .                 35:   DRILLING FLUID VISCOSITY
 DFPH.                  9:   DRILLING FLUID PH
 LUN .               2958:   LOGGING UNIT NUMBER
 LUL .               CASP:   LOGGING UNIT LOCATION
 ENGI.             MILLER:   RECORDING ENGINEER
 WITN.           DINSMORE:   WITNESSED BY
 CLNT.            A2DTECH:   CLIENT CODE
 ORIG.           5" PRINT:   ORIGIN OF DATA
 UWI .       490251072100:   UNIQUE WELL ID
 DICO. A2D Technologies, Inc.:   DIGITIZING COMPANY
~OTHER INFORMATION
~A   DEPT      ILD         SN        SPR       CALD       CORR       DPHI         GRD      RHOB   
# ...
  149.5000     7.2767     6.7842   -35.6716     7.9999     0.0826     0.1054   133.4328     2.5135
  150.0000     7.4372     7.0974   -35.6716     7.9851     0.0940     0.1045   127.2925     2.5174
  150.5000     7.5329     7.2093   -35.6716     7.9664     0.0910     0.1048   119.8524     2.5181
  151.0000     7.6349     7.2681   -35.6716     7.9549     0.0690     0.1060   120.0031     2.5187
  151.5000     7.6864     7.3185   -35.6716     7.9548     0.0510     0.1108   126.1240     2.5127
  152.0000     7.7917     7.3185   -35.6716     7.9546     0.0284     0.1192   135.5284     2.4977
  152.5000     7.8447     7.3185   -35.6716     7.9545     0.0149     0.1288   139.1119     2.4767
  153.0000     7.9525     7.3185   -35.6716     7.9543     0.0088     0.1328   139.4119     2.4730
  153.5000     8.0618     7.3185   -34.7761     7.9542     0.0058     0.1327   139.7122     2.4715
  154.0000     8.0598     7.2681   -34.6269     7.9540     0.0073     0.1315   141.8032     2.4722
  154.5000     8.1141     7.2681   -34.6269     7.9539     0.0087     0.1312   142.1028     2.4729
  155.0000     8.1121     7.2407   -34.6269     7.9537     0.0087     0.1318   136.8807     2.4737
  155.5000     8.1105     7.1891   -34.6269     7.9536     0.0132     0.1325   135.6882     2.4699
  156.0000     8.0529     7.1375   -34.6269     7.9534     0.0147     0.1325   135.2418     2.4692
  156.5000     7.9406     7.0700   -34.6269     7.9682     0.0191     0.1328   134.7920     2.4692
  157.0000     7.7221     7.0213   -34.6269     7.9680     0.0251     0.1328   134.1542     2.4699
  157.5000     7.5061     6.9729   -34.6231     7.9828     0.0326     0.1334   132.4107     2.4707
  158.0000     7.1525     6.9249   -34.4776     7.9827     0.0401     0.1370   124.6510     2.4684
  158.5000     6.7657     6.8772   -34.4776     7.9825     0.0463     0.1421   118.2345     2.4614
  159.0000     6.3117     6.7829   -34.4050     7.9824     0.0550     0.1427   112.7136     2.4549
  159.5000     5.9704     6.6898   -34.1791     7.9673     0.0640     0.1412   108.3866     2.4541
  160.0000     5.7660     6.5525   -34.1791     7.9512     0.0730     0.1397   108.6866     2.4624
  160.5000     5.6463     6.4181   -34.1791     7.8924     0.0684     0.1385   110.5074     2.4654
  161.0000     5.6060     6.3283   -33.8806     7.8325     0.0609     0.1400   112.5704     2.4594
  161.5000     5.5662     6.1575   -33.8806     7.8025     0.0429     0.1463   111.0794     2.4459
  162.0000     5.6040     6.1575   -33.8806     7.7725     0.0278     0.1511   109.7375     2.4413
  162.5000     5.6418     6.1575   -33.5821     7.7724     0.0110     0.1493   108.8434     2.4453
  163.0000     5.7989     6.3300   -32.8358     7.7722     0.0082     0.1457   106.9046     2.4503
  163.5000     6.0857     6.5074   -32.3881     7.7721     0.0082     0.1433   101.6821     2.4526
  164.0000     6.4441     6.7362   -32.3881     7.7719     0.0097     0.1433    95.5642     2.4533
  164.5000     6.8905     6.9839   -32.3881     7.7718     0.0081     0.1440    96.8831     2.4526
  165.0000     7.2313     7.2180   -32.3881     7.7866     0.0066     0.1494   102.7316     2.4436
  165.5000     7.4845     7.3692   -32.3881     7.8013     0.0021     0.1512   106.3152     2.4405
  166.0000     7.7467     7.5236   -32.2388     7.8310    -0.0010     0.1494   108.2569     2.4413
  166.5000     7.9077     7.5757   -32.0896     7.8309     0.0021     0.1473   109.3031     2.4443
  167.0000     8.0223     7.6811   -31.7910     7.8307     0.0095     0.1464   109.3046     2.4503
  167.5000     8.1266     7.7362   -31.6418     7.8771     0.0125     0.1443   109.3060     2.4570
  168.0000     8.1810     7.8420   -31.4925     7.9349     0.0139     0.1365   110.3562     2.4675
  168.5000     8.2366     7.8964   -31.4925     7.9646     0.0079     0.1267   111.8677     2.4787
  169.0000     8.2346     7.9511   -31.4925     8.0092     0.0019     0.1233   111.5495     2.4855
  169.5000     8.2902     8.0063   -31.3433     8.0240    -0.0012     0.1287   108.4166     2.4832
  170.0000     8.3461     8.0063   -31.3433     8.0239    -0.0042     0.1287   104.8360     2.4742
  170.5000     8.3440     8.0063   -31.3433     8.0387    -0.0011     0.1278   104.0908     2.4742
  171.0000     8.2848     8.0618   -31.3433     8.0087     0.0017     0.1254   104.3908     2.4764
  171.5000     8.2831     8.1177   -31.3433     7.9936     0.0032     0.1215   102.4523     2.4809
  172.0000     8.2815     8.1177   -31.3433     7.9934     0.0047     0.1143   102.2965     2.4877
  172.5000     8.2798     8.1177   -31.4608     7.9485     0.0077     0.1138   102.0074     2.4944
  173.0000     8.2781     8.1740   -31.4925     7.9483     0.0031     0.1165   101.1137     2.4997
  173.5000     8.2761     8.1740   -31.4925     7.9034    -0.0014     0.1183   100.3689     2.4944
  174.0000     8.2173     8.2306   -31.4925     7.8884    -0.0029     0.1195   102.6091     2.4884
  174.5000     8.2157     8.2306   -31.4925     7.8882    -0.0015     0.1195   105.8941     2.4884
  175.0000     8.2140     8.2306   -31.4925     7.9030     0.0000     0.1195   107.5374     2.4884
  175.5000     8.0994     8.2306   -31.4925     7.9327     0.0015     0.1192   107.5388     2.4899
  176.0000     8.0419     8.2306   -31.4925     7.9624     0.0029     0.1183   107.3771     2.4974
  176.5000     7.9767     8.2306   -31.4925     8.0070     0.0029     0.1198   105.7510     2.5004
  177.0000     7.8730     8.1740   -31.4925     8.0516     0.0029     0.1213   102.6181     2.4906
  177.5000     7.7632     8.1177   -31.4925     8.0664     0.0044     0.1219    99.1868     2.4853
  178.0000     7.6549     8.0063   -31.4925     8.0961     0.0133     0.1210    98.5908     2.4846
  178.5000     7.6005     7.8964   -31.4925     8.1127     0.0254     0.1174    98.7419     2.4913
  179.0000     7.5466     7.7880   -31.4925     8.1257     0.0373     0.1087    99.9374     2.4973
  179.5000     7.4358     7.6811   -31.8100     8.1255     0.0463     0.1004   101.5826     2.5160
  180.0000     7.3371     7.5236   -32.6866     8.1254     0.0402     0.1054   104.0100     2.5213
  180.5000     7.1848     7.3682   -33.2836     8.1252     0.0327     0.1097   106.3600     2.5145
  181.0000     7.0846     7.1190   -33.5821     8.1101     0.0327     0.1112   107.7047     2.5070
  181.5000     6.9375     6.9249   -33.8806     8.1100     0.0326     0.1118   110.0942     2.5025
  182.0000     6.7466     6.7362   -34.1791     8.1248     0.0341     0.1136   115.7673     2.4994
  182.5000     6.5550     6.4181   -34.4776     8.1097     0.0356     0.1172   121.2911     2.4950
  183.0000     6.2490     6.1575   -34.9284     8.1245     0.0353     0.1217   121.7403     2.4890
  183.5000     6.0351     5.9074   -35.0746     8.1243     0.0325     0.1247   118.8283     2.4838
  184.0000     5.7484     5.5826   -35.3731     8.1242     0.0310     0.1282   110.8160     2.4778
  184.5000     5.4000     5.1095   -35.3731     8.1240     0.0310     0.1379   108.6103     2.4695
  185.0000     4.9000     4.6706   -35.3731     8.1090     0.0309     0.1505   108.7614     2.4530
  185.5000     4.3218     4.2990   -35.3731     8.1237     0.0294     0.1733   109.0613     2.4343
  186.0000     3.6618     3.9843   -35.3731     8.1385     0.0294     0.1925   107.5703     2.4092
  186.5000     3.1220     3.7183   -35.3731     8.1383     0.0293     0.2183    99.9598     2.3585
  187.0000     2.9327     3.4698   -35.3731     8.1382     0.0312     0.2456    98.1702     2.3150
  187.5000     2.8719     3.3522   -35.3731     8.1380     0.0428     0.2699    99.0796     2.2588
  188.0000     2.8914     3.3522   -35.3731     8.1230     0.0503     0.2684   100.1137     2.2408
  188.5000     2.9310     3.3989   -35.0746     8.1378     0.0532     0.2618   100.4137     2.2490
  189.0000     3.0189     3.5428   -34.7761     8.1525     0.0457     0.2468    96.8330     2.2693
  189.5000     3.2654     3.6927   -34.4776     8.1673     0.0382     0.2087    94.4464     2.3540
