~VERSION INFORMATION
 VERS.                2.0:   CWLS LOG ASCII STANDARD - VERSION 2.0
 WRAP.                 NO:   ONE LINE PER DEPTH STEP
~WELL INFORMATION
#MNEM.UNIT      DATA TYPE    INFORMATION
#----------   ------------   ------------------------------
 STRT.F           80.0000:   START DEPTH
 STOP.F         1011.0000:   STOP DEPTH
 STEP.F            0.5000:   STEP LENGTH
 NULL.          -999.2500:   NO VALUE
 COMP.          U.S. NAVY:   COMPANY
 WELL. RES 3 TEAPOT DOM #61S-11:   WELL
 FLD .             TEAPOT:   FIELD
 LOC .      S11 T38N R78W:   LOCATION
 CNTY.            NATRONA:   COUNTY
 STAT.            WYOMING:   STATE
 CTRY. UNITED STATES OF AMERICA:   COUNTRY
 SRVC.       Schlumberger:   SERVICE COMPANY
 DATE.        23-JUL-1964:   LOGDATE
 API .       490250637500:   API NUMBER
~CURVE INFORMATION
#MNEM.UNIT       API CODE    CURVE DESCRIPTION
#----------   ------------   ------------------------------
 DEPT.F                  :   
 CALS.IN     60 280 50 00:   CALIPER FROM SONIC LOG
 DT  .US/F   60 520 33 00:   INTERVAL TRANSIT TIME
 GR  .GAPI   30 310 01 00:   GAMMA RAY
 CILD.MMHO   05 110 46 00:   CONDUCTIVITY INDUCTION LOG DEEP
 ILD .OHMM   05 120 46 00:   INDUCTION LOG DEEP
 ASN .OHMM   05 041 16 00:   AMPLIFIED SHORT NORMAL 16"
 SPR .MV     05 010 01 00:   SPONTANEOUS POTENTIAL FROM RES.
~PARAMETER INFORMATION
#MNEM.UNIT          VALUE    DESCRIPTION
#----------   ------------   ------------------------------
 PD  .                 GL:   PERMANENT DATUM
 EPD .F              5199:   ELEVATION PERMANENT DATUM
 LMF .                 KB:   LOG MEASURED FROM
 DAPD.F                 5:   FEET ABOVE PERMANENT DATUM
 DMF .                 KB:   DRILLING MEASURED FROM
 EKB .F              5204:   KELLING BUSHING
 EGL .F              5199:   GROUND LEVEL
 DATE.          7-23-1964:   RUN DATE
 RUN .                  1:   RUN NUMBER
 DD  .F              1010:   DEPTH DRILLER
 DL  .F              1012:   DEPTH LOGGER
 BLI .F              1011:   BOTTOM LOG INTERVAL
 TLI .F                88:   TOP LOG INTERVAL
 CS  .IN            8.625:   CASING SIZE
 CBD .F                10:   CASING BOTTOM DRILLER
 BS  .IN             6.75:   BIT SIZE
 BSD .F              1010:   BIT SIZE AT DEPTH
 DFT .            GEL-OIL:   DRILLING FLUID TYPE
 DFD .                9.8:   DRILLING FLUID DENSITY
 DFV .                 54:   DRILLING FLUID VISCOSITY
 MSS .           FLOWLINE:   MUD SAMPLE SOURCE
 RMS .OHMM           1.47:   RESISTIVITY MUD SAMPLE
 MST .F                86:   MUD SAMPLE TEMPERATURE
 RMF .OHMM            .96:   RESISTIVITY MUD FILTRATE SAMPLE
 MFST.F                86:   MUD FILTRATE SAMPLE TEMPERATURE
 RMC .OHMM           2.10:   RESISTIVITY MUD CAKE
 MCST.F                86:   MUD CAKE SAMPLE TEMPERATURE
 MFSS.                 FP:   MUD FILTRATE SAMPLE SOURCE
 MCSS.                 FP:   MUD CAKE SAMPLE SOURCE
 TCS .HRS               2:   TIME CURCULATED STOPPED
 LUN .               4507:   LOGGING UNIT NUMBER
 LUL .              CSPR.:   LOGGING UNIT LOCATION
 ENGI.             DANNER:   RECORDING ENGINEER
 WITN.          JORGENSEN:   WITNESSED BY
 CLNT.            A2DTECH:   CLIENT CODE
 ORIG.      2" & 5" PRINT:   ORIGIN OF DATA
 UWI .       490250637500:   UNIQUE WELL ID
 DICO. A2D Technologies, Inc.:   DIGITIZING COMPANY
~OTHER INFORMATION
~A   DEPT     CALS         DT         GR        CILD         ILD        ASN      SPR   
# ...
  944.5000     6.5217    98.2345    23.0439    63.9742    15.4477    17.6387   -33.7317
  945.0000     6.5068    96.8828    24.3864    62.4812    15.4495    17.7128   -33.7262
  945.5000     6.5673    96.5086    22.2695    63.2171    15.3769    17.3451   -33.7207
  946.0000     6.5976    97.9430    16.1015    63.9511    15.2310    17.1982   -34.2907
  946.5000     6.6128    99.9791    13.9876    64.6887    15.0852    17.5669   -34.2838
  947.0000     6.6130    99.2291     9.3211    66.1657    14.8660    17.5673   -34.2782
  947.5000     6.5528    98.4030     8.8589    67.6445    14.7201    17.4941   -34.1288
  948.0000     6.5077    98.7832    10.6786    68.3804    14.5010    17.3473   -33.9794
  948.5000     6.4777    98.2591    12.4785    69.8591    14.2815    17.2004   -33.1106
  949.0000     6.4627    95.2501    13.4781    71.3361    14.1353    16.9800   -32.2398
  949.5000     6.4629    93.0693    11.2110    72.0737    13.9161    16.8332   -31.5168
  950.0000     6.5421    93.9006    10.6016    72.9970    13.6966    16.6126   -32.3143
  950.5000     6.6438    93.6718    18.8469    74.1721    13.5838    16.3186   -33.3605
  951.0000     6.6582    93.2289    13.4304    75.3472    13.4050    16.3406   -33.5195
  951.5000     6.5513    93.0812    15.0710    76.4811    13.4065    16.2011   -33.2288
  952.0000     6.4914    94.6324    15.5257    76.4631    13.4819    16.2015   -33.2253
  952.5000     6.5067    96.9355    14.5951    75.7058    13.6306    16.4264   -33.2225
  953.0000     6.5668    95.4340    14.4372    74.1061    13.8529    16.4967   -33.5075
  953.5000     6.5806    94.9103    17.2263    71.9587    14.0016    16.6442   -34.2242
  954.0000     6.5801    96.7231    18.3190    71.2014    14.2239    16.7918   -35.6602
  954.5000     6.5646    97.4807    17.8574    70.4441    14.4463    16.9394   -36.1127
  955.0000     6.5475    97.6358    20.9968    70.4297    14.4477    16.7923   -35.5108
  955.5000     6.5000    98.6192    19.7845    70.4153    14.3755    16.5717   -34.6168
  956.0000     6.4257    99.9038    21.1248    71.1441    14.1564    16.3511   -33.6340
  956.5000     6.4119    98.8541    19.7624    71.8725    13.7160    16.2041   -32.4801
  957.0000     6.4266    96.3737    20.5021    73.3440    13.3492    15.9099   -31.3263
  957.5000     6.4412    95.0980    21.3919    74.8119    12.9824    15.8365   -30.3163
  958.0000     6.4558    93.5212    20.3298    76.2834    12.6157    15.6159   -29.5941
  958.5000     6.4579    92.0197    18.5895    77.7549    12.3225    15.6162   -29.4474
  959.0000     6.4700    90.3676    20.1577    79.9693    11.9558    15.4692   -29.4446
  959.5000     6.4696    89.0920    21.0511    82.1843    11.7366    15.0194   -29.7491
  960.0000     6.5293    91.3555    20.9856    83.6553    11.5171    14.2180   -31.1650
  960.5000     6.6797    91.5859    20.2745    85.2252    11.2977    13.7765   -31.7384
  961.0000     6.7397    92.1175    21.7621    88.8235    11.0782    13.4086   -31.4472
  961.5000     6.5883    93.5527    23.1024    91.0416    11.0056    13.2615   -30.7249
  962.0000     6.4823    96.1928    21.1394    92.5095    10.8601    13.1882   -30.0027
  962.5000     6.4366    94.0889    18.2755    93.9810    10.7879    13.1885   -30.1439
  963.0000     6.4361    91.6760    16.7629    94.0462    10.7897    13.1107   -29.7027
  963.5000     6.4357    89.4168    17.3524    94.2126    10.7171    12.9682   -29.1304
  964.0000     6.4352    87.7681    18.2423    94.3790    10.6449    12.8212   -28.9837
  964.5000     6.4348    87.0205    18.0811    94.5454    10.5730    12.7478   -29.5564
  965.0000     6.4495    87.1235    18.5232    94.7117    10.5008    12.7482   -30.2738
  965.5000     6.4942    88.6492    17.3082    94.8781    10.5022    12.6748   -30.4149
  966.0000     6.5541    90.8568    16.8369    95.0445    10.4300    12.6015   -30.4114
  966.5000     6.5839    92.7937    19.6956    95.2108    10.4318    12.5971   -30.2647
  967.0000     6.4928    93.6959    22.6804    95.3772    10.4332    12.4548   -30.2618
  967.5000     6.4622    94.0688    23.3570    95.5436    10.4347    12.3814   -30.4023
  968.0000     6.4618    94.0523    25.6613    95.7100    10.4361    12.2345   -30.2557
  968.5000     6.5518    93.8298    24.4490    95.8763    10.4375    12.2348   -30.2529
  969.0000     6.6569    93.5450    26.2370    96.0427    10.4389    12.1614   -29.9623
  969.5000     6.7019    93.4462    26.2259    96.2091    10.4404    12.0881   -29.8156
  970.0000     6.7013    92.7268    24.1155    96.3755    10.4320    12.0884   -29.6690
  970.5000     6.7008    92.2042    28.9065    96.5418    10.3696    12.0150   -29.3784
  971.0000     6.7004    91.8311    30.9975    96.7082    10.3713    12.0154   -29.0696
  971.5000     6.6999    91.6850    31.2895    96.8746    10.3728    12.0156   -28.7966
  972.0000     6.6995    92.0671    22.5670    97.0409    10.3006    12.0159   -28.3622
  972.5000     6.6839    92.3728    22.5559    97.2073    10.3020    12.0162   -27.9277
  973.0000     6.6835    92.3773    20.8932    97.3737    10.2298    12.0901   -27.7810
  973.5000     6.6680    92.2312    21.9332    97.5401    10.2312    12.0904   -27.4905
  974.0000     6.6524    91.8592    22.9830    97.7064    10.2330    12.0908   -27.3438
  974.5000     6.6369    91.5625    21.8280    97.8728    10.2344    12.0911   -27.1971
  975.0000     6.6214    91.3411    20.6988    98.0660    10.2358    12.0177   -27.0504
  975.5000     6.6209    90.6679    28.3426    97.3086    10.3109    12.0180   -27.0470
  976.0000     6.6205    90.2948    29.0851    97.2931    10.3123    12.0919   -27.3320
  976.5000     6.6049    90.1487    27.7226    97.1763    10.3137    12.0922   -27.3292
  977.0000     6.5291    89.9284    29.0629    97.0344    10.3888    12.0925   -27.4710
  977.5000     6.4532    89.6317    23.9468    96.8925    10.3906    12.0928   -27.6114
  978.0000     6.4678    89.7115    26.7858    96.7505    10.4656    12.2404   -27.6086
  978.5000     6.5126    90.0172    28.4264    96.6086    10.4671    12.3880   -27.4618
  979.0000     6.5274    90.0959    29.1660    96.4667    10.5421    12.6092   -27.1707
  979.5000     6.5420    89.9498    29.3055    96.3247    10.5435    12.6831   -26.8801
  980.0000     6.5717    89.6542    25.5403    96.1828    10.5450    12.8306   -26.5896
  980.5000     6.4656    88.3786    22.3761    96.0409    10.5464    12.8309   -26.5868
  981.0000     6.4953    87.6301    21.4641    95.8989    10.5479    12.7576   -26.5840
  981.5000     6.6306    87.1828    22.3540    95.7570    10.4756    12.5370   -26.7252
  982.0000     6.6604    87.0356    22.6432    94.8869    10.3301    12.3164   -26.5784
  982.5000     6.5241    87.1918  -999.2500    95.0223    10.2575    12.1693   -26.5755
  983.0000     6.5086    87.6481  -999.2500    95.9287    10.2593    12.0960   -26.4283
  983.5000     6.5081    88.7821  -999.2500    96.8351    10.1867    12.0227   -26.2816
  984.0000     6.5229    89.3137  -999.2500    97.7415    10.0413    11.9493   -26.1349
  984.5000     6.5375    89.0170  -999.2500    98.6479    10.0427    11.9497   -25.8444
  985.0000     6.5822    88.6450  -999.2500    99.5543    10.0445    11.8763   -25.6977
  985.5000     6.6120    88.4978  -999.2500    99.9856     9.9719    11.8766   -25.5510
  986.0000     6.5813    88.5034  -999.2500   100.7106     9.9737    11.8033   -25.2605
  986.5000     6.5356    88.5832  -999.2500   100.6962     9.9751    11.8035   -25.1137
  987.0000     6.5049    88.7383  -999.2500   101.4284     9.9025    11.8038   -24.9664
  987.5000     6.5045    88.8934  -999.2500   100.6674     9.9043    11.7305   -24.9636
  988.0000     6.6096    89.5004  -999.2500   100.6531     9.8321    11.6571   -24.8169
  988.5000     6.6695    89.7308  -999.2500   100.6387     9.8339    11.6575   -24.8142
  989.0000     6.6843    89.7353  -999.2500   101.3672     9.8353    11.6578   -24.6675
  989.5000     6.6083    89.6633  -999.2500   100.6092     9.8367    11.6581   -24.6647
