~VERSION INFORMATION
 VERS.                2.0:   CWLS LOG ASCII STANDARD - VERSION 2.0
 WRAP.                 NO:   ONE LINE PER DEPTH STEP
~WELL INFORMATION
#MNEM.UNIT      DATA TYPE    INFORMATION
#----------   ------------   ------------------------------
 STRT.F           30.0000:   START DEPTH
 STOP.F          744.0000:   STOP DEPTH
 STEP.F            0.5000:   STEP LENGTH
 NULL.          -999.2500:   NO VALUE
 COMP. FENIX & SCISSON INC:   COMPANY
 WELL.   NPR 3 #53 S - 34:   WELL
 FLD .             TEAPOT:   FIELD
 LOC .      S34 T39N R78W:   LOCATION
 CNTY.            NATRONA:   COUNTY
 STAT.            WYOMING:   STATE
 CTRY. UNITED STATES OF AMERICA:   COUNTRY
 SRVC.       Schlumberger:   SERVICE COMPANY
 DATE.        28-MAR-1977:   LOGDATE
 API .       490251031700:   API NUMBER
~CURVE INFORMATION
#MNEM.UNIT       API CODE    CURVE DESCRIPTION
#----------   ------------   ------------------------------
 DEPT.F                  :   
 CALD.IN     45 280 60 00:   CALIPER FROM DENSITY LOG
 GRD .GAPI   45 310 01 00:   GAMMA RAY FROM DENSITY LOG
 CORR.G/C3   45 356 01 00:   DENSITY CORRECTION
 DPHI.DEC    45 890 12 00:   DENSITY POROSITY SANDSTONE
 RHOB.G/C3   45 350 01 00:   BULK DENSITY
~PARAMETER INFORMATION
#MNEM.UNIT          VALUE    DESCRIPTION
#----------   ------------   ------------------------------
 PD  .                 GL:   PERMANENT DATUM
 EPD .F              5081:   ELEVATION PERMANENT DATUM
 LMF .                 GL:   LOG MEASURED FROM
 DAPD.F                 5:   FEET ABOVE PERMANENT DATUM
 DMF .                 KB:   DRILLING MEASURED FROM
 EKB .F              5086:   KELLING BUSHING
 EGL .F              5081:   GROUND LEVEL
 DATE.        20-MAR-1977:   RUN DATE
 RUN .                  1:   RUN NUMBER
 DD  .F               751:   DEPTH DRILLER
 DL  .F               745:   DEPTH LOGGER
 BLI .F               744:   BOTTOM LOG INTERVAL
 TLI .F                30:   TOP LOG INTERVAL
 CBL .F                38:   CASING BOTTOM LOGGER
 BS  .IN            7.875:   BIT SIZE
 BSD .F               751:   BIT SIZE AT DEPTH
 DFT .             5% KCL:   DRILLING FLUID TYPE
 MSS .           MUD TANK:   MUD SAMPLE SOURCE
 RMS .OHMM            .23:   RESISTIVITY MUD SAMPLE
 MST .F                68:   MUD SAMPLE TEMPERATURE
 RMF .OHMM            .18:   RESISTIVITY MUD FILTRATE SAMPLE
 MFST.F                68:   MUD FILTRATE SAMPLE TEMPERATURE
 RMC .OHMM            .35:   RESISTIVITY MUD CAKE
 MCST.F                68:   MUD CAKE SAMPLE TEMPERATURE
 MFSS.               MEAS:   MUD FILTRATE SAMPLE SOURCE
 MCSS.               CALC:   MUD CAKE SAMPLE SOURCE
 RMB .OHMM            .24:   RESISTIVITY MUD AT BHT
 BHT .F                60:   BOTTOM HOLE TEMPERATURE
 TCS .HRS            0300:   TIME CURCULATED STOPPED
 MRT .F                60:   MAXIMUM RECORDED TEMPERATURE
 LUN .               7680:   LOGGING UNIT NUMBER
 LUL .               CSPR:   LOGGING UNIT LOCATION
 ENGI.                FIX:   RECORDING ENGINEER
 WITN.              BURKE:   WITNESSED BY
 CLNT.            A2DTECH:   CLIENT CODE
 ORIG.           5" PRINT:   ORIGIN OF DATA
 UWI .       490251031700:   UNIQUE WELL ID
 DICO. A2D Technologies, Inc.:   DIGITIZING COMPANY
~OTHER INFORMATION
~A   DEPT     CALD        GRD       CORR       DPHI       RHOB   
# ...
  213.0000     8.3900    72.4008     0.0287     0.0754     2.5177
  213.5000     8.3916    70.4103     0.0357     0.0673     2.5574
  214.0000     8.3935    77.0568     0.0807     0.0517     2.5698
  214.5000     8.3950    82.3124     0.0715     0.0784     2.5195
  215.0000     8.3967    86.0272     0.0429     0.1032     2.4854
  215.5000     8.3829    87.7388     0.0468     0.0960     2.5018
  216.0000     8.3691    88.3677     0.0519     0.1013     2.5112
  216.5000     8.3708    86.2315     0.0353     0.1093     2.4730
  217.0000     8.3725    83.6289     0.0176     0.1230     2.4412
  217.5000     8.3742    78.4068     0.0207     0.1222     2.4431
  218.0000     8.3780    73.6469     0.0224     0.1172     2.4618
  218.5000     8.3931    76.5913     0.0092     0.1191     2.4549
  219.0000     8.4105    84.0040     0.0095     0.1213     2.4464
  219.5000     8.4122    84.3559     0.0263     0.1138     2.4581
  220.0000     8.4139    82.6508     0.0048     0.1172     2.4722
  220.5000     8.4155    81.4349     0.0118     0.1311     2.4288
  221.0000     8.4014    80.9830     0.0320     0.1159     2.4560
  221.5000     8.4035    83.3184     0.0336     0.1097     2.4708
  222.0000     8.3893    83.9589     0.0383     0.1124     2.4771
  222.5000     8.3914    84.5994     0.0198     0.1233     2.4399
  223.0000     8.3931    85.3939     0.0005     0.1344     2.4346
  223.5000     8.3793    86.7784    -0.0064     0.1363     2.4292
  224.0000     8.3810    87.7197    -0.0110     0.1235     2.4370
  224.5000     8.3827    84.8088     0.0069     0.1135     2.4627
  225.0000     8.3843    81.7439     0.0155     0.1104     2.4721
  225.5000     8.3705    80.5280     0.0117     0.1110     2.4768
  226.0000     8.3723    80.8529     0.0024     0.1132     2.4621
  226.5000     8.3585    82.5646     0.0149     0.1088     2.4696
  227.0000     8.3602    83.5059     0.0204     0.1040     2.4832
  227.5000     8.3619    83.6725     0.0221     0.0987     2.4996
  228.0000     8.3482    79.2250     0.0189     0.0991     2.5035
  228.5000     8.3498    76.9305     0.0190     0.1114     2.4764
  229.0000     8.3519    76.3268     0.0175     0.1142     2.4672
  229.5000     8.3535    78.8130     0.0152     0.1173     2.4611
  230.0000     8.3552    84.8391     0.0145     0.1269     2.4410
  230.5000     8.3569    84.3936     0.0163     0.1297     2.4247
  231.0000     8.3586    83.1776     0.0278     0.1197     2.4465
  231.5000     8.3602    81.3454     0.0341     0.1156     2.4606
  232.0000     8.3619    81.3622     0.0133     0.1144     2.4692
  232.5000     8.3790    83.7211     0.0226     0.1106     2.4638
  233.0000     8.3807    89.0446     0.0273     0.1131     2.4642
  233.5000     8.3824    90.1952     0.0398     0.1071     2.4787
  234.0000     8.3682    89.2080     0.0305     0.1133     2.4663
  234.5000     8.3703    87.4594     0.0290     0.1139     2.4641
  235.0000     8.3720    87.3178     0.0283     0.1133     2.4681
  235.5000     8.3737    87.4887     0.0237     0.1114     2.4724
  236.0000     8.3753    86.4310     0.0246     0.1073     2.4914
  236.5000     8.3770    85.2151     0.0239     0.1101     2.4783
  237.0000     8.3787    85.0736     0.0224     0.1104     2.4730
  237.5000     8.3805    84.7864     0.0201     0.1100     2.4715
  238.0000     8.3821    84.3367     0.0194     0.1099     2.4731
  238.5000     8.3839    85.2821     0.0164     0.1082     2.4778
  239.0000     8.3858    85.6029     0.0164     0.1028     2.4973
  239.5000     8.3872    83.7748     0.0126     0.1105     2.4757
  240.0000     8.3892    81.6344     0.0080     0.1130     2.4695
  240.5000     8.4063    80.7225     0.0098     0.1117     2.4735
  241.0000     8.3925    83.6710     0.0154     0.1076     2.4844
  241.5000     8.3942    82.3010     0.0260     0.0995     2.4930
  242.0000     8.3959    80.9310     0.0331     0.0868     2.5218
  242.5000     8.3817    80.0233     0.0208     0.1017     2.5110
  243.0000     8.3679    78.9594     0.0108     0.1088     2.4816
  243.5000     8.3700    78.2078     0.0077     0.1140     2.4677
  244.0000     8.3717    79.4186     0.0109     0.1230     2.4429
  244.5000     8.3734    82.9589     0.0148     0.1199     2.4507
  245.0000     8.3596    86.8909     0.0234     0.1226     2.4389
  245.5000     8.3613    91.6842     0.0126     0.1260     2.4335
  246.0000     8.3630    93.8581     0.0088     0.1207     2.4494
  246.5000     8.3647    92.0259     0.0181     0.1198     2.4534
  247.0000     8.3664    89.2691     0.0244     0.1179     2.4658
  247.5000     8.3681    87.5910     0.0314     0.1054     2.4837
  248.0000     8.3698    86.5291     0.0276     0.1163     2.4450
  248.5000     8.3715    86.0795     0.0107     0.1291     2.4234
  249.0000     8.3735    87.0249     0.0030     0.1196     2.4529
  249.5000     8.3751    87.3456     0.0139     0.1180     2.4577
  250.0000     8.3768    82.5900     0.0255     0.1112     2.4872
  250.5000     8.3626    78.6850     0.0384     0.1073     2.4857
  251.0000     8.3647    73.2245     0.0333     0.1062     2.4819
  251.5000     8.3627    80.1810     0.0343     0.1064     2.4828
  252.0000     8.3550    85.9004     0.0262     0.1046     2.4911
  252.5000     8.3472    82.0665     0.0235     0.0993     2.5037
  253.0000     8.3387    78.3868     0.0266     0.0834     2.5349
  253.5000     8.3555    73.4744     0.0247     0.0526     2.5621
  254.0000     8.3723    72.2554     0.0182     0.0541     2.5660
  254.5000     8.3733    77.0548     0.0255     0.0659     2.5529
  255.0000     8.3716    83.2364     0.0284     0.0796     2.5158
  255.5000     8.3702    87.1067     0.0161     0.1047     2.4724
  256.0000     8.3687    87.6197     0.0115     0.1158     2.4585
  256.5000     8.3673    84.5115     0.0131     0.1165     2.4601
  257.0000     8.3658    82.9768     0.0147     0.1142     2.4656
  257.5000     8.3643    82.2490     0.0148     0.1108     2.4695
  258.0000     8.3629    83.5871     0.0171     0.1064     2.4859
  258.5000     8.3614    85.2176     0.0218     0.1092     2.4836
  259.0000     8.3600    86.4686     0.0312     0.1070     2.4821
  259.5000     8.3585    87.7195     0.0243     0.0992     2.4837
  260.0000     8.3593    88.0413     0.0034     0.1178     2.4574
  260.5000     8.3647    85.4447     0.0019     0.1218     2.4420
  261.0000     8.3700    81.9190     0.0089     0.1193     2.4521
  261.5000     8.3754    78.8556     0.0167     0.1128     2.4731
  262.0000     8.3808    76.8708     0.0245     0.1025     2.4980
  262.5000     8.3861    78.5840     0.0354     0.0876     2.5061
  263.0000     8.3915    83.6870     0.0123     0.1007     2.4935
  263.5000     8.3968    86.6328     0.0022     0.0997     2.4982
  264.0000     8.4022    89.8868     0.0410     0.0707     2.5735
  264.5000     8.4075    94.3734     0.0310     0.1018     2.5220
  265.0000     8.4129    95.0385     0.0264     0.1107     2.4818
  265.5000     8.4183    93.4854     0.0110     0.1154     2.4658
  266.0000     8.4236    92.2527     0.0056     0.1057     2.4871
  266.5000     8.4290    91.3508     0.0266     0.1026     2.4892
  267.0000     8.4343    90.7447     0.0258     0.0979     2.4994
  267.5000     8.4397    90.3272     0.0321     0.0911     2.5065
  268.0000     8.4265    90.1868     0.0360     0.0851     2.5150
  268.5000     8.4279    90.5178     0.0399     0.0798     2.5213
  269.0000     8.4296    89.9197     0.0516     0.0751     2.5268
  269.5000     8.4310    84.3910     0.0377     0.0947     2.5160
  270.0000     8.4169    83.0179     0.0231     0.1009     2.5037
  270.5000     8.4183    85.1979     0.0223     0.1058     2.4890
  271.0000     8.4196    85.9865     0.0270     0.0990     2.5084
  271.5000     8.4056    86.4625     0.0387     0.0834     2.5194
  272.0000     8.4069    80.7842     0.0478     0.0896     2.5248
  272.5000     8.4083    76.6422     0.0288     0.1026     2.5001
  273.0000     8.4097    78.8176     0.0211     0.1069     2.4885
  273.5000     8.3953    89.7758     0.0196     0.1134     2.4777
