~VERSION INFORMATION
 VERS.                2.0:   CWLS LOG ASCII STANDARD - VERSION 2.0
 WRAP.                 NO:   ONE LINE PER DEPTH STEP
~WELL INFORMATION
#MNEM.UNIT      DATA TYPE    INFORMATION
#----------   ------------   ------------------------------
 STRT.F           30.0000:   START DEPTH
 STOP.F          691.0000:   STOP DEPTH
 STEP.F            0.5000:   STEP LENGTH
 NULL.          -999.2500:   NO VALUE
 COMP. U.S. DEPARTMENT OF ENERGY:   COMPANY
 WELL. NAVAL PETROLEUM RESERVE #3 #77-S-34:   WELL
 FLD .        TEAPOT DOME:   FIELD
 LOC .      S34 T39N R78W:   LOCATION
 CNTY.            NATRONA:   COUNTY
 STAT.            WYOMING:   STATE
 CTRY. UNITED STATES OF AMERICA:   COUNTRY
 SRVC.              Welex:   SERVICE COMPANY
 DATE.        26-APR-1977:   LOGDATE
 API .       490251034700:   API NUMBER
~CURVE INFORMATION
#MNEM.UNIT       API CODE    CURVE DESCRIPTION
#----------   ------------   ------------------------------
 DEPT.F                  :   
 CALD.IN     45 280 60 00:   CALIPER FROM DENSITY LOG
 CORR.G/C3   45 356 01 00:   DENSITY CORRECTION
 DPHI.DEC    45 890 12 00:   DENSITY POROSITY SANDSTONE
 RHOB.G/C3   45 350 01 00:   BULK DENSITY
 GRD .GAPI   45 310 01 00:   GAMMA RAY FROM DENSITY LOG
 ILD .OHMM   07 120 46 00:   INDUCTION LOG DEEP
 ILM .OHMM   07 120 44 00:   INDUCTION LOG MEDIUM
 SGRD.OHMM   07 220 05 00:   SHALLOW GUARD RESISTIVITY
 SPR .MV     07 010 01 00:   SPONTANEOUS POTENTIAL FROM RES.
~PARAMETER INFORMATION
#MNEM.UNIT          VALUE    DESCRIPTION
#----------   ------------   ------------------------------
 PD  .                 GL:   PERMANENT DATUM
 EPD .F              5075:   ELEVATION PERMANENT DATUM
 LMF .                 GL:   LOG MEASURED FROM
 DMF .                 GL:   DRILLING MEASURED FROM
 EGL .F              5075:   GROUND LEVEL
 DATE.          4-26-1977:   RUN DATE
 RUN .                  1:   RUN NUMBER
 DD  .F               700:   DEPTH DRILLER
 DL  .F               693:   DEPTH LOGGER
 BLI .F               691:   BOTTOM LOG INTERVAL
 TLI .F                35:   TOP LOG INTERVAL
 CS  .IN            8.625:   CASING SIZE
 CBD .F                40:   CASING BOTTOM DRILLER
 CBL .F                39:   CASING BOTTOM LOGGER
 BS  .IN            7.875:   BIT SIZE
 BSD .F               700:   BIT SIZE AT DEPTH
 DFT .            KCL MUD:   DRILLING FLUID TYPE
 DFD .                9.5:   DRILLING FLUID DENSITY
 DFV .                 35:   DRILLING FLUID VISCOSITY
 DFPH.               10.5:   DRILLING FLUID PH
 DFL .                 12:   DRILLING FLUID LOSS
 MSS .           FLOWLINE:   MUD SAMPLE SOURCE
 RMS .OHMM            .32:   RESISTIVITY MUD SAMPLE
 MST .F                66:   MUD SAMPLE TEMPERATURE
 RMF .OHMM            .28:   RESISTIVITY MUD FILTRATE SAMPLE
 MFST.F                66:   MUD FILTRATE SAMPLE TEMPERATURE
 RMC .OHMM            .49:   RESISTIVITY MUD CAKE
 MCST.F                66:   MUD CAKE SAMPLE TEMPERATURE
 RMB .OHMM            .28:   RESISTIVITY MUD AT BHT
 BHT .F                74:   BOTTOM HOLE TEMPERATURE
 TCS .HRS             1.5:   TIME CURCULATED STOPPED
 MRT .F                74:   MAXIMUM RECORDED TEMPERATURE
 LUN .               8611:   LOGGING UNIT NUMBER
 LUL .           GILLETTE:   LOGGING UNIT LOCATION
 ENGI.            C. DOAK:   RECORDING ENGINEER
 WITN.       MR. ROB LYON:   WITNESSED BY
 CLNT.            A2DTECH:   CLIENT CODE
 ORIG.           5" PRINT:   ORIGIN OF DATA
 UWI .       490251034700:   UNIQUE WELL ID
 DICO. A2D Technologies, Inc.:   DIGITIZING COMPANY
~OTHER INFORMATION
~A   DEPT       CALD      CORR      DPHI         RHOB       GRD       ILD        ILM       SGRD        SPR   
   30.0000     7.9911    -0.4619  -999.2500     1.9112    83.9516  -999.2500  -999.2500  -999.2500  -999.2500
   30.5000     8.1076    -0.4393  -999.2500     1.9043    79.8373  -999.2500  -999.2500  -999.2500  -999.2500
   31.0000     8.1226    -0.4212  -999.2500     1.8980    73.8597  -999.2500  -999.2500  -999.2500  -999.2500
   31.5000     8.0140    -0.3940  -999.2500     1.8891    66.8357  -999.2500  -999.2500  -999.2500  -999.2500
   32.0000     7.1809    -0.3670  -999.2500     1.8675    61.3064  -999.2500  -999.2500  -999.2500  -999.2500
   32.5000     6.7922    -0.3459  -999.2500     1.8369    57.4218  -999.2500  -999.2500  -999.2500  -999.2500
   33.0000     6.5830    -0.3234  -999.2500     1.8062    55.7790  -999.2500  -999.2500  -999.2500  -999.2500
   33.5000     6.7922    -0.2437  -999.2500     1.7756    57.7236  -999.2500  -999.2500  -999.2500  -999.2500
   34.0000     7.0762    -0.1325  -999.2500     1.7449    60.8640  -999.2500  -999.2500  -999.2500  -999.2500
   34.5000     7.1360    -0.0394  -999.2500     1.7242    61.3288  -999.2500  -999.2500  -999.2500  -999.2500
   35.0000     7.2108     0.0387  -999.2500     1.8174    64.3052  -999.2500  -999.2500  -999.2500  -999.2500
   35.5000     7.3303     0.0778  -999.2500     1.9079    68.6414  -999.2500  -999.2500  -999.2500  -999.2500
   36.0000     7.4410     0.0899  -999.2500     2.0276    74.6219  -999.2500  -999.2500  -999.2500  -999.2500
   36.5000     7.7339     0.0960  -999.2500     2.0718    77.4833  -999.2500  -999.2500  -999.2500  -999.2500
   37.0000     8.6756     0.1005  -999.2500     2.1296    79.7073  -999.2500  -999.2500  -999.2500  -999.2500
   37.5000     9.3333     0.1021  -999.2500     2.1438    80.0077  -999.2500  -999.2500  -999.2500  -999.2500
   38.0000     8.8650     0.0837  -999.2500     2.0811    80.0091  -999.2500  -999.2500  -999.2500  -999.2500
   38.5000     8.6158     0.0587  -999.2500     2.0714    81.5052  -999.2500  -999.2500  -999.2500  -999.2500
   39.0000     8.9596     0.0437  -999.2500     2.0724    88.9809     0.7731     2.6041     2.5599   -22.9945
   39.5000     9.4380     0.0333  -999.2500     2.1067    94.3634     1.0590     2.7710     2.6335   -25.5252
   40.0000     9.6472     0.0288  -999.2500     2.1509   100.3439     1.3449     2.8698     2.7089   -27.3137
   40.5000     9.5277     0.0454     0.2563     2.2101   105.2781     1.6308     2.9491     2.8063   -28.3549
   41.0000     9.1241     0.0500     0.2312     2.2754   108.3288     1.9167     2.8891     3.0291   -29.2465
   41.5000     8.6906     0.0485     0.2261     2.2963   110.8119     2.2027     2.7725     3.2473   -29.8610
   42.0000     8.4215     0.0471     0.2249     2.2971   112.3081     2.2701     2.7162     3.4106   -30.2825
   42.5000     8.1973     0.0487     0.2288     2.2822   113.2063     2.2385     2.6794     3.4127   -30.8739
   43.0000     8.1525     0.0547     0.2345     2.2741   113.2078     2.1935     2.6613     3.3676   -31.4666
   43.5000     8.1375     0.0548     0.2402     2.2704   111.7147     2.1790     2.6252     3.3941   -31.9178
   44.0000     8.1375     0.0518     0.2441     2.2623   107.9792     2.2407     2.5543     3.3962   -32.3518
   44.5000     8.1375     0.0474     0.2488     2.2519   107.6813     2.3200     2.4829     3.3288   -32.6469
   45.0000     8.1375     0.0475     0.2548     2.2408   107.2347     2.3367     2.4180     3.1527   -32.9407
   45.5000     8.1375     0.0430     0.2599     2.2356   106.3396     2.3054     2.3689     3.0684   -33.0837
   46.0000     8.1076     0.0356     0.2647     2.2297   105.4441     2.1231     2.4021     3.1815   -33.3774
   46.5000     8.0927     0.0296     0.2698     2.2193   104.5487     2.0375     2.4024     3.2470   -33.6712
   47.0000     8.0628     0.0252     0.2716     2.2172   105.8954     2.0101     2.3375     3.1350   -34.1131
   47.5000     8.0478     0.0237     0.2722     2.2129   109.7836     1.9970     2.2277     3.6314   -34.4071
   48.0000     8.0179     0.0238     0.2841     2.1941   110.6818     1.9689     2.1378     3.4387   -34.8640
   48.5000     8.0030     0.0238     0.2940     2.1755   107.9927     1.9305     2.0515     3.1896   -35.2934
   49.0000     7.9880     0.0224     0.2982     2.1704   108.4425     1.9046     2.0098     2.9386   -35.5872
   49.5000     7.9880     0.0210     0.3000     2.1759   109.4903     1.8790     1.9963     2.7258   -35.8809
   50.0000     7.9880     0.0120     0.2847     2.2159   106.4337     1.8540     2.0665     2.1280   -36.1734
   50.5000     7.9581     0.0226     0.2590     2.2409    99.9108     1.8804     2.1389     2.8646   -36.3229
   51.0000     7.9581     0.0318     0.2297     2.2878   101.7818     1.8940     2.2159     3.8290   -36.4723
   51.5000     7.9731     0.0364     0.2261     2.2917   104.4096     1.8946     2.2758     4.0716   -36.4723
   52.0000     7.9880     0.0380     0.2348     2.2559   104.7085     1.9085     2.3233     3.8810   -36.6218
   52.5000     7.9880     0.0381     0.2551     2.2394   103.5127     1.9091     2.3555     3.7505   -36.6218
   53.0000     7.9880     0.0337     0.2712     2.2227   106.5670     1.9098     2.3555     3.6211   -36.9208
   53.5000     7.9880     0.0263     0.2826     2.2021   110.3886     1.9104     2.2601     3.3148   -37.2252
   54.0000     7.9880     0.0189     0.2880     2.1931   113.9761     1.8848     2.1243     3.0524   -37.6682
   54.5000     7.9880     0.0128     0.2865     2.1901   112.9297     1.8343     2.0523     2.9093   -37.9671
   55.0000     7.9880     0.0101     0.2811     2.1999   112.0279     1.7850     2.0382     2.8309   -38.2661
   55.5000     7.9880     0.0102     0.2793     2.2051   112.7803     1.7490     2.0104     2.9110   -38.5665
   56.0000     7.9880     0.0072     0.2805     2.2036   113.6771     1.7376     1.9966     2.9932   -39.0135
   56.5000     7.9885     0.0028     0.2817     2.2021   114.7235     1.7144     1.9692     3.0353   -39.3124
   57.0000     7.9880    -0.0030     0.2781     2.2149   115.1719     1.7151     1.9557     2.9133   -39.6114
   57.5000     7.9880     0.0016     0.2667     2.2456   113.3782     1.7881     2.0243     2.7201   -39.6114
   58.0000     7.9880     0.0137     0.2404     2.3009   111.4350     1.8904     2.1537     2.5396   -39.6114
   58.5000     7.9880     0.0198     0.1952     2.3503   110.2392     2.0119     2.3393     2.6475   -39.6114
   59.0000     7.9880     0.0169     0.1910     2.3517   110.8371     2.1562     2.5585     4.0886   -39.6114
   59.5000     7.9880     0.0140     0.2021     2.3373   113.8266     2.3429     2.7828     5.0991   -39.6114
   60.0000     7.9880     0.0126     0.2098     2.3249   114.4245     2.5458     3.0185     4.2932   -39.6114
   60.5000     7.9880     0.0127     0.2086     2.3279   115.3214     2.7475     3.1676     3.9534   -39.6114
   61.0000     8.0030     0.0175     0.1996     2.3354   117.2646     2.8843     3.2337     4.0650   -39.6114
   61.5000     8.0030     0.0250     0.1951     2.3430   119.1076     2.9864     3.2561     4.1520   -39.7608
   62.0000     8.0179     0.0311     0.1963     2.3511   120.1046     2.9874     3.2337     4.1808   -39.9103
   62.5000     8.0179     0.0357     0.2011     2.3414   119.2078     2.9255     3.1895     4.0127   -40.0598
   63.0000     8.0189     0.0388     0.1996     2.3415   118.3109     2.7712     3.1459     3.9586   -40.2093
   63.5000     8.0478     0.0389     0.2011     2.3392   119.2417     2.6782     3.1028     3.8788   -40.5082
   64.0000     8.0478     0.0375     0.2083     2.3243   121.5994     2.6062     3.0185     3.8006   -40.6796
   64.5000     8.0478     0.0346     0.2205     2.3078   121.1510     2.5361     2.9364     3.6728   -40.9567
   65.0000     8.0478     0.0302     0.2337     2.2877   120.1046     2.4344     2.8370     3.5493   -41.1061
   65.5000     8.0329     0.0243     0.2421     2.2682   120.8530     2.3527     2.7410     3.4537   -41.1061
   66.0000     8.0329     0.0214     0.2478     2.2591   121.9701     2.2737     2.6300     3.3777   -41.1061
