~VERSION INFORMATION
 VERS.                2.0:   CWLS LOG ASCII STANDARD - VERSION 2.0
 WRAP.                 NO:   ONE LINE PER DEPTH STEP
~WELL INFORMATION
#MNEM.UNIT      DATA TYPE    INFORMATION
#----------   ------------   ------------------------------
 STRT.F           80.0000:   START DEPTH
 STOP.F          718.5000:   STOP DEPTH
 STEP.F            0.5000:   STEP LENGTH
 NULL.          -999.2500:   NO VALUE
 COMP. U S NAVY-INTEX OIL:   COMPANY
 WELL. RES 3 TEAPOT DOM #21-S-2:   WELL
 FLD .        TEAPOT DOME:   FIELD
 LOC .       S2 T38N R78W:   LOCATION
 CNTY.            NATRONA:   COUNTY
 STAT.            WYOMING:   STATE
 CTRY. UNITED STATES OF AMERICA:   COUNTRY
 SRVC. Schlumberger Well Surveying Corp:   SERVICE COMPANY
 DATE.        18-JUL-1962:   LOGDATE
 API .       490250648100:   API NUMBER
~CURVE INFORMATION
#MNEM.UNIT       API CODE    CURVE DESCRIPTION
#----------   ------------   ------------------------------
 DEPT.F                  :   
 CALM.IN     15 280 01 00:   CALIPER FROM MICRO LOG
 SPR .MV     05 010 01 00:   SPONTANEOUS POTENTIAL FROM RES.
 ASN .OHMM   05 041 16 00:   AMPLIFIED SHORT NORMAL 16"
 ILD .OHMM   05 120 46 00:   INDUCTION LOG DEEP
 CILD.MMHO   05 110 46 00:   CONDUCTIVITY INDUCTION LOG DEEP
~PARAMETER INFORMATION
#MNEM.UNIT          VALUE    DESCRIPTION
#----------   ------------   ------------------------------
 LMF .                 KB:   LOG MEASURED FROM
 DMF .                 KB:   DRILLING MEASURED FROM
 EKB .F              5116:   KELLING BUSHING
 EGL .F              5111:   GROUND LEVEL
 DATE.          7-18-1962:   RUN DATE
 RUN .                  1:   RUN NUMBER
 DD  .F               719:   DEPTH DRILLER
 DL  .F               719:   DEPTH LOGGER
 BLI .F               718:   BOTTOM LOG INTERVAL
 TLI .F                90:   TOP LOG INTERVAL
 BS  .IN             6.75:   BIT SIZE
 BSD .F               719:   BIT SIZE AT DEPTH
 DFT .           OIL EMUL:   DRILLING FLUID TYPE
 DFD .                 10:   DRILLING FLUID DENSITY
 DFV .                 45:   DRILLING FLUID VISCOSITY
 DFL .                2.8:   DRILLING FLUID LOSS
 RMS .OHMM           3.87:   RESISTIVITY MUD SAMPLE
 MST .F                94:   MUD SAMPLE TEMPERATURE
 RMF .OHMM           2.93:   RESISTIVITY MUD FILTRATE SAMPLE
 MFST.F                94:   MUD FILTRATE SAMPLE TEMPERATURE
 RMC .OHMM           3.95:   RESISTIVITY MUD CAKE
 MCST.F                94:   MUD CAKE SAMPLE TEMPERATURE
 TCS .HRS              .5:   TIME CURCULATED STOPPED
 LUN .               2503:   LOGGING UNIT NUMBER
 LUL .              CSPR.:   LOGGING UNIT LOCATION
 ENGI.             DANNER:   RECORDING ENGINEER
 WITN.          JORGENSEN:   WITNESSED BY
 CLNT.            A2DTECH:   CLIENT CODE
 ORIG.      2" , 5" PRINT:   ORIGIN OF DATA
 UWI .       490250648100:   UNIQUE WELL ID
 DICO. A2D Technologies, Inc.:   DIGITIZING COMPANY
~OTHER INFORMATION
~A   DEPT     CALM        SPR          ASN        ILD      CILD  
# ...
  324.0000  -999.2500   -57.6686     8.2251     7.4151   127.4316
  324.5000  -999.2500   -57.8261     8.1709     7.3474   129.1282
  325.0000  -999.2500   -57.9856     8.0647     7.2797   130.8200
  325.5000  -999.2500   -58.1453     7.9591     7.2121   132.5133
  326.0000  -999.2500   -58.3048     7.8535     7.1442   134.2056
  326.5000  -999.2500   -58.4624     7.7484     7.0757   135.9006
  327.0000  -999.2500   -58.5703     7.6880     7.0149   136.6785
  327.5000  -999.2500   -58.5689     7.6885     6.8823   137.2766
  328.0000  -999.2500   -58.5717     7.6885     6.9089   137.8717
  328.5000  -999.2500   -58.5550     7.6895     6.9271   138.1909
  329.0000  -999.2500   -58.0662     7.6532     6.9460   138.1909
  329.5000  -999.2500   -57.5763     7.6125     6.9650   138.1909
  330.0000  -999.2500   -57.5974     7.5714     6.9840   137.9935
  330.5000  -999.2500   -57.6401     7.5298     7.0030   137.3289
  331.0000  -999.2500   -57.6808     7.5424     7.0219   136.6643
  331.5000  -999.2500   -57.7208     7.5897     7.0409   135.9996
  332.0000  -999.2500   -57.7608     7.6480     7.0599   135.3350
  332.5000  -999.2500   -57.8008     7.7062     7.0788   134.6704
  333.0000  -999.2500   -57.8408     7.7163     7.0978   134.0057
  333.5000  -999.2500   -57.8805     7.7240     7.1168   133.3411
  334.0000  -999.2500   -57.9192     7.7406     7.1358   132.6765
  334.5000  -999.2500   -57.9664     7.7731     7.1547   132.0118
  335.0000  -999.2500   -58.3311     7.8053     7.1737   131.3472
  335.5000  -999.2500   -58.7287     7.8374     7.1927   130.6826
  336.0000  -999.2500   -59.1229     7.8710     7.2117   130.0179
  336.5000  -999.2500   -59.4034     7.9425     7.2306   129.3533
  337.0000  -999.2500   -59.4681     8.0148     7.2496   128.6893
  337.5000  -999.2500   -59.5349     8.0869     7.2682   128.0240
  338.0000  -999.2500   -59.5004     8.1590     7.2830   127.3594
  338.5000  -999.2500   -59.3072     8.2311     7.3955   126.2744
  339.0000  -999.2500   -59.1163     8.3017     7.5225   124.9760
  339.5000  -999.2500   -58.9249     8.3562     7.6502   123.6777
  340.0000  -999.2500   -58.7330     8.4068     7.7423   122.3793
  340.5000  -999.2500   -58.5402     8.4678     7.8187   121.0810
  341.0000  -999.2500   -58.3768     8.5942     7.8955   119.7822
  341.5000  -999.2500   -58.5437     8.7228     7.9724   118.4827
  342.0000  -999.2500   -58.7112     8.8496     8.0495   117.1901
  342.5000  -999.2500   -58.8770     8.9309     8.1263   116.0407
  343.0000  -999.2500   -59.0424     8.9139     8.1982   115.8657
  343.5000  -999.2500   -59.2078     8.8990     8.2341   115.6759
  344.0000  -999.2500   -59.3735     8.8840     8.2711   115.4894
  344.5000  -999.2500   -59.5424     8.8870     8.3083   115.3040
  345.0000  -999.2500   -59.6140     8.9211     8.3454   115.1126
  345.5000  -999.2500   -59.6631     8.9833     8.3825   114.2394
  346.0000  -999.2500   -59.7110     9.1179     8.4194   112.8552
  346.5000  -999.2500   -59.7621     9.2836     8.4556   111.4710
  347.0000  -999.2500   -59.6356     9.4502     8.4991   110.0868
  347.5000  -999.2500   -59.4104     9.6168     8.6873   108.6041
  348.0000  -999.2500   -59.1818     9.7842     8.8770   106.8219
  348.5000  -999.2500   -58.9836     9.8923     9.0659   105.0397
  349.0000  -999.2500   -59.1783     9.9708     9.2545   103.2576
  349.5000  -999.2500   -59.3776    10.0419     9.4431   101.4754
  350.0000  -999.2500   -59.5748    10.3858     9.6318    99.6932
  350.5000  -999.2500   -59.7719    10.7478     9.8199    97.9111
  351.0000  -999.2500   -59.9707    11.0699    10.0091    96.1289
  351.5000  -999.2500   -60.1711    11.2694    10.1361    94.3467
  352.0000  -999.2500   -60.1106    11.4703    10.2100    92.5646
  352.5000  -999.2500   -60.0299    11.6255    10.2824    90.7824
  353.0000  -999.2500   -59.9502    11.6693    10.3536    90.1082
  353.5000  -999.2500   -59.8710    11.6834    10.4032    90.4056
  354.0000  -999.2500   -59.7918    11.4878    10.3351    90.7029
  354.5000  -999.2500   -59.7125    11.2922    10.2136    91.1869
  355.0000  -999.2500   -59.6333    11.1202    10.0916    92.7035
  355.5000  -999.2500   -59.5541    10.9634     9.9695    94.2201
  356.0000  -999.2500   -59.4749    10.8074     9.8472    95.7367
  356.5000  -999.2500   -59.3956    10.6513     9.7229    96.9849
  357.0000  -999.2500   -59.3164    10.4921     9.6751    97.2833
  357.5000  -999.2500   -59.2381    10.4626     9.6449    97.5884
  358.0000  -999.2500   -59.1675    10.4604     9.6152    97.8934
  358.5000  -999.2500   -59.0256    10.4088     9.5853    98.1985
  359.0000  -999.2500   -58.8759    10.3544     9.5553    98.5035
  359.5000  -999.2500   -58.7266    10.3031     9.5254    98.8086
  360.0000  -999.2500   -58.5774    10.3066     9.4954    99.1137
  360.5000  -999.2500   -58.4278    10.3123     9.4655    99.4187
  361.0000  -999.2500   -58.2793    10.3175     9.4355    99.7238
  361.5000  -999.2500   -58.1743    10.3128     9.4055   100.0288
  362.0000  -999.2500   -58.2346    10.2685     9.3756   100.3339
  362.5000  -999.2500   -58.2913    10.2256     9.3456   100.6390
  363.0000  -999.2500   -58.3483    10.1545     9.3157   100.9440
  363.5000  -999.2500   -58.3667    10.0850     9.2857   101.2491
  364.0000  -999.2500   -58.3670    10.0182     9.2557   101.5542
  364.5000  -999.2500   -58.3670     9.9572     9.2258   101.8592
  365.0000  -999.2500   -58.3669     9.8975     9.1958   102.1643
  365.5000  -999.2500   -58.3668     9.8765     9.1659   102.4693
  366.0000  -999.2500   -58.3669     9.8719     9.1359   102.7744
  366.5000  -999.2500   -58.3669     9.8678     9.1060   103.0795
  367.0000  -999.2500   -58.4394     9.8636     9.0760   103.3845
  367.5000  -999.2500   -58.5845     9.8470     9.0461   103.6896
  368.0000  -999.2500   -58.7353     9.7382     9.0161   104.0201
  368.5000  -999.2500   -58.7703     9.6250     8.9861   104.6379
  369.0000  -999.2500   -58.7694     9.5465     8.9563   105.3119
  369.5000  -999.2500   -58.6703     9.4965     8.9267   106.0302
  370.0000  -999.2500   -58.3542     9.4977     8.8939   107.6973
  370.5000  -999.2500   -58.0325     9.4981     8.7675   109.4815
  371.0000  -999.2500   -57.9510     9.4959     8.6306   111.2657
  371.5000  -999.2500   -57.9323     9.4014     8.5274   113.7922
  372.0000  -999.2500   -57.9156     9.2452     8.3902   116.9146
  372.5000  -999.2500   -57.8982     8.9863     8.1339   120.0369
  373.0000  -999.2500   -57.8807     8.7288     7.8717   123.1593
  373.5000  -999.2500   -57.8632     8.4706     7.6095   126.2817
  374.0000  -999.2500   -57.8457     8.2156     7.3469   129.4041
  374.5000  -999.2500   -57.8283     8.0668     7.0925   132.5511
  375.0000  -999.2500   -57.8108     7.9584     7.1614   133.1667
  375.5000  -999.2500   -57.7933     7.8961     7.2910   133.1686
  376.0000  -999.2500   -57.7758     7.9529     7.4205   132.0357
  376.5000  -999.2500   -57.7557     8.1038     7.5496   130.6080
  377.0000  -999.2500   -57.7236     8.3038     7.6787   128.0804
  377.5000  -999.2500   -57.6918     8.5469     7.8078   125.5528
  378.0000  -999.2500   -57.6602     8.6903     7.9369   123.0251
  378.5000  -999.2500   -57.6284     8.8344     8.0663   120.4975
  379.0000  -999.2500   -57.5967     8.9286     8.1948   118.0904
  379.5000  -999.2500   -57.5649     8.9578     8.2826   117.5608
  380.0000  -999.2500   -57.5604     8.9470     8.2284   117.0854
  380.5000  -999.2500   -57.5604     8.8847     8.1776   117.7156
  381.0000  -999.2500   -57.5605     8.8229     8.1270   118.3095
  381.5000  -999.2500   -57.5605     8.7612     8.0765   118.9052
  382.0000  -999.2500   -57.5603     8.7535     8.0259   119.5003
  382.5000  -999.2500   -57.5598     8.7544     7.9749   120.0946
  383.0000  -999.2500   -57.5615     8.7705     7.9243   120.6893
  383.5000  -999.2500   -57.6661     8.7861     7.9079   120.8526
  384.0000  -999.2500   -58.0396     8.8590     8.0890   119.7292
  384.5000  -999.2500   -58.4092     9.0028     8.2717   116.2703
