~VERSION INFORMATION
 VERS.                2.0:   CWLS LOG ASCII STANDARD - VERSION 2.0
 WRAP.                 NO:   ONE LINE PER DEPTH STEP
~WELL INFORMATION
#MNEM.UNIT      DATA TYPE    INFORMATION
#----------   ------------   ------------------------------
 STRT.F           23.0000:   START DEPTH
 STOP.F         1106.0000:   STOP DEPTH
 STEP.F            0.5000:   STEP LENGTH
 NULL.          -999.2500:   NO VALUE
 COMP. FENIX & SCISSON INC:   COMPANY
 WELL.       NPR-3 #67-11:   WELL
 FLD . TEAPOT DOME NPR #3:   FIELD
 LOC .      S11 T38N R78W:   LOCATION
 CNTY.            NATRONA:   COUNTY
 STAT.            WYOMING:   STATE
 CTRY. UNITED STATES OF AMERICA:   COUNTRY
 SRVC.            Unknown:   SERVICE COMPANY
 DATE.        06-MAR-1978:   LOGDATE
 API .       490251059100:   API NUMBER
~CURVE INFORMATION
#MNEM.UNIT       API CODE    CURVE DESCRIPTION
#----------   ------------   ------------------------------
 DEPT.F                  :   
 ILD .OHMM   05 120 46 00:   INDUCTION LOG DEEP
 SN  .OHMM   05 040 16 00:   SHORT NORMAL 16"
 SPR .MV     05 010 01 00:   SPONTANEOUS POTENTIAL FROM RES.
 CALD.IN     45 280 60 00:   CALIPER
 GRD .GAPI   45 310 01 00:   GAMMA RAY FROM DENSITY LOG
 CORR.G/C3   45 356 01 00:   DENSITY CORRECTION
 DPHI.DEC    45 890 12 00:   DENSITY POROSITY SANDSTONE
 RHOB.G/C3   45 350 01 00:   BULK DENSITY
~PARAMETER INFORMATION
#MNEM.UNIT          VALUE    DESCRIPTION
#----------   ------------   ------------------------------
 PD  .                 GL:   PERMANENT DATUM
 EPD .F              5243:   ELEVATION PERMANENT DATUM
 LMF .                 KB:   LOG MEASURED FROM
 DAPD.F                 4:   FEET ABOVE PERMANENT DATUM
 DMF .                 KB:   DRILLING MEASURED FROM
 EKB .F              5247:   KELLING BUSHING
 EGL .F              5243:   GROUND LEVEL
 DATE.           3-6-1978:   RUN DATE
 RUN .                  1:   RUN NUMBER
 DD  .F              1104:   DEPTH DRILLER
 DL  .F              1108:   DEPTH LOGGER
 BLI .F              1102:   BOTTOM LOG INTERVAL
 TLI .F                40:   TOP LOG INTERVAL
 CS  .IN            8.625:   CASING SIZE
 CBD .F                40:   CASING BOTTOM DRILLER
 CBL .F                40:   CASING BOTTOM LOGGER
 BS  .IN            7.875:   BIT SIZE
 BSD .F              1104:   BIT SIZE AT DEPTH
 DFT .         LIGNO/SULF:   DRILLING FLUID TYPE
 DFD .                8.6:   DRILLING FLUID DENSITY
 DFV .                 31:   DRILLING FLUID VISCOSITY
 DFL .                  8:   DRILLING FLUID LOSS
 MSS .            MUD PIT:   MUD SAMPLE SOURCE
 RMS .OHMM              2:   RESISTIVITY MUD SAMPLE
 MST .F                58:   MUD SAMPLE TEMPERATURE
 RMF .OHMM            1.2:   RESISTIVITY MUD FILTRATE SAMPLE
 MFST.F                64:   MUD FILTRATE SAMPLE TEMPERATURE
 RMC .OHMM              3:   RESISTIVITY MUD CAKE
 MCST.F                64:   MUD CAKE SAMPLE TEMPERATURE
 MFSS.               MEAS:   MUD FILTRATE SAMPLE SOURCE
 RMB .OHMM            1.5:   RESISTIVITY MUD AT BHT
 BHT .F                78:   BOTTOM HOLE TEMPERATURE
 TCS .HRS               4:   TIME CURCULATED STOPPED
 MRT .F                78:   MAXIMUM RECORDED TEMPERATURE
 LUN .               2959:   LOGGING UNIT NUMBER
 LUL .               CASP:   LOGGING UNIT LOCATION
 ENGI.             MILLER:   RECORDING ENGINEER
 WITN.           MCGINLEY:   WITNESSED BY
 CLNT.            A2DTECH:   CLIENT CODE
 ORIG.       2", 5" PRINT:   ORIGIN OF DATA
 UWI .       490251059100:   UNIQUE WELL ID
 DICO. A2D Technologies, Inc.:   DIGITIZING COMPANY
~OTHER INFORMATION
~A   DEPT      ILD         SN        SPR       CALD         GRD      CORR       DPHI       RHOB   
# ...
  387.5000     5.2196     5.8672   -25.0183     7.7404    86.6949     0.0180     0.1542     2.4099
  388.0000     5.1316     5.6299   -25.4542     7.7403    84.5527     0.0182     0.1587     2.4079
  388.5000     5.0772     5.3772   -25.8749     7.7401    82.4110     0.0185     0.1625     2.3986
  389.0000     5.0002     5.2047   -26.2907     7.7400    80.3496     0.0187     0.1654     2.3899
  389.5000     4.8981     5.1257   -26.5990     7.7399    80.1136     0.0189     0.1681     2.3867
  390.0000     4.7191     5.0494   -25.8486     7.7397    81.6364     0.0193     0.1735     2.3832
  390.5000     4.4926     4.7384   -25.1817     7.7396    84.0187     0.0200     0.1823     2.3767
  391.0000     4.2769     4.4521   -25.2013     7.7394    86.4288     0.0206     0.1931     2.3575
  391.5000     3.8977     4.1721   -25.2120     7.7393    87.5948     0.0233     0.2064     2.3386
  392.0000     3.5480     3.8689   -24.8313     7.7391    88.0125     0.0286     0.2189     2.3197
  392.5000     3.3609     3.5879   -25.6011     7.7393    88.2558     0.0338     0.2274     2.3011
  393.0000     3.1515     3.3319   -26.0857     7.7455    86.7494     0.0401     0.2059     2.2915
  393.5000     3.2085     3.3570   -24.4059     7.7518    85.1029     0.0648     0.1852     2.3324
  394.0000     3.2709     3.4256   -23.2240     7.7580    83.2806     0.0673     0.1684     2.3658
  394.5000     3.2359     3.3302   -23.2188     7.7643    81.7817     0.0358     0.1574     2.3992
  395.0000     3.2111     3.3300   -23.4416     7.7705    83.3150     0.0245     0.1542     2.4186
  395.5000     3.2709     3.6018   -23.8354     7.7768    86.8165     0.0210     0.1522     2.4162
  396.0000     3.5475     4.0020   -24.0972     7.7831    89.0539     0.0178     0.1516     2.4112
  396.5000     4.0249     4.3359   -24.2623     7.7893    82.5316     0.0147     0.1602     2.4061
  397.0000     4.3028     4.4752   -24.4279     7.7955    76.1717     0.0137     0.1559     2.4035
  397.5000     4.4453     4.6897   -24.5981     7.7975    74.9689     0.0152     0.1549     2.4044
  398.0000     4.4660     4.6745   -24.7563     7.7946    78.8659     0.0167     0.1542     2.4053
  398.5000     4.4873     4.6460   -24.9193     7.7918    82.1093     0.0182     0.1554     2.4062
  399.0000     4.5089     4.6177   -24.9032     7.7890    85.3478     0.0187     0.1588     2.4066
  399.5000     4.5195     4.6435   -24.7298     7.7862    87.6374     0.0180     0.1618     2.4030
  400.0000     4.4987     4.6152   -24.7154     7.7834    89.4179     0.0173     0.1630     2.3980
  400.5000     4.4829     4.5871   -25.1530     7.7806    88.2954     0.0166     0.1807     2.3883
  401.0000     4.3846     4.5615   -25.2731     7.7777    83.5525     0.0159     0.1982     2.3667
  401.5000     4.2527     4.3946   -25.3528     7.7749    81.5028     0.0152     0.2111     2.3454
  402.0000     4.1248     4.2461   -25.2103     7.7721    80.2494     0.0173     0.2287     2.3241
  402.5000     3.9362     4.0871   -24.8186     7.7693    79.3945     0.0219     0.2463     2.2970
  403.0000     3.6921     3.9347   -24.8278     7.7665    79.6342     0.0259     0.2704     2.2569
  403.5000     3.1702     3.3829   -25.0769     7.7637    81.2111     0.0315     0.3045     2.2171
  404.0000     2.6663     2.9305   -24.7500     7.7608    84.0486     0.0439     0.3132     2.1771
  404.5000     2.4307     2.5499   -25.4873     7.7524    84.1076     0.0694     0.3190     2.1468
  405.0000     2.3455     2.5233   -24.9263     7.7323    82.3630     0.1047     0.2785     2.1395
  405.5000     2.3656     2.4824   -24.4582     7.7125    80.6259     0.1417     0.2480     2.2073
  406.0000     2.3915     2.5211   -25.2913     7.6990    79.0826     0.1580     0.2175     2.2805
  406.5000     2.4124     2.5913   -23.1110     7.6992    78.0193     0.0766     0.1872     2.3531
  407.0000     2.6676     2.7856   -23.9084     7.6992    76.8023     0.0247     0.1554     2.3933
  407.5000     2.9775     3.3749   -24.7702     7.6992    76.5684     0.0260     0.1558     2.4035
  408.0000     3.6176     4.0081   -24.6371     7.6992    77.2353     0.0269     0.1562     2.4052
  408.5000     4.0453     4.0604   -24.7124     7.6992    77.6463     0.0280     0.1563     2.4061
  409.0000     4.0397     4.0828   -24.2938     7.6992    77.8364     0.0290     0.1547     2.4072
  409.5000     4.0250     4.1187   -24.9546     7.6992    78.1654     0.0287     0.1530     2.4082
  410.0000     4.0080     4.1589   -25.5681     7.6992    78.7580     0.0283     0.1513     2.4093
  410.5000     4.0166     4.1814   -24.0957     7.6992    79.3511     0.0279     0.1527     2.4104
  411.0000     4.0281     4.2054   -23.8176     7.6992    79.9165     0.0275     0.1549     2.4055
  411.5000     4.0395     4.2296   -23.9195     7.6992    79.6465     0.0271     0.1562     2.3991
  412.0000     4.0451     4.2365   -24.9982     7.6992    77.5803     0.0290     0.1557     2.3995
  412.5000     4.0451     4.1891   -26.3452     7.6992    77.3798     0.0323     0.1572     2.4030
  413.0000     4.0447     4.1532   -26.5774     7.6992    79.7957     0.0357     0.1594     2.3994
  413.5000     4.0453     4.1207   -26.1991     7.6992    82.2951     0.0370     0.1588     2.3986
  414.0000     3.9471     4.0482   -24.8813     7.6992    82.3660     0.0370     0.1582     2.3985
  414.5000     3.8725     3.9813   -24.2697     7.6992    81.4659     0.0353     0.1625     2.3950
  415.0000     3.7430     3.9333   -25.3142     7.6992    80.7542     0.0283     0.1740     2.3763
  415.5000     3.6088     3.7331   -25.3291     7.6992    80.3283     0.0169     0.1854     2.3591
  416.0000     3.4304     3.5540   -24.4426     7.6992    79.9060     0.0131     0.1957     2.3542
  416.5000     3.2526     3.3832   -23.8710     7.6992    80.3575     0.0130     0.2057     2.3456
  417.0000     3.0839     3.2203   -23.6012     7.6992    81.8095     0.0130     0.2106     2.3212
  417.5000     2.9277     3.0652   -23.4361     7.6993    83.2548     0.0129     0.2145     2.2987
  418.0000     2.9008     2.9823   -23.5776     7.6920    84.6994     0.0180     0.2254     2.2920
  418.5000     2.9612     3.0522   -23.7071     7.6810    85.2771     0.0256     0.2112     2.2922
  419.0000     3.0100     3.1086   -23.7560     7.6699    85.1705     0.0333     0.1893     2.3319
  419.5000     3.0406     3.1806   -23.5533     7.6587    84.4049     0.0392     0.1673     2.3721
  420.0000     3.0946     3.2709   -23.4995     7.6476    82.5494     0.0323     0.1554     2.3959
  420.5000     3.2876     3.6280   -24.0811     7.6393    80.1996     0.0225     0.1603     2.4046
  421.0000     3.5935     4.0326   -25.2368     7.6394    78.5672     0.0123     0.1649     2.3986
  421.5000     3.9277     4.3871   -25.3654     7.6394    78.4761     0.0048     0.1673     2.3881
  422.0000     4.2656     4.4788   -24.3942     7.6394    80.8181     0.0051     0.1671     2.3810
  422.5000     4.4780     4.5351   -24.2379     7.6394    83.4062     0.0056     0.1669     2.3843
  423.0000     4.4780     4.5790   -24.3032     7.6394    84.0980     0.0061     0.1666     2.3874
  423.5000     4.4614     4.6465   -24.3734     7.6394    83.4070     0.0066     0.1724     2.3800
  424.0000     4.4468     4.6244   -24.6632     7.6394    82.5744     0.0070     0.1732     2.3716
  424.5000     4.4368     4.5822   -24.9939     7.6394    82.2915     0.0075     0.1799     2.3631
  425.0000     4.4368     4.5138   -24.8951     7.6394    83.5321     0.0080     0.1902     2.3555
  425.5000     4.3284     4.4208   -24.7873     7.6394    87.0441     0.0084     0.1977     2.3549
  426.0000     3.9540     4.2543   -24.1422     7.6395    89.4924     0.0090     0.2004     2.3413
  426.5000     3.6539     3.9106   -24.3099     7.6389    88.9926     0.0146     0.2082     2.3224
  427.0000     3.4479     3.5942   -24.7721     7.6381    90.4337     0.0207     0.2080     2.3153
  427.5000     3.2534     3.3644   -24.2037     7.6373    94.0945     0.0263     0.2009     2.3088
