~VERSION INFORMATION
 VERS.                2.0:   CWLS LOG ASCII STANDARD - VERSION 2.0
 WRAP.                 NO:   ONE LINE PER DEPTH STEP
~WELL INFORMATION
#MNEM.UNIT      DATA TYPE    INFORMATION
#----------   ------------   ------------------------------
 STRT.F            0.5000:   START DEPTH
 STOP.F         2271.5000:   STOP DEPTH
 STEP.F            0.5000:   STEP LENGTH
 NULL.          -999.2500:   NO VALUE
 COMP. BROWN JOHN E&C INC:   COMPANY
 WELL. NPR 3 STX-11 #27-11:   WELL
 FLD .             TEAPOT:   FIELD
 LOC .      S11 T38N R78W:   LOCATION
 CNTY.            NATRONA:   COUNTY
 STAT.            WYOMING:   STATE
 CTRY. UNITED STATES OF AMERICA:   COUNTRY
 SRVC.      Dresser Atlas:   SERVICE COMPANY
 DATE.        20-JAN-1993:   LOGDATE
 API .       490251108500:   API NUMBER
~CURVE INFORMATION
#MNEM.UNIT       API CODE    CURVE DESCRIPTION
#----------   ------------   ------------------------------
 DEPT.F                  :   
 ILD .OHMM   07 120 46 00:   INDUCTION LOG DEEP
 ILM .OHMM   07 120 44 00:   INDUCTION LOG MEDIUM
 GRR .GAPI   07 310 01 00:   GAMMA RAY FROM RES. LOG.
~PARAMETER INFORMATION
#MNEM.UNIT          VALUE    DESCRIPTION
#----------   ------------   ------------------------------
 PD  .                 GL:   PERMANENT DATUM
 EPD .F              5187:   ELEVATION PERMANENT DATUM
 LMF .                 KB:   LOG MEASURED FROM
 DAPD.F                12:   FEET ABOVE PERMANENT DATUM
 DMF .                 KB:   DRILLING MEASURED FROM
 EKB .F            5198.8:   KELLING BUSHING
 EDF .F            5197.8:   DRILLING FLOOR
 EGL .F              5187:   GROUND LEVEL
 DATE.            1-20-93:   RUN DATE
 RUN .                  1:   RUN NUMBER
 DD  .F              2279:   DEPTH DRILLER
 DL  .F              2279:   DEPTH LOGGER
 BLI .F              2271:   BOTTOM LOG INTERVAL
 TLI .F               692:   TOP LOG INTERVAL
 CS  .IN            8.625:   CASING SIZE
 CBD .F               689:   CASING BOTTOM DRILLER
 CBL .F               692:   CASING BOTTOM LOGGER
 BS  .IN            7.875:   BIT SIZE
 BSD .F              2279:   BIT SIZE AT DEPTH
 DFT .                OIL:   DRILLING FLUID TYPE
 BHT .F                92:   BOTTOM HOLE TEMPERATURE
 TCS .HRS               2:   TIME CURCULATED STOPPED
 MRT .F                92:   MAXIMUM RECORDED TEMPERATURE
 LUN .            HL-6274:   LOGGING UNIT NUMBER
 LUL .             CASPER:   LOGGING UNIT LOCATION
 ENGI.             RAUTIO:   RECORDING ENGINEER
 WITN.             STRONG:   WITNESSED BY
 CLNT.            A2DTECH:   CLIENT CODE
 ORIG.  2", 5", 20" PRINT:   ORIGIN OF DATA
 UWI .       490251108500:   UNIQUE WELL ID
 DICO. A2D Technologies, Inc.:   DIGITIZING COMPANY
~OTHER INFORMATION
~A    DEPT     ILD        ILM         GRR  
# ...
 1638.5000     7.7346     7.4160   117.3973
 1639.0000     7.6947     7.4822   118.5108
 1639.5000     7.7695     7.5295   119.8145
 1640.0000     7.8446     7.5773   120.1875
 1640.5000     7.9202     7.6253   117.7870
 1641.0000     7.9965     7.6736   115.5523
 1641.5000     8.0735     7.7223   114.2091
 1642.0000     8.1330     7.7712   112.8685
 1642.5000     8.1097     7.8205   111.7319
 1643.0000     8.0910     7.8382   111.8584
 1643.5000     8.0722     7.8382   114.5881
 1644.0000     8.0581     7.8382   118.1493
 1644.5000     8.0582     7.8406   121.3834
 1645.0000     8.0582     7.8509   120.4428
 1645.5000     8.0582     7.8610   114.0531
 1646.0000     8.0582     7.8711   109.9528
 1646.5000     8.0582     7.8812   108.6728
 1647.0000     8.0582     7.8914   109.1638
 1647.5000     8.0581     7.9015   109.6611
 1648.0000     8.0593     7.9113   111.1118
 1648.5000     8.0852     7.9374   112.9438
 1649.0000     8.1104     7.9625   114.1625
 1649.5000     8.1325     7.9837   112.4795
 1650.0000     8.0577     7.8986   110.2719
 1650.5000     7.9886     7.8212   112.4894
 1651.0000     7.9205     7.7446   117.9635
 1651.5000     7.8531     7.6687   121.4911
 1652.0000     7.7863     7.5933   123.1768
 1652.5000     7.7200     7.4851   123.9378
 1653.0000     7.6242     7.5112   120.7295
 1653.5000     7.6800     7.5612   114.6665
 1654.0000     7.7847     7.6115   112.4603
 1654.5000     7.8908     7.6621   112.4713
 1655.0000     7.9984     7.7131   113.4975
 1655.5000     8.1074     7.7662   115.0159
 1656.0000     8.2390     7.9191   116.2796
 1656.5000     8.3792     8.0806   114.8866
 1657.0000     8.4838     8.2453   113.1615
 1657.5000     8.6031     8.4134   111.4442
 1658.0000     8.6898     8.5430   109.7192
 1658.5000     8.7271     8.6094   108.5757
 1659.0000     8.7638     8.6757   107.7879
 1659.5000     8.8008     8.6379   107.0587
 1660.0000     8.8373     8.5914   107.2487
 1660.5000     8.7764     8.5451   107.1754
 1661.0000     8.7164     8.4991   105.8576
 1661.5000     8.6570     8.4534   104.5710
 1662.0000     8.5981     8.4079   105.8127
 1662.5000     8.5396     8.3626   109.4611
 1663.0000     8.4815     8.3176   113.0898
 1663.5000     8.4385     8.2843   115.4404
 1664.0000     8.4388     8.2846   116.2402
 1664.5000     8.4388     8.2845   117.0491
 1665.0000     8.4388     8.2845   117.8522
 1665.5000     8.4389     8.2845   118.1008
 1666.0000     8.4390     8.2847   117.7252
 1666.5000     8.4388     8.2845   117.1420
 1667.0000     8.4080     8.2861   115.8070
 1667.5000     8.3068     8.1334   114.3581
 1668.0000     8.2068     8.0193   112.0065
 1668.5000     8.1080     7.9070   111.7862
 1669.0000     8.0104     7.7668   116.2828
 1669.5000     7.9842     7.7771   121.2266
 1670.0000     7.9842     7.7910   120.6377
 1670.5000     7.9842     7.8057   117.7354
 1671.0000     7.9842     7.8202   113.6538
 1671.5000     7.9840     7.8347   109.5937
 1672.0000     8.0043     7.8652   105.4090
 1672.5000     8.0310     7.9009   106.1063
 1673.0000     8.0576     7.9368   110.3967
 1673.5000     8.0844     7.9728   114.3544
 1674.0000     8.1112     8.0090   118.3101
 1674.5000     8.1382     8.0454   120.4290
 1675.0000     8.1652     8.0819   120.8470
 1675.5000     8.1925     8.1330   117.4398
 1676.0000     8.2082     8.1153   113.4167
 1676.5000     8.2084     8.0865   110.1961
 1677.0000     8.2084     8.0585   110.4305
 1677.5000     8.2084     8.0582   110.5709
 1678.0000     8.2084     8.0583   112.3290
 1678.5000     8.2083     8.0583   114.3931
 1679.0000     8.2081     8.0582   113.8210
 1679.5000     8.2097     8.0576   110.1211
 1680.0000     8.2391     8.0887   109.8019
 1680.5000     8.2688     8.1170   110.8905
 1681.0000     8.2845     8.1310   112.0188
 1681.5000     8.1362     8.0639   113.0484
 1682.0000     8.0369     7.9359   113.1043
 1682.5000     7.9387     7.7990   111.4297
 1683.0000     7.8418     7.6644   109.5539
 1683.5000     7.7461     7.5321   109.8331
 1684.0000     7.6246     7.4160   113.1801
 1684.5000     7.6925     7.5243   116.6321
 1685.0000     7.7892     7.6234   117.8463
 1685.5000     7.8878     7.7239   115.1378
 1686.0000     7.9874     7.8257   112.1504
 1686.5000     8.0883     7.9289   109.1570
 1687.0000     8.1904     8.0333   106.5956
 1687.5000     8.2938     8.1392   109.1510
 1688.0000     8.3731     8.2199   111.8861
 1688.5000     8.4064     8.2527   114.5294
 1689.0000     8.4399     8.2857   113.4511
 1689.5000     8.4736     8.3186   112.1556
 1690.0000     8.5074     8.3518   109.5461
 1690.5000     8.5413     8.3851   106.8072
 1691.0000     8.5754     8.4185   109.5842
 1691.5000     8.5956     8.4388   112.6124
 1692.0000     8.4387     8.2585   112.6485
 1692.5000     8.3273     8.1317   110.6140
 1693.0000     8.2175     8.0069   108.5893
 1693.5000     8.1092     7.8839   108.6554
 1694.0000     8.0023     7.7628   112.9103
 1694.5000     7.8969     7.6436   117.0982
 1695.0000     7.7929     7.5263   121.1202
 1695.5000     7.6902     7.4107   121.4610
 1696.0000     7.5889     7.3478   118.8258
 1696.5000     7.5541     7.4080   116.1108
 1697.0000     7.5842     7.4498   113.4381
 1697.5000     7.6049     7.4918   111.8161
 1698.0000     7.6257     7.5342   110.4090
 1698.5000     7.6466     7.5767   110.5907
 1699.0000     7.6677     7.6241   112.6535
 1699.5000     7.6946     7.6084   114.5038
 1700.0000     7.6662     7.5909   116.3381
 1700.5000     7.6240     7.5733   118.1824
 1701.0000     7.5821     7.5544   118.8547
 1701.5000     7.5397     7.4979   117.7174
 1702.0000     7.4928     7.4367   115.8811
 1702.5000     7.4466     7.3760   114.3023
 1703.0000     7.4007     7.3158   115.0563
 1703.5000     7.3550     7.2562   116.7832
 1704.0000     7.3096     7.1970   118.2395
 1704.5000     7.2645     7.1382   114.9100
 1705.0000     7.2197     7.0800   111.3057
 1705.5000     7.1751     7.0223   111.5876
 1706.0000     7.1472     6.8882   118.7475
 1706.5000     7.2374     7.0555   124.8724
 1707.0000     7.3154     7.3565   123.3714
 1707.5000     7.3942     7.6704   120.7274
 1708.0000     7.4738     7.9976   117.5708
 1708.5000     7.5541     8.1330   114.5146
 1709.0000     7.4668     7.8817   107.2449
 1709.5000     7.3806     7.7358    99.1990
 1710.0000     7.2915     7.5933    97.5176
 1710.5000     7.2009     7.4536   104.4944
 1711.0000     7.1115     7.3165   107.8210
 1711.5000     7.0230     7.1818   109.4927
 1712.0000     6.9353     7.0816   111.2014
 1712.5000     6.8885     7.1562   114.6216
 1713.0000     6.8890     7.1472   116.2325
 1713.5000     7.1169     7.2822   117.3611
 1714.0000     7.2442     7.4370   117.7747
 1714.5000     7.3929     7.5983   115.8104
 1715.0000     7.5445     7.7629   111.8913
 1715.5000     7.6637     7.9842   107.9478
 1716.0000     7.7463     7.9736   107.4078
 1716.5000     7.8297     7.9582   111.8070
 1717.0000     7.9140     7.9429   115.3142
 1717.5000     7.9992     7.9275   114.9501
 1718.0000     8.0582     7.9121   114.3560
 1718.5000     8.0394     7.8969   114.9421
 1719.0000     8.0250     7.8816   113.9251
 1719.5000     8.0107     7.8664   112.5229
 1720.0000     7.9964     7.8512   110.6411
 1720.5000     7.9776     7.8316   113.2713
 1721.0000     7.9313     7.7865   116.5713
 1721.5000     7.8755     7.7315   117.1878
 1722.0000     7.8122     7.6693   117.7449
 1722.5000     7.7493     7.6077   119.6114
 1723.0000     7.6867     7.5465   121.4513
 1723.5000     7.6244     7.4847   120.8994
 1724.0000     7.6437     7.5043   118.2531
 1724.5000     7.6643     7.5242   115.7155
 1725.0000     7.6847     7.5442   116.2763
 1725.5000     7.7051     7.5642   117.2826
 1726.0000     7.7256     7.5843   115.1528
 1726.5000     7.7461     7.6045   111.8096
 1727.0000     7.7660     7.6235   110.3207
 1727.5000     7.7204     7.5790   112.6524
 1728.0000     7.6756     7.5352   113.3985
 1728.5000     7.6242     7.4847   112.6368
 1729.0000     7.6329     7.5031   111.9334
