~VERSION INFORMATION
 VERS.                2.0:   CWLS LOG ASCII STANDARD - VERSION 2.0
 WRAP.                 NO:   ONE LINE PER DEPTH STEP
~WELL INFORMATION
#MNEM.UNIT      DATA TYPE    INFORMATION
#----------   ------------   ------------------------------
 STRT.F            8.0000:   START DEPTH
 STOP.F         2320.0000:   STOP DEPTH
 STEP.F            0.5000:   STEP LENGTH
 NULL.          -999.2500:   NO VALUE
 COMP.    FENIX & SCISSON:   COMPANY
 WELL. N.P.R #3 #77-SHX-10:   WELL
 FLD .             TEAPOT:   FIELD
 LOC .      S10 T38N R78W:   LOCATION
 CNTY.            NATRONA:   COUNTY
 STAT.            WYOMING:   STATE
 CTRY. UNITED STATES OF AMERICA:   COUNTRY
 SRVC.              Welex:   SERVICE COMPANY
 DATE.        05-JUN-1980:   LOGDATE
 API .       490251064900:   API NUMBER
~CURVE INFORMATION
#MNEM.UNIT       API CODE    CURVE DESCRIPTION
#----------   ------------   ------------------------------
 DEPT.F                  :   
 GRD .GAPI   45 310 01 00:   GAMMA RAY FROM DENSITY LOG
 CALD.IN     45 280 60 00:   CALIPER FROM DENSITY LOG
 RHOB.G/C3   45 350 01 00:   BULK DENSITY
 DPHI.DEC    45 890 12 00:   DENSITY POROSITY SANDSTONE
 ILD .OHMM   05 120 46 00:   INDUCTION LOG DEEP
 CORR.G/C3   45 356 01 00:   DENSITY CORRECTION
~PARAMETER INFORMATION
#MNEM.UNIT          VALUE    DESCRIPTION
#----------   ------------   ------------------------------
 PD  .                 GL:   PERMANENT DATUM
 EPD .F              5210:   ELEVATION PERMANENT DATUM
 LMF .                 KB:   LOG MEASURED FROM
 DAPD.F                10:   FEET ABOVE PERMANENT DATUM
 DMF .                 KB:   DRILLING MEASURED FROM
 EKB .F              5220:   KELLING BUSHING
 EGL .F              5210:   GROUND LEVEL
 DATE.        05-JUN-1980:   RUN DATE
 RUN .                  1:   RUN NUMBER
 DD  .F              2358:   DEPTH DRILLER
 DL  .F              2322:   DEPTH LOGGER
 BLI .F              2320:   BOTTOM LOG INTERVAL
 TLI .F               900:   TOP LOG INTERVAL
 CS  .IN                7:   CASING SIZE
 BS  .IN             6.25:   BIT SIZE
 BSD .F              2358:   BIT SIZE AT DEPTH
 DFT .        AIR DRILLED:   DRILLING FLUID TYPE
 MRT .F               107:   MAXIMUM RECORDED TEMPERATURE
 ENGI.               REIN:   RECORDING ENGINEER
 WITN.              AMEND:   WITNESSED BY
 CLNT.            A2DTECH:   CLIENT CODE
 ORIG.           5" PRINT:   ORIGIN OF DATA
 UWI .       490251064900:   UNIQUE WELL ID
 DICO. A2D Technologies, Inc.:   DIGITIZING COMPANY
~OTHER INFORMATION
~A    DEPT      GRD      CALD       RHOB       DPHI        ILD       CORR   
# ...
 1100.0000    99.4024     7.4583     2.4618     0.0574  -999.2500     0.1979
 1100.5000    99.2460     7.5021     2.4722     0.0486  -999.2500     0.1721
 1101.0000    99.0895     7.5012     2.4505     0.0587  -999.2500     0.1585
 1101.5000    98.9316     7.4555     2.4430     0.0613  -999.2500     0.1539
 1102.0000    98.4767     7.4100     2.4587     0.0592  -999.2500     0.1614
 1102.5000    98.4696     7.4007     2.4789     0.0466  -999.2500     0.1735
 1103.0000    98.3133     7.4940     2.4744     0.0472  -999.2500     0.1749
 1103.5000    97.8582     7.5640     2.4609     0.0550  -999.2500     0.1657
 1104.0000    97.2525     7.5786     2.4518     0.0629  -999.2500     0.1506
 1104.5000    96.6484     7.5780     2.4481     0.0653  -999.2500     0.1535
 1105.0000    95.8951     7.5478     2.4581     0.0659  -999.2500     0.1566
 1105.5000    95.1417     7.5175     2.4713     0.0605  -999.2500     0.1640
 1106.0000    94.8358     7.5169     2.4720     0.0503  -999.2500     0.1670
 1106.5000    95.1651     7.5016     2.4675     0.0545  -999.2500     0.1608
 1107.0000    95.6086     7.4713     2.4607     0.0567  -999.2500     0.1517
 1107.5000    96.2013     7.4560     2.4522     0.0600  -999.2500     0.1393
 1108.0000    96.4239     7.4555     2.4419     0.0693  -999.2500     0.1274
 1108.5000    96.6405     7.5148     2.4336     0.0732  -999.2500     0.1168
 1109.0000    96.6352     7.5143     2.4276     0.0780  -999.2500     0.1062
 1109.5000    96.4817     7.5138     2.4246     0.0796  -999.2500     0.1031
 1110.0000    96.1789     7.4986     2.4318     0.0814  -999.2500     0.1174
 1110.5000    95.4283     7.5428     2.4430     0.0760  -999.2500     0.1271
 1111.0000    94.9763     7.5573     2.4400     0.0712  -999.2500     0.1165
 1111.5000    96.1650     7.5269     2.4249     0.0829  -999.2500     0.1013
 1112.0000    96.3110     7.4817     2.4069     0.0987  -999.2500     0.0907
 1112.5000    96.1564     7.4216     2.3799     0.1052  -999.2500     0.0816
 1113.0000    95.8537     7.3913     2.3926     0.1016  -999.2500     0.0907
 1113.5000    95.4665     7.3909     2.4248     0.0884  -999.2500     0.1117
 1114.0000    94.9485     7.3904     2.4539     0.0848  -999.2500     0.1418
 1114.5000    94.6458     7.3899     2.4794     0.0546  -999.2500     0.1810
 1115.0000    94.1937     7.3746     2.4861     0.0428  -999.2500     0.1900
 1115.5000    94.0402     7.3891     2.4831     0.0434  -999.2500     0.1824
 1116.0000    94.0358     7.3887     2.4696     0.0482  -999.2500     0.1703
 1116.5000    94.0306     7.3881     2.4590     0.0536  -999.2500     0.1687
 1117.0000    94.3259     7.3877     2.4785     0.0518  -999.2500     0.1807
 1117.5000    94.6201     7.3873     2.4859     0.0423  -999.2500     0.2048
 1118.0000    94.6148     7.3868     2.4799     0.0417  -999.2500     0.2108
 1118.5000    94.6105     7.3715     2.4709     0.0510  -999.2500     0.2045
 1119.0000    94.7555     7.3262     2.4603     0.0582  -999.2500     0.1986
 1119.5000    94.4516     7.2810     2.4491     0.0625  -999.2500     0.2016
 1120.0000    94.2981     7.2358     2.4753     0.0462  -999.2500     0.2106
 1120.5000    94.2940     7.2951     2.4827     0.0484  -999.2500     0.2286
 1121.0000    94.2530     7.3096     2.4932     0.0397  -999.2500     0.2346
 1121.5000    94.1349     7.3090     2.4811     0.0412  -999.2500     0.2255
 1122.0000    94.1307     7.2937     2.4878     0.0415  -999.2500     0.2028
 1122.5000    93.9771     7.2783     2.4938     0.0364  -999.2500     0.2163
 1123.0000    93.9729     7.2480     2.4795     0.0454  -999.2500     0.2027
 1123.5000    93.9687     7.2028     2.4600     0.0539  -999.2500     0.1794
 1124.0000    93.9597     7.1427     2.4360     0.0716  -999.2500     0.1587
 1124.5000    93.8105     7.2616     2.4300     0.0761  -999.2500     0.1602
 1125.0000    93.6562     7.3358     2.4516     0.0647  -999.2500     0.1707
 1125.5000    93.5027     7.3653     2.4838     0.0569  -999.2500     0.1857
 1126.0000    93.0508     7.3797     2.4868     0.0521  -999.2500     0.2174
 1126.5000    92.4493     7.3793     2.4613     0.0600  -999.2500     0.1992
 1127.0000    91.6977     7.3787     2.4402     0.0798  -999.2500     0.1856
 1127.5000    92.1412     7.3932     2.4222     0.0796  -999.2500     0.1719
 1128.0000    92.8832     7.4525     2.4477     0.0687  -999.2500     0.1854
 1128.5000    93.4756     7.4671     2.4386     0.0699  -999.2500     0.1884
 1129.0000    93.6824     7.4367     2.4543     0.0681  -999.2500     0.1793
 1129.5000    94.0798     7.3914     2.4678     0.0495  -999.2500     0.2004
 1130.0000    94.2094     7.3761     2.4625     0.0612  -999.2500     0.1897
 1130.5000    94.5025     7.3756     2.4370     0.0718  -999.2500     0.1474
 1131.0000    94.5567     7.3902     2.4339     0.0691  -999.2500     0.1262
 1131.5000    94.9418     7.4046     2.4504     0.0673  -999.2500     0.1442
 1132.0000    95.3852     7.4340     2.4586     0.0541  -999.2500     0.1562
 1132.5000    95.3799     7.4335     2.4653     0.0535  -999.2500     0.1683
 1133.0000    94.4801     7.4331     2.4705     0.0445  -999.2500     0.1803
 1133.5000    94.7743     7.4327     2.4802     0.0452  -999.2500     0.1893
 1134.0000    96.1133     7.4322     2.4885     0.0419  -999.2500     0.1908
 1134.5000    96.8717     7.4318     2.4749     0.0497  -999.2500     0.1831
 1135.0000    97.1496     7.4163     2.4576     0.0626  -999.2500     0.1725
 1135.5000    96.6965     7.3861     2.4471     0.0716  -999.2500     0.1604
 1136.0000    95.3489     7.3707     2.4246     0.0735  -999.2500     0.1452
 1136.5000    95.3446     7.3404     2.4449     0.0717  -999.2500     0.1255
 1137.0000    96.1046     7.3400     2.4657     0.0552  -999.2500     0.1526
 1137.5000    97.2753     7.3693     2.4477     0.0615  -999.2500     0.1616
 1138.0000    98.1666     7.3838     2.4642     0.0564  -999.2500     0.1419
 1138.5000    98.3126     7.3834     2.4724     0.0486  -999.2500     0.1570
 1139.0000    98.1580     7.3830     2.4754     0.0453  -999.2500     0.1584
 1139.5000    98.1537     7.3676     2.4738     0.0549  -999.2500     0.1493
 1140.0000    97.9991     7.3671     2.4640     0.0526  -999.2500     0.1356
 1140.5000    97.9949     7.3517     2.4662     0.0532  -999.2500     0.1371
 1141.0000    97.6921     7.3663     2.4752     0.0496  -999.2500     0.1446
 1141.5000    97.0908     7.3807     2.4859     0.0406  -999.2500     0.1537
 1142.0000    95.5940     7.4101     2.4886     0.0439  -999.2500     0.1596
 1142.5000    94.6940     7.4097     2.4571     0.0552  -999.2500     0.1444
 1143.0000    95.2859     7.4092     2.4391     0.0695  -999.2500     0.1292
 1143.5000    96.3264     7.4088     2.4405     0.0710  -999.2500     0.1216
 1144.0000    96.9731     7.4234     2.4442     0.0647  -999.2500     0.1292
 1144.5000    97.6611     7.4228     2.4479     0.0680  -999.2500     0.1351
 1145.0000    97.9700     7.4224     2.4471     0.0671  -999.2500     0.1350
 1145.5000    98.2493     7.4518     2.4209     0.0737  -999.2500     0.1289
 1146.0000    98.2448     7.4812     2.4118     0.0852  -999.2500     0.1153
 1146.5000    98.3903     7.5107     2.4148     0.0903  -999.2500     0.1122
 1147.0000    98.0864     7.5251     2.4268     0.0870  -999.2500     0.1272
 1147.5000    97.3209     7.4940     2.4282     0.0804  -999.2500     0.1332
 1148.0000    96.2858     7.4793     2.4184     0.0816  -999.2500     0.1377
 1148.5000    95.5352     7.4938     2.4147     0.0849  -999.2500     0.1392
 1149.0000    95.2324     7.5233     2.4199     0.0865  -999.2500     0.1346
 1149.5000    95.5267     7.5378     2.4252     0.0829  -999.2500     0.1315
 1150.0000    95.5224     7.5075     2.4130     0.0799  -999.2500     0.1269
 1150.5000    95.2196     7.4622     2.4018     0.0955  -999.2500     0.1283
 1151.0000    96.4083     7.4770     2.4107     0.0877  -999.2500     0.1373
 1151.5000    97.0010     7.5351     2.4174     0.0889  -999.2500     0.1448
