~VERSION INFORMATION
 VERS.                2.0:   CWLS LOG ASCII STANDARD - VERSION 2.0
 WRAP.                 NO:   ONE LINE PER DEPTH STEP
~WELL INFORMATION
#MNEM.UNIT      DATA TYPE    INFORMATION
#----------   ------------   ------------------------------
 STRT.F          283.5000:   START DEPTH
 STOP.F         3026.0000:   STOP DEPTH
 STEP.F            0.5000:   STEP LENGTH
 NULL.          -999.2500:   NO VALUE
 COMP. DEPARTMENT OF ENERGY:   COMPANY
 WELL. RES 3 TEAPOT DOM "AX" #62-29:   WELL
 FLD .        TEAPOT DOME:   FIELD
 LOC .      S29 T39N R78W:   LOCATION
 CNTY.            NATRONA:   COUNTY
 STAT.            WYOMING:   STATE
 CTRY. UNITED STATES OF AMERICA:   COUNTRY
 SRVC.       Schlumberger:   SERVICE COMPANY
 DATE.        27-JUL-1971:   LOGDATE
 API .       490250659800:   API NUMBER
~CURVE INFORMATION
#MNEM.UNIT       API CODE    CURVE DESCRIPTION
#----------   ------------   ------------------------------
 DEPT.F                  :   
 GRD .GAPI   45 310 01 00:   GAMMA RAY FROM DENSITY LOG
 CALD.IN     45 280 60 00:   CALIPER FROM DENSITY LOG
 RHOB.G/C3   45 350 01 00:   BULK DENSITY
 DPHI.DEC    45 890 12 00:   DENSITY POROSITY SANDSTONE
 CORR.G/C3   45 356 01 00:   DENSITY CORRECTION
 SPR .MV     05 010 01 00:   SPONTANEOUS POTENTIAL FROM RES.
 ASN .OHMM   05 041 16 00:   AMPLIFIED SHORT NORMAL 16"
 ILD .OHMM   05 120 46 00:   INDUCTION LOG DEEP
 CILD.MMHO   05 110 46 00:   CONDUCTIVITY INDUCTION LOG DEEP
~PARAMETER INFORMATION
#MNEM.UNIT          VALUE    DESCRIPTION
#----------   ------------   ------------------------------
 PD  .                 GL:   PERMANENT DATUM
 EPD .F              4998:   ELEVATION PERMANENT DATUM
 LMF .                 KB:   LOG MEASURED FROM
 DAPD.F                11:   FEET ABOVE PERMANENT DATUM
 DMF .                 KB:   DRILLING MEASURED FROM
 EKB .F              5009:   KELLING BUSHING
 EGL .F              4998:   GROUND LEVEL
 DATE.            7-27-71:   RUN DATE
 RUN .                  1:   RUN NUMBER
 DD  .F              3023:   DEPTH DRILLER
 DL  .F              3024:   DEPTH LOGGER
 BLI .F              3023:   BOTTOM LOG INTERVAL
 TLI .F               286:   TOP LOG INTERVAL
 CS  .IN            10.75:   CASING SIZE
 CBD .F               287:   CASING BOTTOM DRILLER
 CBL .F               286:   CASING BOTTOM LOGGER
 BS  .IN                9:   BIT SIZE
 BSD .F              3023:   BIT SIZE AT DEPTH
 DFT .      FRESH GEL MUD:   DRILLING FLUID TYPE
 DFD .                 10:   DRILLING FLUID DENSITY
 DFV .                 90:   DRILLING FLUID VISCOSITY
 DFPH.                7.6:   DRILLING FLUID PH
 DFL .                5.8:   DRILLING FLUID LOSS
 MSS .          FLOW LINE:   MUD SAMPLE SOURCE
 RMS .OHMM           1.74:   RESISTIVITY MUD SAMPLE
 MST .F                75:   MUD SAMPLE TEMPERATURE
 RMF .OHMM            1.5:   RESISTIVITY MUD FILTRATE SAMPLE
 MFST.F                75:   MUD FILTRATE SAMPLE TEMPERATURE
 MFSS.                  C:   MUD FILTRATE SAMPLE SOURCE
 RMB .OHMM           1.12:   RESISTIVITY MUD AT BHT
 BHT .F               116:   BOTTOM HOLE TEMPERATURE
 TCS .HRS               5:   TIME CURCULATED STOPPED
 MRT .F               116:   MAXIMUM RECORDED TEMPERATURE
 LUN .               7041:   LOGGING UNIT NUMBER
 LUL .               CSPR:   LOGGING UNIT LOCATION
 ENGI.             KNOBEL:   RECORDING ENGINEER
 WITN.                MAY:   WITNESSED BY
 CLNT.            A2DTECH:   CLIENT CODE
 ORIG.     1", 2.5" PRINT:   ORIGIN OF DATA
 UWI .       490250659800:   UNIQUE WELL ID
 DICO. A2D Technologies, Inc.:   DIGITIZING COMPANY
~OTHER INFORMATION
~A   DEPT      GRD       CALD       RHOB       DPHI       CORR        SPR        ASN        ILD       CILD   
# ...
 2984.5000   108.4499     9.0118     2.5171     0.0831     0.0232   -24.4040     6.9906     5.4071   167.3267
 2985.0000   105.3046     9.0118     2.5217     0.0795     0.0278   -24.4051     7.0381     5.6108   164.6110
 2985.5000   105.5709     9.0118     2.5330     0.0715     0.0395   -24.4052     7.1375     5.6808   161.8161
 2986.0000   105.9082     9.0118     2.5309     0.0741     0.0404   -24.4052     7.2919     5.6948   159.4059
 2986.5000   104.6927     9.0118     2.5230     0.0778     0.0215   -24.4047     7.3663     5.7532   160.9958
 2987.0000    99.1622     9.0118     2.5367     0.0724     0.0193   -24.4038     7.2809     5.8402   162.3932
 2987.5000    97.9586     9.0118     2.5545     0.0592     0.0167   -24.4054     7.1168     5.8257   163.3663
 2988.0000   104.3992     9.0118     2.5787     0.0406     0.0424   -24.4078     6.9941     5.6270   168.8317
 2988.5000   109.9563     9.0118     2.5701     0.0477     0.0486   -24.4045     6.9334     5.3114   173.0240
 2989.0000   113.6341     9.0118     2.5441     0.0598     0.0530   -24.3993     6.8688     5.0031   175.2475
 2989.5000   114.1138     9.0119     2.5379     0.0699     0.0375   -24.4062     6.7235     4.7462   193.0467
 2990.0000   116.2502     9.0118     2.5438     0.0588     0.0446   -24.4170     6.4441     4.5067   205.1579
 2990.5000   120.1636     9.0115     2.5431     0.0651     0.0519   -24.3920     6.0322     4.2563   217.2692
 2991.0000   124.0174     9.0067     2.5381     0.0675     0.0551   -24.3055     5.5818     3.9927   229.3805
 2991.5000   127.7773     9.0026     2.5157     0.0799     0.0480   -24.1801     5.2208     3.7197   241.4917
 2992.0000   131.8042     8.9981     2.4876     0.0930     0.0402   -24.0490     4.9881     3.4671   253.6030
 2992.5000   131.1496     8.9938     2.4995     0.0992     0.0399   -23.9105     4.8155     3.2986   265.7143
 2993.0000   129.4862     8.9895     2.5024     0.0926     0.0557   -23.7603     4.6319     3.2462   278.2178
 2993.5000   127.7214     8.9851     2.4993     0.0873     0.0676   -23.6397     4.4460     3.2617   282.1782
 2994.0000   127.3049     8.9808     2.4904     0.1000     0.0545   -23.6021     4.3116     3.2748   282.1782
 2994.5000   126.8472     8.9764     2.4982     0.0952     0.0636   -23.6436     4.2528     3.2684   281.6287
 2995.0000   127.4710     8.9721     2.5029     0.0930     0.0667   -23.7091     4.2499     3.2635   281.2211
 2995.5000   128.9578     8.9677     2.4952     0.0988     0.0591   -23.7598     4.2772     3.2656   280.8135
 2996.0000   130.3255     8.9634     2.4914     0.1008     0.0505   -23.7999     4.3153     3.2658   280.4059
 2996.5000   131.6064     8.9591     2.4975     0.0977     0.0485   -23.8458     4.3330     3.2682   280.1980
 2997.0000   133.0634     8.9547     2.5019     0.0941     0.0537   -23.9021     4.2960     3.2741   284.1584
 2997.5000   134.4871     8.9503     2.4983     0.0929     0.0494   -23.9597     4.2033     3.2574   284.1584
 2998.0000   137.6277     8.9461     2.4944     0.0956     0.0408   -23.9998     4.0769     3.1878   291.9406
 2998.5000   140.8194     8.9415     2.4901     0.0982     0.0483   -24.0055     3.9192     3.0703   301.9802
 2999.0000   142.7292     8.9376     2.4909     0.0980     0.0569   -23.9804     3.7304     2.9379   312.7921
 2999.5000   142.1414     8.9342     2.4930     0.0961     0.0653   -23.9475     3.5525     2.8138   329.9109
 3000.0000   141.7196     8.9497     2.4937     0.0953     0.0709   -23.9214     3.4397     2.6968   343.5644
 3000.5000   142.0740     8.9654     2.4930     0.0994     0.0756   -23.9004     3.3841     2.5751   357.0340
 3001.0000   143.7013     8.9820     2.4822     0.0997     0.0651   -23.8780     3.3311     2.4463   368.2360
 3001.5000   145.8921     8.9981     2.4704     0.0977     0.0525   -23.8463     3.2584     2.3193   379.4380
 3002.0000   146.2786     9.0117     2.4626     0.1010     0.0499   -23.8131     3.1828     2.1985   393.0693
 3002.5000   152.8209     9.0084     2.4753     0.1088     0.0569   -23.7938     3.1216     2.0791   409.5545
 3003.0000   153.9397     8.9988     2.4655     0.1163     0.0633   -23.7827     3.0934     1.9481   430.6047
 3003.5000   154.5152     8.9890     2.4478     0.1235     0.0540   -23.7460     3.0778     1.8087   451.6550
 3004.0000   153.4910     8.9792     2.4163     0.1293     0.0515   -23.6970     3.0179     1.6965   472.7053
 3004.5000   152.0168     8.9723     2.4460     0.1277     0.0657   -23.6996     2.8988     1.6549   502.9703
 3005.0000  -999.2500     8.9752     2.4342     0.1277     0.0636   -23.7292     2.8119     1.6762   511.2871
 3005.5000  -999.2500     8.9815     2.4294     0.1364     0.0655   -23.6640     2.7970     1.7085   520.7921
 3006.0000  -999.2500     8.9881     2.4361     0.1324     0.0847   -23.5413     2.7717     1.7709   497.0297
 3006.5000  -999.2500     8.9921     2.4465     0.1226     0.1061   -23.5908     2.9402     1.9775   456.4356
 3007.0000  -999.2500     9.0017     2.4565     0.1158     0.1105   -23.8616     3.1374     2.3054   424.8911
 3007.5000  -999.2500     9.0056     2.4665     0.1143     0.0916   -24.1711     3.4257     2.5099   402.9703
 3008.0000  -999.2500     8.9966     2.5082     0.0849     0.0742   -24.6931     4.2294     2.5155   323.6040
 3008.5000  -999.2500  -999.2500     2.5554     0.0556     0.0697   -26.2194     5.7227     2.8003   264.4356
 3009.0000  -999.2500  -999.2500     2.5407     0.0741     0.0652   -29.4066     7.6238     4.1120   205.2673
 3009.5000  -999.2500  -999.2500     2.4908     0.0984     0.0770   -33.8938    12.5743     6.8067   165.3465
 3010.0000  -999.2500  -999.2500     2.4449     0.1228     0.0876   -38.3524    19.5049    10.4968   114.0028
 3010.5000  -999.2500  -999.2500     2.4043     0.1348     0.0854   -41.2383    20.3025    14.1123    56.4356
 3011.0000  -999.2500  -999.2500     2.4570     0.1174     0.0954   -41.5579    21.2871    16.3381    54.4554
 3011.5000  -999.2500  -999.2500     2.5066     0.1010     0.1113   -39.4061    20.1188    16.4770    56.4356
 3012.0000  -999.2500  -999.2500     2.5470     0.0846     0.1138   -35.9547    18.4753    15.0477    61.1989
 3012.5000  -999.2500  -999.2500     2.5664     0.0682     0.0996   -32.5920    16.8317    13.1874    70.6121
 3013.0000  -999.2500  -999.2500     2.5908     0.0549     0.0950   -29.9470    15.1881    11.4908    80.0252
 3013.5000  -999.2500  -999.2500     2.6126     0.0371     0.0972   -27.8947    13.5445     9.8785    89.4383
 3014.0000  -999.2500  -999.2500     2.6187     0.0223     0.0839   -26.2848    11.3861     8.3956    98.0198
 3014.5000  -999.2500  -999.2500     2.6021     0.0301     0.0680   -25.1996    10.9262     7.3653   117.9519
 3015.0000  -999.2500  -999.2500     2.5961     0.0457     0.0681   -24.6047    10.4121     6.7552   136.2659
 3015.5000  -999.2500  -999.2500     2.5399     0.0613     0.0475   -24.2344     9.6939     6.1379   154.5799
 3016.0000  -999.2500  -999.2500     2.5345     0.0731     0.0498   -23.8962     9.2150     5.3981   172.8939
 3016.5000  -999.2500  -999.2500     2.5212     0.0812     0.0543   -23.6187     8.8844     4.8857   191.2079
 3017.0000  -999.2500  -999.2500     2.5085     0.0893     0.0575   -23.4705     8.5536     4.7882   200.9901
 3017.5000  -999.2500  -999.2500     2.5037     0.0929     0.0608   -23.3913     8.0805     4.8514   200.9901
 3018.0000  -999.2500  -999.2500     2.5077     0.0897     0.0653   -23.2692     8.1322     4.7996   199.9872
 3018.5000  -999.2500  -999.2500     2.5187     0.0949     0.0710   -23.0707     8.1292     4.6735   199.1920
 3019.0000  -999.2500  -999.2500     2.4869     0.1033     0.0761   -22.8948     8.4132     4.6384   198.3967
 3019.5000  -999.2500  -999.2500     2.4558     0.1116     0.0641   -22.9312     8.6897     4.7148   197.6014
 3020.0000  -999.2500  -999.2500     2.4395     0.1200     0.0693   -23.3227     8.4427     4.8034   196.8061
 3020.5000  -999.2500  -999.2500     2.4491     0.1230     0.0899   -23.9580     8.5440     4.8361   196.0109
