~VERSION INFORMATION
 VERS.                2.0:   CWLS LOG ASCII STANDARD - VERSION 2.0
 WRAP.                 NO:   ONE LINE PER DEPTH STEP
~WELL INFORMATION
#MNEM.UNIT      DATA TYPE    INFORMATION
#----------   ------------   ------------------------------
 STRT.F           34.0000:   START DEPTH
 STOP.F          638.0000:   STOP DEPTH
 STEP.F            0.5000:   STEP LENGTH
 NULL.          -999.2500:   NO VALUE
 COMP. FENIX & SCISSON INC:   COMPANY
 WELL. S N.P.R. #3 #33-34:   WELL
 FLD .             TEAPOT:   FIELD
 LOC .      S34 T39N R78W:   LOCATION
 CNTY.            NATRONA:   COUNTY
 STAT.            WYOMING:   STATE
 CTRY. UNITED STATES OF AMERICA:   COUNTRY
 SRVC.       Schlumberger:   SERVICE COMPANY
 DATE.        18-MAR-1977:   LOGDATE
 API .       490251030400:   API NUMBER
~CURVE INFORMATION
#MNEM.UNIT       API CODE    CURVE DESCRIPTION
#----------   ------------   ------------------------------
 DEPT.F                  :   
 LL8 .OHMM   07 220 08 00:   LATEROLOG-8 RES.
 ILD .OHMM   07 120 46 00:   INDUCTION LOG DEEP
 ILM .OHMM   07 120 44 00:   INDUCTION LOG MEDIUM
 SPR .MV     07 010 01 00:   SPONTANEOUS POTENTIAL
 GRD .GAPI   45 310 01 00:   GAMMA RAY FROM DENSITY LOG
 CALD.IN     45 280 60 00:   CALIPER FROM DENSITY LOG
 RHOB.G/C3   45 350 01 00:   BULK DENSITY
 CORR.G/C3   45 356 01 00:   DENSITY CORRECTION
 DPHI.DEC    45 890 12 00:   DENSITY POROSITY SANDSTONE
~PARAMETER INFORMATION
#MNEM.UNIT          VALUE    DESCRIPTION
#----------   ------------   ------------------------------
 PD  .                 GL:   PERMANENT DATUM
 EPD .F              5081:   ELEVATION PERMANENT DATUM
 LMF .                 KB:   LOG MEASURED FROM
 DAPD.F                 5:   FEET ABOVE PERMANENT DATUM
 DMF .                 KB:   DRILLING MEASURED FROM
 EKB .F              5086:   KELLING BUSHING
 EGL .F              5081:   GROUND LEVEL
 DATE.            3-18-77:   RUN DATE
 RUN .                  1:   RUN NUMBER
 DD  .F               631:   DEPTH DRILLER
 DL  .F               637:   DEPTH LOGGER
 BLI .F               631:   BOTTOM LOG INTERVAL
 TLI .F                45:   TOP LOG INTERVAL
 CS  .IN            8.625:   CASING SIZE
 CBD .F                40:   CASING BOTTOM DRILLER
 CBL .F                45:   CASING BOTTOM LOGGER
 BS  .IN            7.875:   BIT SIZE
 BSD .F               631:   BIT SIZE AT DEPTH
 DFT .            KCL MUD:   DRILLING FLUID TYPE
 DFD .                8.7:   DRILLING FLUID DENSITY
 DFV .                 31:   DRILLING FLUID VISCOSITY
 DFPH.                  8:   DRILLING FLUID PH
 DFL .                8.2:   DRILLING FLUID LOSS
 MSS .                PIT:   MUD SAMPLE SOURCE
 RMS .OHMM            .27:   RESISTIVITY MUD SAMPLE
 MST .F                60:   MUD SAMPLE TEMPERATURE
 RMF .OHMM            .25:   RESISTIVITY MUD FILTRATE SAMPLE
 MFST.F                60:   MUD FILTRATE SAMPLE TEMPERATURE
 MFSS.                  M:   MUD FILTRATE SAMPLE SOURCE
 TCS .HRS            0400:   TIME CURCULATED STOPPED
 TLAB.HRS            0530:   TIME LOGGER AT BOTTOM
 LUN .               7711:   LOGGING UNIT NUMBER
 LUL .               CSPR:   LOGGING UNIT LOCATION
 ENGI.             SAYLER:   RECORDING ENGINEER
 WITN.         STUEBINGER:   WITNESSED BY
 CLNT.            A2DTECH:   CLIENT CODE
 ORIG.        2" 5" PRINT:   ORIGIN OF DATA
 UWI .       490251030400:   UNIQUE WELL ID
 DICO. A2D Technologies, Inc.:   DIGITIZING COMPANY
~OTHER INFORMATION
~A   DEPT      LL8        ILD        ILM        SPR         GRD      CALD       RHOB       CORR       DPHI   
# ...
  362.5000     4.8750     4.4049     5.1474   -44.4720    94.7491     8.6034     2.3121     0.0154     0.2200
  363.0000     5.3705     4.8141     5.5199   -44.3873    99.3481     8.3421     2.3605     0.0246     0.1793
  363.5000     5.9163     5.2613     5.9193   -44.3027    99.9318     8.3297     2.3922     0.0165     0.1568
  364.0000     6.3005     5.7501     6.3476   -44.2183    98.4573     8.3260     2.4029     0.0118     0.1493
  364.5000     6.4700     6.2842     6.5967   -44.1340    98.8550     8.3216     2.4286     0.0188     0.1342
  365.0000     6.6025     6.8436     6.7190   -44.0498   101.1451     8.3169     2.4487     0.0245     0.1226
  365.5000     6.6606     6.9068     6.6936   -43.9655   103.4104     8.3121     2.4467     0.0194     0.1272
  366.0000     6.6118     6.8863     6.6542   -43.8812   105.6670     8.3074     2.4401     0.0143     0.1314
  366.5000     6.5760     6.8397     6.6150   -43.7969   107.9350     8.3027     2.4336     0.0131     0.1266
  367.0000     6.5398     6.7934     6.5760   -43.7126   109.2597     8.2980     2.4271     0.0123     0.1331
  367.5000     6.5037     6.7474     6.5382   -43.6283   109.6522     8.2932     2.4206     0.0083     0.1418
  368.0000     6.4768     6.7017     6.5012   -43.5440   108.6272     8.2885     2.4194     0.0129     0.1422
  368.5000     6.5308     6.6575     6.4209   -43.4595   107.2006     8.2838     2.4246     0.0142     0.1363
  369.0000     6.5753     6.5363     6.2981   -43.3750   105.7611     8.2791     2.4296     0.0139     0.1340
  369.5000     6.6201     6.2334     5.9022   -43.2886   104.3139     8.2763     2.4326     0.0136     0.1318
  370.0000     6.6652     5.8191     5.5100   -43.2121   103.2436     8.2764     2.4288     0.0117     0.1318
  370.5000     6.7107     5.4482     5.1054   -43.7327   102.5905     8.2763     2.4159     0.0096     0.1411
  371.0000     6.7190     5.1153     4.7221   -44.3404   103.7880     8.2763     2.3990     0.0076     0.1503
  371.5000     6.2428     4.8029     4.3673   -44.9492   105.0350     8.2763     2.3990     0.0070     0.1538
  372.0000     4.8531     4.5101     4.0389   -45.5568   106.2803     8.2763     2.3820     0.0077     0.1603
  372.5000     3.4340     4.2352     3.7976   -46.1701   107.5315     8.2763     2.3618     0.0145     0.1710
  373.0000     3.7633     3.9422     3.9020   -46.3909   108.6841     8.2763     2.3412     0.0210     0.1816
  373.5000     4.7079     3.9436     4.0763   -46.2266   107.7617     8.2764     2.3342     0.0275     0.1922
  374.0000     5.3973     3.9421     4.2576   -45.9646   106.6292     8.2806     2.3537     0.0257     0.1926
  374.5000     4.9268     4.1666     4.4463   -45.7008   104.9108     8.2915     2.3741     0.0160     0.1775
  375.0000     4.7826     4.3625     4.6431   -45.4371   103.2160     8.3023     2.3945     0.0152     0.1588
  375.5000     5.2419     4.5674     4.8485   -45.1738   101.9587     8.3131     2.4034     0.0132     0.1515
  376.0000     5.8004     4.7817     5.0631   -44.9104   101.4305     8.3238     2.4014     0.0067     0.1516
  376.5000     5.7216     5.0061     5.2872   -44.6469   101.1887     8.3346     2.4026     0.0063     0.1522
  377.0000     5.6427     5.2409     5.5211   -44.3841   102.3944     8.3454     2.4129     0.0078     0.1467
  377.5000     5.9139     5.4868     5.7655   -44.1198   103.5578     8.3562     2.4221     0.0169     0.1403
  378.0000     6.2027     5.7442     6.0206   -44.0209   104.1290     8.3670     2.4296     0.0263     0.1340
  378.5000     6.5056     6.0137     6.2870   -44.0427   104.5237     8.3753     2.4252     0.0135     0.1318
  379.0000     6.8233     6.2958     6.5652   -44.0653   104.1454     8.3714     2.4219     0.0104     0.1418
  379.5000     7.1565     6.5912     6.8557   -44.0885   103.7872     8.3677     2.4331     0.0091     0.1312
  380.0000     7.3656     6.7810     7.1653   -44.1115   103.6674     8.3640     2.4451     0.0185     0.1222
  380.5000     7.5714     6.8436     7.1653   -44.1344   103.5418     8.3604     2.4490     0.0146     0.1225
  381.0000     7.5057     6.9068     7.1653   -44.1573   103.3285     8.3567     2.4517     0.0126     0.1212
  381.5000     7.4221     6.9068     7.0767   -44.1799   103.1078     8.3521     2.4583     0.0183     0.1187
  382.0000     7.3394     6.8540     6.9640   -44.2057   102.4803     8.3473     2.4534     0.0188     0.1212
  382.5000     7.2576     6.7864     6.8532   -44.3450   101.5199     8.3424     2.4443     0.0144     0.1236
  383.0000     7.1767     6.7195     6.7441   -44.4981   103.8907     8.3376     2.4437     0.0135     0.1246
  383.5000     7.0967     6.6532     6.6367   -44.6512   106.4320     8.3328     2.4501     0.0201     0.1218
  384.0000     7.0176     6.5877     6.5311   -44.8043   108.6794     8.3279     2.4665     0.0264     0.1153
  384.5000     6.9394     6.5228     6.4271   -44.9573   109.9930     8.3231     2.4698     0.0248     0.1134
  385.0000     6.8621     6.4587     6.3248   -45.1102   108.6197     8.3182     2.4636     0.0230     0.1142
  385.5000     6.7548     6.3042     6.0321   -45.2632   106.6295     8.3180     2.4573     0.0212     0.1169
  386.0000     6.6397     5.9972     5.6968   -45.4162   104.6521     8.3213     2.4522     0.0194     0.1197
  386.5000     6.5265     5.7056     5.3789   -45.5692   104.3833     8.3247     2.4480     0.0177     0.1224
  387.0000     6.4152     5.4283     5.0790   -45.7222   105.3494     8.3281     2.4429     0.0162     0.1251
  387.5000     6.3005     5.1644     4.7966   -45.8754   107.6284     8.3314     2.4321     0.0186     0.1288
  388.0000     5.3399     5.0234     4.5679   -46.0283   109.6137     8.3348     2.4213     0.0227     0.1342
  388.5000     4.4872     4.9240     4.5261   -46.1809   108.3922     8.3382     2.4107     0.0268     0.1422
  389.0000     3.8665     4.8267     4.6864   -46.3393   106.6338     8.3415     2.4032     0.0333     0.1499
  389.5000     4.6546     4.7812     4.9954   -46.1400   106.1978     8.3449     2.4140     0.0534     0.1459
  390.0000     5.9053     4.7826     5.3249   -45.7474   105.5490     8.3483     2.4233     0.0758     0.1382
  390.5000     7.0349     4.9632     5.6760   -45.3525   104.2941     8.3516     2.4229     0.0630     0.1401
  391.0000     7.1653     5.3166     6.0503   -44.9575   102.9784     8.3549     2.4324     0.0459     0.1343
  391.5000     7.2315     5.6951     6.4765   -44.5594   102.9924     8.3636     2.4301     0.0290     0.1337
  392.0000     7.1381     6.1005     6.5807   -44.3839   104.6155     8.3740     2.4325     0.0171     0.1327
  392.5000     7.0567     6.4765     6.6971   -44.3271   106.3535     8.3845     2.4419     0.0243     0.1268
  393.0000     7.0349     6.5967     6.8148   -44.2720   107.3937     8.3952     2.4512     0.0292     0.1209
  393.5000     7.2101     6.7190     6.9340   -44.2175   106.3893     8.3984     2.4583     0.0284     0.1168
  394.0000     7.4044     6.7638     7.0553   -44.1627   105.3541     8.4012     2.4557     0.0197     0.1196
  394.5000     7.6042     6.8261     7.1788   -44.1078   104.3111     8.4041     2.4468     0.0144     0.1243
  395.0000     7.8542     6.8890     7.3044   -44.0532   103.2196     8.4070     2.4376     0.0118     0.1294
  395.5000     7.8492     6.9525     7.3733   -43.9894   103.5641     8.4099     2.4355     0.0104     0.1294
  396.0000     7.8391     7.0165     7.3974   -43.8880   104.3589     8.4128     2.4355     0.0105     0.1294
  396.5000     7.8293     7.0998     7.4217   -43.7850   105.1638     8.4157     2.4368     0.0107     0.1289
  397.0000     7.8197     7.0889     7.4461   -43.6820   105.9691     8.4185     2.4393     0.0114     0.1284
  397.5000     7.8103     7.0736     7.4705   -43.5791   106.4575     8.4214     2.4456     0.0116     0.1278
  398.0000     7.8009     7.0584     7.5022   -43.4762   106.0511     8.4243     2.4555     0.0193     0.1214
  398.5000     7.7915     7.0432     7.4847   -43.3732   105.0175     8.4272     2.4655     0.0253     0.1143
