~VERSION INFORMATION
 VERS.                2.0:   CWLS LOG ASCII STANDARD - VERSION 2.0
 WRAP.                 NO:   ONE LINE PER DEPTH STEP
~WELL INFORMATION
#MNEM.UNIT      DATA TYPE    INFORMATION
#----------   ------------   ------------------------------
 STRT.F           34.0000:   START DEPTH
 STOP.F          576.0000:   STOP DEPTH
 STEP.F            0.5000:   STEP LENGTH
 NULL.          -999.2500:   NO VALUE
 COMP. FENIX & SCISSON INC:   COMPANY
 WELL.   NPR-3 #22 SX 3-3:   WELL
 FLD .             TEAPOT:   FIELD
 LOC .       S3 T38N R78W:   LOCATION
 CNTY.            NATRONA:   COUNTY
 STAT.            WYOMING:   STATE
 CTRY. UNITED STATES OF AMERICA:   COUNTRY
 SRVC.            Unknown:   SERVICE COMPANY
 DATE.        17-JUL-1978:   LOGDATE
 API .       490251066700:   API NUMBER
~CURVE INFORMATION
#MNEM.UNIT       API CODE    CURVE DESCRIPTION
#----------   ------------   ------------------------------
 DEPT.F                  :   
 SN  .OHMM   05 040 16 00:   SHORT NORMAL 16"
 ILD .OHMM   05 120 46 00:   INDUCTION LOG DEEP
 SPR .MV     05 010 01 00:   SPONTANEOUS POTENTIAL FROM RES.
 CALD.IN     45 280 60 00:   CALIPER FROM DENSITY LOG
 GRD .GAPI   45 310 01 00:   GAMMA RAY FROM DENSITY LOG
 CORR.G/C3   45 356 01 00:   DENSITY CORRECTION
 DPHI.DEC    45 890 12 00:   DENSITY POROSITY SANDSTONE
 DEN .G/C3   45 350 01 00:   COMPENSATED BULK DENSITY
~PARAMETER INFORMATION
#MNEM.UNIT          VALUE    DESCRIPTION
#----------   ------------   ------------------------------
 PD  .                 GL:   PERMANENT DATUM
 EPD .F              5193:   ELEVATION PERMANENT DATUM
 LMF .                 KB:   LOG MEASURED FROM
 DAPD.F                 4:   FEET ABOVE PERMANENT DATUM
 DMF .                 KB:   DRILLING MEASURED FROM
 EKB .F              5197:   KELLING BUSHING
 EGL .F              5193:   GROUND LEVEL
 DATE.        17-JUL-1978:   RUN DATE
 RUN .                  1:   RUN NUMBER
 DD  .F               570:   DEPTH DRILLER
 DL  .F               576:   DEPTH LOGGER
 BLI .F               576:   BOTTOM LOG INTERVAL
 CS  .IN            8.625:   CASING SIZE
 CBD .F                30:   CASING BOTTOM DRILLER
 BS  .IN            7.875:   BIT SIZE
 BSD .F               570:   BIT SIZE AT DEPTH
 DFT .            MUD KCL:   DRILLING FLUID TYPE
 DFD .                8.6:   DRILLING FLUID DENSITY
 DFV .                 32:   DRILLING FLUID VISCOSITY
 DFL .                 15:   DRILLING FLUID LOSS
 MSS .           FLOWLINE:   MUD SAMPLE SOURCE
 RMS .OHMM            .18:   RESISTIVITY MUD SAMPLE
 MST .F                86:   MUD SAMPLE TEMPERATURE
 RMF .OHMM            .17:   RESISTIVITY MUD FILTRATE SAMPLE
 MFST.F                94:   MUD FILTRATE SAMPLE TEMPERATURE
 RMC .OHMM            .34:   RESISTIVITY MUD CAKE
 MCST.F                94:   MUD CAKE SAMPLE TEMPERATURE
 MFSS.               MEAS:   MUD FILTRATE SAMPLE SOURCE
 TCS .HRS            0300:   TIME CURCULATED STOPPED
 LUN .               2958:   LOGGING UNIT NUMBER
 LUL .               CASP:   LOGGING UNIT LOCATION
 ENGI.             MILLER:   RECORDING ENGINEER
 WITN.           MCGINLEY:   WITNESSED BY
 CLNT.            A2DTECH:   CLIENT CODE
 ORIG.           5" PRINT:   ORIGIN OF DATA
 UWI .       490251066700:   UNIQUE WELL ID
 DICO. A2D Technologies, Inc.:   DIGITIZING COMPANY
~OTHER INFORMATION
~A   DEPT       SN        ILD        SPR       CALD         GRD      CORR       DPHI        DEN   
# ...
  196.0000     7.8039     8.8341   -40.5952     8.0000    77.3681     0.0064     0.1761     2.3956
  196.5000     7.7550     8.8395   -40.7294     8.0000    76.2121     0.0049     0.1683     2.3970
  197.0000     7.7030     8.7828   -40.7143     7.9855    75.9244    -0.0025     0.1668     2.3985
  197.5000     7.6582     8.7895   -40.6966     7.9855    76.2177    -0.0054     0.1668     2.4000
  198.0000     7.6640     8.7948   -40.3844     7.9855    77.6698    -0.0024     0.1669     2.4015
  198.5000     7.7216     8.8001   -39.3282     7.9855    84.1943     0.0036     0.1651     2.3992
  199.0000     7.7263     8.7450   -39.7601     7.9855    84.9217     0.0156     0.1609     2.3978
  199.5000     7.7844     8.7503   -39.8979     7.9855    79.8947     0.0231     0.1585     2.3993
  200.0000     7.7734     8.6359   -39.4370     7.9855    70.0002     0.0112     0.1585     2.4176
  200.5000     7.6343     8.5502   -40.0172     7.9802    70.5828    -0.0022     0.1585     2.4431
  201.0000     7.5860     8.4108   -38.6662     7.9748    71.7450    -0.0082     0.1609     2.4260
  201.5000     7.4853     8.3002   -38.8036     7.9706    72.7623    -0.0067     0.1698     2.4125
  202.0000     7.4379     8.0792   -39.3909     7.9704    72.1602    -0.0022     0.1639     2.3973
  202.5000     7.3402     7.9139   -39.8388     7.9703    67.1165     0.0112     0.1559     2.3992
  203.0000     7.2446     7.6988   -40.4054     7.9701    66.8288     0.0216     0.1541     2.4208
  203.5000     7.1989     7.5032   -40.2420     7.9700    67.5569     0.0293     0.1523     2.4215
  204.0000     7.1495     7.3033   -40.5280     7.9844    71.6177     0.0350     0.1437     2.4245
  204.5000     7.0593     7.2074   -41.4092     8.0277    74.6640     0.0112     0.1597     2.4379
  205.0000     7.0641     7.1126   -42.1445     8.0855    76.1161    -0.0052     0.1579     2.4393
  205.5000     7.0184     7.1165   -42.5764     8.0274    74.8146    -0.0067     0.1719     2.4309
  206.0000     7.0232     7.1203   -43.3088     8.0272    73.6580    -0.0037     0.1713     2.3985
  206.5000     7.0269     7.1242   -43.2971     8.0271    75.4843     0.0082     0.1686     2.3873
  207.0000     7.0307     7.1772   -42.9879     8.0269    79.3165     0.0231     0.1639     2.3932
  207.5000     7.0831     7.1811   -42.6786     8.0413    80.4787     0.0261     0.1609     2.4036
  208.0000     7.0869     7.2346   -42.5179     8.0846    80.7714     0.0261     0.1588     2.4110
  208.5000     7.0907     7.2386   -42.3548     8.1135    76.8612     0.0246     0.1571     2.4140
  209.0000     7.1436     7.2926   -42.1944     8.0264    72.9510     0.0261     0.1553     2.4140
  209.5000     7.1475     7.2974   -41.7363     7.9972    72.3734     0.0276     0.1529     2.4162
  210.0000     7.2016     7.3013   -41.5758     7.9826    75.8552     0.0380     0.1505     2.4238
  210.5000     7.2553     7.3557   -41.7159     7.9811    81.0754     0.0410     0.1423     2.4311
  211.0000     7.3093     7.3597   -41.8531     7.9823    80.1836     0.0335     0.1380     2.4430
  211.5000     7.3638     7.4145   -41.8385     7.9821    79.7767     0.0246     0.1371     2.4519
  212.0000     7.4186     7.4698   -41.6781     7.9530    82.5331     0.0111     0.1437     2.4586
  212.5000     7.4739     7.4738   -41.5176     7.8804    77.0294     0.0002     0.1591     2.4370
  213.0000     7.4779     7.5295   -41.2083     7.7788    74.8583    -0.0022     0.1630     2.4199
  213.5000     7.5336     7.5335   -40.8844     7.7352    80.3684     0.0067     0.1627     2.4139
  214.0000     7.5380     7.5376   -40.5869     7.7496    81.6748     0.0156     0.1550     2.4019
  214.5000     7.5418     7.5461   -40.4265     7.7639    74.7218     0.0142     0.1446     2.4109
  215.0000     7.5980     7.5980   -41.1589     7.7783    74.2654     0.0082     0.1458     2.4288
  215.5000     7.6030     7.5498   -41.7425     7.7926    78.3729    -0.0007     0.1464     2.4399
  216.0000     7.6071     7.5549   -42.1773     7.8070    76.9049    -0.0067     0.1493     2.4407
  216.5000     7.6112     7.5071   -42.4661     7.8358    73.4295    -0.0082     0.1639     2.4317
  217.0000     7.6153     7.4597   -42.4516     7.8662    70.5338    -0.0082     0.1743     2.4020
  217.5000     7.6194     7.4115   -42.4399     7.9080    69.9569    -0.0067     0.1746     2.3938
  218.0000     7.5193     7.3646   -43.3212     7.9078    68.6553    -0.0022     0.1767     2.3893
  218.5000     7.3695     7.2688   -42.5655     7.9222    69.3828     0.0156     0.1698     2.3893
  219.0000     7.2727     7.2227   -43.7569     7.9510    75.4726     0.0097     0.1621     2.3930
  219.5000     7.2267     7.1771   -43.8815     7.9509    84.4609     0.0037     0.1573     2.4131
  220.0000     7.1794     7.1810   -44.0186     7.9507    86.0579    -0.0037     0.1535     2.4198
  220.5000     7.1355     7.1850   -44.0041     7.9071    84.9609    -0.0067     0.1710     2.4098
  221.0000     7.1403     7.1889   -42.0579     7.8635    73.0208    -0.0022     0.1737     2.3930
  221.5000     7.1442     7.2433   -42.3439     7.8488    69.3997     0.0007     0.1710     2.3893
  222.0000     7.1480     7.2472   -42.3322     7.8777    79.4032     0.0037     0.1651     2.3870
  222.5000     7.1519     7.3012   -42.3206     7.9210    83.6090     0.0037     0.1689     2.4064
  223.0000     7.2052     7.3052   -42.1601     7.9666    80.7132     0.0052     0.1651     2.4101
  223.5000     7.2090     7.3596   -41.7021     8.0077    79.9913     0.0082     0.1648     2.3982
  224.0000     7.2129     7.3636   -40.9464     8.0220    80.7189     0.0156     0.1660     2.4063
  224.5000     7.1673     7.3160   -40.6369     8.0219    86.3687     0.0231     0.1684     2.4047
  225.0000     7.1712     7.3209   -40.7743     8.0217    90.3140     0.0171     0.1844     2.3985
  225.5000     7.1751     7.2747   -40.4621     7.9926    88.5541     0.0035     0.2103     2.3862
  226.0000     7.1296     7.2786   -40.4505     7.9634    81.6004     0.0246     0.2215     2.3424
  226.5000     7.1344     7.2325   -40.2900     7.9488    69.8641     0.0961     0.2076     2.3156
  227.0000     7.1870     7.2283   -40.2784     7.9487    72.1858     0.1542     0.1755     2.3134
  227.5000     7.1914     7.1423   -40.1179     7.9485    82.3335     0.1945     0.1624     2.3267
  228.0000     7.1953     7.0962   -39.9575     7.9484    85.0900     0.2139     0.1409     2.3899
  228.5000     7.1008     7.0513   -40.0946     7.9628    84.2232     0.1990     0.1188     2.4657
  229.0000     7.1046     6.9596   -41.7199     8.0061    81.5767     0.0708     0.1086     2.5331
  229.5000     7.0595     6.7742   -42.7500     8.0204    79.0655     0.0230     0.1027     2.5386
  230.0000     7.0150     6.6385   -43.1944     8.0638    76.8411     0.0078     0.1440     2.4590
  230.5000     6.9694     6.5512   -43.6657     8.0781    75.8294     0.0052     0.1585     2.4122
  231.0000     6.7330     6.5556   -44.2031     8.0925    73.9482     0.0022     0.1577     2.4018
  231.5000     6.4257     6.6045   -44.3403     8.1213    73.0814    -0.0022     0.1571     2.4018
  232.0000     6.1682     6.4730   -43.4329     8.1066    75.6930    -0.0007     0.1695     2.4203
  232.5000     6.0462     6.2539   -42.9777     8.1065    77.4342     0.0052     0.1788     2.4067
  233.0000     6.0072     6.1751   -43.8560     8.1064    76.1334     0.0156     0.1790     2.3778
  233.5000     6.0527     6.1793   -44.1449     8.1062    74.3918     0.0231     0.1788     2.3742
  234.0000     6.0978     6.1826   -44.4309     8.0916    74.9409     0.0321     0.1734     2.3623
  234.5000     6.1432     6.2287   -44.2675     8.0770    81.9397     0.0350     0.1532     2.3571
  235.0000     6.2318     6.2751   -43.6606     8.0768    84.1164     0.0261     0.1473     2.3891
  235.5000     6.2782     6.3655   -42.4499     8.0766    84.6989     0.0171     0.1470     2.4285
  236.0000     6.3250     6.4573   -42.6171     8.0765    83.3974     0.0022     0.1532     2.4324
