~VERSION INFORMATION
 VERS.                2.0:   CWLS LOG ASCII STANDARD - VERSION 2.0
 WRAP.                 NO:   ONE LINE PER DEPTH STEP
~WELL INFORMATION
#MNEM.UNIT      DATA TYPE    INFORMATION
#----------   ------------   ------------------------------
 STRT.F           27.0000:   START DEPTH
 STOP.F          670.0000:   STOP DEPTH
 STEP.F            0.5000:   STEP LENGTH
 NULL.          -999.2500:   NO VALUE
 COMP. LAWRENCE/ALLISON INC:   COMPANY
 WELL. SX 11 WP 26 #26-11:   WELL
 FLD .           N.P.R #3:   FIELD
 LOC .      S11 T38N R78W:   LOCATION
 CNTY.            NATRONA:   COUNTY
 STAT.            WYOMING:   STATE
 CTRY. UNITED STATES OF AMERICA:   COUNTRY
 SRVC.            Unknown:   SERVICE COMPANY
 DATE.        11-SEP-1984:   LOGDATE
 API .       490251097700:   API NUMBER
~CURVE INFORMATION
#MNEM.UNIT       API CODE    CURVE DESCRIPTION
#----------   ------------   ------------------------------
 DEPT.F                  :   
 CNC .DEC    42 890 03 00:   NEUTRON POROSITY SANDSTONE
 AC  .US/F   60 520 00 00:   ACCOUSTIC SONIC
 SPR .MV     07 010 01 00:   SPONTANEOUS POTENTIAL
 RILD.OHMM   07 120 46 00:   INDUCTION LOG DEEP RESISTIVITY
 RILM.OHMM   07 120 44 00:   INDUCTION LOG MEDIUM RESISTIVITY
 RFOC.OHMM   07 220 04 00:   RESISTIVITY FOCUSED LOG
 GRD .GAPI   45 310 01 00:   GAMMA RAY FROM DENSITY LOG
 CALD.IN     45 280 60 00:   CALIPER FROM DENSITY LOG
 DEN .G/C3   45 350 01 00:   COMPENSATED BULK DENSTIY
 CORR.G/C3   45 356 01 00:   DENSITY CORRECTION
 PORD.DEC    45 890 12 00:   POROSITY DENSITY SANDSTONE
~PARAMETER INFORMATION
#MNEM.UNIT          VALUE    DESCRIPTION
#----------   ------------   ------------------------------
 PD  .                 GL:   PERMANENT DATUM
 EPD .F              5186:   ELEVATION PERMANENT DATUM
 LMF .                 GL:   LOG MEASURED FROM
 DMF .                 GL:   DRILLING MEASURED FROM
 EGL .F              5186:   GROUND LEVEL
 DATE.            9-11-84:   RUN DATE
 RUN .                  1:   RUN NUMBER
 DD  .F               672:   DEPTH DRILLER
 DL  .F               668:   DEPTH LOGGER
 BLI .F               668:   BOTTOM LOG INTERVAL
 TLI .F                45:   TOP LOG INTERVAL
 CS  .IN            8.625:   CASING SIZE
 CBD .F                42:   CASING BOTTOM DRILLER
 CBL .F                45:   CASING BOTTOM LOGGER
 BS  .IN            7.875:   BIT SIZE
 BSD .F               672:   BIT SIZE AT DEPTH
 DFT .          KCL WATER:   DRILLING FLUID TYPE
 MSS .               TANK:   MUD SAMPLE SOURCE
 RMS .OHMM            .36:   RESISTIVITY MUD SAMPLE
 MST .F                82:   MUD SAMPLE TEMPERATURE
 MFSS.                  C:   MUD FILTRATE SAMPLE SOURCE
 MCSS.                  C:   MUD CAKE SAMPLE SOURCE
 TCS .HRS               3:   TIME CURCULATED STOPPED
 MRT .F               100:   MAXIMUM RECORDED TEMPERATURE
 LUN .            HL 6307:   LOGGING UNIT NUMBER
 LUL .           GILLETTE:   LOGGING UNIT LOCATION
 ENGI.      FAHLSING/MACK:   RECORDING ENGINEER
 WITN.            JOHNSON:   WITNESSED BY
 CLNT.            A2DTECH:   CLIENT CODE
 ORIG.       2", 5" PRINT:   ORIGIN OF DATA
 UWI .       490251097700:   UNIQUE WELL ID
 DICO. A2D Technologies, Inc.:   DIGITIZING COMPANY
~OTHER INFORMATION
~A   DEPT      CNC          AC       SPR       RILD       RILM       RFOC        GRD       CALD        DEN       CORR       PORD   
# ...
   57.5000     0.2868   120.5170    38.8590    12.1900    12.6650    11.6180    77.1450     8.0330     2.3740     0.0470     0.1840
   58.0000     0.2800   122.2310    32.8040    12.2190    12.5230    11.2470    76.2290     8.0190     2.3720     0.0580     0.1820
   58.5000     0.2768   123.2170    26.7380    11.9890    12.3810    11.4280    77.8050     7.9980     2.3720     0.0690     0.1780
   59.0000     0.2830   121.2350    20.6500    11.7360    12.2380    11.7150    79.3520     7.9790     2.3810     0.0750     0.1750
   59.5000     0.2879   119.1870    16.9840    11.4830    11.8840    12.0030    80.8930     7.9870     2.3890     0.0700     0.1710
   60.0000     0.2839   117.1400    15.3740    11.2300    11.4950    12.2900    82.4440     8.0070     2.3980     0.0650     0.1660
   60.5000     0.2783   115.0920    13.7710    10.8100    11.1070    12.5610    82.7760     8.0170     2.4070     0.0610     0.1620
   61.0000     0.2764   114.5520    12.7240    10.0830    10.7410    12.3140    81.6130     8.0110     2.4080     0.0610     0.1620
   61.5000     0.2736   114.6510    11.6320     9.3550    10.1160    11.7720    80.4720     8.0060     2.4040     0.0610     0.1620
   62.0000     0.2906   115.1960    10.5560     8.6280     9.5240    11.2300    85.3770     7.9980     2.4030     0.0470     0.1550
   62.5000     0.2974   115.9460    10.6490     7.9000     8.9330    10.1730    92.6790     8.0850     2.4220     0.0320     0.1460
   63.0000     0.2990   116.6960    11.9620     7.3440     8.3410     8.8400    99.9320     8.2160     2.4430     0.0320     0.1360
   63.5000     0.3075   117.4400    14.6920     6.9970     7.7490     7.5690   105.1320     8.3190     2.4590     0.0400     0.1270
   64.0000     0.3155   117.5120    17.6550     6.6510     7.1580     7.2600   102.3830     8.3330     2.4680     0.0480     0.1230
   64.5000     0.3112   117.0390    21.1320     6.3040     6.5660     7.0960   101.1370     8.2930     2.4770     0.0550     0.1210
   65.0000     0.3078   116.2240    16.3040     5.9580     6.3170     7.3080   100.3910     8.2520     2.4780     0.0610     0.1200
   65.5000     0.3074   115.4080    11.0000     5.8380     6.2600     7.5600    99.6560     8.2120     2.4790     0.0560     0.1190
   66.0000     0.3099   114.5920     5.6080     5.7930     6.2020     7.8530    98.8960     8.1710     2.4760     0.0420     0.1240
   66.5000     0.3099   114.8850     2.2330     5.7850     6.1450     7.7160    99.8310     8.1300     2.4680     0.0270     0.1270
   67.0000     0.3070   115.4080    -0.6630     5.7770     6.1040     7.5520   102.2330     8.0890     2.4610     0.0170     0.1310
   67.5000     0.3039   115.9310    -3.7120     5.7690     6.0730     7.3880   105.8160     8.0530     2.4540     0.0300     0.1320
   68.0000     0.3194   116.4540    -6.8220     5.7610     6.0420     7.2240   109.4410     8.0360     2.4600     0.0460     0.1300
   68.5000     0.3283   116.6430    -9.9190     5.7520     6.0120     7.0600   109.5250     8.0180     2.4650     0.0630     0.1290
   69.0000     0.3308   116.2190   -12.8250     5.7430     6.0930     7.0310   106.3330     8.0010     2.4660     0.0750     0.1280
   69.5000     0.3301   115.7190   -14.7340     5.7940     6.1720     7.2910   103.0570     7.9830     2.4640     0.0670     0.1300
   70.0000     0.3221   115.2190   -15.4680     5.8780     6.2520     7.5040    99.7490     7.9650     2.4610     0.0530     0.1310
   70.5000     0.3055   114.7190   -15.8900     5.9610     6.3310     7.7160    98.2350     7.9580     2.4590     0.0390     0.1330
   71.0000     0.3003   114.2190   -16.2280     6.0450     6.4100     7.9260    99.7290     7.9750     2.4670     0.0310     0.1270
   71.5000     0.2951   113.7190   -16.5620     6.1290     6.4720     7.8000   101.1810     7.9940     2.4760     0.0350     0.1220
   72.0000     0.2955   113.3420   -16.8950     6.2130     6.5320     7.7190   102.6430     8.0140     2.4850     0.0400     0.1160
   72.5000     0.3037   113.0230   -17.2280     6.2950     6.4490     7.7690   104.1070     8.0120     2.4930     0.0460     0.1120
   73.0000     0.3136   112.7050   -17.5600     6.2380     6.3810     7.8670   105.4230     7.9990     2.4880     0.0510     0.1160
   73.5000     0.3250   112.3870   -17.7670     6.1420     6.3130     7.9260   104.7890     7.9850     2.4790     0.0570     0.1220
   74.0000     0.3160   112.2270   -17.9430     6.0470     6.2440     7.6920   103.7790     7.9720     2.4700     0.0620     0.1260
   74.5000     0.3091   112.4550   -18.1180     5.9510     6.1760     7.4990   102.3390     7.9580     2.4670     0.0680     0.1260
   75.0000     0.3070   112.6820   -18.2930     5.8560     6.1080     7.3060   100.2460     7.9700     2.4680     0.0710     0.1270
   75.5000     0.3088   112.9090   -18.4690     5.7420     6.0120     7.2280    98.1340     7.9840     2.4620     0.0650     0.1310
   76.0000     0.3280   113.1570   -18.6440     5.7550     6.0330     7.5260    96.1600     7.9980     2.4560     0.0530     0.1330
   76.5000     0.3316   113.0440   -18.8190     5.7880     6.0840     7.7740    97.7580     8.0120     2.4550     0.0420     0.1320
   77.0000     0.3341   112.9190   -18.9940     5.8200     6.1360     8.0220    99.5070     8.0170     2.4580     0.0380     0.1310
   77.5000     0.3450   112.7940   -19.1690     5.8530     6.1880     8.2560   101.2580     8.0150     2.4610     0.0460     0.1290
   78.0000     0.3418   112.6590   -19.3440     5.8860     6.2390     8.4260   103.0080     8.0130     2.4640     0.0530     0.1280
   78.5000     0.3219   112.3130   -19.5210     5.9190     6.2910     8.5970   104.6680     8.0110     2.4670     0.0470     0.1270
   79.0000     0.3099   111.9380   -19.7150     5.9520     6.3430     8.7710   103.5960     8.0090     2.4620     0.0410     0.1300
   79.5000     0.3067   111.5630   -20.1760     5.9850     6.3950     8.9340   102.4040     8.0070     2.4570     0.0350     0.1310
   80.0000     0.3240   111.5790   -20.6350     6.0310     6.4650     8.8090   103.4320     8.0050     2.4620     0.0360     0.1290
   80.5000     0.3092   111.7360   -21.0910     6.1380     6.5350     8.5950   104.7060     8.0030     2.4700     0.0490     0.1260
   81.0000     0.3067   111.8920   -21.5530     6.2440     6.6140     8.3760   104.4310     8.0010     2.4690     0.0630     0.1260
   81.5000     0.3042   111.4950   -21.9900     6.3510     6.7360     8.5830   102.4420     7.9990     2.4680     0.0600     0.1250
   82.0000     0.3024   110.6450   -22.5620     6.4570     6.8580     8.7960   100.4560     7.9970     2.4700     0.0570     0.1240
   82.5000     0.3012   109.7950   -23.1050     6.5640     6.9810     9.0090    99.1730     7.9950     2.4730     0.0530     0.1240
   83.0000     0.3000   108.9450   -23.6450     6.6700     7.1030     9.2210    99.4600     7.9930     2.4690     0.0500     0.1260
   83.5000     0.2938   108.2930   -24.1840     6.7770     7.2260     9.4410    99.7860     7.9910     2.4640     0.0470     0.1280
   84.0000     0.2948   107.8930   -24.7230     6.8830     7.3480     9.3530   100.0050     7.9890     2.4630     0.0470     0.1280
   84.5000     0.2960   107.6620   -25.2620     6.9890     7.4700     9.2610   100.0480     7.9870     2.4650     0.0450     0.1280
   85.0000     0.2944   107.4310   -25.8040     7.0960     7.5690     9.1840    98.0100     7.9850     2.4660     0.0430     0.1280
   85.5000     0.2888   106.9900   -26.2030     7.2280     7.4920     9.5910    95.4650     7.9830     2.4640     0.0410     0.1310
   86.0000     0.2845   106.4900   -26.5200     7.1790     7.3780     9.8860    92.8980     7.9810     2.4560     0.0300     0.1360
   86.5000     0.2956   106.3850   -26.8980     7.0910     7.2820     9.4940    90.2680     7.9790     2.4480     0.0100     0.1410
   87.0000     0.3176   106.9090   -27.0510     7.0030     7.1870     9.1540    91.7810     7.9770     2.4400    -0.0110     0.1440
   87.5000     0.3090   107.4330   -27.2070     6.9140     7.0910     8.9120    95.4620     7.9750     2.4400     0.0000     0.1420
