~VERSION INFORMATION
 VERS.                2.0:   CWLS LOG ASCII STANDARD - VERSION 2.0
 WRAP.                 NO:   ONE LINE PER DEPTH STEP
~WELL INFORMATION
#MNEM.UNIT      DATA TYPE    INFORMATION
#----------   ------------   ------------------------------
 STRT.F           17.0000:   START DEPTH
 STOP.F          592.0000:   STOP DEPTH
 STEP.F            0.5000:   STEP LENGTH
 NULL.          -999.2500:   NO VALUE
 COMP.   FLUOR DANIEL INC:   COMPANY
 WELL. NAVAL PETROLEUM RESERVE SX-1 87 #2-10:   WELL
 FLD .             TEAPOT:   FIELD
 LOC .      S10 T38N R78W:   LOCATION
 CNTY.            NATRONA:   COUNTY
 STAT.            WYOMING:   STATE
 CTRY. UNITED STATES OF AMERICA:   COUNTRY
 SRVC.      Western Atlas:   SERVICE COMPANY
 DATE.        20-JUL-1995:   LOGDATE
 API .       490252274200:   API NUMBER
~CURVE INFORMATION
#MNEM.UNIT       API CODE    CURVE DESCRIPTION
#----------   ------------   ------------------------------
 DEPT.F                  :   
 GRR .GAPI   07 310 01 00:   GAMMA RAY FROM RES. LOG.
 RILD.OHMM   07 120 46 00:   INDUCTION LOG DEEP RESISTIVITY
 RILM.OHMM   07 120 44 00:   INDUCTION LOG MEDIUM RESISTIVITY
~PARAMETER INFORMATION
#MNEM.UNIT          VALUE    DESCRIPTION
#----------   ------------   ------------------------------
 PD  .                 GL:   PERMANENT DATUM
 EPD .F              5221:   ELEVATION PERMANENT DATUM
 LMF .                 KB:   LOG MEASURED FROM
 DAPD.F                10:   FEET ABOVE PERMANENT DATUM
 DMF .                 KB:   DRILLING MEASURED FROM
 EKB .F              5231:   KELLING BUSHING
 EDF .F              5230:   DRILLING FLOOR
 EGL .F              5221:   GROUND LEVEL
 DATE.            7-20-95:   RUN DATE
 RUN .                  1:   RUN NUMBER
 DD  .F               599:   DEPTH DRILLER
 DL  .F               600:   DEPTH LOGGER
 BLI .F               592:   BOTTOM LOG INTERVAL
 TLI .F                54:   TOP LOG INTERVAL
 CS  .IN            9.625:   CASING SIZE
 CBD .F                54:   CASING BOTTOM DRILLER
 CBL .F                54:   CASING BOTTOM LOGGER
 BS  .IN             8.75:   BIT SIZE
 BSD .F               599:   BIT SIZE AT DEPTH
 DFT .                AIR:   DRILLING FLUID TYPE
 BHT .F                98:   BOTTOM HOLE TEMPERATURE
 MRT .F                98:   MAXIMUM RECORDED TEMPERATURE
 LUN .            HL 6539:   LOGGING UNIT NUMBER
 LUL .          RK. SPGS.:   LOGGING UNIT LOCATION
 ENGI.               RALL:   RECORDING ENGINEER
 WITN.             STRONG:   WITNESSED BY
 CLNT.            A2DTECH:   CLIENT CODE
 ORIG.        2" 5" PRINT:   ORIGIN OF DATA
 UWI .       490252274200:   UNIQUE WELL ID
 DICO. A2D Technologies, Inc.:   DIGITIZING COMPANY
~OTHER INFORMATION
~A   DEPT       GRR      RILD       RILM   
# ...
  381.0000    85.8806    20.6260    21.4546
  381.5000    86.1907    20.9439    22.0428
  382.0000    88.0335    21.6944    23.0372
  382.5000    89.8780    22.7700    24.5334
  383.0000    89.5405    23.8990    26.1268
  383.5000    87.5571    25.1699    26.7602
  384.0000    83.0006    25.4319    26.9364
  384.5000    78.4679    25.7010    27.1137
  385.0000    76.9731    25.9722    27.2922
  385.5000    79.7727    26.3980    27.6596
  386.0000    83.8937    25.2230    26.7152
  386.5000    87.9815    24.1250    25.5917
  387.0000    88.9820    23.0769    24.5155
  387.5000    89.4682    22.0743    23.4845
  388.0000    89.9507    21.1153    22.4969
  388.5000    90.4397    20.4286    21.7489
  389.0000    90.9232    20.1210    21.4029
  389.5000    91.4168    19.8327    21.0623
  390.0000    91.1521    19.5484    20.7272
  390.5000    90.9674    19.2682    20.3944
  391.0000    92.2871    18.9921    20.0575
  391.5000    93.5688    18.7199    19.7262
  392.0000    94.8624    18.4516    19.4003
  392.5000    96.1387    18.1872    19.0798
  393.0000    95.3241    18.0989    18.8148
  393.5000    94.1731    18.0699    18.8148
  394.0000    93.6386    18.0410    18.8152
  394.5000    94.5232    18.0120    18.8148
  395.0000    94.3168    17.9829    18.8148
  395.5000    92.7341    17.9531    18.8148
  396.0000    91.1553    18.0471    18.8845
  396.5000    90.3624    18.1560    18.9857
  397.0000    92.8336    18.2655    19.0875
  397.5000    96.0843    18.3757    19.1718
  398.0000    97.9650    18.4644    18.8517
  398.5000    97.0500    18.1043    18.5836
  399.0000    96.1739    17.7525    18.3193
  399.5000    95.3014    17.4075    18.0589
  400.0000    94.0150    17.0693    17.8021
  400.5000    92.6091    16.7376    17.5489
  401.0000    91.9736    16.5877    17.2888
  401.5000    93.0931    16.5020    17.1931
  402.0000    94.2055    16.4168    17.0936
  402.5000    94.2506    16.3321    16.9951
  403.0000    94.0554    16.2478    16.8984
  403.5000    93.8543    16.1187    16.8081
  404.0000    93.6523    15.8683    16.4916
  404.5000    93.5113    15.6255    16.2072
  405.0000    94.1120    15.3858    15.9278
  405.5000    94.6923    15.1498    15.6532
  406.0000    94.0699    15.0108    15.4449
  406.5000    91.3018    14.9901    15.4235
  407.0000    88.3929    14.9694    15.4028
  407.5000    86.6014    14.9487    15.3821
  408.0000    90.2167    14.9281    15.3615
  408.5000    94.0099    14.9071    15.3409
  409.0000    93.9190    14.8868    15.3203
  409.5000    89.2299    14.8058    15.2998
  410.0000    86.7359    14.6481    15.1422
  410.5000    88.6755    14.4903    14.9890
  411.0000    92.2250    14.3343    14.8378
  411.5000    95.8313    14.1799    14.6883
  412.0000    97.2149    14.0272    14.5402
  412.5000    95.1116    13.8761    14.3937
  413.0000    92.6249    13.7267    14.2487
  413.5000    91.3447    13.5789    14.1051
  414.0000    93.3548    13.4326    13.9629
  414.5000    97.8333    13.2885    13.8222
  415.0000    97.6117    13.1628    13.6829
  415.5000    98.2746    13.1631    13.5407
  416.0000   101.0634    13.1643    13.5407
  416.5000   103.8717    13.1643    13.5407
  417.0000   104.5436    13.1643    13.5407
  417.5000    98.8079    13.1644    13.5407
  418.0000    94.8391    13.1773    13.5407
  418.5000    95.6224    13.3016    13.6436
  419.0000    98.1563    13.4272    13.7885
  419.5000    98.3870    13.5539    13.9350
  420.0000    97.4515    13.6818    14.0830
  420.5000    97.1983    13.8109    14.2326
  421.0000    99.1069    13.9413    14.3838
  421.5000   100.8220    14.0595    14.4615
  422.0000    99.7810    13.8288    14.3683
  422.5000    97.3542    13.5787    14.0833
  423.0000    94.9265    13.3331    13.8041
  423.5000    93.8422    13.0920    13.5303
  424.0000    96.4210    12.8553    13.2620
  424.5000    99.2693    12.6228    12.9990
  425.0000   102.1272    12.3945    12.7412
  425.5000   104.7841    12.1704    12.4886
  426.0000   104.0805    11.9483    12.3261
  426.5000   104.4810    11.7603    12.3252
  427.0000   104.7150    11.9412    12.3267
  427.5000   101.2290    12.1741    12.3227
  428.0000    97.7953    12.4117    12.7235
  428.5000    96.2315    12.6538    13.3247
  429.0000    98.2865    13.7507    14.8347
  429.5000   101.0209    15.0504    16.5158
  430.0000   101.6158    16.4729    18.3875
  430.5000    96.3497    18.0299    20.9076
  431.0000    90.9220    20.1026    23.9101
  431.5000    85.5439    22.9839    27.3437
  432.0000    81.0674    26.2781    30.8114
  432.5000    78.9031    30.0445    33.4485
  433.0000    76.7189    33.6946    35.3800
  433.5000    75.1278    34.3340    35.5704
  434.0000    75.9345    34.3340    35.7619
  434.5000    76.8140    33.9285    35.9543
  435.0000    75.2581    33.1350    36.3257
  435.5000    73.6399    32.2818    34.7682
  436.0000    73.0192    31.4506    33.3579
  436.5000    77.6243    30.6408    32.1252
  437.0000    82.6963    29.8518    31.1698
  437.5000    87.1517    29.0832    30.2428
  438.0000    86.3114    28.3344    29.3895
  438.5000    85.2217    27.6048    28.7183
  439.0000    84.0994    26.8940    28.0623
  439.5000    85.1579    26.1431    27.4215
  440.0000    87.0499    25.6191    26.7952
  440.5000    86.3820    25.0581    26.1833
  441.0000    83.7141    24.5094    25.5853
  441.5000    80.9338    23.9727    25.0009
  442.0000    82.6378    23.4934    24.4300
  442.5000    85.3600    23.1620    23.9596
  443.0000    85.1430    22.8352    23.7292
  443.5000    85.6142    22.4932    23.5453
  444.0000    89.7026    22.4932    23.3548
  444.5000    91.7803    22.4932    23.3548
  445.0000    89.4893    22.4932    23.3548
  445.5000    86.9988    22.4930    23.3548
  446.0000    86.0604    22.4926    23.3552
  446.5000    88.1961    22.4927    23.3551
  447.0000    88.7019    22.4890    23.3548
  447.5000    87.4473    22.8554    23.6546
  448.0000    86.7942    23.1331    24.0663
  448.5000    89.6616    23.4142    24.4785
  449.0000    91.3869    23.7980    24.2792
  449.5000    88.8287    23.3738    24.0845
  450.0000    85.6001    22.7398    23.6295
  450.5000    82.2963    22.1226    23.0636
  451.0000    80.9436    21.5221    22.5113
  451.5000    84.0329    20.9381    21.9722
  452.0000    87.3395    20.3699    21.4462
  452.5000    89.8819    19.8171    20.9356
  453.0000    88.2154    19.2793    20.4755
  453.5000    86.3851    18.7561    19.7987
  454.0000    84.5551    18.2471    19.1970
  454.5000    87.2304    17.7520    18.6136
  455.0000    91.7749    17.2702    18.0480
  455.5000    96.3507    16.8016    17.4995
  456.0000   100.8715    16.3456    16.9677
  456.5000   104.3345    16.0366    16.8081
  457.0000   104.0507    16.3736    17.3550
  457.5000   102.7160    17.0277    17.9706
  458.0000   101.3758    17.7079    18.6081
  458.5000   100.0709    18.4152    19.2681
  459.0000    97.6019    19.1509    19.9515
  459.5000    94.7160    19.7200    20.8640
  460.0000    91.7888    19.4454    20.5314
  460.5000    88.8548    18.9312    19.9104
  461.0000    86.1314    18.4306    19.3081
  461.5000    86.0749    17.9432    18.7241
  462.0000    86.6649    17.4687    18.1578
  462.5000    88.6949    17.0065    17.6033
  463.0000    91.5915    16.5582    17.2093
  463.5000    94.7848    16.1402    16.8660
  464.0000    95.5836    15.8605    16.5328
  464.5000    91.1159    15.5833    16.2060
  465.0000    87.4607    15.3109    15.8853
  465.5000    86.1164    15.0433    15.5716
  466.0000    88.2877    14.9188    15.2885
  466.5000    90.4935    14.7821    15.1900
  467.0000    92.5200    14.6466    15.0920
  467.5000    92.2816    14.5124    14.9948
  468.0000    91.6617    14.3793    14.8982
  468.5000    91.0530    14.2475    14.8022
  469.0000    90.4609    14.1170    14.7068
  469.5000    90.6850    13.9876    14.6120
  470.0000    92.1609    13.8594    14.5178
  470.5000    93.4690    13.7323    14.3941
  471.0000    93.4908    13.6065    14.2266
  471.5000    93.8125    13.4817    14.0611
