~VERSION INFORMATION
 VERS.                2.0:   CWLS LOG ASCII STANDARD - VERSION 2.0
 WRAP.                 NO:   ONE LINE PER DEPTH STEP
~WELL INFORMATION
#MNEM.UNIT      DATA TYPE    INFORMATION
#----------   ------------   ------------------------------
 STRT.F          110.5000:   START DEPTH
 STOP.F         1944.0000:   STOP DEPTH
 STEP.F            0.5000:   STEP LENGTH
 NULL.          -999.2500:   NO VALUE
 COMP.    FENIX & SCISSON:   COMPANY
 WELL.   NPR 3 SHX #34-10:   WELL
 FLD .             TEAPOT:   FIELD
 LOC .      S10 T38N R78W:   LOCATION
 CNTY.            NATRONA:   COUNTY
 STAT.            WYOMING:   STATE
 CTRY. UNITED STATES OF AMERICA:   COUNTRY
 SRVC.            Unknown:   SERVICE COMPANY
 DATE.        14-APR-1978:   LOGDATE
 API .       490251061800:   API NUMBER
~CURVE INFORMATION
#MNEM.UNIT       API CODE    CURVE DESCRIPTION
#----------   ------------   ------------------------------
 DEPT.F                  :   
 ILD .OHMM   05 120 46 00:   INDUCTION LOG DEEP
 CILD.MMHO   05 110 00 00:   CONDUCTIVITY INDUCTION LOG
 NPHI.DEC    42 890 01 00:   NEUTRON POROSITY LIMESTONE
 GRD .GAPI   45 310 01 00:   GAMMA RAY FROM DENSITY LOG
~PARAMETER INFORMATION
#MNEM.UNIT          VALUE    DESCRIPTION
#----------   ------------   ------------------------------
 PD  .                 GL:   PERMANENT DATUM
 EPD .F              5244:   ELEVATION PERMANENT DATUM
 LMF .                 KB:   LOG MEASURED FROM
 DMF .                 KB:   DRILLING MEASURED FROM
 EKB .F              5252:   KELLING BUSHING
 EGL .F              5244:   GROUND LEVEL
 DATE.          4-14-1978:   RUN DATE
 RUN .                  1:   RUN NUMBER
 DD  .F              1953:   DEPTH DRILLER
 DL  .F              1950:   DEPTH LOGGER
 BLI .F              1944:   BOTTOM LOG INTERVAL
 TLI .F               715:   TOP LOG INTERVAL
 CS  .IN            9.625:   CASING SIZE
 CBD .F               708:   CASING BOTTOM DRILLER
 CBL .F               712:   CASING BOTTOM LOGGER
 BS  .IN             8.75:   BIT SIZE
 BSD .F              1953:   BIT SIZE AT DEPTH
 DFT .                OIL:   DRILLING FLUID TYPE
 TCS .HRS               5:   TIME CURCULATED STOPPED
 LUN .               2958:   LOGGING UNIT NUMBER
 LUL .               CASP:   LOGGING UNIT LOCATION
 ENGI.             MILLER:   RECORDING ENGINEER
 CLNT.            A2DTECH:   CLIENT CODE
 ORIG.           5" PRINT:   ORIGIN OF DATA
 UWI .       490251061800:   UNIQUE WELL ID
 DICO. A2D Technologies, Inc.:   DIGITIZING COMPANY
~OTHER INFORMATION
~A   DEPT      ILD       CILD       NPHI        GRD   
# ...
 1570.5000     8.1186   130.2264  -999.2500  -999.2500
 1571.0000     8.1276   130.1134  -999.2500  -999.2500
 1571.5000     8.1367   130.0004  -999.2500  -999.2500
 1572.0000     8.1458   129.8875  -999.2500  -999.2500
 1572.5000     8.1551   130.7407  -999.2500  -999.2500
 1573.0000     8.1643   132.0590  -999.2500  -999.2500
 1573.5000     8.1581   133.3772  -999.2500  -999.2500
 1574.0000     8.0479   134.6954  -999.2500  -999.2500
 1574.5000     7.9376   136.0136  -999.2500  -999.2500
 1575.0000     7.8273   136.6626  -999.2500  -999.2500
 1575.5000     7.7166   135.8693  -999.2500  -999.2500
 1576.0000     7.6165   135.0730  -999.2500  -999.2500
 1576.5000     7.6687   134.2771  -999.2500  -999.2500
 1577.0000     7.7245   133.4826  -999.2500  -999.2500
 1577.5000     7.7795   132.6881  -999.2500  -999.2500
 1578.0000     7.8340   131.8474  -999.2500  -999.2500
 1578.5000     7.8932   129.3745  -999.2500  -999.2500
 1579.0000     8.0696   126.7305  -999.2500  -999.2500
 1579.5000     8.2565   124.0848  -999.2500  -999.2500
 1580.0000     8.4431   121.4408  -999.2500  -999.2500
 1580.5000     8.6291   118.9055  -999.2500  -999.2500
 1581.0000     8.7344   118.5617  -999.2500  -999.2500
 1581.5000     8.7452   118.2316  -999.2500  -999.2500
 1582.0000     8.7565   117.9014  -999.2500  -999.2500
 1582.5000     8.7676   117.5712  -999.2500  -999.2500
 1583.0000     8.7787   117.2411  -999.2500  -999.2500
 1583.5000     8.7898   116.9109  -999.2500  -999.2500
 1584.0000     8.8010   116.5807  -999.2500  -999.2500
 1584.5000     8.8121   116.2506  -999.2500  -999.2500
 1585.0000     8.8232   115.9204  -999.2500  -999.2500
 1585.5000     8.8343   115.5902  -999.2500  -999.2500
 1586.0000     8.8462   115.2601  -999.2500  -999.2500
 1586.5000     8.8882   114.9299  -999.2500  -999.2500
 1587.0000     8.9633   114.5997  -999.2500  -999.2500
 1587.5000     9.0379   114.2696  -999.2500  -999.2500
 1588.0000     9.1129   113.9304  -999.2500  -999.2500
 1588.5000     9.1881   113.9559  -999.2500  -999.2500
 1589.0000     9.2608   113.9821  -999.2500  -999.2500
 1589.5000     9.3322   114.0084  -999.2500  -999.2500
 1590.0000     9.3128   114.0346  -999.2500  -999.2500
 1590.5000     9.2961   114.0609  -999.2500  -999.2500
 1591.0000     9.2790   114.0871  -999.2500  -999.2500
 1591.5000     9.2620   114.1134  -999.2500  -999.2500
 1592.0000     9.2449   114.1396  -999.2500  -999.2500
 1592.5000     9.2276   114.1658  -999.2500  -999.2500
 1593.0000     9.2124   114.1921  -999.2500  -999.2500
 1593.5000     9.2509   114.2183  -999.2500  -999.2500
 1594.0000     9.2921   114.2446  -999.2500  -999.2500
 1594.5000     9.3330   114.2708  -999.2500  -999.2500
 1595.0000     9.3740   114.2971  -999.2500  -999.2500
 1595.5000     9.4149   114.3233  -999.2500  -999.2500
 1596.0000     9.4499   114.3496  -999.2500  -999.2500
 1596.5000     9.4350   114.3758  -999.2500  -999.2500
 1597.0000     9.4207   114.4021  -999.2500  -999.2500
 1597.5000     9.4066   114.4283  -999.2500  -999.2500
 1598.0000     9.3925   114.4546  -999.2500  -999.2500
 1598.5000     9.3787   114.4808  -999.2500  -999.2500
 1599.0000     9.3873   114.5071  -999.2500  -999.2500
 1599.5000     9.4255   114.5333  -999.2500  -999.2500
 1600.0000     9.4633   114.5595  -999.2500  -999.2500
 1600.5000     9.5015   114.5858  -999.2500  -999.2500
 1601.0000     9.5393   114.6121  -999.2500  -999.2500
 1601.5000     9.5623   114.6383  -999.2500  -999.2500
 1602.0000     9.5047   114.6645  -999.2500  -999.2500
 1602.5000     9.4481   114.6908  -999.2500  -999.2500
 1603.0000     9.3919   114.7170  -999.2500  -999.2500
 1603.5000     9.3356   114.7433  -999.2500  -999.2500
 1604.0000     9.2793   114.7695  -999.2500  -999.2500
 1604.5000     9.2230   114.7958  -999.2500  -999.2500
 1605.0000     9.1667   114.8220  -999.2500  -999.2500
 1605.5000     9.1102   114.8483  -999.2500  -999.2500
 1606.0000     9.0542   114.8753  -999.2500  -999.2500
 1606.5000     9.0223   114.8995  -999.2500  -999.2500
 1607.0000     9.0858   114.9388  -999.2500  -999.2500
 1607.5000     9.1470   113.8184  -999.2500  -999.2500
 1608.0000     9.2080   112.5423  -999.2500  -999.2500
 1608.5000     9.2689   111.2662  -999.2500  -999.2500
 1609.0000     9.3300   110.9453  -999.2500  -999.2500
 1609.5000     9.3914   110.9453  -999.2500  -999.2500
 1610.0000     9.4480   110.9453  -999.2500  -999.2500
 1610.5000     9.4186   110.9453  -999.2500  -999.2500
 1611.0000     9.3863   110.9453  -999.2500  -999.2500
 1611.5000     9.3543   110.9453  -999.2500  -999.2500
 1612.0000     9.3224   110.9453  -999.2500  -999.2500
 1612.5000     9.2905   110.9453  -999.2500  -999.2500
 1613.0000     9.2585   110.9453  -999.2500  -999.2500
 1613.5000     9.2262   110.9453  -999.2500  -999.2500
 1614.0000     9.1949   110.9453  -999.2500  -999.2500
 1614.5000     9.2042   110.9453  -999.2500  -999.2500
 1615.0000     9.3673   110.9453  -999.2500  -999.2500
 1615.5000     9.5253   110.9453  -999.2500  -999.2500
 1616.0000     9.6835   110.9453  -999.2500  -999.2500
 1616.5000     9.8410   110.9453  -999.2500  -999.2500
 1617.0000     9.9658   110.9453  -999.2500  -999.2500
 1617.5000     9.9148   110.9453  -999.2500  -999.2500
 1618.0000     9.8670   110.9453  -999.2500  -999.2500
 1618.5000     9.8196   110.9453  -999.2500  -999.2500
 1619.0000     9.7723   110.9453  -999.2500  -999.2500
 1619.5000     9.7250   110.9453  -999.2500  -999.2500
 1620.0000     9.6777   110.9453  -999.2500  -999.2500
 1620.5000     9.6304   110.9453  -999.2500  -999.2500
 1621.0000     9.5830   110.9453  -999.2500  -999.2500
 1621.5000     9.5354   110.9453  -999.2500  -999.2500
 1622.0000     9.4920   110.9453  -999.2500  -999.2500
 1622.5000     9.5070   110.9453  -999.2500  -999.2500
 1623.0000     9.5235   110.9453  -999.2500  -999.2500
 1623.5000     9.5398   110.9453  -999.2500  -999.2500
 1624.0000     9.5559   110.9453  -999.2500  -999.2500
 1624.5000     9.5721   110.9453  -999.2500  -999.2500
 1625.0000     9.5883   110.9453  -999.2500  -999.2500
 1625.5000     9.6048   110.9453  -999.2500  -999.2500
 1626.0000     9.5993   110.9453  -999.2500  -999.2500
 1626.5000     9.5825   110.9453  -999.2500  -999.2500
 1627.0000     9.5654   110.9453  -999.2500  -999.2500
 1627.5000     9.5480   110.9453  -999.2500  -999.2500
 1628.0000     9.5315   110.9453  -999.2500  -999.2500
 1628.5000     9.5485   110.9453  -999.2500  -999.2500
 1629.0000     9.5677   110.9453  -999.2500  -999.2500
 1629.5000     9.5869   110.9453  -999.2500  -999.2500
 1630.0000     9.6059   110.9453  -999.2500  -999.2500
 1630.5000     9.6250   110.9453  -999.2500  -999.2500
 1631.0000     9.6441   110.9453  -999.2500  -999.2500
 1631.5000     9.6631   110.9453  -999.2500  -999.2500
 1632.0000     9.6827   110.9453  -999.2500  -999.2500
 1632.5000     9.6506   110.9453  -999.2500  -999.2500
 1633.0000     9.5828   110.9453  -999.2500  -999.2500
 1633.5000     9.5144   110.9453  -999.2500  -999.2500
 1634.0000     9.4459   110.9453  -999.2500  -999.2500
 1634.5000     9.3785   110.9453  -999.2500  -999.2500
 1635.0000     9.3298   110.9453  -999.2500  -999.2500
 1635.5000     9.3308   110.9453  -999.2500  -999.2500
 1636.0000     9.3306   110.9453  -999.2500  -999.2500
 1636.5000     9.3307   110.9453  -999.2500  -999.2500
 1637.0000     9.3307   110.9457  -999.2500  -999.2500
 1637.5000     9.3307   110.9818  -999.2500  -999.2500
 1638.0000     9.3307   111.1392  -999.2500  -999.2500
 1638.5000     9.3307   111.2949  -999.2500  -999.2500
 1639.0000     9.3307   111.4507  -999.2500  -999.2500
 1639.5000     9.3307   111.6066  -999.2500  -999.2500
 1640.0000     9.3306   111.7624  -999.2500  -999.2500
 1640.5000     9.3306   111.9182  -999.2500  -999.2500
 1641.0000     9.3310   112.0741  -999.2500  -999.2500
 1641.5000     9.3527   112.2299  -999.2500  -999.2500
 1642.0000     9.4029   112.3857  -999.2500  -999.2500
 1642.5000     9.4526   112.5415  -999.2500  -999.2500
 1643.0000     9.5025   112.6974  -999.2500  -999.2500
