~VERSION INFORMATION
 VERS.                2.0:   CWLS LOG ASCII STANDARD - VERSION 2.0
 WRAP.                 NO:   ONE LINE PER DEPTH STEP
~WELL INFORMATION
#MNEM.UNIT      DATA TYPE    INFORMATION
#----------   ------------   ------------------------------
 STRT.F            0.5000:   START DEPTH
 STOP.F         3087.0000:   STOP DEPTH
 STEP.F            0.5000:   STEP LENGTH
 NULL.          -999.2500:   NO VALUE
 COMP. DEPARTMENT OF ENERGY:   COMPANY
 WELL.    NPR-3 #201-A-29:   WELL
 FLD . TEAPOT NAVAL RESERVE:   FIELD
 LOC .      S29 T39N R78W:   LOCATION
 CNTY.            NATRONA:   COUNTY
 STAT.            WYOMING:   STATE
 CTRY. UNITED STATES OF AMERICA:   COUNTRY
 SRVC.      NL McCullough:   SERVICE COMPANY
 DATE.        24-JUN-1965:   LOGDATE
 API .       490251144400:   API NUMBER
~CURVE INFORMATION
#MNEM.UNIT       API CODE    CURVE DESCRIPTION
#----------   ------------   ------------------------------
 DEPT.F                  :   
 GRR .GAPI   30 310 01 00:   GAMMA RAY
 CALI.IN     30 280 01 00:   CALIPER
~PARAMETER INFORMATION
#MNEM.UNIT          VALUE    DESCRIPTION
#----------   ------------   ------------------------------
 PD  .                 GL:   PERMANENT DATUM
 LMF .                 GL:   LOG MEASURED FROM
 EDF .F              5012:   DRILLING FLOOR
 DATE.        24-JUN-1965:   RUN DATE
 RUN .                  1:   RUN NUMBER
 DD  .F              2782:   DEPTH DRILLER
 DL  .F              2772:   DEPTH LOGGER
 BLI .F              2770:   BOTTOM LOG INTERVAL
 TLI .F              2300:   TOP LOG INTERVAL
 CS  .IN            6.625:   CASING SIZE
 CBD .F              2756:   CASING BOTTOM DRILLER
 ENGI.         COWLTHORPE:   RECORDING ENGINEER
 WITN.             HUDSON:   WITNESSED BY
 CLNT.            A2DTECH:   CLIENT CODE
 ORIG.           5" PRINT:   ORIGIN OF DATA
 UWI .       490251144400:   UNIQUE WELL ID
 DICO. A2D Technologies, Inc.:   DIGITIZING COMPANY
~OTHER INFORMATION
~A    DEPT     GRR         CALI 
# ...
 1337.0000  -999.2500     6.4663
 1337.5000  -999.2500     6.4697
 1338.0000  -999.2500     6.4731
 1338.5000  -999.2500     6.4766
 1339.0000  -999.2500     6.4800
 1339.5000  -999.2500     6.4834
 1340.0000  -999.2500     6.4868
 1340.5000  -999.2500     6.4902
 1341.0000  -999.2500     6.4936
 1341.5000  -999.2500     6.4971
 1342.0000  -999.2500     6.5005
 1342.5000  -999.2500     6.5039
 1343.0000  -999.2500     6.5073
 1343.5000  -999.2500     6.5107
 1344.0000  -999.2500     6.5142
 1344.5000  -999.2500     6.5176
 1345.0000  -999.2500     6.5210
 1345.5000  -999.2500     6.5244
 1346.0000  -999.2500     6.5246
 1346.5000  -999.2500     6.5246
 1347.0000  -999.2500     6.5246
 1347.5000  -999.2500     6.5246
 1348.0000  -999.2500     6.5246
 1348.5000  -999.2500     6.5246
 1349.0000  -999.2500     6.5246
 1349.5000  -999.2500     6.5246
 1350.0000  -999.2500     6.5246
 1350.5000  -999.2500     6.5246
 1351.0000  -999.2500     6.5246
 1351.5000  -999.2500     6.5246
 1352.0000  -999.2500     6.5246
 1352.5000  -999.2500     6.5246
 1353.0000  -999.2500     6.5246
 1353.5000  -999.2500     6.5246
 1354.0000  -999.2500     6.5246
 1354.5000  -999.2500     6.5246
 1355.0000  -999.2500     6.5246
 1355.5000  -999.2500     6.5246
 1356.0000  -999.2500     6.5244
 1356.5000  -999.2500     6.5233
 1357.0000  -999.2500     6.5223
 1357.5000  -999.2500     6.5213
 1358.0000  -999.2500     6.5202
 1358.5000  -999.2500     6.5192
 1359.0000  -999.2500     6.5182
 1359.5000  -999.2500     6.5172
 1360.0000  -999.2500     6.5162
 1360.5000  -999.2500     6.5152
 1361.0000  -999.2500     6.5141
 1361.5000  -999.2500     6.5131
 1362.0000  -999.2500     6.5121
 1362.5000  -999.2500     6.5111
 1363.0000  -999.2500     6.5100
 1363.5000  -999.2500     6.5090
 1364.0000  -999.2500     6.5080
 1364.5000  -999.2500     6.5070
 1365.0000  -999.2500     6.5060
 1365.5000  -999.2500     6.5049
 1366.0000  -999.2500     6.5053
 1366.5000  -999.2500     6.5063
 1367.0000  -999.2500     6.5073
 1367.5000  -999.2500     6.5083
 1368.0000  -999.2500     6.5093
 1368.5000  -999.2500     6.5103
 1369.0000  -999.2500     6.5113
 1369.5000  -999.2500     6.5123
 1370.0000  -999.2500     6.5133
 1370.5000  -999.2500     6.5143
 1371.0000  -999.2500     6.5153
 1371.5000  -999.2500     6.5163
 1372.0000  -999.2500     6.5173
 1372.5000  -999.2500     6.5183
 1373.0000  -999.2500     6.5193
 1373.5000  -999.2500     6.5203
 1374.0000  -999.2500     6.5213
 1374.5000  -999.2500     6.5223
 1375.0000  -999.2500     6.5233
 1375.5000  -999.2500     6.5243
 1376.0000  -999.2500     6.5253
 1376.5000  -999.2500     6.5262
 1377.0000  -999.2500     6.5272
 1377.5000  -999.2500     6.5282
 1378.0000  -999.2500     6.5291
 1378.5000  -999.2500     6.5301
 1379.0000  -999.2500     6.5310
 1379.5000  -999.2500     6.5320
 1380.0000  -999.2500     6.5330
 1380.5000  -999.2500     6.5339
 1381.0000  -999.2500     6.5349
 1381.5000  -999.2500     6.5359
 1382.0000  -999.2500     6.5368
 1382.5000  -999.2500     6.5378
 1383.0000  -999.2500     6.5387
 1383.5000  -999.2500     6.5397
 1384.0000  -999.2500     6.5407
 1384.5000  -999.2500     6.5416
 1385.0000  -999.2500     6.5426
 1385.5000  -999.2500     6.5436
 1386.0000  -999.2500     6.5445
 1386.5000  -999.2500     6.5445
 1387.0000  -999.2500     6.5445
 1387.5000  -999.2500     6.5445
 1388.0000  -999.2500     6.5445
 1388.5000  -999.2500     6.5445
 1389.0000  -999.2500     6.5445
 1389.5000  -999.2500     6.5445
 1390.0000  -999.2500     6.5445
 1390.5000  -999.2500     6.5445
 1391.0000  -999.2500     6.5445
 1391.5000  -999.2500     6.5445
 1392.0000  -999.2500     6.5445
 1392.5000  -999.2500     6.5445
 1393.0000  -999.2500     6.5445
 1393.5000  -999.2500     6.5445
 1394.0000  -999.2500     6.5445
 1394.5000  -999.2500     6.5445
 1395.0000  -999.2500     6.5445
 1395.5000  -999.2500     6.5445
 1396.0000  -999.2500     6.5445
 1396.5000  -999.2500     6.5445
 1397.0000  -999.2500     6.5445
 1397.5000  -999.2500     6.5445
 1398.0000  -999.2500     6.5445
 1398.5000  -999.2500     6.5445
 1399.0000  -999.2500     6.5445
 1399.5000  -999.2500     6.5445
 1400.0000  -999.2500     6.5445
 1400.5000  -999.2500     6.5445
 1401.0000  -999.2500     6.5445
 1401.5000  -999.2500     6.5445
 1402.0000  -999.2500     6.5445
 1402.5000  -999.2500     6.5445
 1403.0000  -999.2500     6.5445
 1403.5000  -999.2500     6.5445
 1404.0000  -999.2500     6.5445
 1404.5000  -999.2500     6.5445
 1405.0000  -999.2500     6.5440
 1405.5000  -999.2500     6.5429
 1406.0000  -999.2500     6.5418
 1406.5000  -999.2500     6.5408
 1407.0000  -999.2500     6.5397
 1407.5000  -999.2500     6.5386
 1408.0000  -999.2500     6.5375
 1408.5000  -999.2500     6.5365
 1409.0000  -999.2500     6.5354
 1409.5000  -999.2500     6.5343
 1410.0000  -999.2500     6.5333
 1410.5000  -999.2500     6.5322
 1411.0000  -999.2500     6.5311
 1411.5000  -999.2500     6.5301
 1412.0000  -999.2500     6.5290
 1412.5000  -999.2500     6.5279
 1413.0000  -999.2500     6.5269
 1413.5000  -999.2500     6.5258
 1414.0000  -999.2500     6.5247
 1414.5000  -999.2500     6.5255
 1415.0000  -999.2500     6.5265
 1415.5000  -999.2500     6.5276
 1416.0000  -999.2500     6.5287
 1416.5000  -999.2500     6.5297
 1417.0000  -999.2500     6.5308
 1417.5000  -999.2500     6.5318
 1418.0000  -999.2500     6.5329
 1418.5000  -999.2500     6.5339
 1419.0000  -999.2500     6.5350
 1419.5000  -999.2500     6.5361
 1420.0000  -999.2500     6.5371
 1420.5000  -999.2500     6.5382
 1421.0000  -999.2500     6.5392
 1421.5000  -999.2500     6.5403
 1422.0000  -999.2500     6.5414
 1422.5000  -999.2500     6.5424
 1423.0000  -999.2500     6.5435
 1423.5000  -999.2500     6.5445
 1424.0000  -999.2500     6.5437
 1424.5000  -999.2500     6.5427
 1425.0000  -999.2500     6.5418
 1425.5000  -999.2500     6.5409
 1426.0000  -999.2500     6.5400
 1426.5000  -999.2500     6.5390
 1427.0000  -999.2500     6.5381
 1427.5000  -999.2500     6.5372
 1428.0000  -999.2500     6.5363
 1428.5000  -999.2500     6.5353
 1429.0000  -999.2500     6.5344
 1429.5000  -999.2500     6.5335
 1430.0000  -999.2500     6.5326
 1430.5000  -999.2500     6.5317
 1431.0000  -999.2500     6.5307
 1431.5000  -999.2500     6.5298
 1432.0000  -999.2500     6.5289
 1432.5000  -999.2500     6.5280
 1433.0000  -999.2500     6.5271
 1433.5000  -999.2500     6.5261
 1434.0000  -999.2500     6.5252
 1434.5000  -999.2500     6.5251
 1435.0000  -999.2500     6.5268
 1435.5000  -999.2500     6.5285
 1436.0000  -999.2500     6.5302
 1436.5000  -999.2500     6.5319
 1437.0000  -999.2500     6.5336
 1437.5000  -999.2500     6.5353
 1438.0000  -999.2500     6.5370
 1438.5000  -999.2500     6.5387
 1439.0000  -999.2500     6.5404
 1439.5000  -999.2500     6.5421
 1440.0000  -999.2500     6.5438
 1440.5000  -999.2500     6.5424
 1441.0000  -999.2500     6.5366
 1441.5000  -999.2500     6.5309
 1442.0000  -999.2500     6.5251
 1442.5000  -999.2500     6.5194
 1443.0000  -999.2500     6.5136
 1443.5000  -999.2500     6.5079
 1444.0000  -999.2500     6.5055
 1444.5000  -999.2500     6.5076
 1445.0000  -999.2500     6.5097
 1445.5000  -999.2500     6.5118
 1446.0000  -999.2500     6.5139
 1446.5000  -999.2500     6.5160
 1447.0000  -999.2500     6.5180
 1447.5000  -999.2500     6.5201
 1448.0000  -999.2500     6.5222
 1448.5000  -999.2500     6.5243
 1449.0000  -999.2500     6.5264
 1449.5000  -999.2500     6.5285
 1450.0000  -999.2500     6.5306
 1450.5000  -999.2500     6.5327
 1451.0000  -999.2500     6.5347
 1451.5000  -999.2500     6.5368
 1452.0000  -999.2500     6.5389
 1452.5000  -999.2500     6.5410
 1453.0000  -999.2500     6.5431
 1453.5000  -999.2500     6.5446
 1454.0000  -999.2500     6.5445
 1454.5000  -999.2500     6.5445
 1455.0000  -999.2500     6.5445
 1455.5000  -999.2500     6.5445
 1456.0000  -999.2500     6.5445
 1456.5000  -999.2500     6.5445
 1457.0000  -999.2500     6.5445
 1457.5000  -999.2500     6.5445
 1458.0000  -999.2500     6.5445
