~VERSION INFORMATION
 VERS.                2.0:   CWLS LOG ASCII STANDARD - VERSION 2.0
 WRAP.                 NO:   ONE LINE PER DEPTH STEP
~WELL INFORMATION
#MNEM.UNIT      DATA TYPE    INFORMATION
#----------   ------------   ------------------------------
 STRT.F           85.0000:   START DEPTH
 STOP.F          780.0000:   STOP DEPTH
 STEP.F            0.5000:   STEP LENGTH
 NULL.          -999.2500:   NO VALUE
 COMP. U S NAVY-INTEX OIL:   COMPANY
 WELL.        NPR #47-S-2:   WELL
 FLD .             TEAPOT:   FIELD
 LOC .       S2 T38N R78W:   LOCATION
 CNTY.            NATRONA:   COUNTY
 STAT.            WYOMING:   STATE
 CTRY. UNITED STATES OF AMERICA:   COUNTRY
 SRVC.       Schlumberger:   SERVICE COMPANY
 DATE.        30-JUN-1962:   LOGDATE
 API .       490250640200:   API NUMBER
~CURVE INFORMATION
#MNEM.UNIT       API CODE    CURVE DESCRIPTION
#----------   ------------   ------------------------------
 DEPT.F                  :   
 SPR .MV     05 010 01 00:   SPONTANEOUS POTENTIAL FROM RES.
 ASN .OHMM   05 041 18 00:   AMPLIFIED SHORT NORMAL 18"
 ILD .OHMM   05 120 46 00:   INDUCTION LOG DEEP
 CILD.MMHO   05 110 46 00:   CONDUCTIVITY INDUCTION LOG DEEP
 CALM.IN     15 280 01 00:   CALIPER FROM MICRO LOG
 GR  .GAPI   30 310 01 00:   GAMMA RAY
~PARAMETER INFORMATION
#MNEM.UNIT          VALUE    DESCRIPTION
#----------   ------------   ------------------------------
 PD  .                 KB:   PERMANENT DATUM
 LMF .                 KB:   LOG MEASURED FROM
 DMF .                 KB:   DRILLING MEASURED FROM
 EKB .F              5175:   KELLING BUSHING
 EGL .F              5170:   GROUND LEVEL
 DATE.          6-30-1962:   RUN DATE
 RUN .                  1:   RUN NUMBER
 DD  .F               775:   DEPTH DRILLER
 DL  .F               781:   DEPTH LOGGER
 BLI .F               780:   BOTTOM LOG INTERVAL
 TLI .F                86:   TOP LOG INTERVAL
 BS  .IN             6.75:   BIT SIZE
 BSD .F               775:   BIT SIZE AT DEPTH
 DFT .            GEL-OIL:   DRILLING FLUID TYPE
 DFD .                 10:   DRILLING FLUID DENSITY
 DFV .                 50:   DRILLING FLUID VISCOSITY
 DFL .                3.6:   DRILLING FLUID LOSS
 MSS .           FLOWLINE:   MUD SAMPLE SOURCE
 RMS .OHMM           5.75:   RESISTIVITY MUD SAMPLE
 MST .F                69:   MUD SAMPLE TEMPERATURE
 RMF .OHMM           4.96:   RESISTIVITY MUD FILTRATE SAMPLE
 MFST.F                69:   MUD FILTRATE SAMPLE TEMPERATURE
 RMC .OHMM           4.80:   RESISTIVITY MUD CAKE
 MCST.F                69:   MUD CAKE SAMPLE TEMPERATURE
 RMB .OHMM           5.13:   RESISTIVITY MUD AT BHT
 BHT .F                78:   BOTTOM HOLE TEMPERATURE
 TCS .HRS               1:   TIME CURCULATED STOPPED
 MRT .F                78:   MAXIMUM RECORDED TEMPERATURE
 LUN .               2503:   LOGGING UNIT NUMBER
 LUL .              CSPR.:   LOGGING UNIT LOCATION
 ENGI.             KNOBEL:   RECORDING ENGINEER
 WITN.          JORGENSEN:   WITNESSED BY
 CLNT.            A2DTECH:   CLIENT CODE
 ORIG.      2" & 5" PRINT:   ORIGIN OF DATA
 UWI .       490250640200:   UNIQUE WELL ID
 DICO. A2D Technologies, Inc.:   DIGITIZING COMPANY
~OTHER INFORMATION
~A   DEPT      SPR        ASN        ILD         CILD     CALM         GR   
# ...
  501.0000   -26.7826    10.7036    10.0865   101.4785  -999.2500    79.7015
  501.5000   -26.7811    10.6287    10.0103   102.9703  -999.2500    78.9552
  502.0000   -26.9288    10.6287    10.0088   103.6993  -999.2500    80.2985
  502.5000   -26.9269    10.6287    10.0073   101.4285  -999.2500    81.3433
  503.0000   -26.9254    10.7036    10.0058    99.9098  -999.2500    82.6866
  503.5000   -26.9240    10.7036    10.0043    99.8947  -999.2500    82.9851
  504.0000   -26.9225    10.7784     9.9280   100.6317  -999.2500    79.7015
  504.5000   -26.9210    10.9281    10.0084   101.3685  -999.2500    72.2388
  505.0000   -26.9195    10.5539    10.0074   101.3534  -999.2500    70.1493
  505.5000   -26.7692    10.4042     9.9319   102.0904  -999.2500    71.6418
  506.0000   -26.7677    10.4042     9.8565   102.8272  -999.2500    69.7015
  506.5000   -26.7662    10.4042     9.7062   104.3159  -999.2500    65.3731
  507.0000   -26.7647    10.2545     9.6307   105.8047  -999.2500    62.9851
  507.5000   -26.7632    10.1796     9.5553   107.2934  -999.2500    62.6866
  508.0000   -26.7617    10.1048     9.4050   108.0303  -999.2500    66.4179
  508.5000   -26.7602    10.0380     9.2548   108.8097  -999.2500    68.0597
  509.0000   -26.7587     9.9701     9.1793   111.0077  -999.2500    67.0149
  509.5000   -26.7572     9.9102     9.1038   111.7446  -999.2500    65.5224
  510.0000   -26.7558     9.8653     9.0284   112.4815  -999.2500    67.0149
  510.5000   -26.7543     9.8054     9.0276   113.2704  -999.2500    66.5672
  511.0000   -26.7528     9.7006     8.9521   114.7070  -999.2500    71.6418
  511.5000   -26.7513     9.5958     8.9514   115.5015  -999.2500    74.0299
  512.0000   -26.6010     9.5060     8.8759   116.2406  -999.2500    72.2388
  512.5000   -26.5995     9.4162     8.8752   117.6695  -999.2500    72.0896
  513.0000   -26.4492     9.3263     8.7997   119.1582  -999.2500    78.5075
  513.5000   -26.4477     9.2216     8.7242   119.8951  -999.2500    79.1045
  514.0000   -26.2974     9.1317     8.6487   120.6319  -999.2500    78.8060
  514.5000   -26.2959     9.0868     8.6480   122.1207  -999.2500    78.1542
  515.0000   -26.1456     9.0269     8.6472   122.8575  -999.2500    76.5424
  515.5000   -26.1441     8.9521     8.6465   122.8421  -999.2500    75.4777
  516.0000   -25.9938     8.8772     8.6457   122.8271  -999.2500    75.2239
  516.5000   -25.9923     8.8623     8.6450   122.7296  -999.2500    74.9254
  517.0000   -25.9908     8.8772     8.5695   121.9595  -999.2500    71.7910
  517.5000   -25.8405     8.8323     8.5687   121.2782  -999.2500    73.1343
  518.0000   -25.8390     8.8323     8.5680   120.5113  -999.2500    75.2239
  518.5000   -25.6887     8.9371     8.5672   119.7443  -999.2500    77.1642
  519.0000   -25.6872     9.0419     8.5665   118.9774  -999.2500    80.8955
  519.5000   -25.6857     8.8623     8.5658   119.0599  -999.2500    81.3433
  520.0000   -25.5354     8.8303     8.6397   121.3036  -999.2500    78.9552
  520.5000   -25.5339     8.8772     8.5643   124.2984  -999.2500    75.9701
  521.0000   -25.3836     8.8473     8.4888   127.2934  -999.2500    73.5821
  521.5000   -25.2333     8.7275     8.2638   131.0400  -999.2500    72.2388
  522.0000   -25.0830     8.5329     8.0389   134.7868  -999.2500    70.7463
  522.5000   -24.9327     8.2635     7.8139   137.7817  -999.2500    76.4179
  523.0000   -24.7824     7.9940     7.6637   142.2811  -999.2500    79.4030
  523.5000   -24.7519     7.7096     7.5134   145.2753  -999.2500    79.5522
  524.0000   -24.4821     7.5000     7.4380   147.5190  -999.2500    82.3581
  524.5000   -24.3318     7.4976     7.3625   149.0099  -999.2500    83.7313
  525.0000   -24.1815     7.4701     7.2123   151.1284  -999.2500    81.7662
  525.5000   -24.0312     7.4401     7.2867   151.9923  -999.2500    81.8134
  526.0000   -24.0734     7.5150     7.4350   152.6021  -999.2500    83.2836
  526.5000   -24.6236     7.6347     7.5090   148.6946  -999.2500    81.7390
  527.0000   -24.6220     7.6647     7.5850   144.9171  -999.2500    82.9851
  527.5000   -24.4718     7.7096     7.6595   143.5338  -999.2500    82.8235
  528.0000   -24.4703     7.7545     7.7339   142.6266  -999.2500    79.6414
  528.5000   -24.4688     7.8144     7.8049   141.8574  -999.2500    78.0522
  529.0000   -24.4673     7.8743     7.8042   141.0880  -999.2500    77.6119
  529.5000   -24.6146     7.9192     7.8034   139.7143  -999.2500    79.4030
  530.0000   -24.6131     7.9341     7.8027   138.1925  -999.2500    79.2537
  530.5000   -24.7604     7.9192     7.8767   136.6737  -999.2500    79.4030
  531.0000   -24.9078     7.9192     7.8759   135.1549  -999.2500    81.3433
  531.5000   -25.0551     7.9790     7.9499   133.6361  -999.2500    84.1791
  532.0000   -25.2024     8.0838     8.0239   132.8692  -999.2500    86.8657
  532.5000   -25.3497     8.2036     8.1054   131.3504  -999.2500    95.2239
  533.0000   -25.3482     8.3383     8.2467   129.8317  -999.2500    99.2537
  533.5000   -25.6443     8.4281     8.3206   128.3129  -999.2500   104.7761
  534.0000   -25.9405     8.4880     8.3946   126.7941  -999.2500   105.2637
  534.5000   -26.0878     8.5180     8.3192   128.2828  -999.2500   101.1940
  535.0000   -26.2351     8.3234     8.2437   129.7716  -999.2500   100.0000
  535.5000   -26.0848     8.2934     8.1682   131.2603  -999.2500    99.8507
  536.0000   -25.7857     8.6377     8.1674   132.0009  -999.2500    99.8507
  536.5000   -25.6354     8.5180     8.0920   132.7340  -999.2500   101.4925
  537.0000   -25.4851     8.3832     8.1659   132.7190  -999.2500   104.7761
  537.5000   -25.3348     8.2934     8.1652   131.9521  -999.2500   102.8358
  538.0000   -25.1845     8.2635     8.2392   131.9370  -999.2500   101.4925
  538.5000   -25.0342     8.2784     8.3132   131.1701  -999.2500   104.4776
  539.0000   -24.8839     8.3234     8.3872   131.1551  -999.2500   104.4776
  539.5000   -24.7336     8.3982     8.4008   130.3882  -999.2500   100.7463
  540.0000   -24.8809     8.5180     8.4604   130.3732  -999.2500    99.2537
  540.5000   -25.0283     8.6078     8.4595   129.6063  -999.2500    96.7164
  541.0000   -25.1756     8.6527     8.3840   128.8394  -999.2500    97.3134
  541.5000   -25.3230     8.5778     8.3833   128.8244  -999.2500    95.2239
  542.0000   -25.4702     8.5030     8.3825   128.8093  -999.2500    94.3284
  542.5000   -25.6175     8.4281     8.3818   128.7943  -999.2500    94.9254
  543.0000   -25.9136     8.3832     8.3063   129.5349  -999.2500    95.5224
  543.5000   -26.0613     8.4132     8.3805   130.2718  -999.2500    95.0746
  544.0000   -26.2086     8.3982     8.3048   131.0086  -999.2500    92.6866
  544.5000   -26.2068     8.2335     8.3040   132.4936  -999.2500    88.9552
  545.0000   -26.2053     8.1587     8.2286   133.2342  -999.2500    87.7612
  545.5000   -26.0550     8.1287     8.1531   133.9711  -999.2500    87.6119
  546.0000   -25.7559     8.0988     8.1523   135.4560  -999.2500    85.6716
  546.5000   -25.3079     8.0689     8.1516   136.9448  -999.2500    85.3731
  547.0000   -24.8600     8.0090     8.0761   138.4373  -999.2500    85.2239
  547.5000   -24.4121     7.9641     7.9259   139.9260  -999.2500    84.9254
  548.0000   -23.6666     7.9042     7.8504   141.4147  -999.2500    85.6716
  548.5000   -23.6651     7.8293     7.7749   143.6516  -999.2500    86.5672
  549.0000   -23.8128     7.6796     7.6247   145.8922  -999.2500    86.2587
  549.5000   -23.8109     7.5599     7.5492   148.1328  -999.2500    85.5199
  550.0000   -23.8094     7.4168     7.3990   151.8772  -999.2500    86.5672
  550.5000   -23.8078     7.2768     6.7208   159.3810  -999.2500    86.2703
  551.0000   -23.8063     7.1257     6.2715   163.1423  -999.2500    85.2270
  551.5000   -23.5072     6.8713     5.9693   174.4129  -999.2500    82.9897
  552.0000   -22.9105     6.5868     5.8266   181.9242  -999.2500    82.5435
  552.5000   -22.3138     6.4072     5.7512   184.9261  -999.2500    79.8584
