~VERSION INFORMATION
 VERS.                2.0:   CWLS LOG ASCII STANDARD - VERSION 2.0
 WRAP.                 NO:   ONE LINE PER DEPTH STEP
~WELL INFORMATION
#MNEM.UNIT      DATA TYPE    INFORMATION
#----------   ------------   ------------------------------
 STRT.F           18.0000:   START DEPTH
 STOP.F          576.0000:   STOP DEPTH
 STEP.F            0.5000:   STEP LENGTH
 NULL.          -999.2500:   NO VALUE
 COMP. LAWRENCE/ALLISON INC:   COMPANY
 WELL.    41-16 SX #10-10:   WELL
 FLD .             TEAPOT:   FIELD
 LOC .      S10 T38N R78W:   LOCATION
 CNTY.            NATRONA:   COUNTY
 STAT.            WYOMING:   STATE
 CTRY. UNITED STATES OF AMERICA:   COUNTRY
 SRVC.           Gearhart:   SERVICE COMPANY
 DATE.        30-JUL-1987:   LOGDATE
 API .       490251115400:   API NUMBER
~CURVE INFORMATION
#MNEM.UNIT       API CODE    CURVE DESCRIPTION
#----------   ------------   ------------------------------
 DEPT.F                  :   
 GRR .GAPI   07 310 01 00:   GAMMA RAY
 ILD .OHMM   07 120 46 00:   INDUCTION LOG DEEP
 ILM .OHMM   07 120 44 00:   INDUCTION LOG MEDIUM
~PARAMETER INFORMATION
#MNEM.UNIT          VALUE    DESCRIPTION
#----------   ------------   ------------------------------
 PD  .                 GL:   PERMANENT DATUM
 EPD .F              5253:   ELEVATION PERMANENT DATUM
 LMF .                 KB:   LOG MEASURED FROM
 DAPD.F                 8:   FEET ABOVE PERMANENT DATUM
 DMF .                 KB:   DRILLING MEASURED FROM
 EKB .F              5261:   KELLING BUSHING
 EGL .F              5253:   GROUND LEVEL
 DATE.        30-JUL-1987:   RUN DATE
 RUN .                  1:   RUN NUMBER
 DD  .F               570:   DEPTH DRILLER
 DL  .F               584:   DEPTH LOGGER
 BLI .F               576:   BOTTOM LOG INTERVAL
 TLI .F                18:   TOP LOG INTERVAL
 CS  .IN            8.625:   CASING SIZE
 CBD .F                48:   CASING BOTTOM DRILLER
 CBL .F                48:   CASING BOTTOM LOGGER
 BS  .IN            7.875:   BIT SIZE
 BSD .F               570:   BIT SIZE AT DEPTH
 TLAB.HRS            0346:   TIME LOGGER AT BOTTOM
 MRT .F                80:   MAXIMUM RECORDED TEMPERATURE
 LUN .               7597:   LOGGING UNIT NUMBER
 LUL .           GILLETTE:   LOGGING UNIT LOCATION
 ENGI. K. HUCHFELDT, R. WEATHERMON:   RECORDING ENGINEER
 WITN.    MR. GARY STRONG:   WITNESSED BY
 CLNT.            A2DTECH:   CLIENT CODE
 ORIG.         2.5" PRINT:   ORIGIN OF DATA
 UWI .       490251115400:   UNIQUE WELL ID
 DICO. A2D Technologies, Inc.:   DIGITIZING COMPANY
~OTHER INFORMATION
~A   DEPT       GRR       ILD        ILM   
# ...
  291.0000   139.4146     5.1785     5.1615
  291.5000   133.9854     5.1938     5.3356
  292.0000   133.8812     5.4152     5.5602
  292.5000   137.6287     5.5895     5.8747
  293.0000   140.0546     5.8298     6.1219
  293.5000   142.4804     6.1649     6.3796
  294.0000   141.8691     6.4878     6.5572
  294.5000   140.0814     6.8582     6.9279
  295.0000   140.0906     7.1504     7.3197
  295.5000   140.0997     7.4997     7.5234
  296.0000   140.1087     7.7729     7.7328
  296.5000   139.4250     7.9931     8.0581
  297.0000   137.7092     8.0505     8.1690
  297.5000   137.7190     8.0505     8.1678
  298.0000   137.7281     7.9402     8.1667
  298.5000   138.0433     7.6622     8.1656
  299.0000   139.7281     7.5142     7.9424
  299.5000   141.1471     7.3098     7.7253
  300.0000   141.3897     7.4113     7.4113
  300.5000   143.2246     7.2031     7.2081
  301.0000   144.3991     6.8166     7.1077
  301.5000   141.7220     6.6282     6.8182
  302.0000   138.2316     6.4449     6.6198
  302.5000   137.5932     6.1810     6.3611
  303.0000   137.1247     6.0101     6.1019
  303.5000   137.7230     5.7639     5.9989
  304.0000   137.7160     5.5843     5.7719
  304.5000   139.1722     5.4496     5.5919
  305.0000   140.4028     5.3972     5.3849
  305.5000   143.4623     5.4247     5.0948
  306.0000   143.3232     5.5333     4.8872
  306.5000   139.4973     5.8172     4.8465
  307.0000   137.6787     6.0656     5.2121
  307.5000   137.6728     6.3689     5.8750
  308.0000   139.4796     6.5530     6.3486
  308.5000   141.8906     6.7823     6.8547
  309.0000   143.0932     7.1110     7.2512
  309.5000   144.2957     7.2097     7.5440
  310.0000   142.4771     7.4113     7.5456
  310.5000   138.8459     7.6185     7.6519
  311.0000   135.1822     7.8315     7.6535
  311.5000   131.4945     8.0505     7.6550
  312.0000   129.0151     8.0505     7.6566
  312.5000   128.5504     8.0505     7.7645
  313.0000   130.4854     8.0505     7.7660
  313.5000   131.7160     8.0505     7.7676
  314.0000   132.3424     8.0505     7.8771
  314.5000   132.7563     8.0505     7.8787
  315.0000   133.4743     7.9402     7.8803
  315.5000   134.0161     7.9402     7.9913
  316.0000   132.7372     7.9402     7.9929
  316.5000   134.0363     7.9402     7.9946
  317.0000   137.0594     7.9402     7.9962
  317.5000   137.9959     7.8315     7.9979
  318.0000   135.1290     7.8315     8.1106
  318.5000   134.9587     7.8315     8.1123
  319.0000   137.5341     7.8315     8.1140
  319.5000   139.9451     7.8315     8.1157
  320.0000   140.0201     7.8315     8.1173
  320.5000   137.5164     7.7922     8.1190
  321.0000   136.9062     7.6819     8.0840
  321.5000   135.6918     7.6185     8.0109
  322.0000   136.2902     7.6185     8.0128
  322.5000   137.6133     7.5142     8.0145
  323.0000   140.0806     7.4593     8.0161
  323.5000   143.2689     7.2531     7.9642
  324.0000   146.2236     7.2097     7.6910
  324.5000   147.9134     6.9175     7.4302
  325.0000   148.3394     6.7294     7.2264
  325.5000   145.2266     6.4567     6.8954
  326.0000   143.4924     6.3683     6.7093
  326.5000   143.4864     6.1103     6.5281
  327.0000   144.3988     5.9441     6.3518
  327.5000   144.6828     5.8627     6.0957
  328.0000   144.6756     5.7824     5.8499
  328.5000   143.4612     5.8627     5.4613
  329.0000   141.6426     6.0266     5.1693
  329.5000   139.8241     6.1103     5.1704
  330.0000   137.4012     6.2811     5.6954
  330.5000   137.3031     6.4567     6.2738
  331.0000   137.3897     6.6434     6.7229
  331.5000   137.3835     6.8228     7.1056
  332.0000   136.1691     6.9433     7.4099
  332.5000   134.3102     7.1274     7.6159
  333.0000   132.5317     7.2297     7.5131
  333.5000   133.2830     7.3098     7.2981
  334.0000   135.1461     7.0594     6.9863
  334.5000   137.3481     6.6745     6.6988
  335.0000   137.3414     6.3106     6.3351
  335.5000   136.9566     6.0493     6.0744
  336.0000   135.2991     5.7824     5.7666
  336.5000   134.9063     5.6694     5.4328
  337.0000   134.9003     5.5481     5.1379
  337.5000   135.4985     5.5481     4.9089
  338.0000   136.4270     5.6668     4.9378
  338.5000   137.2991     5.8279     5.2212
  339.0000   137.8962     6.1103     5.5570
  339.5000   138.4945     6.3683     5.8785
  340.0000   139.6979     6.5464     6.2185
  340.5000   137.8785     6.8228     6.5782
  341.0000   136.6641     7.1110     6.9398
  341.5000   134.8455     7.3098     7.2344
  342.0000   133.6312     7.6185     7.4381
  342.5000   132.4168     7.8315     7.6477
  343.0000   130.5901     8.0505     7.8631
  343.5000   129.9516     8.1622     8.0846
  344.0000   128.7090     8.3904     8.0862
  344.5000   127.4662     8.5069     8.3140
  345.0000   125.6193     8.6250     8.4312
  345.5000   125.1299     8.7488     8.4329
  346.0000   126.6868     8.8662     8.5517
  346.5000   130.3625     8.8662     8.5534
  347.0000   132.5961     8.8662     8.5552
  347.5000   133.3031     8.8662     8.5569
  348.0000   132.0605     8.8662     8.5587
  348.5000   130.8177     8.8662     8.5605
  349.0000   130.8721     8.8662     8.5622
  349.5000   132.3312     8.8662     8.5640
  350.0000   133.5338     8.8662     8.4483
  350.5000   132.9236     8.8662     8.4502
  351.0000   130.5008     8.9893     8.4520
  351.5000   128.0780     8.9893     8.4844
  352.0000   127.4678     9.0475     8.5729
  352.5000   127.4619     9.3048     8.6937
  353.0000   126.2476     9.3005     8.8599
  353.5000   123.8248     8.7160     9.0646
  354.0000   121.3535     7.9402     9.0664
  354.5000   118.8742     7.4113     8.5940
  355.0000   117.7647     7.0136     7.8614
  355.5000   122.0363     6.8228     6.6494
  356.0000   129.7238     6.8228     6.0761
  356.5000   140.6546     6.7294     5.7013
  357.0000   146.9365     6.7294     5.3759
  357.5000   145.6295     6.8228     5.4516
  358.0000   138.5860     6.9175     6.1731
  358.5000   128.8401     7.2097     7.1856
  359.0000   121.6314     7.6185     8.1366
  359.5000   119.1238     8.2755     8.8401
  360.0000   116.4943     8.9893     9.4730
  360.5000   115.2799    10.0469    10.0122
  361.0000   115.8783    10.6067    10.5820
  361.5000   117.6850    10.9338    10.8801
  362.0000   119.4918    11.2499    10.7333
  362.5000   123.1113    11.8710    10.5885
  363.0000   126.1265    12.4129    10.3026
  363.5000   126.7695    13.3552    10.4509
  364.0000   123.6978    14.5272    11.0674
  364.5000   118.1934    15.8698    12.3922
  365.0000   111.1184    17.7533    14.0574
  365.5000    95.0637    19.3863    15.9463
  366.0000    81.9093    20.7891    17.8413
  366.5000    75.9335    21.8556    19.9011
  367.0000    76.8379    23.1055    21.3541
  367.5000    78.3392    24.4268    22.8243
  368.0000    74.8681    25.6339    24.1447
  368.5000    69.9959    25.9898    25.1916
  369.0000    68.6526    25.6339    26.1485
  369.5000    70.4271    25.2829    26.7478
  370.0000    77.5429    24.9367    26.2304
  370.5000    82.6284    25.2829    25.5111
  371.0000    83.7341    25.6339    24.4717
  371.5000    83.7271    26.3506    23.8007
  372.0000    85.5339    27.0874    23.3269
  372.5000    86.1329    28.6232    23.3317
  373.0000    83.7094    29.8320    24.6607
  373.5000    81.2866    30.6661    26.4261
  374.0000    78.8638    31.9612    29.1097
  374.5000    73.4198    32.8548    31.1937
  375.0000    69.1843    33.7734    32.5176
  375.5000    64.2599    33.7734    33.4336
  376.0000    61.9215    33.7734    33.9047
  376.5000    63.9817    32.3605    33.9116
  377.0000    67.7985    30.1365    32.5441
  377.5000    72.1350    28.0406    27.9700
  378.0000    76.3021    26.2073    24.7109
  378.5000    79.5992    25.2021    23.0695
  379.0000    83.8631    24.9367    21.8340
  379.5000    86.3021    25.0405    21.2464
  380.0000    87.5328    25.3999    22.1483
  380.5000    88.4532    25.6339    22.5222
  381.0000    88.1088    25.6339    23.4139
  381.5000    87.2315    25.6339    23.4713
