~VERSION INFORMATION
 VERS.                2.0:   CWLS LOG ASCII STANDARD - VERSION 2.0
 WRAP.                 NO:   ONE LINE PER DEPTH STEP
~WELL INFORMATION
#MNEM.UNIT      DATA TYPE    INFORMATION
#----------   ------------   ------------------------------
 STRT.F           36.0000:   START DEPTH
 STOP.F          518.0000:   STOP DEPTH
 STEP.F            0.5000:   STEP LENGTH
 NULL.          -999.2500:   NO VALUE
 COMP.    FENIX & SCISSON:   COMPANY
 WELL.        NPR #57S-10:   WELL
 FLD .             TEAPOT:   FIELD
 LOC .      S10 T38N R78W:   LOCATION
 CNTY.            NATRONA:   COUNTY
 STAT.            WYOMING:   STATE
 CTRY. UNITED STATES OF AMERICA:   COUNTRY
 SRVC.              Welex:   SERVICE COMPANY
 DATE.        11-MAR-1977:   LOGDATE
 API .       490251029100:   API NUMBER
~CURVE INFORMATION
#MNEM.UNIT       API CODE    CURVE DESCRIPTION
#----------   ------------   ------------------------------
 DEPT.F                  :   
 SPR .MV     07 010 01 00:   SPONTANEOUS POTENTIAL
 ILD .OHMM   07 120 46 00:   INDUCTION LOG DEEP
 ILM .OHMM   07 120 44 00:   INDUCTION LOG MEDIUM
 SGUR.OHMM   07 220 01 00:   SHORT GUARD RESISITIVITY
 CORR.G/C3   45 356 01 00:   DENSITY CORRECTION
 CALD.IN     45 280 60 00:   CALIPER
 GRD .GAPI   45 310 01 00:   GAMMA RAY FROM DENSITY LOG
 RHOB.G/C3   45 350 01 00:   BULK DENSITY
 DPOR.DEC    45 890 12 00:   DENSITY POROSITY SANDSTONE
~PARAMETER INFORMATION
#MNEM.UNIT          VALUE    DESCRIPTION
#----------   ------------   ------------------------------
 PD  .                 GL:   PERMANENT DATUM
 EPD .F              5244:   ELEVATION PERMANENT DATUM
 LMF .                 GL:   LOG MEASURED FROM
 DMF .                 GL:   DRILLING MEASURED FROM
 EGL .F              5244:   GROUND LEVEL
 DATE.          3-11-1977:   RUN DATE
 RUN .                  1:   RUN NUMBER
 DD  .F               530:   DEPTH DRILLER
 DL  .F               522:   DEPTH LOGGER
 BLI .F               520:   BOTTOM LOG INTERVAL
 TLI .F                35:   TOP LOG INTERVAL
 CS  .IN            8.625:   CASING SIZE
 CBD .F                40:   CASING BOTTOM DRILLER
 CBL .F                44:   CASING BOTTOM LOGGER
 BS  .IN            7.875:   BIT SIZE
 BSD .F               530:   BIT SIZE AT DEPTH
 DFT .            KCL MUD:   DRILLING FLUID TYPE
 DFD .                8.8:   DRILLING FLUID DENSITY
 DFV .                  8:   DRILLING FLUID VISCOSITY
 DFPH.                 10:   DRILLING FLUID PH
 DFL .               12.4:   DRILLING FLUID LOSS
 MSS .           FLOWLINE:   MUD SAMPLE SOURCE
 RMS .OHMM           .398:   RESISTIVITY MUD SAMPLE
 MST .F                50:   MUD SAMPLE TEMPERATURE
 RMF .OHMM           .276:   RESISTIVITY MUD FILTRATE SAMPLE
 MFST.F                60:   MUD FILTRATE SAMPLE TEMPERATURE
 RMC .OHMM            .42:   RESISTIVITY MUD CAKE
 MCST.F                60:   MUD CAKE SAMPLE TEMPERATURE
 MFSS.           MEASURED:   MUD FILTRATE SAMPLE SOURCE
 RMB .OHMM            .31:   RESISTIVITY MUD AT BHT
 BHT .F                64:   BOTTOM HOLE TEMPERATURE
 TCS .HRS             2.5:   TIME CURCULATED STOPPED
 MRT .F                64:   MAXIMUM RECORDED TEMPERATURE
 LUN .               8611:   LOGGING UNIT NUMBER
 LUL .           GILLETTE:   LOGGING UNIT LOCATION
 ENGI.               DOAK:   RECORDING ENGINEER
 WITN.         STUEBINGER:   WITNESSED BY
 CLNT.            A2DTECH:   CLIENT CODE
 ORIG.      2" & 5" PRINT:   ORIGIN OF DATA
 UWI .       490251029100:   UNIQUE WELL ID
 DICO. A2D Technologies, Inc.:   DIGITIZING COMPANY
~OTHER INFORMATION
~A   DEPT      SPR        ILD        ILM       SGUR        CORR        CALD      GRD       RHOB       DPOR   
# ...
  145.5000   -36.8097     9.5859    12.2982    14.0875     0.0482     7.9251   108.6810     2.4508     0.1156
  146.0000   -36.1674     9.6744    11.6913    13.8165     0.0474     7.9263   110.1263     2.4465     0.1171
  146.5000   -35.5326     9.7385    11.4508    13.5644     0.0466     7.9276   111.6849     2.4422     0.1186
  147.0000   -34.8977     9.8031    11.3613    13.3645     0.0459     7.9288   110.9580     2.4426     0.1186
  147.5000   -34.2631     9.8419    11.2724    13.6923     0.0451     7.9300   110.1257     2.4434     0.1183
  148.0000   -33.6281     9.6241    11.1840    13.3260     0.0443     7.9313   112.1131     2.4392     0.1176
  148.5000   -32.9954     9.4552    11.0961    13.0379     0.0435     7.9325   113.8310     2.4426     0.1174
  149.0000   -32.3587     9.2845    11.0090    12.8443     0.0428     7.9337   114.0614     2.4474     0.1174
  149.5000   -31.9944     9.1154    10.9226    12.6496     0.0420     7.9349   113.4777     2.4445     0.1184
  150.0000   -31.8740     8.8998    10.7471    13.1005     0.0412     7.9362   112.6734     2.4386     0.1195
  150.5000   -32.0041     8.9167    10.5897    13.1012     0.0405     7.9374   112.8144     2.4350     0.1206
  151.0000   -32.2273     8.9408    10.5549    12.8367     0.0397     7.9387   113.8771     2.4336     0.1214
  151.5000   -31.9290     8.9649    10.5204    12.6031     0.0389     7.9399   114.0642     2.4336     0.1214
  152.0000   -31.5776     8.9821    10.3679    12.3947     0.0381     7.9411   111.7400     2.4338     0.1210
  152.5000   -31.2248     8.8153    10.1234    12.2403     0.0394     7.9422   109.5120     2.4367     0.1198
  153.0000   -30.8732     8.6884    10.3093    12.1687     0.0414     7.9422   108.1233     2.4419     0.1167
  153.5000   -30.5223     8.5634    10.4829    12.8594     0.0435     7.9422   106.8466     2.4509     0.1137
  154.0000   -30.1634     8.4619    10.5314    12.4985     0.0456     7.9422   105.5706     2.4602     0.1104
  154.5000   -30.2228     8.3846    10.5637    12.0573     0.0477     7.9422   104.1978     2.4694     0.1071
  155.0000   -30.4520     8.2873    10.5961    12.2624     0.0498     7.9422   105.2884     2.4790     0.1050
  155.5000   -30.6832     8.1692    10.7354    12.4993     0.0519     7.9422   107.3013     2.4781     0.1038
  156.0000   -30.7877     8.0529    10.8897    12.6250     0.0540     7.9422   109.3462     2.4732     0.1042
  156.5000   -30.4818     7.9695    11.0474    11.7972     0.0558     7.9422   111.4625     2.4682     0.1066
  157.0000   -30.1882     7.9889    11.1133    11.7264     0.0543     7.9422   111.9881     2.4632     0.1097
  157.5000   -29.8919     8.0042    11.1346    11.7261     0.0528     7.9422   110.6944     2.4582     0.1127
  158.0000   -30.0750     8.0196    11.1560    11.9662     0.0513     7.9348   108.2082     2.4532     0.1157
  158.5000   -30.3226     8.0349    11.1773    12.1687     0.0498     7.9192   106.6779     2.4488     0.1166
  159.0000   -30.5717     8.0503    11.1987    11.9351     0.0484     7.9035   108.0833     2.4521     0.1150
  159.5000   -30.8198     8.0657    11.2313    11.8374     0.0469     7.8868   109.8935     2.4545     0.1148
  160.0000   -31.0494     8.0812    11.2657    11.8328     0.0454     7.9033   111.6955     2.4502     0.1162
  160.5000   -31.0865     8.0968    11.3034    12.1416     0.0439     7.9339   113.1024     2.4523     0.1148
  161.0000   -31.1176     8.1173    11.0183    12.6291     0.0423     7.9648   112.0004     2.4565     0.1132
  161.5000   -31.1493     8.0769    10.6960    13.0924     0.0437     7.9774   110.4481     2.4606     0.1117
  162.0000   -31.1813     8.0153    10.3805    12.6669     0.0464     7.9675   109.4258     2.4648     0.1101
  162.5000   -31.2140     7.9252    10.0784    11.5144     0.0491     7.9577   111.7815     2.4693     0.1086
  163.0000   -31.2501     7.7507     9.6768    11.6216     0.0518     7.9478   113.5927     2.4605     0.1107
  163.5000   -31.0826     7.5800     9.2808    10.9625     0.0534     7.9378   113.7400     2.4499     0.1152
  164.0000   -30.8846     7.4132     8.8963    10.2330     0.0511     7.9278   113.8630     2.4393     0.1198
  164.5000   -30.6847     7.2500     8.5351     9.6761     0.0489     7.9179   113.9805     2.4287     0.1243
  165.0000   -30.4799     7.0904     8.2683     9.0651     0.0466     7.9080   114.2083     2.4227     0.1270
  165.5000   -30.6774     6.8785     8.4144     9.2335     0.0444     7.8980   114.9696     2.4267     0.1247
  166.0000   -30.9419     6.8924     8.5341    10.2787     0.0421     7.8881   115.7023     2.4276     0.1225
  166.5000   -31.2108     6.9142     8.8469    11.0990     0.0399     7.8782   116.2830     2.4363     0.1204
  167.0000   -31.1917     6.9362     9.2942    10.9025     0.0377     7.8684   116.8473     2.4469     0.1182
  167.5000   -31.1219     6.9582     9.7597    10.6714     0.0359     7.8661   115.0172     2.4490     0.1171
  168.0000   -31.0469     6.9803     9.9707    10.4067     0.0364     7.8744   112.1786     2.4465     0.1177
  168.5000   -30.8728     7.0022    10.0218    10.7279     0.0368     7.8827   109.3503     2.4441     0.1183
  169.0000   -30.6974     7.0343    10.0730    11.2016     0.0372     7.8910   107.7834     2.4415     0.1189
  169.5000   -30.5225     7.0683    10.1245    11.1661     0.0377     7.8993   108.3011     2.4454     0.1184
  170.0000   -30.3478     7.1026    10.1763    11.0990     0.0381     7.9075   109.0205     2.4530     0.1143
  170.5000   -30.1734     7.1364    10.2283    11.3052     0.0385     7.9158   108.4072     2.4607     0.1102
  171.0000   -29.9984     7.2054    10.2807    11.1157     0.0390     7.9241   107.6017     2.4684     0.1086
  171.5000   -29.8039     7.2738    10.4144    10.6999     0.0394     7.9324   106.7624     2.4759     0.1108
  172.0000   -29.5178     7.3429    10.6669    10.8889     0.0399     7.9407   107.9222     2.4785     0.1130
  172.5000   -29.2347     7.4126    10.9255    11.2173     0.0385     7.9489   110.2521     2.4735     0.1151
  173.0000   -28.9515     7.4830    11.1904    11.5518     0.0368     7.9572   112.5940     2.4685     0.1173
  173.5000   -28.6696     7.5542    11.5152    11.8963     0.0351     7.9655   114.9439     2.4636     0.1195
  174.0000   -28.3809     7.6314    11.4616    12.3928     0.0334     7.9738   117.3055     2.4586     0.1216
  174.5000   -28.5341     7.7324    11.3905    12.2274     0.0317     7.9821   119.5439     2.4536     0.1238
  175.0000   -28.9543     7.8351    11.2924    11.8396     0.0300     7.9904   118.8592     2.4486     0.1259
  175.5000   -29.3848     7.8965    11.1957    11.8841     0.0283     7.9987   118.0643     2.4436     0.1280
  176.0000   -29.5437     7.8965    11.0990    11.9469     0.0266     8.0002   117.3381     2.4386     0.1302
  176.5000   -29.6459     7.8965    10.9228    11.6797     0.0249     7.9974   116.9622     2.4337     0.1323
  177.0000   -29.6375     7.8965    10.7487    11.4609     0.0232     7.9946   116.5519     2.4287     0.1345
  177.5000   -29.6057     7.9605    10.5773    11.2463     0.0215     7.9918   115.5971     2.4237     0.1368
  178.0000   -29.5735     8.0421    10.4067    11.0862     0.0198     7.9889   112.2150     2.4187     0.1393
  178.5000   -29.5416     8.1246    10.3753    10.9974     0.0180     7.9861   109.6002     2.4137     0.1397
  179.0000   -29.5096     8.1925    10.3439    12.0646     0.0162     7.9833   112.8487     2.4088     0.1397
  179.5000   -29.4781     8.1445    10.3113    12.7416     0.0189     7.9922   116.1375     2.4037     0.1385
  180.0000   -29.4041     8.1042    10.1580    11.7099     0.0225     8.0091   119.3096     2.4086     0.1339
  180.5000   -29.3013     8.0640    10.0033    11.1975     0.0262     8.0261   118.8150     2.4185     0.1288
  181.0000   -29.1981     8.0241     9.8478    11.6629     0.0298     8.0431   118.5499     2.4284     0.1236
  181.5000   -29.0949     7.9844     9.7702    11.8392     0.0312     8.0602   119.4916     2.4385     0.1189
