~VERSION INFORMATION
 VERS.                2.0:   CWLS LOG ASCII STANDARD - VERSION 2.0
 WRAP.                 NO:   ONE LINE PER DEPTH STEP
~WELL INFORMATION
#MNEM.UNIT      DATA TYPE    INFORMATION
#----------   ------------   ------------------------------
 STRT.F            4.0000:   START DEPTH
 STOP.F         1997.5000:   STOP DEPTH
 STEP.F            0.5000:   STEP LENGTH
 NULL.          -999.2500:   NO VALUE
 COMP. LAWRENCE/ALLISON INC:   COMPANY
 WELL. NPR 3 66 SX #32-11:   WELL
 FLD .             TEAPOT:   FIELD
 LOC .      S11 T38N R78W:   LOCATION
 CNTY.            NATRONA:   COUNTY
 STAT.            WYOMING:   STATE
 CTRY. UNITED STATES OF AMERICA:   COUNTRY
 SRVC.      NL McCullough:   SERVICE COMPANY
 DATE.        16-SEP-1988:   LOGDATE
 API .       490251108600:   API NUMBER
~CURVE INFORMATION
#MNEM.UNIT       API CODE    CURVE DESCRIPTION
#----------   ------------   ------------------------------
 DEPT.F                  :   
 ROP .MIN/FT 91 810 01 00:   RATE OF DRILLING PENETRATION
 GR  .GAPI   81 310 01 00:   GAMMA RAY FROM CEMENT BOND LOG
 TGAS.UNITS  91 830 01 00:   TOTAL GAS FROM HOTWIRE
~PARAMETER INFORMATION
#MNEM.UNIT          VALUE    DESCRIPTION
#----------   ------------   ------------------------------
 PD  .                 GL:   PERMANENT DATUM
 EPD .F              5170:   ELEVATION PERMANENT DATUM
 LMF .                 KB:   LOG MEASURED FROM
 DMF .                 KB:   DRILLING MEASURED FROM
 EKB .F              5170:   KELLING BUSHING
 EGL .F              5170:   GROUND LEVEL
 DATE.        16-SEP-1988:   RUN DATE
 RUN .                  1:   RUN NUMBER
 DD  .F               837:   DEPTH DRILLER
 DL  .F               737:   DEPTH LOGGER
 BLI .F               733:   BOTTOM LOG INTERVAL
 CS  .IN              5.5:   CASING SIZE
 CBD .F               836:   CASING BOTTOM DRILLER
 BSD .F               837:   BIT SIZE AT DEPTH
 DFT .              WATER:   DRILLING FLUID TYPE
 TCS .HRS             1.5:   TIME CURCULATED STOPPED
 ENGI.          BANGERTER:   RECORDING ENGINEER
 WITN.               LOWE:   WITNESSED BY
 CLNT.            A2DTECH:   CLIENT CODE
 ORIG.           5" PRINT:   ORIGIN OF DATA
 UWI .       490251108600:   UNIQUE WELL ID
 DICO. A2D Technologies, Inc.:   DIGITIZING COMPANY
~OTHER INFORMATION
~A    DEPT     ROP          GR      TGAS   
# ...
 1824.0000     0.2777  -999.2500    10.9991
 1824.5000     0.2780  -999.2500    11.0767
 1825.0000     0.2783  -999.2500    11.1543
 1825.5000     0.2786  -999.2500    11.2319
 1826.0000     0.2789  -999.2500    11.3095
 1826.5000     0.2793  -999.2500    11.3871
 1827.0000     0.2796  -999.2500    11.4647
 1827.5000     0.2799  -999.2500    11.5423
 1828.0000     0.2802  -999.2500    11.6199
 1828.5000     0.2805  -999.2500    11.6975
 1829.0000     0.2808  -999.2500    11.7751
 1829.5000     0.2811  -999.2500    11.8527
 1830.0000     0.2814  -999.2500    11.9303
 1830.5000     0.2817  -999.2500    12.0079
 1831.0000     0.2820  -999.2500    12.0855
 1831.5000     0.2823  -999.2500    12.1632
 1832.0000     0.2826  -999.2500    12.2408
 1832.5000     0.2829  -999.2500    12.3184
 1833.0000     0.2832  -999.2500    12.3960
 1833.5000     0.2835  -999.2500    12.4736
 1834.0000     0.2838  -999.2500    12.5512
 1834.5000     0.2841  -999.2500    12.6288
 1835.0000     0.2844  -999.2500    12.7064
 1835.5000     0.2847  -999.2500    12.7840
 1836.0000     0.2850  -999.2500    12.8616
 1836.5000     0.2853  -999.2500    12.9392
 1837.0000     0.2856  -999.2500    14.5090
 1837.5000     0.2859  -999.2500    18.7502
 1838.0000     0.2862  -999.2500    19.4791
 1838.5000     0.2865  -999.2500    16.1319
 1839.0000     0.2868  -999.2500    14.4764
 1839.5000     0.2871  -999.2500    14.4392
 1840.0000     0.2874  -999.2500    14.9309
 1840.5000     0.2878  -999.2500    14.8233
 1841.0000     0.2881  -999.2500    14.6434
 1841.5000     0.2884  -999.2500    14.4635
 1842.0000     0.2887  -999.2500    14.2836
 1842.5000     0.2890  -999.2500    14.1037
 1843.0000     0.2893  -999.2500    13.9239
 1843.5000     0.2896  -999.2500    13.7440
 1844.0000     0.2899  -999.2500    13.5641
 1844.5000     0.2902  -999.2500    13.3842
 1845.0000     0.2905  -999.2500    13.2043
 1845.5000     0.2908  -999.2500    13.0245
 1846.0000     0.2911  -999.2500    12.8446
 1846.5000     0.2914  -999.2500    12.6647
 1847.0000     0.2917  -999.2500    12.4848
 1847.5000     0.2920  -999.2500    12.3049
 1848.0000     0.2923  -999.2500    12.1251
 1848.5000     0.2926  -999.2500    11.9452
 1849.0000     0.2929  -999.2500    11.7653
 1849.5000     0.2932  -999.2500    11.5854
 1850.0000     0.2935  -999.2500    11.4055
 1850.5000     0.2933  -999.2500    11.5510
 1851.0000     0.2931  -999.2500    11.6966
 1851.5000     0.2929  -999.2500    11.8421
 1852.0000     0.2927  -999.2500    11.9876
 1852.5000     0.2925  -999.2500    12.1331
 1853.0000     0.2923  -999.2500    12.2786
 1853.5000     0.2921  -999.2500    12.4241
 1854.0000     0.2919  -999.2500    12.5696
 1854.5000     0.2917  -999.2500    12.7151
 1855.0000     0.2915  -999.2500    12.8607
 1855.5000     0.2913  -999.2500    13.0062
 1856.0000     0.2911  -999.2500    13.1517
 1856.5000     0.2909  -999.2500    13.2972
 1857.0000     0.2907  -999.2500    13.4427
 1857.5000     0.2905  -999.2500    15.8902
 1858.0000     0.2903  -999.2500    21.7742
 1858.5000     0.2901  -999.2500    21.7742
 1859.0000     0.2899  -999.2500    17.6267
 1859.5000     0.2897  -999.2500    15.5530
 1860.0000     0.2895  -999.2500    13.4793
 1860.5000     0.2893  -999.2500    13.4793
 1861.0000     0.2891  -999.2500    13.5000
 1861.5000     0.2889  -999.2500    14.5161
 1862.0000     0.2887  -999.2500    14.4228
 1862.5000     0.2885  -999.2500    13.4793
 1863.0000     0.2883  -999.2500    13.4793
 1863.5000     0.2881  -999.2500    13.4719
 1864.0000     0.2879  -999.2500    13.4327
 1864.5000     0.2877  -999.2500    13.3936
 1865.0000     0.2874  -999.2500    13.3545
 1865.5000     0.2872  -999.2500    13.3153
 1866.0000     0.2870  -999.2500    13.2762
 1866.5000     0.2868  -999.2500    13.2370
 1867.0000     0.2866  -999.2500    13.1979
 1867.5000     0.2864  -999.2500    13.1587
 1868.0000     0.2862  -999.2500    13.1196
 1868.5000     0.2860  -999.2500    13.0805
 1869.0000     0.2858  -999.2500    13.0413
 1869.5000     0.2856  -999.2500    13.0022
 1870.0000     0.2854  -999.2500    12.9630
 1870.5000     0.2852  -999.2500    12.9239
 1871.0000     0.2850  -999.2500    12.8847
 1871.5000     0.2848  -999.2500    12.8456
 1872.0000     0.2846  -999.2500    12.8065
 1872.5000     0.2844  -999.2500    12.7673
 1873.0000     0.2842  -999.2500    12.7282
 1873.5000     0.2840  -999.2500    12.6890
 1874.0000     0.2838  -999.2500    12.6499
 1874.5000     0.2836  -999.2500    12.6107
 1875.0000     0.2834  -999.2500    12.5716
 1875.5000     0.2832  -999.2500    12.5325
 1876.0000     0.2830  -999.2500    12.4933
 1876.5000     0.2828  -999.2500    12.4542
 1877.0000     0.2826  -999.2500    14.6924
 1877.5000     0.2824  -999.2500    17.9115
 1878.0000     0.2822  -999.2500    20.7373
 1878.5000     0.2820  -999.2500    15.5530
 1879.0000     0.2818  -999.2500    13.4793
 1879.5000     0.2816  -999.2500    12.4424
 1880.0000     0.2814  -999.2500    10.3687
 1880.5000     0.2812  -999.2500     8.2949
 1881.0000     0.2810  -999.2500     8.2915
 1881.5000     0.2808  -999.2500     7.2581
 1882.0000     0.2806  -999.2500     8.2949
 1882.5000     0.2804  -999.2500     8.4071
 1883.0000     0.2802  -999.2500     9.3318
 1883.5000     0.2800  -999.2500     9.5167
 1884.0000     0.2798  -999.2500    10.3687
 1884.5000     0.2796  -999.2500    10.6262
 1885.0000     0.2794  -999.2500    11.4055
 1885.5000     0.2791  -999.2500    11.4055
 1886.0000     0.2789  -999.2500    11.4055
 1886.5000     0.2787  -999.2500    11.4055
 1887.0000     0.2785  -999.2500    11.4055
 1887.5000     0.2783  -999.2500    11.8807
 1888.0000     0.2781  -999.2500    12.4424
 1888.5000     0.2779  -999.2500    12.4424
 1889.0000     0.2777  -999.2500    12.4424
 1889.5000     0.2775  -999.2500    12.4424
 1890.0000     0.2773  -999.2500    12.4424
 1890.5000     0.2771  -999.2500    12.4424
 1891.0000     0.2769  -999.2500    12.4424
 1891.5000     0.2767  -999.2500    12.4424
 1892.0000     0.2765  -999.2500    12.4424
 1892.5000     0.2763  -999.2500    12.4424
 1893.0000     0.2761  -999.2500    12.4424
 1893.5000     0.2759  -999.2500    13.4793
 1894.0000     0.2757  -999.2500    15.5530
 1894.5000     0.2755  -999.2500    21.7742
 1895.0000     0.2753  -999.2500   114.0553
 1895.5000     0.2751  -999.2500   144.3539
 1896.0000     0.2749  -999.2500   156.6774
 1896.5000     0.2747  -999.2500   158.9149
 1897.0000     0.2745  -999.2500   163.4560
 1897.5000     0.2743  -999.2500   279.6479
 1898.0000     0.2741  -999.2500   344.9413
 1898.5000     0.2739  -999.2500   227.7490
 1899.0000     0.2737  -999.2500   221.3015
 1899.5000     0.2735  -999.2500   217.0734
 1900.0000     0.2733  -999.2500   213.8539
 1900.5000     0.2733  -999.2500   211.5207
 1901.0000     0.2733  -999.2500   208.4101
 1901.5000     0.2733  -999.2500   207.3558
 1902.0000     0.2733  -999.2500   206.3364
 1902.5000     0.2733  -999.2500   206.3364
 1903.0000     0.2733  -999.2500   206.3364
 1903.5000     0.2733  -999.2500   206.1808
 1904.0000     0.2733  -999.2500   205.2995
 1904.5000     0.2733  -999.2500   205.2995
 1905.0000     0.2733  -999.2500   205.2995
 1905.5000     0.2733  -999.2500   205.2995
 1906.0000     0.2733  -999.2500   204.9712
 1906.5000     0.2733  -999.2500   204.2627
 1907.0000     0.2733  -999.2500   204.2627
 1907.5000     0.2733  -999.2500   204.6945
 1908.0000     0.2733  -999.2500   205.7660
 1908.5000     0.2733  -999.2500   206.8376
 1909.0000     0.2733  -999.2500   208.9804
 1909.5000     0.2733  -999.2500   211.0542
 1910.0000     0.2733  -999.2500   212.1256
 1910.5000     0.2733  -999.2500   212.5576
 1911.0000     0.2733  -999.2500   213.2316
 1911.5000     0.2733  -999.2500   213.5945
 1912.0000     0.2733  -999.2500   213.5945
 1912.5000     0.2733  -999.2500   213.5945
 1913.0000     0.2733  -999.2500   213.5945
 1913.5000     0.2733  -999.2500   213.5945
 1914.0000     0.2733  -999.2500   213.5945
 1914.5000     0.2733  -999.2500   213.5945
