~VERSION INFORMATION
 VERS.                2.0:   CWLS LOG ASCII STANDARD - VERSION 2.0
 WRAP.                 NO:   ONE LINE PER DEPTH STEP
~WELL INFORMATION
#MNEM.UNIT      DATA TYPE    INFORMATION
#----------   ------------   ------------------------------
 STRT.F           15.0000:   START DEPTH
 STOP.F          531.0000:   STOP DEPTH
 STEP.F            0.1000:   STEP LENGTH
 NULL.          -999.2500:   NO VALUE
 COMP. LAWRENCE/ALLISON INC:   COMPANY
 WELL.   NPR 3 #42-61SX10:   WELL
 FLD .          N.P.R. #3:   FIELD
 LOC .      S10 T38N R78W:   LOCATION
 CNTY.            NATRONA:   COUNTY
 STAT.            WYOMING:   STATE
 CTRY. UNITED STATES OF AMERICA:   COUNTRY
 SRVC.           Gearhart:   SERVICE COMPANY
 DATE.        06-JUL-1986:   LOGDATE
 API .       490251109500:   API NUMBER
~CURVE INFORMATION
#MNEM.UNIT       API CODE    CURVE DESCRIPTION
#----------   ------------   ------------------------------
 DEPT.F                  :   
 GRR .GAPI   07 310 01 00:   GAMMA RAY
 RILD.OHMM   07 120 46 00:   INDUCTION LOG DEEP
 RILM.OHMM   07 120 44 00:   INDUCTION LOG MEDIUM
~PARAMETER INFORMATION
#MNEM.UNIT          VALUE    DESCRIPTION
#----------   ------------   ------------------------------
 PD  .                 GL:   PERMANENT DATUM
 EPD .F              5196:   ELEVATION PERMANENT DATUM
 LMF .                 KB:   LOG MEASURED FROM
 DAPD.F                 5:   FEET ABOVE PERMANENT DATUM
 DMF .                 KB:   DRILLING MEASURED FROM
 EKB .F              5201:   KELLING BUSHING
 EGL .F              5196:   GROUND LEVEL
 DATE.        06-JUL-1986:   RUN DATE
 RUN .                  1:   RUN NUMBER
 DD  .F               548:   DEPTH DRILLER
 DL  .F               541:   DEPTH LOGGER
 BLI .F               531:   BOTTOM LOG INTERVAL
 TLI .F                15:   TOP LOG INTERVAL
 CS  .IN            8.625:   CASING SIZE
 CBD .F                47:   CASING BOTTOM DRILLER
 CBL .F                47:   CASING BOTTOM LOGGER
 BS  .IN            7.875:   BIT SIZE
 BSD .F               548:   BIT SIZE AT DEPTH
 DFT .                AIR:   DRILLING FLUID TYPE
 BHT .F                82:   BOTTOM HOLE TEMPERATURE
 TCS .HRS            2000:   TIME CURCULATED STOPPED
 TLAB.HRS            2130:   TIME LOGGER AT BOTTOM
 MRT .F                82:   MAXIMUM RECORDED TEMPERATURE
 LUN .               7609:   LOGGING UNIT NUMBER
 LUL .           GILLETTE:   LOGGING UNIT LOCATION
 ENGI.              BAUER:   RECORDING ENGINEER
 WITN.           JENNINGS:   WITNESSED BY
 CLNT.            A2DTECH:   CLIENT CODE
 ORIG.           5" PRINT:   ORIGIN OF DATA
 UWI .       490251109500:   UNIQUE WELL ID
 DICO. A2D Technologies, Inc.:   DIGITIZING COMPANY
~OTHER INFORMATION
~A   DEPT      GRR       RILD       RILM   
# ...
  288.0000    66.7846    30.6899    30.5273
  288.1000    66.5480    30.6904    30.4846
  288.2000    65.9334    30.6909    30.3129
  288.3000    65.3046    30.6915    30.3124
  288.4000    64.8004    30.6920    30.3121
  288.5000    64.3145    30.6926    30.3116
  288.6000    64.0254    30.6932    30.3112
  288.7000    63.8084    30.5421    30.3108
  288.8000    63.7166    30.4793    30.3103
  288.9000    63.7148    30.4798    30.3099
  289.0000    63.7659    30.4804    30.1780
  289.1000    64.0165    30.4809    30.0970
  289.2000    64.7645    30.4814    30.0966
  289.3000    65.5163    30.4820    30.0962
  289.4000    66.1264    30.3835    30.0957
  289.5000    66.8021    30.2696    30.0954
  289.6000    67.7717    30.2702    30.0949
  289.7000    68.5855    30.2707    30.0945
  289.8000    69.5055    30.2712    30.0941
  289.9000    70.3321    30.2718    30.0937
  290.0000    70.9618    30.2723    30.0932
  290.1000    71.4624    30.2256    30.0928
  290.2000    71.9629    30.0614    30.0924
  290.3000    72.5438    30.0620    30.0920
  290.4000    72.5423    30.0625    30.0916
  290.5000    72.6972    30.0630    30.0911
  290.6000    73.0492    30.0635    30.0907
  290.7000    73.5013    30.0307    30.0903
  290.8000    73.7563    29.8541    30.0899
  290.9000    74.0000    29.8546    30.0894
  291.0000    74.2494    29.8552    30.0890
  291.1000    74.4987    29.8557    30.0886
  291.2000    74.5820    29.8562    30.0882
  291.3000    74.3579    29.8370    30.0878
  291.4000    74.3558    29.6483    30.0873
  291.5000    73.6764    29.6487    30.0371
  291.6000    73.0927    29.6493    29.8760
  291.7000    72.5884    29.6498    29.8755
  291.8000    72.0843    29.6503    29.8752
  291.9000    71.5800    29.6445    29.7629
  292.0000    70.9859    29.4439    29.6654
  292.1000    70.7780    29.4443    29.6267
  292.2000    70.5250    29.4448    29.4570
  292.3000    70.3701    29.4453    29.4566
  292.4000    70.3682    29.4458    29.4562
  292.5000    70.3663    29.4464    29.3562
  292.6000    70.6056    29.2842    29.1863
  292.7000    70.8549    29.2412    29.0173
  292.8000    71.2370    29.2417    28.8407
  292.9000    71.6590    29.2423    28.8403
  293.0000    71.9329    29.2428    28.7175
  293.1000    72.4926    29.2433    28.5513
  293.2000    72.7125    29.0953    28.3861
  293.3000    73.1291    29.0396    28.2217
  293.4000    73.5165    29.0401    28.0397
  293.5000    73.7659    29.0406    27.8962
  293.6000    74.0153    29.0379    27.7348
  293.7000    74.3135    28.8384    27.5743
  293.8000    74.5139    28.8388    27.4147
  293.9000    74.7634    28.7416    27.2559
  294.0000    74.9191    28.6379    27.0703
  294.1000    74.9568    28.6384    26.9416
  294.2000    75.2207    28.6390    26.7857
  294.3000    75.2189    28.4841    26.6307
  294.4000    75.2171    28.4394    26.4765
  294.5000    75.2153    28.3563    26.3189
  294.6000    75.2134    28.2413    26.1710
  294.7000    75.1917    28.2289    26.0196
  294.8000    74.9042    28.0447    25.8690
  294.9000    74.9026    28.0451    25.7193
  295.0000    74.7379    27.9408    25.5705
  295.1000    74.5936    27.8497    25.4090
  295.2000    74.4825    27.8502    25.1432
  295.3000    73.9788    27.8507    25.0540
  295.4000    73.7258    27.6905    25.0537
  295.5000    73.4727    27.6567    25.0142
  295.6000    73.0764    27.6572    24.8777
  295.7000    72.6614    27.6577    24.8773
  295.8000    72.3734    27.6359    24.8770
  295.9000    71.8307    27.4650    24.8767
  296.0000    71.3649    27.4655    24.9371
  296.1000    71.2165    27.3539    25.0512
  296.2000    71.2147    27.2742    25.0509
  296.3000    71.2824    27.2747    25.0505
  296.4000    71.5164    27.2655    25.0502
  296.5000    71.5142    27.0847    25.0498
  296.6000    71.5127    27.0851    25.0495
  296.7000    71.6692    27.0856    25.0491
  296.8000    71.8143    27.0214    25.0487
  296.9000    71.8125    26.8968    25.0484
  297.0000    71.8107    26.8974    25.0480
  297.1000    71.8089    26.7455    25.0477
  297.2000    72.0000    26.7100    25.0473
  297.3000    72.1105    26.6255    25.0470
  297.4000    72.1087    26.5240    25.0466
  297.5000    72.1069    26.5059    25.0463
  297.6000    72.1049    26.3393    25.0459
  297.7000    71.8756    26.3397    25.0456
  297.8000    71.7960    26.3401    25.0452
  297.9000    71.9135    26.2686    25.0449
  298.0000    72.0977    26.1567    25.0445
  298.1000    72.1069    26.1506    25.0442
  298.2000    72.3991    25.9745    25.0438
  298.3000    72.8136    25.9749    25.0435
  298.4000    73.3142    25.8837    25.0431
  298.5000    73.8147    25.7350    25.0428
  298.6000    74.3153    25.6138    25.0424
  298.7000    74.8329    25.6143    24.9347
  298.8000    75.3165    25.4722    24.8665
  298.9000    75.8171    25.3259    24.7754
  299.0000    76.1832    25.2582    24.5043
  299.1000    76.5931    25.2122    24.3473
  299.2000    77.2926    25.0673    24.2216
  299.3000    77.5699    24.9072    24.0815
  299.4000    78.0144    24.7802    23.9421
  299.5000    78.3461    24.7336    23.8035
  299.6000    78.5954    24.6689    23.6657
  299.7000    78.9054    24.5272    23.5055
  299.8000    79.4061    24.3862    23.5052
  299.9000    80.0015    24.2196    23.4213
  300.0000    80.1535    24.1199    23.3402
  300.1000    80.3411    23.9970    23.3402
  300.2000    80.5287    23.8740    23.3402
  300.3000    80.1692    23.7511    23.3402
  300.4000    79.3187    23.6281    23.3401
  300.5000    78.4275    23.5051    23.3401
  300.6000    78.1605    23.3822    23.2395
  300.7000    77.9206    23.2592    22.9924
  300.8000    77.6671    23.1795    22.8537
  300.9000    77.5463    23.1795    22.8537
  301.0000    77.4656    23.1795    22.8537
  301.1000    77.2385    23.0537    22.7808
  301.2000    77.2371    22.9201    22.6938
  301.3000    77.2360    22.8560    22.6756
  301.4000    77.4070    22.8560    22.5351
  301.5000    77.8961    22.8422    22.5351
  301.6000    78.5856    22.6960    22.4401
  301.7000    79.0889    22.6960    22.3774
  301.8000    79.6725    22.6960    22.3365
  301.9000    80.3072    22.6327    22.2068
  302.0000    81.0626    22.5371    22.0655
  302.1000    81.7124    22.5371    21.8349
  302.2000    82.1631    22.5371    21.7578
  302.3000    82.4147    22.5371    21.6957
  302.4000    82.4134    22.4521    21.5697
  302.5000    82.6107    22.3794    21.4545
  302.6000    82.5710    22.3489    21.4545
  302.7000    82.4098    22.2227    21.3456
  302.8000    82.4085    22.2227    21.2217
  302.9000    82.4073    22.2227    21.0985
  303.0000    82.1679    22.1439    21.0074
  303.1000    82.0995    22.0671    21.0011
  303.2000    81.9664    22.0671    20.8604
  303.3000    81.7918    22.0671    20.8604
  303.4000    81.7649    22.0671    20.8604
  303.5000    81.4838    22.0671    20.9133
  303.6000    81.2580    22.0671    21.0074
  303.7000    81.0046    22.0671    21.0101
  303.8000    80.8696    22.0671    21.1554
  303.9000    80.8031    22.0671    21.1554
  304.0000    80.5618    22.0671    21.2309
  304.1000    80.5604    22.1628    21.3548
  304.2000    80.3481    22.2227    21.4545
  304.3000    80.2528    22.2227    21.4545
  304.4000    80.2516    22.2381    21.4545
  304.5000    80.2504    22.3794    21.4545
  304.6000    80.2492    22.4984    21.5274
  304.7000    80.2479    22.5371    21.6056
  304.8000    80.2467    22.6024    21.6056
  304.9000    80.2455    22.6960    21.6056
  305.0000    80.2443    22.7067    21.6056
  305.1000    80.2431    22.8560    21.7014
  305.2000    80.2418    22.8560    21.7578
  305.3000    80.2406    22.9448    21.7578
  305.4000    80.2394    23.0786    21.7758
  305.5000    80.2382    23.1795    21.9111
  305.6000    80.1588    23.1851    21.9111
  305.7000    79.8552    23.3429    21.9111
  305.8000    79.0130    23.3429    21.9782
  305.9000    78.3396    23.4282    22.0655
  306.0000    77.2399    23.5649    22.0655
  306.1000    76.2132    23.7023    22.0655
