~VERSION INFORMATION
 VERS.                2.0:   CWLS LOG ASCII STANDARD - VERSION 2.0
 WRAP.                 NO:   ONE LINE PER DEPTH STEP
~WELL INFORMATION
#MNEM.UNIT      DATA TYPE    INFORMATION
#----------   ------------   ------------------------------
 STRT.F           50.0000:   START DEPTH
 STOP.F         1020.0000:   STOP DEPTH
 STEP.F            0.5000:   STEP LENGTH
 NULL.          -999.2500:   NO VALUE
 COMP. LAWRENCE/ALLISON INC:   COMPANY
 WELL.      28 STX #14-14:   WELL
 FLD .             TEAPOT:   FIELD
 LOC .      S14 T38N R78W:   LOCATION
 CNTY.            NATRONA:   COUNTY
 STAT.            WYOMING:   STATE
 CTRY. UNITED STATES OF AMERICA:   COUNTRY
 SRVC.            Unknown:   SERVICE COMPANY
 DATE.        22-OCT-1984:   LOGDATE
 API .       490251099000:   API NUMBER
~CURVE INFORMATION
#MNEM.UNIT       API CODE    CURVE DESCRIPTION
#----------   ------------   ------------------------------
 DEPT.F                  :   
 SPR .MV     07 010 01 00:   SPONTANEOUS POTENTIAL
 RILD.OHMM   07 120 46 00:   INDUCTION LOG DEEP RESISTIVITY
 RILM.OHMM   07 120 44 00:   INDUCTION LOG MEDIUM RESISTIVITY
 RFOC.OHMM   07 220 04 00:   RESISTIVITY FOCUSED LOG
 GRD .GAPI   45 310 01 00:   GAMMA RAY FROM DENSITY LOG
 CALD.IN     45 280 60 00:   CALIPER
 DEN .G/C3   45 350 01 00:   COMPENSATED BULK DENSTIY
 CORR.G/C3   45 356 01 00:   DENSITY CORRECTION
 PORD.DEC    45 890 12 00:   POROSITY DENSITY SANDSTONE
 CNC .DEC    42 890 03 00:   NEUTRON POROSITY SANDSTONE
 AC  .US/F   60 520 00 00:   ACOUSTIC SONIC
~PARAMETER INFORMATION
#MNEM.UNIT          VALUE    DESCRIPTION
#----------   ------------   ------------------------------
 PD  .                 GL:   PERMANENT DATUM
 EPD .F              5257:   ELEVATION PERMANENT DATUM
 LMF .                 KB:   LOG MEASURED FROM
 DAPD.F                12:   FEET ABOVE PERMANENT DATUM
 DMF .                 KB:   DRILLING MEASURED FROM
 EKB .F              5269:   KELLING BUSHING
 EGL .F              5257:   GROUND LEVEL
 DATE.           10-22-84:   RUN DATE
 RUN .                  1:   RUN NUMBER
 DD  .F              1020:   DEPTH DRILLER
 DL  .F              1019:   DEPTH LOGGER
 BLI .F              1017:   BOTTOM LOG INTERVAL
 TLI .F                52:   TOP LOG INTERVAL
 CS  .IN               16:   CASING SIZE
 CBD .F                40:   CASING BOTTOM DRILLER
 CBL .F                52:   CASING BOTTOM LOGGER
 BS  .IN            12.25:   BIT SIZE
 BSD .F              1020:   BIT SIZE AT DEPTH
 DFT .          GEL/WATER:   DRILLING FLUID TYPE
 DFD .                9.1:   DRILLING FLUID DENSITY
 DFV .                 35:   DRILLING FLUID VISCOSITY
 MSS .           FLOWLINE:   MUD SAMPLE SOURCE
 RMS .OHMM           2.04:   RESISTIVITY MUD SAMPLE
 MST .F                76:   MUD SAMPLE TEMPERATURE
 RMF .OHMM           1.53:   RESISTIVITY MUD FILTRATE SAMPLE
 MFST.F                76:   MUD FILTRATE SAMPLE TEMPERATURE
 RMC .OHMM           2.55:   RESISTIVITY MUD CAKE
 MCST.F                76:   MUD CAKE SAMPLE TEMPERATURE
 MFSS.               CALC:   MUD FILTRATE SAMPLE SOURCE
 MCSS.               CALC:   MUD CAKE SAMPLE SOURCE
 TCS .HRS               3:   TIME CURCULATED STOPPED
 MRT .F               100:   MAXIMUM RECORDED TEMPERATURE
 LUN .            HL 6307:   LOGGING UNIT NUMBER
 LUL .           GILLETTE:   LOGGING UNIT LOCATION
 ENGI.          CROSSBERG:   RECORDING ENGINEER
 WITN.            JOHNSON:   WITNESSED BY
 CLNT.            A2DTECH:   CLIENT CODE
 ORIG.       2", 5" PRINT:   ORIGIN OF DATA
 UWI .       490251099000:   UNIQUE WELL ID
 DICO. A2D Technologies, Inc.:   DIGITIZING COMPANY
~OTHER INFORMATION
~A   DEPT      SPR       RILD       RILM       RFOC        GRD        CALD       DEN       CORR       PORD          CNC       AC   
# ...
  568.5000   -57.3842     7.6046     5.7859     6.1656    99.3583    12.2612     2.4518     0.0010     0.1367     0.3166    99.7373
  569.0000   -58.0374     7.4988     5.7426     6.1203    99.7779    12.2606     2.4482     0.0095     0.1400     0.3212    99.5309
  569.5000   -58.6944     7.3945     5.6996     6.0753    97.3217    12.2598     2.4476     0.0183     0.1390     0.3269    99.8628
  570.0000   -59.3517     7.2917     5.6569     6.0306    95.0469    12.2528     2.4499     0.0263     0.1370     0.3342   100.5296
  570.5000   -60.0086     7.1902     5.6510     5.9714    97.3776    12.2451     2.4521     0.0259     0.1348     0.3449   101.1963
  571.0000   -60.6662     7.1766     5.7007     5.9939    99.3303    12.2374     2.4540     0.0231     0.1345     0.3526   101.8263
  571.5000   -61.3240     7.2380     5.7588     6.0277    98.9296    12.2297     2.4524     0.0204     0.1348     0.3503   102.1836
  572.0000   -61.9217     7.3705     5.8174     6.0617    95.7201    12.2220     2.4507     0.0185     0.1372     0.3346   102.4251
  572.5000   -62.0196     7.5053     5.8766     6.0959    92.9372    12.2144     2.4490     0.0230     0.1397     0.3189   102.4251
  573.0000   -62.1226     7.6426     5.9365     6.1303    92.6880    12.2067     2.4492     0.0333     0.1373     0.3033   101.5262
  573.5000   -61.8195     7.7824     5.9969     6.1649    92.3865    12.1990     2.4553     0.0433     0.1298     0.2910   100.4086
  574.0000   -61.3743     7.9248     6.0579     6.1997    92.2563    12.1913     2.4660     0.0534     0.1222     0.2882    99.2910
  574.5000   -60.9266     7.9872     6.1196     6.2347    92.1991    12.1837     2.4766     0.0615     0.1172     0.3025    99.0732
  575.0000   -60.4785     8.0400     6.1525     6.2851    95.0398    12.1760     2.4798     0.0460     0.1195     0.3129    99.3041
  575.5000   -60.0279     8.0931     6.1728     6.3514    97.9548    12.1683     2.4753     0.0302     0.1240     0.3233    99.5309
  576.0000   -59.5589     8.1466     6.1932     6.4184    98.3046    12.1609     2.4724     0.0345     0.1250     0.3314    99.3405
  576.5000   -59.2243     8.2005     6.2137     6.4862    98.4921    12.1607     2.4675     0.0480     0.1265     0.3167    99.0357
  577.0000   -58.8797     8.2547     6.2342     6.5468    97.8161    12.1607     2.4526     0.0417     0.1348     0.3266    98.7309
  577.5000   -58.5324     8.3137     6.2537     6.4901    97.2243    12.1608     2.4144     0.0363     0.1682     0.3327    98.4265
  578.0000   -58.1861     8.2587     6.2658     6.4124    93.1391    12.1569     2.3648     0.0399     0.2007     0.2974    98.1183
  578.5000   -57.9465     8.1994     6.2778     6.3357    88.7664    12.1511     2.3224     0.0514     0.2121     0.3074    97.9775
  579.0000   -58.0167     8.1404     6.2899     6.2599    90.2608    12.1453     2.3430     0.0630     0.1897     0.3194    98.2617
  579.5000   -58.5040     8.0820     6.3020     6.1951    91.0903    12.1394     2.3821     0.0745     0.1682     0.3314    98.7099
  580.0000   -58.9947     8.0239     6.3141     6.2253    89.7029    12.1335     2.4233     0.0840     0.1466     0.3434    99.1581
  580.5000   -59.4841     7.9663     6.3264     6.2664    88.1004    12.1276     2.4478     0.0960     0.1398     0.3474    99.5214
  581.0000   -59.9735     7.9402     6.3385     6.3100    88.2183    12.1216     2.4530     0.1082     0.1355     0.3487    99.7523
  581.5000   -60.4627     8.0686     6.3509     6.2343    88.5868    12.1254     2.4525     0.1203     0.1344     0.3469   100.0257
  582.0000   -60.9519     8.1652     6.3635     6.1366    89.0039    12.1304     2.4479     0.1280     0.1396     0.3278   100.4413
  582.5000   -61.4412     8.2630     6.4432     6.1364    87.3142    12.1354     2.4431     0.1163     0.1420     0.3002   100.8283
  583.0000   -61.9311     8.3620     6.5781     6.3376    84.8175    12.1404     2.4515     0.1074     0.1346     0.2990   101.1277
  583.5000   -62.4243     8.4622     6.7159     6.6131    84.0698    12.1454     2.4611     0.1056     0.1282     0.2992   100.7285
  584.0000   -62.9058     8.5740     6.8569     6.8069    85.1591    12.1503     2.4692     0.1037     0.1268     0.3053    99.0143
  584.5000   -62.8388     8.7384     6.9638     6.8972    86.2465    12.1554     2.4641     0.1026     0.1281     0.3115    97.3057
  585.0000   -62.7489     8.9061     7.0460     6.9347    85.6634    12.1604     2.4588     0.1056     0.1322     0.3176    96.3041
  585.5000   -62.5414     9.0769     7.1260     6.9568    84.9443    12.1546     2.4535     0.1086     0.1374     0.3237    96.0104
  586.0000   -62.3095     9.2510     7.2086     6.9790    84.5106    12.1479     2.4480     0.1114     0.1388     0.3290    95.8375
  586.5000   -62.0762     9.4285     7.2919     7.0012    86.0567    12.1412     2.4548     0.1207     0.1306     0.3097    95.6702
  587.0000   -61.8431     9.6093     7.3760     7.0235    86.8492    12.1408     2.4643     0.1314     0.1240     0.3027    95.4571
  587.5000   -61.6100     9.8397     7.5130     6.9814    85.2832    12.1409     2.4715     0.1415     0.1245     0.3093    95.2348
  588.0000   -61.3779    10.1470     7.7362     7.1236    82.1847    12.1409     2.4670     0.1367     0.1274     0.3122    95.0126
  588.5000   -61.2392    10.4640     7.9662     7.3051    81.4326    12.1410     2.4627     0.1174     0.1291     0.3108    94.8403
  589.0000   -61.1239    10.7340     8.2027     7.4913    81.2403    12.1404     2.4610     0.1014     0.1285     0.3046    94.4468
  589.5000   -61.0088    11.1342     8.4459     7.6823    78.8941    12.1252     2.4673     0.0918     0.1263     0.2959    93.7443
  590.0000   -60.8939    11.5501     8.6964     8.0035    75.9909    12.0901     2.4757     0.1021     0.1211     0.2822    92.0968
  590.5000   -60.7761    11.9818     8.9480     8.5233    73.5634    12.0587     2.4841     0.1155     0.1158     0.2778    90.4430
  591.0000   -60.8755    12.3438     9.1982     8.9480    74.4997    12.0274     2.4875     0.1292     0.1136     0.2782    88.7886
  591.5000   -61.0824    12.4578     9.1774     8.6707    76.8806    12.0010     2.4779     0.1320     0.1261     0.2818    87.1280
  592.0000   -61.5386    12.4578     9.1605     8.3474    79.2434    11.9900     2.4669     0.1218     0.1352     0.2903    85.9666
  592.5000   -62.0213    12.3438     9.1436     7.8676    81.4432    11.9779     2.4558     0.1117     0.1362     0.2986    86.9073
  593.0000   -62.5082    12.2497     9.1267     7.8752    80.3480    11.9659     2.4535     0.1118     0.1355     0.3064    88.4800
  593.5000   -62.9943    12.0396     9.0307     7.8925    79.2279    11.9538     2.4529     0.1288     0.1348     0.3140    90.0378
  594.0000   -63.4802    11.8330     8.9342     7.9099    80.0074    11.9418     2.4518     0.1380     0.1370     0.3217    91.0479
  594.5000   -63.9642    11.6300     8.8430     7.9273    80.8286    11.9297     2.4446     0.1374     0.1420     0.3322    90.0499
  595.0000   -64.4467    11.4305     8.7528     7.9402    83.0738    11.9177     2.4386     0.1370     0.1448     0.3228    90.3866
  595.5000   -64.7098    11.2344     8.5624     7.8861    86.0800    11.9057     2.4362     0.1366     0.1452     0.3062    90.7591
  596.0000   -64.7115    11.0417     8.2625     7.8434    85.3260    11.8936     2.4357     0.1363     0.1461     0.3022    91.1477
  596.5000   -64.7163    10.8522     7.9731     7.7956    82.3486    11.8816     2.4334     0.1326     0.1469     0.3208    90.7365
  597.0000   -64.6950    10.6661     7.6938     7.9352    80.4521    11.8695     2.4351     0.1286     0.1425     0.3278    90.3066
  597.5000   -64.2510    10.4831     7.4454     8.0875    82.2823    11.8621     2.4412     0.1246     0.1375     0.3115    90.1023
  598.0000   -63.8144    10.4365     7.4454     7.9543    84.1540    11.8578     2.4473     0.1205     0.1361     0.2986    90.6767
  598.5000   -63.3813    10.4082     7.4454     7.8329    82.4052    11.8537     2.4494     0.1256     0.1362     0.2800    91.5227
