~VERSION INFORMATION
 VERS.                2.0:   CWLS LOG ASCII STANDARD - VERSION 2.0
 WRAP.                 NO:   ONE LINE PER DEPTH STEP
~WELL INFORMATION
#MNEM.UNIT      DATA TYPE    INFORMATION
#----------   ------------   ------------------------------
 STRT.F           12.0000:   START DEPTH
 STOP.F          448.0000:   STOP DEPTH
 STEP.F            0.5000:   STEP LENGTH
 NULL.          -999.2500:   NO VALUE
 COMP. LAWRENCE/ALLISON INC:   COMPANY
 WELL. LI2 -52-61 SX10 #10-10:   WELL
 FLD .             TEAPOT:   FIELD
 LOC .      S10 T38N R78W:   LOCATION
 CNTY.            NATRONA:   COUNTY
 STAT.            WYOMING:   STATE
 CTRY. UNITED STATES OF AMERICA:   COUNTRY
 SRVC.      Dresser Atlas:   SERVICE COMPANY
 DATE.        13-JAN-1985:   LOGDATE
 API .       490251100400:   API NUMBER
~CURVE INFORMATION
#MNEM.UNIT       API CODE    CURVE DESCRIPTION
#----------   ------------   ------------------------------
 DEPT.F                  :   
 AC  .US/F   60 520 00 00:   ACCOUSTIC
 SPR .MV     11 010 01 00:   SPONTANEOUS POTENTIAL FROM RES.
 RD  .OHMM   11 220 10 00:   RESISTIVITY DEEP
 RS  .OHMM   11 220 09 00:   RESISTIVITY SHALLOW
 RMLL.OHMM   11 270 04 00:   MICRO LATEROLOG
 GRD .GAPI   45 310 01 00:   GAMMA RAY FROM DENSITY LOG
 CALD.IN     45 280 60 00:   CALIPER FROM DENSITY LOG
 CORR.G/C3   45 356 01 00:   DENSITY CORRECTION
 DEN .G/C3   45 350 01 00:   COMPENSATED BULK DENSTIY
 PORD.DEC    45 890 12 00:   POROSITY DENSITY SANDSTONE
 CNC .DEC    42 890 03 00:   NEUTRON POROSITY SANDSTONE
~PARAMETER INFORMATION
#MNEM.UNIT          VALUE    DESCRIPTION
#----------   ------------   ------------------------------
 PD  .                 GL:   PERMANENT DATUM
 EPD .F              5156:   ELEVATION PERMANENT DATUM
 LMF .                 GL:   LOG MEASURED FROM
 DMF .                 GL:   DRILLING MEASURED FROM
 EGL .F              5156:   GROUND LEVEL
 DATE.        13-JAN-1985:   RUN DATE
 RUN .                  1:   RUN NUMBER
 DD  .F               450:   DEPTH DRILLER
 DL  .F               450:   DEPTH LOGGER
 BLI .F               448:   BOTTOM LOG INTERVAL
 TLI .F                20:   TOP LOG INTERVAL
 CS  .IN            8.625:   CASING SIZE
 CBD .F                20:   CASING BOTTOM DRILLER
 CBL .F                20:   CASING BOTTOM LOGGER
 BS  .IN            7.875:   BIT SIZE
 BSD .F               450:   BIT SIZE AT DEPTH
 DFT .            KCL-H2O:   DRILLING FLUID TYPE
 MSS .               TANK:   MUD SAMPLE SOURCE
 RMS .OHMM           0.16:   RESISTIVITY MUD SAMPLE
 MST .F                20:   MUD SAMPLE TEMPERATURE
 RMF .OHMM           0.12:   RESISTIVITY MUD FILTRATE SAMPLE
 MFST.F                20:   MUD FILTRATE SAMPLE TEMPERATURE
 RMC .OHMM            0.2:   RESISTIVITY MUD CAKE
 MCST.F                20:   MUD CAKE SAMPLE TEMPERATURE
 MFSS.               CALC:   MUD FILTRATE SAMPLE SOURCE
 MCSS.               CALC:   MUD CAKE SAMPLE SOURCE
 BHT .F               100:   BOTTOM HOLE TEMPERATURE
 TCS .HRS               2:   TIME CURCULATED STOPPED
 MRT .F               100:   MAXIMUM RECORDED TEMPERATURE
 LUN .               6270:   LOGGING UNIT NUMBER
 LUL .                 FM:   LOGGING UNIT LOCATION
 ENGI.          E. GOVETT:   RECORDING ENGINEER
 WITN.             GROOMS:   WITNESSED BY
 CLNT.            A2DTECH:   CLIENT CODE
 ORIG.        2" 5" PRINT:   ORIGIN OF DATA
 UWI .       490251100400:   UNIQUE WELL ID
 DICO. A2D Technologies, Inc.:   DIGITIZING COMPANY
 R1  . POROSITY WITH SANDSTONE:   REMARKS 1
~OTHER INFORMATION
~A   DEPT       AC        SPR         RD         RS       RMLL         GRD      CALD       CORR        DEN       PORD        CNC   
# ...
  164.5000   117.0342   -52.8420    11.2931     6.1963     5.2797   123.7626     8.0642     0.0224     2.3954     0.1698     0.3341
  165.0000   116.5893   -52.8464    11.4614     6.3684     5.0622   117.6223     8.0631     0.0208     2.3992     0.1710     0.3284
  165.5000   115.1677   -52.8518    12.0994     6.5916     5.0958   111.5986     8.0623     0.0193     2.4037     0.1658     0.3238
  166.0000   114.0467   -52.8561    12.6997     7.0152     5.9779   110.0861     8.0614     0.0177     2.4074     0.1641     0.3157
  166.5000   113.2262   -52.8605    13.2374     7.3628     6.5872   111.8819     8.0605     0.0161     2.4120     0.1629     0.3048
  167.0000   112.7002   -52.8648    13.9913     7.9622     6.4940   114.7303     8.0594     0.0146     2.4186     0.1596     0.3030
  167.5000   111.9234   -52.8692    14.7880     8.6940     6.7680   116.9772     8.0586     0.0052     2.4247     0.1541     0.3115
  168.0000   110.9061   -52.8735    15.6446     9.3823     7.5623   115.4527     8.0577    -0.0007     2.4337     0.1482     0.3248
  168.5000   108.8937   -52.7273    16.7505     9.9159     8.1043   114.1005     8.0568    -0.0022     2.4420     0.1425     0.3273
  169.0000   107.2467   -52.4304    17.3387    10.4798     8.3302   113.6406     8.0559     0.0068     2.4540     0.1343     0.3101
  169.5000   106.0506   -52.1346    17.8232    10.6974     8.4441   113.0304     8.0549     0.0218     2.4645     0.1289     0.2895
  170.0000   105.3052   -51.8378    18.4491    10.6937     8.6795   113.4728     8.0692     0.0172     2.4668     0.1265     0.2853
  170.5000   104.9354   -51.6904    18.9646    10.4692     8.8595   115.7197     8.0682     0.0081     2.4667     0.1262     0.2899
  171.0000   104.8647   -51.5452    19.0918    10.4649     8.9806   118.5682     8.0673     0.0050     2.4667     0.1272     0.2935
  171.5000   104.8721   -51.2484    19.2200    10.3169     9.0403   120.3729     8.0664     0.0110     2.4629     0.1308     0.2972
  172.0000   105.0283   -51.1022    19.0803    10.2419     8.9739   120.6560     8.0655     0.0215     2.4523     0.1363     0.2993
  172.5000   105.3348   -51.1076    18.9430    10.0970     8.9087   117.3368     8.0647     0.0245     2.4485     0.1384     0.3021
  173.0000   105.5661   -51.1119    18.5468    10.0237     8.7826   117.0274     8.0636     0.0259     2.4484     0.1385     0.3057
  173.5000   106.0228   -51.1163    18.0330     9.8819     8.5358   116.8683     8.0627     0.0228     2.4484     0.1385     0.3142
  174.0000   106.5546   -51.1206    17.6558     9.7412     8.3589   114.0024     8.0619     0.0060     2.4423     0.1439     0.3187
  174.5000   107.1616   -51.1250    17.2865     9.4707     8.2406   110.0839     8.0762    -0.0075     2.4339     0.1470     0.3139
  175.0000   107.6935   -51.1295    17.0232     9.2720     8.1808   106.1654     8.0752    -0.0151     2.4332     0.1461     0.3175
  175.5000   108.4598   -51.1348    16.5698     9.0775     8.0091   105.1041     8.0743    -0.0182     2.4392     0.1431     0.3191
  176.0000   109.0669   -51.1391    16.3365     9.0745     7.8958   106.4465     8.0734    -0.0122     2.4474     0.1391     0.3122
  176.5000   109.6920   -51.1435    16.1065     9.0714     7.7302   110.1972     8.0723     0.0028     2.4504     0.1368     0.3070
  177.0000   110.2731   -51.2984    15.9905     9.0683     7.6155   116.0532     8.0715     0.0134     2.4489     0.1377     0.3088
  177.5000   110.7298   -51.3028    15.7654     9.0017     7.4086   119.9542     8.0706     0.0208     2.4488     0.1381     0.3122
  178.0000   110.9611   -51.3072    15.6518     8.9363     7.3038   121.7500     8.0697     0.0162     2.4488     0.1375     0.3119
  178.5000   111.0422   -51.3125    15.1118     8.8714     7.1505   117.9819     8.0688     0.0071     2.4533     0.1345     0.3107
  179.0000   111.2735   -51.3169    14.3897     8.5059     7.0005   116.3188     8.0680     0.0056     2.4578     0.1312     0.3107
  179.5000   113.0074   -51.4718    12.9604     7.3986     6.3930   117.0600     8.0669     0.0161     2.4600     0.1303     0.3132
  180.0000   116.2440   -51.4762    11.2740     6.2155     5.0800   123.8182     8.0660     0.0236     2.4464     0.1339     0.3229
  180.5000   116.7007   -51.4805    10.5870     6.1703     4.7369   126.2155     8.0652     0.0311     2.4191     0.1476     0.3519
  181.0000   115.8051   -51.4849    10.5817     6.3418     5.4799   126.3594     8.0643     0.0370     2.4017     0.1636     0.3634
  181.5000   112.8809   -51.6409    11.3715     6.8438     6.9397   121.5364     8.0634     0.0339     2.4032     0.1661     0.3507
  182.0000   109.8815   -51.7959    13.4937     8.1411     8.0286   117.1668     8.0625     0.0278     2.4175     0.1639     0.3326
  182.5000   107.2579   -51.8002    15.3964     9.1600     8.3100   116.4060     8.0617     0.0202     2.4394     0.1486     0.3074
  183.0000   106.3622   -51.8046    16.8491     9.5473     8.6613   116.5457     8.0606     0.0172     2.4534     0.1423     0.2918
  183.5000   106.1412   -51.8089    16.7278     9.8168     8.4766   117.1385     8.0597     0.0231     2.4620     0.1338     0.2940
  184.0000   106.4854   -51.5120    16.3779     9.9475     8.3009   118.3328     8.0588     0.0306     2.4627     0.1299     0.3014
  184.5000   107.2277   -51.0646    16.2600     9.8744     8.3561   119.3767     8.0580     0.0259     2.4596     0.1305     0.3031
  185.0000   107.6646   -50.7677    16.3880     9.8711     8.6490   120.5710     8.0571     0.0245     2.4588     0.1318     0.2940
  185.5000   107.8208   -50.6215    16.8265     9.9375     8.8900   122.3668     8.0562     0.0320     2.4588     0.1327     0.2943
  186.0000   107.5262   -50.3257    17.0565    10.0725     8.8254   123.8737     8.0553     0.0364     2.4580     0.1333     0.2992
  186.5000   106.7057   -50.3301    17.1721    10.3532     8.8225   125.2043     8.0543     0.0364     2.4587     0.1337     0.2892
  187.0000   106.1857   -50.1837    17.2874    10.4220     8.8194   125.9475     8.0534     0.0363     2.4594     0.1331     0.2835
  187.5000   105.7408   -50.0376    17.1618    10.4177     8.8158   126.9914     8.0525     0.0347     2.4685     0.1304     0.2823
  188.0000   105.8218   -50.0430    17.1571    10.4142     8.8129   127.1352     8.0669     0.0312     2.4760     0.1259     0.2891
  188.5000   106.0532   -49.7461    17.1514    10.4107     8.8099   126.6732     8.0658     0.0210     2.4775     0.1216     0.2972
  189.0000   106.4347   -49.5999    17.1468    10.4072     8.8692   124.8600     8.0650     0.0179     2.4797     0.1202     0.3038
  189.5000   106.8163   -49.6042    17.1422    10.4037     8.8655   120.9055     8.0639     0.0194     2.4866     0.1181     0.3051
  190.0000   106.9725   -49.4578    16.9008    10.4002     8.9867   115.5171     8.0783     0.0284     2.4924     0.1127     0.3024
  190.5000   106.6779   -49.4623    16.7792    10.3245     9.0464   114.7565     8.0772     0.0389     2.4947     0.1112     0.2988
  191.0000   106.3082   -49.3161    16.5429    10.1777     9.0426   114.7477     8.0763     0.0388     2.4878     0.1139     0.2930
  191.5000   106.0887   -49.1698    16.4237    10.1038     8.9146   114.5886     8.0907     0.0267     2.4772     0.1203     0.2849
  192.0000   106.0195   -49.1753    16.3045    10.1004     8.7885   114.8807     8.0896     0.0206     2.4666     0.1246     0.2801
  192.5000   106.5740   -49.1796    16.1871    10.0970     8.7856   116.3757     8.0887     0.0160     2.4620     0.1303     0.2837
  193.0000   107.3448   -49.0323    16.1828    10.0936     8.7826   119.3924     8.0877     0.0129     2.4560     0.1334     0.2925
  193.5000   108.3678   -49.0377    16.1785    10.0903     8.7797   121.1681     8.0868     0.0159     2.4529     0.1349     0.2995
  194.0000   108.7494   -49.0422    16.1741    10.1573     8.8997   123.4151     8.0859     0.0294     2.4597     0.1358     0.2992
  194.5000   108.8289   -48.8958    16.1698    10.2239     8.8960   124.7597     8.0850     0.0446     2.4679     0.1307     0.2980
