~VERSION INFORMATION
 VERS.                2.0:   CWLS LOG ASCII STANDARD - VERSION 2.0
 WRAP.                 NO:   ONE LINE PER DEPTH STEP
~WELL INFORMATION
#MNEM.UNIT      DATA TYPE    INFORMATION
#----------   ------------   ------------------------------
 STRT.F           20.0000:   START DEPTH
 STOP.F          677.0000:   STOP DEPTH
 STEP.F            0.5000:   STEP LENGTH
 NULL.          -999.2500:   NO VALUE
 COMP. FENIX & SCISSON INC:   COMPANY
 WELL. 11 WI NPR 3 #36-26 SX:   WELL
 FLD .             TEAPOT:   FIELD
 LOC .      S11 T38N R78W:   LOCATION
 CNTY.            NATRONA:   COUNTY
 STAT.            WYOMING:   STATE
 CTRY. UNITED STATES OF AMERICA:   COUNTRY
 SRVC.      Dresser Atlas:   SERVICE COMPANY
 DATE.        06-AUG-1980:   LOGDATE
 API .       490251084100:   API NUMBER
~CURVE INFORMATION
#MNEM.UNIT       API CODE    CURVE DESCRIPTION
#----------   ------------   ------------------------------
 DEPT.F                  :   
 SPR .MV     07 010 01 00:   SPONTANEOUS POTENTIAL
 SFL .OHMM   07 220 01 00:   SHALLOW FOCUSED LOG RESISTIVITY
 ILD .OHMM   07 120 46 00:   INDUCTION LOG DEEP
 ILM .OHMM   07 120 44 00:   INDUCTION LOG MEDIUM
 GRD .GAPI   45 310 01 00:   GAMMA RAY FROM DENSITY LOG
 RHOB.G/C3   45 350 01 00:   BULK DENSITY
 CALD.IN     45 280 60 00:   CALIPER
 CORR.G/C3   45 356 01 00:   DENSITY CORRECTION
 DPOR.DEC    45 890 12 00:   DENSITY POROSITY SANDSTONE
 NPOR.DEC    42 890 03 00:   NEUTRON POROSITY SANDSTONE
~PARAMETER INFORMATION
#MNEM.UNIT          VALUE    DESCRIPTION
#----------   ------------   ------------------------------
 PD  .                 GL:   PERMANENT DATUM
 EPD .F              5191:   ELEVATION PERMANENT DATUM
 LMF .                 KB:   LOG MEASURED FROM
 DAPD.F                 5:   FEET ABOVE PERMANENT DATUM
 DMF .                 KB:   DRILLING MEASURED FROM
 EKB .F              5196:   KELLING BUSHING
 EGL .F              5191:   GROUND LEVEL
 DATE.             8-6-80:   RUN DATE
 RUN .                  1:   RUN NUMBER
 DD  .F               680:   DEPTH DRILLER
 DL  .F               679:   DEPTH LOGGER
 BLI .F               676:   BOTTOM LOG INTERVAL
 TLI .F                20:   TOP LOG INTERVAL
 BS  .IN            7.875:   BIT SIZE
 BSD .F               680:   BIT SIZE AT DEPTH
 DFT .                KCL:   DRILLING FLUID TYPE
 DFD .                9.4:   DRILLING FLUID DENSITY
 DFV .                 45:   DRILLING FLUID VISCOSITY
 DFPH.                 12:   DRILLING FLUID PH
 MSS .           FLOWLINE:   MUD SAMPLE SOURCE
 RMS .OHMM            .11:   RESISTIVITY MUD SAMPLE
 MST .F                65:   MUD SAMPLE TEMPERATURE
 RMF .OHMM             .1:   RESISTIVITY MUD FILTRATE SAMPLE
 MFST.F                60:   MUD FILTRATE SAMPLE TEMPERATURE
 RMC .OHMM            .17:   RESISTIVITY MUD CAKE
 MCST.F                65:   MUD CAKE SAMPLE TEMPERATURE
 MFSS.               MEAS:   MUD FILTRATE SAMPLE SOURCE
 MCSS.              CHART:   MUD CAKE SAMPLE SOURCE
 TCS .HRS              .5:   TIME CURCULATED STOPPED
 MRT .F               100:   MAXIMUM RECORDED TEMPERATURE
 LUN .               6240:   LOGGING UNIT NUMBER
 LUL .               RVTN:   LOGGING UNIT LOCATION
 ENGI.            K. RALL:   RECORDING ENGINEER
 WITN.     AMAND/MCINTYRE:   WITNESSED BY
 CLNT.            A2DTECH:   CLIENT CODE
 ORIG.        2" 5" PRINT:   ORIGIN OF DATA
 UWI .       490251084100:   UNIQUE WELL ID
 DICO. A2D Technologies, Inc.:   DIGITIZING COMPANY
~OTHER INFORMATION
~A   DEPT       SPR       SFL         ILD         ILM      GRD       RHOB       CALD       CORR       DPOR       NPOR   
# ...
  154.0000   -76.7806     6.6590     6.4475     6.0172   110.5856     2.3979     8.0535     0.0004     0.1605     0.3053
  154.5000   -75.6251     6.6880     6.4870     6.0448   110.2655     2.4131     8.0547    -0.0004     0.1649     0.2965
  155.0000   -74.2439     6.7172     6.5293     6.0724   111.2537     2.4287     8.0560     0.0217     0.1509     0.2938
  155.5000   -72.8601     6.7465     6.5722     6.1002   111.3494     2.3974     8.0572    -0.0023     0.1691     0.2974
  156.0000   -71.4742     6.7759     6.6153     6.1091   110.5720     2.3626     8.0585    -0.0315     0.1941     0.3050
  156.5000   -70.1980     6.8054     6.6586     6.1178   112.0673     2.3460     8.0597    -0.0433     0.1988     0.3198
  157.0000   -70.2363     6.8155     6.7023     6.1264   113.9607     2.3849     8.0610    -0.0144     0.1774     0.3095
  157.5000   -70.3310     6.8155     6.7463     6.1350   114.3331     2.4103     8.0622     0.0034     0.1589     0.3022
  158.0000   -70.4220     6.8155     6.7905     6.1437   111.7785     2.4061     8.0635     0.0010     0.1593     0.3004
  158.5000   -70.5119     6.8155     6.8350     6.1522   108.9748     2.4080     8.0647     0.0005     0.1621     0.2994
  159.0000   -70.6017     6.9039     6.8798     6.1594   106.5628     2.4226     8.0660     0.0042     0.1550     0.2962
  159.5000   -70.6916     7.0003     6.9250     6.2753   107.0830     2.4267     8.0672     0.0078     0.1501     0.2934
  160.0000   -70.7816     7.0981     6.9704     6.4214   110.3327     2.4312     8.0678     0.0115     0.1480     0.2727
  160.5000   -70.8717     7.1972     7.0161     6.5692   113.2005     2.4498     8.0683     0.0210     0.1424     0.2610
  161.0000   -70.9705     7.2978     7.0621     6.5066   113.2864     2.4649     8.0688     0.0229     0.1282     0.2618
  161.5000   -70.6911     7.4039     7.1084     6.4097   112.1838     2.4562     8.0694     0.0211     0.1253     0.2612
  162.0000   -70.2947     7.3039     7.1364     6.3142   111.5964     2.4238     8.0699    -0.0036     0.1407     0.2591
  162.5000   -70.2020     7.1764     7.0710     6.2201   112.4390     2.3815     8.0704    -0.0299     0.1736     0.2621
  163.0000   -70.2293     7.0511     6.9465     6.1274   114.4504     2.3658     8.0710    -0.0353     0.1836     0.2743
  163.5000   -70.2592     6.9279     6.7773     6.0362   115.8517     2.3893     8.0715    -0.0115     0.1856     0.2862
  164.0000   -70.2885     6.8070     6.6123     5.9462   114.2191     2.4575     8.0721     0.0454     0.1467     0.3043
  164.5000   -70.3176     6.6881     6.4510     5.8576   111.1622     2.5088     8.0726     0.0655     0.1018     0.2862
  165.0000   -70.3469     6.5714     6.2947     5.7752   110.6971     2.4957     8.0731     0.0636     0.1018     0.3253
  165.5000   -70.3763     6.4484     6.1575     5.7752   111.7792     2.4836     8.0737     0.0559     0.1089     0.3375
  166.0000   -70.4015     6.4486     6.1499     5.7752   113.0085     2.4736     8.0742     0.0481     0.1162     0.3461
  166.5000   -70.4330     6.5495     6.1410     5.7752   114.2365     2.4672     8.0747     0.0434     0.1235     0.3268
  167.0000   -70.4647     6.6237     6.1324     5.7756   115.4981     2.4737     8.0753     0.0354     0.1258     0.3015
  167.5000   -70.4964     6.6982     6.1238     5.7757   116.9085     2.4865     8.0758     0.0389     0.1216     0.2962
  168.0000   -70.5281     6.7531     6.1151     5.7011   118.3202     2.4859     8.0763     0.0389     0.1146     0.2942
  168.5000   -70.5598     6.6928     6.1066     5.6403   119.3136     2.4749     8.0769     0.0352     0.1130     0.3018
  169.0000   -70.5931     6.6454     6.1031     5.5801   117.6845     2.4533     8.0774     0.0266     0.1182     0.3241
  169.5000   -70.6359     6.5673     6.1163     5.5156   113.2707     2.4364     8.0779     0.0119     0.1330     0.3281
  170.0000   -70.6775     6.4719     6.1257     5.5546   111.2771     2.4233     8.0785    -0.0033     0.1438     0.3278
  170.5000   -70.7192     6.3790     6.1351     5.6276   113.9684     2.4082     8.0790    -0.0053     0.1502     0.3270
  171.0000   -70.7588     6.3318     6.1445     5.7016   117.3557     2.3988     8.0796    -0.0031     0.1580     0.3312
  171.5000   -70.7025     6.4598     6.1533     5.7765   120.1043     2.4088     8.0801     0.0053     0.1665     0.3404
  172.0000   -70.5223     6.5767     6.2132     5.8524   120.7193     2.4370     8.0806     0.0239     0.1576     0.3448
  172.5000   -70.3783     6.6957     6.3361     5.9293   120.4473     2.4509     8.0812     0.0283     0.1453     0.3361
  173.0000   -70.3841     6.8155     6.4627     6.0038   118.8779     2.4560     8.0817     0.0293     0.1368     0.3000
  173.5000   -70.2432     6.8727     6.5914     6.0615   116.7549     2.4639     8.0822     0.0392     0.1327     0.2896
  174.0000   -70.0541     6.9292     6.7237     6.1657   115.4978     2.4647     8.0828     0.0396     0.1266     0.2810
  174.5000   -69.8622     6.9860     6.7875     6.1912   116.7979     2.4632     8.0833     0.0298     0.1285     0.2814
  175.0000   -69.8762     7.0062     6.8322     6.2190   118.5213     2.4677     8.0838     0.0266     0.1280     0.2930
  175.5000   -70.0441     7.0536     6.8773     6.2469   117.6194     2.4689     8.0844     0.0233     0.1254     0.3013
  176.0000   -70.2160     7.0972     6.9227     6.2744   115.4859     2.4664     8.0849     0.0215     0.1258     0.3097
  176.5000   -70.3755     7.1411     6.9684     6.2269   112.3021     2.4811     8.0855     0.0331     0.1215     0.3148
  177.0000   -70.3097     7.2023     7.0062     6.1728   112.6706     2.4978     8.0860     0.0454     0.1122     0.3170
  177.5000   -70.2365     7.1479     6.9031     6.1188   114.8070     2.4902     8.0865     0.0448     0.1062     0.3170
  178.0000   -70.1644     7.0603     6.8166     6.0654   116.1851     2.4625     8.0871     0.0241     0.1210     0.3124
  178.5000   -70.0925     6.9738     6.7311     6.0124   114.8145     2.4212     8.0877     0.0062     0.1432     0.2994
  179.0000   -70.0206     6.8883     6.6467     5.9599   111.4376     2.4136     8.0913    -0.0090     0.1557     0.2986
  179.5000   -69.9487     6.8443     6.5634     5.9078   107.5492     2.4165     8.0948    -0.0009     0.1585     0.3002
  180.0000   -69.8768     6.8058     6.4811     5.8559   105.9240     2.4261     8.0984     0.0086     0.1564     0.3049
  180.5000   -69.8049     6.7676     6.3999     5.8287   107.3349     2.4385     8.1019     0.0170     0.1485     0.3117
  181.0000   -69.7330     6.7295     6.3318     5.8692   109.0168     2.4431     8.1054     0.0126     0.1413     0.3142
  181.5000   -69.6610     6.6917     6.3318     5.8974   111.3973     2.4412     8.1089     0.0033     0.1413     0.3079
  182.0000   -69.5886     6.6541     6.3876     5.9256   112.8213     2.4441     8.1125     0.0012     0.1413     0.3046
  182.5000   -69.5781     6.6299     6.5064     5.9540   113.7742     2.4475     8.1160     0.0104     0.1392     0.3023
  183.0000   -69.5782     6.7416     6.6282     5.9825   114.2482     2.4479     8.1195     0.0156     0.1373     0.2994
  183.5000   -69.5783     6.8705     6.7520     6.0586   115.3080     2.4333     8.1230     0.0064     0.1390     0.2927
  184.0000   -69.5783     7.0092     6.8780     6.1933   115.0247     2.4169     8.1266    -0.0038     0.1473     0.2894
  184.5000   -69.5783     7.1508     7.0064     6.3591   113.0473     2.4046     8.1277    -0.0104     0.1577     0.2993
  185.0000   -69.5783     7.2952     7.1372     6.5294   110.4471     2.4010     8.1266    -0.0104     0.1645     0.3038
  185.5000   -69.5784     7.4425     7.2704     6.7042   108.5656     2.4105     8.1254    -0.0104     0.1649     0.2904
  186.0000   -69.5791     7.5928     7.4063     6.8853   107.9445     2.4200     8.1243    -0.0104     0.1569     0.2810
  186.5000   -69.5773     7.7525     7.5449     7.0082   109.1447     2.4209     8.1231    -0.0104     0.1523     0.2890
  187.0000   -69.4062     7.8091     7.6815     7.0062   111.4443     2.4181     8.1220    -0.0104     0.1542     0.2994
