~VERSION INFORMATION
 VERS.                2.0:   CWLS LOG ASCII STANDARD - VERSION 2.0
 WRAP.                 NO:   ONE LINE PER DEPTH STEP
~WELL INFORMATION
#MNEM.UNIT      DATA TYPE    INFORMATION
#----------   ------------   ------------------------------
 STRT.F           35.0000:   START DEPTH
 STOP.F          601.0000:   STOP DEPTH
 STEP.F            0.5000:   STEP LENGTH
 NULL.          -999.2500:   NO VALUE
 COMP. FENIX & SCISSON INC:   COMPANY
 WELL. NPR #3 71SX #71-15:   WELL
 FLD .             TEAPOT:   FIELD
 LOC .      S15 T38N R78W:   LOCATION
 CNTY.            NATRONA:   COUNTY
 STAT.            WYOMING:   STATE
 CTRY. UNITED STATES OF AMERICA:   COUNTRY
 SRVC.              Welex:   SERVICE COMPANY
 DATE.        10-MAR-1977:   LOGDATE
 API .       490251031200:   API NUMBER
~CURVE INFORMATION
#MNEM.UNIT       API CODE    CURVE DESCRIPTION
#----------   ------------   ------------------------------
 DEPT.F                  :   
 SPR .MV     07 010 01 00:   SPONTANEOUS POTENTIAL
 SGRD.OHMM   07 220 05 00:   SHALLOW RESISTIVITY
 DRES.OHMM   07 120 46 00:   INDUCTION LOG DEEP
 MRES.OHMM   07 120 44 00:   INDUCTION LOG MEDIUM
 GRD .GAPI   45 310 01 00:   GAMMA RAY FROM DENSITY LOG
 CALD.IN     45 280 60 00:   CALIPER
 RHOB.G/C3   45 350 01 00:   BULK DENSITY
 DPHI.DEC    45 890 12 00:   DENSITY POROSITY
 CORR.G/C3   45 356 01 00:   DENSITY CORRECTION
~PARAMETER INFORMATION
#MNEM.UNIT          VALUE    DESCRIPTION
#----------   ------------   ------------------------------
 PD  .                 GL:   PERMANENT DATUM
 EPD .F              5241:   ELEVATION PERMANENT DATUM
 LMF .                 GL:   LOG MEASURED FROM
 DMF .                 GL:   DRILLING MEASURED FROM
 EGL .F              5241:   GROUND LEVEL
 DATE.            3-10-77:   RUN DATE
 RUN .                  1:   RUN NUMBER
 DD  .F               600:   DEPTH DRILLER
 DL  .F               603:   DEPTH LOGGER
 BLI .F               601:   BOTTOM LOG INTERVAL
 TLI .F                35:   TOP LOG INTERVAL
 CS  .IN            8.625:   CASING SIZE
 CBD .F                40:   CASING BOTTOM DRILLER
 CBL .F                40:   CASING BOTTOM LOGGER
 BS  .IN            7.875:   BIT SIZE
 BSD .F               600:   BIT SIZE AT DEPTH
 DFT .            KCL MUD:   DRILLING FLUID TYPE
 DFD .                8.6:   DRILLING FLUID DENSITY
 DFV .                 10:   DRILLING FLUID VISCOSITY
 DFPH.                7.2:   DRILLING FLUID PH
 DFL .                  8:   DRILLING FLUID LOSS
 MSS .            MUD PIT:   MUD SAMPLE SOURCE
 RMS .OHMM            .36:   RESISTIVITY MUD SAMPLE
 MST .F                47:   MUD SAMPLE TEMPERATURE
 RMF .OHMM            .35:   RESISTIVITY MUD FILTRATE SAMPLE
 MFST.F                47:   MUD FILTRATE SAMPLE TEMPERATURE
 RMC .OHMM            .40:   RESISTIVITY MUD CAKE
 MCST.F                47:   MUD CAKE SAMPLE TEMPERATURE
 MFSS.           FANN KIT:   MUD FILTRATE SAMPLE SOURCE
 MCSS.           FANN KIT:   MUD CAKE SAMPLE SOURCE
 RMB .OHMM            .31:   RESISTIVITY MUD AT BHT
 BHT .F                53:   BOTTOM HOLE TEMPERATURE
 TCS .HRS             1.5:   TIME CURCULATED STOPPED
 MRT .F                53:   MAXIMUM RECORDED TEMPERATURE
 LUN .               8611:   LOGGING UNIT NUMBER
 LUL .           GILLETTE:   LOGGING UNIT LOCATION
 ENGI.               DOAK:   RECORDING ENGINEER
 WITN.         STUEBINGER:   WITNESSED BY
 CLNT.            A2DTECH:   CLIENT CODE
 ORIG.       2", 5" PRINT:   ORIGIN OF DATA
 UWI .       490251031200:   UNIQUE WELL ID
 DICO. A2D Technologies, Inc.:   DIGITIZING COMPANY
~OTHER INFORMATION
~A   DEPT      SPR       SGRD       DRES       MRES         GRD      CALD       RHOB       DPHI       CORR   
# ...
  363.5000   -37.2993    10.1736     6.1873     8.6352   118.5857     7.9261     2.4780     0.1018     0.0515
  364.0000   -37.4443    10.1201     6.1147     8.4027   116.2553     7.9261     2.4653     0.1085     0.0522
  364.5000   -37.5892    10.0669     5.8264     8.0694   117.4159     7.9261     2.4524     0.1190     0.0517
  365.0000   -37.7336    10.0140     5.5517     7.6893   118.9883     7.9261     2.4420     0.1244     0.0511
  365.5000   -37.8259     9.9614     5.2900     7.3154   120.5927     7.9261     2.4338     0.1279     0.0505
  366.0000   -37.8245     9.9109     5.0494     6.9620   122.1690     7.9261     2.4171     0.1368     0.0470
  366.5000   -37.8235     7.4142     4.8982     6.6257   122.8939     7.9261     2.3964     0.1511     0.0427
  367.0000   -37.7391     4.7771     4.7332     6.1304   122.7247     7.9261     2.3990     0.1496     0.0383
  367.5000   -37.4966     5.4798     4.7736     6.2403   118.5649     7.9261     2.4177     0.1359     0.0384
  368.0000   -37.2569     7.5350     4.8689     6.5031   114.3596     7.9261     2.4435     0.1190     0.0437
  368.5000   -37.0169     9.6400     4.9660     6.7769   114.3838     7.9261     2.4592     0.1113     0.0482
  369.0000   -36.7769     9.6400     5.1351     7.0623   115.8845     7.9261     2.4581     0.1127     0.0468
  369.5000   -36.5370     9.0645     5.3537     7.3597   117.3601     7.9261     2.4577     0.1105     0.0455
  370.0000   -36.2971     8.3926     5.5818     7.6696   118.0406     7.9261     2.4681     0.1063     0.0443
  370.5000   -36.0571     9.7969     5.8196     7.9925   115.9877     7.9261     2.4745     0.1014     0.0431
  371.0000   -35.8171    10.4542     6.0674     8.3291   114.7148     7.9258     2.4722     0.1039     0.0419
  371.5000   -35.5774    10.7360     6.3258     8.6799   116.9474     7.9243     2.4687     0.1057     0.0406
  372.0000   -35.3374    11.0253     6.5952     9.0452   119.5141     7.9228     2.4702     0.1034     0.0394
  372.5000   -35.0917    11.3225     6.8761     9.4255   121.0909     7.9213     2.4743     0.1012     0.0382
  373.0000   -34.9933    11.8126     7.1095     9.8198   122.1693     7.9198     2.4785     0.0989     0.0369
  373.5000   -34.9394    11.7949     7.2082     9.8688   122.6572     7.9183     2.4817     0.0978     0.0357
  374.0000   -34.8875    11.7514     7.3069     9.9177   121.2238     7.9168     2.4769     0.1003     0.0345
  374.5000   -34.8354    11.7082     7.3174     9.9668   119.5209     7.9154     2.4702     0.1050     0.0332
  375.0000   -34.7831    11.6651     7.3285    10.0161   115.3093     7.9139     2.4646     0.1102     0.0320
  375.5000   -34.7308    11.6221     7.3394    10.0657   110.8459     7.9124     2.4619     0.1099     0.0308
  376.0000   -34.6784    11.5963     7.3503    10.1156   112.0238     7.9109     2.4591     0.1103     0.0295
  376.5000   -34.6261    11.7132     7.3612    10.1657   114.6495     7.9094     2.4563     0.1151     0.0282
  377.0000   -34.5737    11.8116     7.3722    10.2160   116.2445     7.9079     2.4554     0.1174     0.0292
  377.5000   -34.5211    11.9112     7.3831    10.2666   114.8848     7.9064     2.4653     0.1099     0.0326
  378.0000   -34.4697    12.0116     7.3941    10.3174   114.0158     7.9050     2.4756     0.1018     0.0425
  378.5000   -34.4521    12.1127     7.4051    10.3795   115.3014     7.9035     2.4848     0.0968     0.0467
  379.0000   -34.5444    12.2572     7.4162    10.3427   116.8655     7.9020     2.4841     0.0975     0.0486
  379.5000   -34.6335    12.1743     7.4272    10.2478   118.4257     7.9005     2.4836     0.0971     0.0505
  380.0000   -34.7224    11.9604     7.4382    10.1538   119.9870     7.8990     2.4852     0.0959     0.0525
  380.5000   -34.8115    11.7502     7.4493    10.0606   121.5474     7.8976     2.4873     0.0947     0.0545
  381.0000   -34.9005    11.5417     7.4604     9.9683   123.1141     7.8961     2.4885     0.0938     0.0565
  381.5000   -34.9895    11.3370     7.4715     9.9109   124.7000     7.8946     2.4859     0.0951     0.0585
  382.0000   -35.0786    11.1773     7.4828    10.1251   125.0193     7.8931     2.4831     0.0976     0.0605
  382.5000   -35.1676    12.0750     7.4940    10.3498   121.3559     7.8916     2.4814     0.0986     0.0625
  383.0000   -35.2566    12.9013     7.5112    10.5795   118.1446     7.8901     2.4808     0.0986     0.0645
  383.5000   -35.3457    13.8154     7.3798    10.8701   115.7746     7.8886     2.4748     0.1034     0.0664
  384.0000   -35.4346    13.3514     7.0292    10.6394   114.9966     7.8872     2.4638     0.1106     0.0684
  384.5000   -35.5239    12.6641     6.6951    10.2431   114.2980     7.8857     2.4536     0.1127     0.0703
  385.0000   -35.6155    12.9021     6.3769     9.8615   115.7286     7.8842     2.4500     0.1148     0.0711
  385.5000   -35.5709    13.7727     6.0740     9.3606   118.5563     7.8827     2.4400     0.1238     0.0718
  386.0000   -35.5030    14.7446     5.7855     8.2405   121.4566     7.8812     2.4041     0.1415     0.0712
  386.5000   -35.4184     8.0740     5.5107     7.2545   124.6814     7.8797     2.3691     0.1724     0.0658
  387.0000   -34.9597     4.7332     5.2881     6.1873   123.0987     7.8783     2.3298     0.1904     0.0521
  387.5000   -34.4887     6.1802     5.5344     6.8057   117.8653     7.8768     2.3533     0.1693     0.0389
  388.0000   -34.0196    10.0279     5.7575     7.7256   111.4852     7.8753     2.4396     0.1435     0.0359
  388.5000   -33.5510    15.1589     5.9889     8.4780   113.4927     7.8738     2.4890     0.0930     0.0429
  389.0000   -33.0824    15.1336     6.2440     9.0849   112.4719     7.8723     2.4975     0.0874     0.0462
  389.5000   -32.6137    15.0871     6.7718     9.7354   110.5061     7.8708     2.4961     0.0922     0.0462
  390.0000   -32.1451    15.0408     7.3790    10.4324   108.5256     7.8693     2.4917     0.0930     0.0463
  390.5000   -31.6765    15.0196     8.0882    11.1792   106.4812     7.8679     2.4905     0.0939     0.0462
  391.0000   -31.2079    15.1828     8.4455    12.0328   102.6826     7.8664     2.4892     0.0948     0.0464
  391.5000   -30.7393    15.2996     8.8440    12.0328   101.6627     7.8649     2.4876     0.0950     0.0532
  392.0000   -30.2709    14.5963     9.2612    12.0328   104.1082     7.8634     2.4948     0.0906     0.0605
  392.5000   -29.8024    14.0774     9.5760    12.0328   106.9538     7.8619     2.5040     0.0851     0.0678
  393.0000   -29.3338    14.2537     9.7596    12.0328   105.7944     7.8604     2.5117     0.0805     0.0728
  393.5000   -28.8456    14.4640     9.9482    12.0328   103.1735     7.8590     2.5064     0.0834     0.0741
  394.0000   -28.0898    13.5804    10.1410    12.0328   100.4208     7.8575     2.5010     0.0862     0.0753
  394.5000   -27.2995    13.9294    10.6903    12.4963    93.5216     7.8560     2.4957     0.0891     0.0774
  395.0000   -26.5085    14.8686    11.7038    13.6528    85.5026     7.8545     2.4900     0.0920     0.0829
  395.5000   -25.7177    16.1501    12.8142    14.9162    73.0879     7.8530     2.4839     0.0949     0.0884
  396.0000   -24.9270    36.7145    14.0327    16.2966    65.6959     7.8515     2.4588     0.1168     0.0885
  396.5000   -24.1362    35.2813    15.3671    17.8055    60.7176     7.8500     2.4150     0.1431     0.0845
  397.0000   -23.3450    32.6865    16.8284    19.1246    57.2771     7.8486     2.3717     0.1757     0.0765
  397.5000   -22.5539    30.2779    18.4287    19.7852    55.0987     7.8471     2.3385     0.1806     0.0686
  398.0000   -21.7920    28.0132    19.2412    20.4686    54.3434     7.8435     2.3536     0.1707     0.0656
  398.5000   -21.2403    26.4375    19.7009    21.1751    56.9989     7.8377     2.3711     0.1625     0.0684
  399.0000   -20.8265    29.4806    20.1716    21.9067    59.5911     7.8319     2.3865     0.1549     0.0712
  399.5000   -20.7495    26.6320    20.6536    22.6635    64.4517     7.8261     2.3785     0.1627     0.0740
