~VERSION INFORMATION
 VERS.                2.0:   CWLS LOG ASCII STANDARD - VERSION 2.0
 WRAP.                 NO:   ONE LINE PER DEPTH STEP
~WELL INFORMATION
#MNEM.UNIT      DATA TYPE    INFORMATION
#----------   ------------   ------------------------------
 STRT.F           20.0000:   START DEPTH
 STOP.F         1363.5000:   STOP DEPTH
 STEP.F            0.5000:   STEP LENGTH
 NULL.          -999.2500:   NO VALUE
 COMP.   FLUOR DANIEL INC:   COMPANY
 WELL.   NPR 3 "S" #83-14:   WELL
 FLD .             TEAPOT:   FIELD
 LOC .      S14 T38N R78W:   LOCATION
 CNTY.            NATRONA:   COUNTY
 STAT.            WYOMING:   STATE
 CTRY. UNITED STATES OF AMERICA:   COUNTRY
 SRVC. Schlumberger Well Surveying Corp:   SERVICE COMPANY
 DATE.        22-AUG-1966:   LOGDATE
 API .       490250971000:   API NUMBER
~CURVE INFORMATION
#MNEM.UNIT       API CODE    CURVE DESCRIPTION
#----------   ------------   ------------------------------
 DEPT.F                  :   
 SPR .MV     05 010 01 00:   SPONTANEOUS POTENTIAL FROM RES.
 ASN .OHMM   05 041 16 00:   AMPLIFIED SHORT NORMAL 16"
 CILD.MMHO   05 110 00 00:   CONDUCTIVITY INDUCTION LOG
 ILD .OHMM   05 120 46 00:   INDUCTION LOG DEEP
 CALD.IN     45 280 60 00:   CALIPER
 GRD .GAPI   45 310 01 00:   GAMMA RAY FROM DENSITY LOG
 CORR.G/C3   45 356 01 00:   DENSITY CORRECTION
 RHOB.G/C3   45 350 01 00:   BULK DENSITY
 DPOR.DEC    45 890 12 00:   DENSITY POROSITY SANDSTONE
~PARAMETER INFORMATION
#MNEM.UNIT          VALUE    DESCRIPTION
#----------   ------------   ------------------------------
 PD  .                 GL:   PERMANENT DATUM
 EPD .F              5300:   ELEVATION PERMANENT DATUM
 LMF .                 KB:   LOG MEASURED FROM
 DAPD.F                 5:   FEET ABOVE PERMANENT DATUM
 DMF .                 KB:   DRILLING MEASURED FROM
 EKB .F              5305:   KELLING BUSHING
 EGL .F              5300:   GROUND LEVEL
 DATE.          8-22-1966:   RUN DATE
 RUN .                  1:   RUN NUMBER
 DD  .F              1365:   DEPTH DRILLER
 DL  .F              1363:   DEPTH LOGGER
 BLI .F              1362:   BOTTOM LOG INTERVAL
 TLI .F                20:   TOP LOG INTERVAL
 CS  .IN            8.625:   CASING SIZE
 CBD .F                15:   CASING BOTTOM DRILLER
 CBL .F                20:   CASING BOTTOM LOGGER
 BS  .IN            7.875:   BIT SIZE
 BSD .F              1365:   BIT SIZE AT DEPTH
 DFT .           GEL-CHEM:   DRILLING FLUID TYPE
 DFD .                 10:   DRILLING FLUID DENSITY
 DFV .                 55:   DRILLING FLUID VISCOSITY
 DFL .                  8:   DRILLING FLUID LOSS
 MSS .          FLOW LINE:   MUD SAMPLE SOURCE
 RMS .OHMM           1.86:   RESISTIVITY MUD SAMPLE
 MST .F                73:   MUD SAMPLE TEMPERATURE
 RMF .OHMM           1.13:   RESISTIVITY MUD FILTRATE SAMPLE
 MFST.F                70:   MUD FILTRATE SAMPLE TEMPERATURE
 MFSS.                  M:   MUD FILTRATE SAMPLE SOURCE
 RMB .OHMM           1.32:   RESISTIVITY MUD AT BHT
 BHT .F               102:   BOTTOM HOLE TEMPERATURE
 TCS .HRS               1:   TIME CURCULATED STOPPED
 MRT .F               102:   MAXIMUM RECORDED TEMPERATURE
 LUN .               3527:   LOGGING UNIT NUMBER
 LUL .               CSPR:   LOGGING UNIT LOCATION
 ENGI.          TOLLEFSON:   RECORDING ENGINEER
 WITN.         MAY/TUTTLE:   WITNESSED BY
 CLNT.            A2DTECH:   CLIENT CODE
 ORIG.       2", 5" PRINT:   ORIGIN OF DATA
 UWI .       490250971000:   UNIQUE WELL ID
 DICO. A2D Technologies, Inc.:   DIGITIZING COMPANY
~OTHER INFORMATION
~A   DEPT       SPR       ASN         CILD      ILD         CALD       GRD       CORR        RHOB     DPOR   
# ...
 1078.5000   -45.4370     8.2430   149.7996     6.7118     7.9866   101.9581     0.0480     2.5264     0.0858
 1079.0000   -45.5205     8.1750   154.1795     6.5519     7.9903   103.2225     0.0405     2.5426     0.0705
 1079.5000   -45.7268     8.0674   158.1853     6.3920     7.9949   104.5143     0.0343     2.5676     0.0492
 1080.0000   -45.7394     7.8418   162.1911     6.2333     7.9992   106.9738     0.0489     2.5847     0.0386
 1080.5000   -45.5247     7.6028   166.2112     6.0734     8.0036   109.3098     0.0606     2.5366     0.0718
 1081.0000   -45.3204     7.3619   170.0681     5.8590     8.0079   109.7813     0.0744     2.5450     0.0702
 1081.5000   -45.1879     7.1070   184.5020     5.4129     8.0123   109.2401     0.0839     2.5350     0.0670
 1082.0000   -45.3473     6.6403   200.7369     4.9756     8.0166   113.4891     0.0640     2.5171     0.0854
 1082.5000   -45.5982     6.1870   222.4064     4.5417     8.0210   114.6978     0.0396     2.5312     0.0770
 1083.0000   -45.3000     5.7338   256.0814     4.1243     8.0253   109.7697     0.0215     2.5472     0.0619
 1083.5000   -44.9531     5.2806   289.7564     3.7574     8.0297   105.6985     0.0301     2.5353     0.0704
 1084.0000   -44.6035     4.8273   333.5705     3.5087     8.0340   105.3940     0.0385     2.5244     0.0771
 1084.5000   -44.5838     4.3739   380.2093     3.2638     8.0385   106.8935     0.0483     2.5359     0.0715
 1085.0000   -44.7762     3.9208   426.8481     3.0181     8.0425   108.9916     0.0392     2.5412     0.0662
 1085.5000   -44.5841     3.4660   466.8108     2.7724     8.0476   110.6119     0.0469     2.5226     0.0818
 1086.0000   -44.1759     3.1967   491.4830     2.6636     8.0488   111.4211     0.0603     2.5040     0.0887
 1086.5000   -44.2837     3.0433   511.5230     2.6904     8.0435   107.4172     0.0531     2.4848     0.0983
 1087.0000   -44.3904     3.0057   514.5291     2.7171     8.0389   105.9119     0.0443     2.4678     0.1079
 1087.5000   -44.4999     2.9991   500.5010     2.7396     8.0338   104.0074     0.0322     2.4500     0.1202
 1088.0000   -44.5913     3.0112   482.1643     2.9560     8.0290   101.8369     0.0366     2.4086     0.1514
 1088.5000   -44.5868     3.2785   431.2525     3.2164     8.0241   101.1188     0.0494     2.3549     0.1806
 1089.0000   -44.6018     3.6600   385.5436     3.5457     8.0192    97.2319     0.0582     2.3009     0.2101
 1089.5000   -44.9456     4.0460   339.8347     3.9613     8.0143    97.8893     0.0495     2.2827     0.2258
 1090.0000   -45.2932     4.5485   298.5972     4.3758     8.0093   102.1799     0.0390     2.3556     0.1872
 1090.5000   -45.5636     5.1591   261.4006     4.7915     8.0045   108.0192     0.0596     2.4715     0.1398
 1091.0000   -45.2588     5.6751   237.0541     5.2049     7.9995   113.5938     0.0860     2.4611     0.1114
 1091.5000   -44.9705     5.7347   216.4529     5.4844     7.9946   116.2064     0.0970     2.4265     0.1214
 1092.0000   -44.9408     5.8044   207.9158     5.5392     7.9905   110.1087     0.0647     2.4556     0.0904
 1092.5000   -44.9957     5.8754   209.0471     5.2954     7.9957   112.8859     0.0338     2.5735     0.0498
 1093.0000   -44.9593     5.9320   221.2206     5.0482     8.0030   118.9242     0.0813     2.5500     0.0632
 1093.5000   -44.7482     5.9157   233.2212     4.8021     8.0101   116.6153     0.0687     2.5167     0.0751
 1094.0000   -44.5860     5.7677   245.2220     4.5569     8.0173   114.0388     0.0535     2.5386     0.0846
 1094.5000   -44.9074     5.4696   256.0110     4.4543     8.0243   116.0732     0.0322     2.5358     0.0701
 1095.0000   -44.9965     5.1742   262.0928     4.3574     8.0317   116.8422     0.0377     2.5244     0.0792
 1095.5000   -44.7138     4.9272   271.6324     4.2591     8.0383   113.1864     0.0509     2.5135     0.0858
 1096.0000   -44.3701     4.8443   281.0922     4.1596     8.0466   109.7357     0.0468     2.5038     0.0838
 1096.5000   -44.2235     4.8204   284.0681     4.2057     8.0474   113.9443     0.0399     2.4941     0.0929
 1097.0000   -44.3799     4.8573   282.0641     4.3126     8.0382   118.2082     0.0301     2.4854     0.0999
 1097.5000   -44.5137     5.0451   272.5358     4.5147     8.0303   119.3113     0.0329     2.4684     0.1054
 1098.0000   -44.7827     5.2836   259.2044     4.7150     8.0217   118.9393     0.0451     2.4601     0.1102
 1098.5000   -44.6682     5.4529   243.7487     4.9152     8.0136   115.7034     0.0515     2.4966     0.0942
 1099.0000   -44.6025     5.6172   228.3169     5.1154     8.0060   113.3768     0.0489     2.5226     0.0762
 1099.5000   -44.4212     5.9460   213.8600     5.3158     7.9988   111.6190     0.0438     2.5122     0.0882
 1100.0000   -44.5279     6.2962   204.0034     5.5144     7.9920   110.4145     0.0509     2.5307     0.0730
 1100.5000   -44.6361     6.6468   194.6987     5.7095     7.9849   111.7620     0.0611     2.5143     0.0804
 1101.0000   -44.7470     6.9969   185.4094     5.8899     7.9781   113.8577     0.0549     2.5186     0.0894
 1101.5000   -44.7890     7.3485   176.1201     6.0712     7.9710   117.1737     0.0406     2.5376     0.0634
 1102.0000   -44.7898     7.6151   170.3997     6.2523     7.9779   116.3593     0.0515     2.5532     0.0590
 1102.5000   -44.7897     7.8350   166.6221     6.4304     7.9885   114.3802     0.0742     2.5435     0.0682
 1103.0000   -44.7896     7.8956   162.8446     6.5146     7.9983   115.5943     0.0677     2.5476     0.0598
 1103.5000   -44.7894     7.9375   159.8196     6.4024     8.0086   114.6348     0.0450     2.5552     0.0594
 1104.0000   -44.7880     7.9483   159.8196     6.2936     8.0185   115.4335     0.0357     2.5440     0.0686
 1104.5000   -44.7986     7.9049   162.0916     6.1841     8.0292   116.9792     0.0464     2.5543     0.0582
 1105.0000   -44.9797     7.8615   166.8569     6.0749     8.0282   114.5031     0.0565     2.5455     0.0646
 1105.5000   -45.1548     7.7485   171.6525     5.9657     8.0241   109.2425     0.0534     2.5314     0.0721
 1106.0000   -44.9770     7.6023   176.4380     5.8565     8.0209   111.2299     0.0454     2.5172     0.0765
 1106.5000   -44.4519     7.4561   181.2202     5.7476     8.0173   117.7938     0.0385     2.5197     0.0802
 1107.0000   -44.4051     7.3059   186.0023     5.6188     8.0138   114.1399     0.0312     2.5270     0.0794
 1107.5000   -44.4679     7.1681   190.7844     5.3695     8.0105   115.6009     0.0241     2.5055     0.0818
 1108.0000   -44.5304     6.9955   198.4723     5.1158     8.0087   117.1799     0.0214     2.5326     0.1026
 1108.5000   -44.5920     6.8143   208.1286     4.8626     8.0064   115.2701     0.0229     2.5248     0.0778
 1109.0000   -44.6537     6.6353   216.9339     4.6094     8.0044   116.4425     0.0258     2.5126     0.0826
 1109.5000   -44.7154     6.4671   236.3515     4.3560     8.0022   115.9366     0.0352     2.5185     0.0830
 1110.0000   -44.7772     6.1462   254.1966     4.0969     8.0002   116.8849     0.0444     2.5227     0.0802
 1110.5000   -44.7298     5.7986   272.0417     4.0674     7.9981   118.2360     0.0497     2.5290     0.0770
 1111.0000   -44.5798     5.4521   278.0561     4.0898     7.9960   117.7548     0.0354     2.5149     0.0839
 1111.5000   -44.4281     5.0952   279.3743     4.1130     7.9939   117.5483     0.0402     2.5042     0.0958
 1112.0000   -44.2732     4.9251   272.9815     4.1364     7.9918   118.4285     0.0488     2.5126     0.0916
 1112.5000   -44.0396     5.0684   266.5887     4.2043     7.9903   119.0505     0.0564     2.5286     0.0828
 1113.0000   -44.4565     5.2645   260.1055     4.3610     7.9926   118.4326     0.0652     2.5217     0.0778
 1113.5000   -44.5881     5.7587   245.5692     4.7246     7.9950   117.9462     0.0662     2.4896     0.0923
 1114.0000   -44.5898     6.2529   226.3316     5.0879     7.9975   118.4721     0.0556     2.4671     0.1059
 1114.5000   -44.5879     6.7434   207.2525     5.4499     7.9999   118.3010     0.0445     2.4253     0.1402
