~VERSION INFORMATION
 VERS.                2.0:   CWLS LOG ASCII STANDARD - VERSION 2.0
 WRAP.                 NO:   ONE LINE PER DEPTH STEP
~WELL INFORMATION
#MNEM.UNIT      DATA TYPE    INFORMATION
#----------   ------------   ------------------------------
 STRT.F           92.0000:   START DEPTH
 STOP.F          810.0000:   STOP DEPTH
 STEP.F            0.5000:   STEP LENGTH
 NULL.          -999.2500:   NO VALUE
 COMP. U S NAVY/INTEX OIL CO:   COMPANY
 WELL. NPR #3 #86 S 34-34:   WELL
 FLD .        EAST TEAPOT:   FIELD
 LOC .      S34 T39N R78W:   LOCATION
 CNTY.            NATRONA:   COUNTY
 STAT.            WYOMING:   STATE
 CTRY. UNITED STATES OF AMERICA:   COUNTRY
 SRVC. Schlumberger Well Surveying Corp:   SERVICE COMPANY
 DATE.        22-JUL-1962:   LOGDATE
 API .       490250652900:   API NUMBER
~CURVE INFORMATION
#MNEM.UNIT       API CODE    CURVE DESCRIPTION
#----------   ------------   ------------------------------
 DEPT.F                  :   
 GR  .GAPI   30 310 01 00:   GAMMA RAY
 SPR .MV     05 010 01 00:   SPONTANEOUS POTENTIAL FROM RES.
 CILD.MMHO   05 110 46 00:   CONDUCTIVITY INDUCTION LOG DEEP
 ASN .OHMM   05 041 16 00:   AMPLIFIED SHORT NORMAL 16"
 ILD .OHMM   05 120 46 00:   INDUCTION LOG DEEP
 CALM.IN     15 280 01 00:   CALIPER FROM MICRO LOG
~PARAMETER INFORMATION
#MNEM.UNIT          VALUE    DESCRIPTION
#----------   ------------   ------------------------------
 PD  .                 GL:   PERMANENT DATUM
 EPD .F              5094:   ELEVATION PERMANENT DATUM
 LMF .                 KB:   LOG MEASURED FROM
 DAPD.F                 5:   FEET ABOVE PERMANENT DATUM
 DMF .                 KB:   DRILLING MEASURED FROM
 EKB .F              5099:   KELLING BUSHING
 EGL .F              5094:   GROUND LEVEL
 DATE.            7-22-62:   RUN DATE
 RUN .                  1:   RUN NUMBER
 DD  .F               810:   DEPTH DRILLER
 DL  .F               811:   DEPTH LOGGER
 BLI .F               810:   BOTTOM LOG INTERVAL
 TLI .F               100:   TOP LOG INTERVAL
 BS  .IN             6.75:   BIT SIZE
 BSD .F               810:   BIT SIZE AT DEPTH
 DFT .                GEL:   DRILLING FLUID TYPE
 DFD .               10.3:   DRILLING FLUID DENSITY
 DFV .                 43:   DRILLING FLUID VISCOSITY
 RMS .OHMM              4:   RESISTIVITY MUD SAMPLE
 MST .F                75:   MUD SAMPLE TEMPERATURE
 RMF .OHMM            2.9:   RESISTIVITY MUD FILTRATE SAMPLE
 MFST.F                75:   MUD FILTRATE SAMPLE TEMPERATURE
 RMC .OHMM            3.8:   RESISTIVITY MUD CAKE
 MCST.F                75:   MUD CAKE SAMPLE TEMPERATURE
 TCS .HRS               1:   TIME CURCULATED STOPPED
 LUN .               2503:   LOGGING UNIT NUMBER
 ENGI.           ELLERMAN:   RECORDING ENGINEER
 WITN.          JORGENSON:   WITNESSED BY
 CLNT.            A2DTECH:   CLIENT CODE
 ORIG.   1", 2", 5" PRINT:   ORIGIN OF DATA
 UWI .       490250652900:   UNIQUE WELL ID
 DICO. A2D Technologies, Inc.:   DIGITIZING COMPANY
~OTHER INFORMATION
~A   DEPT       GR        SPR       CILD        ASN        ILD       CALM   
# ...
  248.0000  -999.2500   -40.2699   130.4997     9.0203     8.0038  -999.2500
  248.5000  -999.2500   -40.2665   108.1536     9.3019     9.2815  -999.2500
  249.0000  -999.2500   -40.4173    95.8648     9.6275     9.9339  -999.2500
  249.5000  -999.2500   -40.6273    91.8345     9.8117    10.4119  -999.2500
  250.0000  -999.2500   -40.8384    89.8235     9.9562    10.7055  -999.2500
  250.5000  -999.2500   -41.0494    89.8235    10.5765    10.8401  -999.2500
  251.0000  -999.2500   -41.2602    89.3250    10.8041    10.9696  -999.2500
  251.5000  -999.2500   -41.4711    87.7487    11.0505    11.0844  -999.2500
  252.0000  -999.2500   -41.6819    85.9602    11.2927    11.2698  -999.2500
  252.5000  -999.2500   -41.8928    83.6958    11.5363    11.4564  -999.2500
  253.0000  -999.2500   -42.1037    81.4616    11.7767    11.5932  -999.2500
  253.5000  -999.2500   -42.3145    80.8009    11.7878    11.6290  -999.2500
  254.0000  -999.2500   -42.5254    81.7408    11.7860    11.6667  -999.2500
  254.5000  -999.2500   -42.7363    82.6675    11.7823    11.7041  -999.2500
  255.0000  -999.2500   -42.9477    83.5929    11.9356    11.7413  -999.2500
  255.5000  -999.2500   -43.1614    82.4889    12.1239    11.7765  -999.2500
  256.0000  -999.2500   -43.3598    81.3849    12.3132    11.8925  -999.2500
  256.5000  -999.2500   -43.0717    80.2809    12.5022    12.0627  -999.2500
  257.0000  -999.2500   -42.7611    79.1769    12.6898    12.2334  -999.2500
  257.5000  -999.2500   -42.9000    78.0729    12.8246    12.4035  -999.2500
  258.0000  -999.2500   -43.0921    76.9689    12.9480    12.5736  -999.2500
  258.5000  -999.2500   -43.1665    75.8649    13.0723    12.7437  -999.2500
  259.0000  -999.2500   -43.1679    74.7609    13.2025    12.9141  -999.2500
  259.5000  -999.2500   -43.1680    73.6569    13.3426    13.0841  -999.2500
  260.0000  -999.2500   -43.1683    72.5529    13.4822    13.2412  -999.2500
  260.5000  -999.2500   -43.1644    71.4489    13.6221    13.3904  -999.2500
  261.0000  -999.2500   -43.0797    70.8649    13.7615    13.5453  -999.2500
  261.5000  -999.2500   -42.9881    70.4903    13.9022    13.6695  -999.2500
  262.0000  -999.2500   -43.1637    70.0935    13.9340    13.7964  -999.2500
  262.5000  -999.2500   -43.4728    69.3681    13.8730    13.9240  -999.2500
  263.0000  -999.2500   -43.7853    68.5969    13.9704    14.0515  -999.2500
  263.5000  -999.2500   -44.1006    67.8257    14.1152    14.1791  -999.2500
  264.0000  -999.2500   -44.1510    67.0546    14.2698    14.3067  -999.2500
  264.5000  -999.2500   -44.0423    66.2834    14.5356    14.4339  -999.2500
  265.0000  -999.2500   -43.9333    65.5122    14.7978    14.5899  -999.2500
  265.5000  -999.2500   -43.8179    64.6833    15.0643    14.7648  -999.2500
  266.0000  -999.2500   -43.9871    63.6345    15.1430    14.9384  -999.2500
  266.5000  -999.2500   -44.2674    62.5857    15.3215    15.1897  -999.2500
  267.0000  -999.2500   -44.6665    61.5369    15.4875    15.4819  -999.2500
  267.5000  -999.2500   -45.1916    60.4881    15.8913    15.7756  -999.2500
  268.0000  -999.2500   -45.6415    59.4393    16.2988    16.0694  -999.2500
  268.5000  -999.2500   -46.0374    58.3904    16.7095    16.3675  -999.2500
  269.0000  -999.2500   -46.4209    57.3416    17.0592    16.5090  -999.2500
  269.5000  -999.2500   -46.5417    56.3430    16.7931    16.6189  -999.2500
  270.0000  -999.2500   -46.0624    55.4662    17.0940    16.7263  -999.2500
  270.5000  -999.2500   -45.5944    54.5937    17.3913    16.8342  -999.2500
  271.0000  -999.2500   -45.1293    53.7169    17.5504    16.9422  -999.2500
  271.5000  -999.2500   -44.7795    52.8470    17.3908    17.0504  -999.2500
  272.0000  -999.2500   -44.6651    52.7997    17.5555    17.1632  -999.2500
  272.5000  -999.2500   -44.7615    53.4721    17.7334    17.1373  -999.2500
  273.0000  -999.2500   -45.3151    54.1444    17.8809    17.0476  -999.2500
  273.5000  -999.2500   -45.9520    54.8167    17.6857    16.8222  -999.2500
  274.0000  -999.2500   -46.5881    55.4890    17.4409    16.5979  -999.2500
  274.5000  -999.2500   -47.1148    56.1613    17.3215    16.4076  -999.2500
  275.0000  -999.2500   -47.1031    56.8339    17.1992    16.2774  -999.2500
  275.5000  -999.2500   -47.1020    57.5060    17.0774    16.1461  -999.2500
  276.0000  -999.2500   -47.1007    58.0930    16.9551    16.0151  -999.2500
  276.5000  -999.2500   -47.1074    58.6596    16.8323    15.8840  -999.2500
  277.0000  -999.2500   -46.6517    59.2265    16.7116    15.7529  -999.2500
  277.5000  -999.2500   -45.9418    59.7934    16.5011    15.6217  -999.2500
  278.0000  -999.2500   -45.2283    60.3604    16.2482    15.4906  -999.2500
  278.5000  -999.2500   -44.8215    60.9273    15.9934    15.3593  -999.2500
  279.0000  -999.2500   -44.7792    61.4942    15.7386    15.2291  -999.2500
  279.5000  -999.2500   -44.7092    61.9274    15.4842    15.1177  -999.2500
  280.0000  -999.2500   -44.6417    62.2188    15.2297    14.8524  -999.2500
  280.5000  -999.2500   -44.4648    62.5101    14.9736    14.5646  -999.2500
  281.0000  -999.2500   -44.2434    62.8245    14.4186    14.2741  -999.2500
  281.5000  -999.2500   -44.1522    65.8424    13.7458    13.9978  -999.2500
  282.0000  -999.2500   -44.3644    70.5967    13.0710    13.1458  -999.2500
  282.5000  -999.2500   -44.5809    78.2610    12.3965    12.0699  -999.2500
  283.0000  -999.2500   -44.8096    85.9254    11.7217    11.0926  -999.2500
  283.5000  -999.2500   -44.1909    96.5421    11.0486    10.1167  -999.2500
  284.0000  -999.2500   -43.1138   108.0767    10.3734     9.3004  -999.2500
  284.5000  -999.2500   -41.1731   119.6156     9.7736     8.7807  -999.2500
  285.0000  -999.2500   -38.9208   131.1641     8.8579     8.2551  -999.2500
  285.5000  -999.2500   -38.3776   141.4979     8.1388     7.7301  -999.2500
  286.0000  -999.2500   -38.4010   151.5490     7.6051     7.2348  -999.2500
  286.5000  -999.2500   -38.4058   158.5612     7.3499     6.8108  -999.2500
  287.0000  -999.2500   -38.4058   161.4746     7.0915     6.8179  -999.2500
  287.5000  -999.2500   -38.4058   161.6693     6.9875     6.8429  -999.2500
  288.0000  -999.2500   -38.4060   160.3583     7.0662     6.8663  -999.2500
  288.5000  -999.2500   -38.4069   159.0473     7.1581     6.8889  -999.2500
  289.0000  -999.2500   -38.4018   157.7362     7.2516     6.9021  -999.2500
  289.5000  -999.2500   -38.2232   156.4252     7.2804     6.8853  -999.2500
  290.0000  -999.2500   -38.0293   156.2825     7.2383     6.8693  -999.2500
  290.5000  -999.2500   -37.9663   156.2825     7.1820     6.8534  -999.2500
  291.0000  -999.2500   -37.9333   156.2825     7.0645     6.8375  -999.2500
  291.5000  -999.2500   -37.9011   156.2825     6.9453     6.8215  -999.2500
  292.0000  -999.2500   -37.8686   156.2836     6.8333     6.8044  -999.2500
  292.5000  -999.2500   -37.8360   156.2867     6.8023     6.8364  -999.2500
  293.0000  -999.2500   -37.8041   156.2818     6.8829     6.8828  -999.2500
  293.5000  -999.2500   -37.8050   155.0668     6.9689     6.9295  -999.2500
  294.0000  -999.2500   -37.8552   153.8010     7.0548     6.9761  -999.2500
  294.5000  -999.2500   -37.9047   152.5352     7.1409     7.0227  -999.2500
  295.0000  -999.2500   -37.9546   151.2694     7.2062     7.0693  -999.2500
  295.5000  -999.2500   -37.9954   150.0036     7.2381     7.1160  -999.2500
  296.0000  -999.2500   -37.8949   149.0135     7.2383     7.1630  -999.2500
  296.5000  -999.2500   -37.7789   150.3848     7.2015     7.2119  -999.2500
  297.0000  -999.2500   -37.5940   151.7294     7.1445     7.1403  -999.2500
  297.5000  -999.2500   -37.4119   153.0740     7.0869     7.0479  -999.2500
  298.0000  -999.2500   -37.2308   154.4186     7.0294     6.9550  -999.2500
  298.5000  -999.2500   -37.0506   155.7632     6.9718     6.8624  -999.2500
  299.0000  -999.2500   -36.9976   157.1079     6.9136     6.7696  -999.2500
  299.5000  -999.2500   -37.0821   158.4525     6.8508     6.6764  -999.2500
