~VERSION INFORMATION
 VERS.                2.0:   CWLS LOG ASCII STANDARD - VERSION 2.0
 WRAP.                 NO:   ONE LINE PER DEPTH STEP
~WELL INFORMATION
#MNEM.UNIT      DATA TYPE    INFORMATION
#----------   ------------   ------------------------------
 STRT.F           30.5000:   START DEPTH
 STOP.F          692.0000:   STOP DEPTH
 STEP.F            0.5000:   STEP LENGTH
 NULL.          -999.2500:   NO VALUE
 COMP. FENIX & SCISSON INC:   COMPANY
 WELL.   27-S-11-WP #3-11:   WELL
 FLD .  TEAPOT DOME NPR-3:   FIELD
 LOC .      S11 T38N R78W:   LOCATION
 CNTY.            NATRONA:   COUNTY
 STAT.            WYOMING:   STATE
 CTRY. UNITED STATES OF AMERICA:   COUNTRY
 SRVC.       Schlumberger:   SERVICE COMPANY
 DATE.        18-FEB-1978:   LOGDATE
 API .       490251058100:   API NUMBER
~CURVE INFORMATION
#MNEM.UNIT       API CODE    CURVE DESCRIPTION
#----------   ------------   ------------------------------
 DEPT.F                  :   
 CALD.IN     45 280 60 00:   CALIPER FROM DENSITY LOG
 CORR.G/C3   45 356 01 00:   DENSITY CORRECTION
 DPHI.DEC    45 890 12 00:   DENSITY POROSITY SANDSTONE
 GRD .GAPI   45 310 01 00:   GAMMA RAY FROM DENSITY LOG
 RHOB.G/C3   45 350 01 00:   BULK DENSITY
 ILD .OHMM   05 110 46 00:   INDUCTION LOG DEEP
 SN  .OHMM   05 040 16 00:   SHORT NORMAL 16"
 SPR .MV     05 010 01 00:   SPONTANEOUS POTENSIAL FROM RES.
~PARAMETER INFORMATION
#MNEM.UNIT          VALUE    DESCRIPTION
#----------   ------------   ------------------------------
 PD  .                 GL:   PERMANENT DATUM
 EPD .F              5195:   ELEVATION PERMANENT DATUM
 LMF .                 KB:   LOG MEASURED FROM
 DAPD.F                 4:   FEET ABOVE PERMANENT DATUM
 DMF .                 KB:   DRILLING MEASURED FROM
 EKB .F              5199:   KELLING BUSHING
 EGL .F              5195:   GROUND LEVEL
 DATE.        18-FEB-1978:   RUN DATE
 RUN .                  1:   RUN NUMBER
 DD  .F               690:   DEPTH DRILLER
 DL  .F               695:   DEPTH LOGGER
 BLI .F               688:   BOTTOM LOG INTERVAL
 TLI .F                40:   TOP LOG INTERVAL
 CS  .IN            8.625:   CASING SIZE
 CBD .F                40:   CASING BOTTOM DRILLER
 CBL .F                40:   CASING BOTTOM LOGGER
 BS  .IN            7.875:   BIT SIZE
 BSD .F               690:   BIT SIZE AT DEPTH
 DFT .       LIGNO/ SULF.:   DRILLING FLUID TYPE
 DFD .                8.8:   DRILLING FLUID DENSITY
 DFV .                 33:   DRILLING FLUID VISCOSITY
 DFPH.               10.0:   DRILLING FLUID PH
 DFL .                5.0:   DRILLING FLUID LOSS
 MSS .           FLOWLINE:   MUD SAMPLE SOURCE
 RMS .OHMM            1.7:   RESISTIVITY MUD SAMPLE
 MST .F                66:   MUD SAMPLE TEMPERATURE
 RMF .OHMM            2.0:   RESISTIVITY MUD FILTRATE SAMPLE
 MFST.F                58:   MUD FILTRATE SAMPLE TEMPERATURE
 RMC .OHMM            3.0:   RESISTIVITY MUD CAKE
 MCST.F                60:   MUD CAKE SAMPLE TEMPERATURE
 MFSS.               MEAS:   MUD FILTRATE SAMPLE SOURCE
 RMB .OHMM           1.65:   RESISTIVITY MUD AT BHT
 BHT .F                68:   BOTTOM HOLE TEMPERATURE
 TCS .HRS               2:   TIME CURCULATED STOPPED
 MRT .F                68:   MAXIMUM RECORDED TEMPERATURE
 LUN .               2958:   LOGGING UNIT NUMBER
 LUL .             CASPER:   LOGGING UNIT LOCATION
 ENGI.            POINTER:   RECORDING ENGINEER
 WITN.           MCGINLEY:   WITNESSED BY
 CLNT.            A2DTECH:   CLIENT CODE
 ORIG.           5" PRINT:   ORIGIN OF DATA
 UWI .       490251058100:   UNIQUE WELL ID
~OTHER INFORMATION
~A   DEPT     CALD       CORR       DPHI         GRD      RHOB        ILD         SN        SPR   
# ...
  152.0000     7.9424     0.0213     0.1116    90.5484     2.4573     7.7312     7.7049   -31.0468
  152.5000     7.9253     0.0210     0.1110    91.5629     2.4526     7.6186     7.5917   -30.9198
  153.0000     7.9390     0.0208     0.1096    92.6106     2.4540     7.5076     7.4802   -30.9516
  153.5000     7.9066     0.0191     0.1081    95.1873     2.4584     7.4502     7.4220   -31.1295
  154.0000     7.8742     0.0174     0.1064    99.9047     2.4628     7.3932     7.3130   -30.8500
  154.5000     7.8111     0.0172     0.1076    98.2001     2.4658     7.3366     7.2561   -30.7230
  155.0000     7.6558     0.0186     0.1080    97.2600     2.4671     7.3315     7.2502   -30.5896
  155.5000     7.3162     0.0199     0.1029    96.7786     2.4685     7.3254     7.2442   -30.9263
  156.0000     7.2992     0.0212     0.0981    97.0617     2.4724     7.3730     7.3401   -31.8664
  156.5000     7.3436     0.0226     0.0945    97.4978     2.4822     7.4810     7.4654   -31.8918
  157.0000     7.4510     0.0224     0.0927    98.3925     2.4909     7.5792     7.5561   -31.4492
  157.5000     7.5412     0.0222     0.0946    99.4402     2.4924     7.6714     7.6876   -31.0280
  158.0000     7.5844     0.0220     0.0986    99.5761     2.4938     7.7500     7.7894   -30.9010
  158.5000     7.6134     0.0218     0.1050    95.4193     2.4860     7.7885     7.8925   -30.9328
  159.0000     7.6114     0.0231     0.1075    92.4914     2.4790     7.8732     7.9430   -30.8058
  159.5000     7.6408     0.0214     0.1091    92.4688     2.4721     7.9233     7.9921   -30.8312
  160.0000     7.7309     0.0182     0.1101    95.1984     2.4674     7.9732     8.0415   -30.8566
  160.5000     7.8828     0.0180     0.1107    99.7629     2.4642     7.9670     8.0913   -30.8821
  161.0000     7.8970     0.0178     0.1105   100.6576     2.4625     7.9067     8.0830   -30.9075
  161.5000     7.9256     0.0207     0.1078   100.6121     2.4609     7.9011     8.1331   -30.7741
  162.0000     7.9397     0.0205     0.1042    98.8196     2.4638     7.8406     8.1833   -30.6524
  162.5000     7.9376     0.0203     0.1036    91.2615     2.4713     7.7796     8.1764   -30.9838
  163.0000     7.9517     0.0201     0.1043    89.2463     2.4727     7.7201     8.2271   -31.6189
  163.5000     7.9650     0.0199     0.1037    89.3765     2.4710     7.6887     8.2763   -32.1128
  164.0000     7.9480     0.0228     0.1014    90.7300     2.4719     7.6563     8.2119   -32.2796
  164.5000     7.9463     0.0225     0.1005    94.0713     2.4817     7.6505     8.1481   -32.0001
  165.0000     7.9446     0.0239     0.1076    97.1067     2.4752     7.5920     8.1422   -31.4221
  165.5000     7.9430     0.0237     0.1131    99.9892     2.4614     7.5631     8.0623   -30.8378
  166.0000     7.9413     0.0251     0.1086   101.0425     2.4590     7.5288     7.9594   -30.7108
  166.5000     7.9396     0.0279     0.1032   100.4026     2.4657     7.4914     7.8975   -30.7362
  167.0000     7.9379     0.0277     0.1017   100.0741     2.4754     7.4660     7.8360   -30.6092
  167.5000     7.9363     0.0320     0.1018   100.0514     2.4799     7.4608     7.7209   -30.4758
  168.0000     7.9346     0.0334     0.1018    99.8759     2.4775     7.4026     7.6877   -30.5076
  168.5000     7.9329     0.0332     0.1009    98.6300     2.4758     7.3975     7.6544   -30.3796
  169.0000     7.9309     0.0330     0.1007    97.2311     2.4772     7.3409     7.5948   -30.5585
  169.5000     7.9292     0.0343     0.0995    97.3624     2.4771     7.2848     7.5884   -31.0412
  170.0000     7.9275     0.0387     0.1005    97.7982     2.4800     7.3823     7.5810   -31.3720
  170.5000     7.9259     0.0446     0.1021    98.6922     2.4783     7.4303     7.5748   -31.3979
  171.0000     7.9088     0.0474     0.1015    99.2813     2.4744     7.5814     7.6232   -31.5812
  171.5000     7.9072     0.0503     0.0967    99.1045     2.4728     7.6829     7.6851   -31.7590
  172.0000     7.8901     0.0531     0.0901    98.9297     2.4760     7.8092     7.7288   -31.7845
  172.5000     7.8885     0.0544     0.0841    99.2431     2.4915     7.9454     7.8184   -31.8099
  173.0000     7.8714     0.0542     0.0781    99.9765     2.4997     7.9956     7.8670   -31.8353
  173.5000     7.8698     0.0555     0.0763   100.2381     2.5072     8.0462     7.9155   -31.8608
  174.0000     7.8681     0.0584     0.0788   100.0569     2.5200     8.0405     7.9644   -31.7274
  174.5000     7.8664     0.0613     0.0986    99.4226     2.5359     8.0338     8.0135   -31.6004
  175.0000     7.8648     0.0641     0.0989    99.0941     2.4924     8.0283     8.0627   -31.6322
  175.5000     7.8631     0.0655     0.0972    99.6830     2.4748     8.0236     8.0549   -31.6576
  176.0000     7.8614     0.0652     0.0963    99.3546     2.4838     8.0180     8.1059   -31.8354
  176.5000     7.8751     0.0635     0.0985    98.7203     2.4890     8.0118     8.0981   -31.8613
  177.0000     7.8888     0.0451     0.1007    98.3918     2.4873     8.0063     8.2053   -31.8863
  177.5000     7.8871     0.0298     0.1092    98.5220     2.4689     8.0012     8.2003   -31.7593
  178.0000     7.9008     0.0296     0.1126    98.9637     2.4451     8.0108     8.2510   -31.4798
  178.5000     7.8991     0.0355     0.1005    98.7825     2.4580     8.0461     8.2430   -31.5116
  179.0000     7.9128     0.0504     0.0960    98.1482     2.4762     8.0969     8.2360   -31.5371
  179.5000     7.9108     0.0609     0.0946    97.3610     2.4883     8.0913     8.2680   -31.4100
  180.0000     7.8784     0.0592     0.0959    96.7267     2.4958     8.1500     8.3374   -31.4355
  180.5000     7.7845     0.0651     0.0983    96.7040     2.4909     8.2501     8.4133   -31.4609
  181.0000     7.7214     0.0679     0.0993    96.6814     2.4863     8.3606     8.4596   -31.3339
  181.5000     7.7044     0.0905     0.1000    96.5058     2.4877     8.4254     8.5532   -31.0534
  182.0000     7.7185     0.0933     0.1021    96.6360     2.4921     8.5276     8.6055   -31.0799
  182.5000     7.7471     0.0916     0.1052    97.5459     2.4790     8.6403     8.6713   -31.2577
  183.0000     7.7916     0.0820     0.1095    98.7313     2.4690     8.6965     8.7885   -31.7500
  183.5000     7.9128     0.0601     0.1132    99.0331     2.4651     8.7515     8.8283   -31.7668
  184.0000     7.9576     0.0238     0.1124    99.9877     2.4581     8.7440     8.8829   -31.7977
  184.5000     7.9555     0.0180     0.1091   101.1098     2.4489     8.7994     8.9360   -31.8231
  185.0000     7.9538     0.0163     0.1043   100.7757     2.4571     8.7933     8.9287   -31.8485
  185.5000     7.9368     0.0161     0.0976    99.6827     2.4752     8.8490     9.0129   -31.8740
  186.0000     7.9351     0.0175     0.0965    99.5127     2.4873     8.8429     9.0712   -32.3567
  186.5000     7.9335     0.0188     0.0987   100.1017     2.4849     8.9353     9.1617   -32.8395
  187.0000     7.9318     0.0170     0.0987   100.3848     2.4809     9.0180     9.3455   -33.0110
  187.5000     7.9455     0.0169     0.0985   100.5151     2.4800     9.0751     9.5357   -32.4330
  188.0000     7.9612     0.0167     0.0979   100.3338     2.4799     9.1325     9.7959   -31.8487
  188.5000     7.9729     0.0150     0.0977    99.6995     2.4851     9.2532     9.9257   -31.7210
  189.0000     7.9708     0.0117     0.0974    98.4536     2.4842     9.4429    10.0592   -31.8995
  189.5000     7.9691     0.0100     0.0969    98.8897     2.4825     9.5694    10.1903   -32.5351
  190.0000     7.9521     0.0114     0.0969   100.0902     2.4824     9.7655    10.2533   -32.3882
  190.5000     7.9658     0.0127     0.0964   101.7495     2.4838     9.8290    10.3188   -31.8297
  191.0000     7.9641     0.0155     0.0964   103.2559     2.4837    10.0288    10.4112   -31.5439
  191.5000     7.9625     0.0169     0.0959   103.0803     2.4851    10.0923    10.5180   -31.2645
  192.0000     7.9608     0.0182     0.0947   101.5286     2.4918    10.2274    10.7320   -31.4487
