~VERSION INFORMATION
 VERS.                2.0:   CWLS LOG ASCII STANDARD - VERSION 2.0
 WRAP.                 NO:   ONE LINE PER DEPTH STEP
~WELL INFORMATION
#MNEM.UNIT      DATA TYPE    INFORMATION
#----------   ------------   ------------------------------
 STRT.F          100.0000:   START DEPTH
 STOP.F         1196.0000:   STOP DEPTH
 STEP.F            0.5000:   STEP LENGTH
 NULL.          -999.2500:   NO VALUE
 COMP. DEPARTMENT OF ENERGY:   COMPANY
 WELL.     NRP ##3 77S-11:   WELL
 FLD .             TEAPOT:   FIELD
 LOC .      S11 T38N R78W:   LOCATION
 CNTY.            NATRONA:   COUNTY
 STAT.            WYOMING:   STATE
 CTRY. UNITED STATES OF AMERICA:   COUNTRY
 SRVC.       Schlumberger:   SERVICE COMPANY
 DATE.        18-AUG-1959:   LOGDATE
 API .       490250632900:   API NUMBER
~CURVE INFORMATION
#MNEM.UNIT       API CODE    CURVE DESCRIPTION
#----------   ------------   ------------------------------
 DEPT.F                  :   
 SPR .MV     05 010 01 00:   SPONTANEOUS POTENTIAL FROM RES.
 ASN .OHMM   05 041 16 00:   AMPLIFIED SHORT NORMAL 16"
 ILD .OHMM   05 120 46 00:   INDUCTION LOG DEEP
 CILD.MMHO   05 110 46 00:   CONDUCTIVITY INDUCTION LOG DEEP
~PARAMETER INFORMATION
#MNEM.UNIT          VALUE    DESCRIPTION
#----------   ------------   ------------------------------
 PD  .                 GL:   PERMANENT DATUM
 EPD .F              5258:   ELEVATION PERMANENT DATUM
 LMF .                 KB:   LOG MEASURED FROM
 DAPD.F                 4:   FEET ABOVE PERMANENT DATUM
 DMF .                 KB:   DRILLING MEASURED FROM
 EKB .F              5262:   KELLING BUSHING
 EGL .F              5258:   GROUND LEVEL
 DATE.            8-18-59:   RUN DATE
 RUN .                  1:   RUN NUMBER
 DD  .F              1200:   DEPTH DRILLER
 DL  .F              1201:   DEPTH LOGGER
 BLI .F              1196:   BOTTOM LOG INTERVAL
 TLI .F               100:   TOP LOG INTERVAL
 CBD .F                17:   CASING BOTTOM DRILLER
 BS  .IN             6.75:   BIT SIZE
 BSD .F              1200:   BIT SIZE AT DEPTH
 DFT . GEL-OIL-PHDS-CAUSTIC:   DRILLING FLUID TYPE
 DFD .               10.8:   DRILLING FLUID DENSITY
 DFV .                 60:   DRILLING FLUID VISCOSITY
 DFPH.                  9:   DRILLING FLUID PH
 DFL .                  4:   DRILLING FLUID LOSS
 RMS .OHMM            1.8:   RESISTIVITY MUD SAMPLE
 MST .F                90:   MUD SAMPLE TEMPERATURE
 RMF .OHMM            1.5:   RESISTIVITY MUD FILTRATE SAMPLE
 MFST.F                90:   MUD FILTRATE SAMPLE TEMPERATURE
 RMC .OHMM              2:   RESISTIVITY MUD CAKE
 MCST.F                90:   MUD CAKE SAMPLE TEMPERATURE
 TCS .HRS               1:   TIME CURCULATED STOPPED
 LUN .               2523:   LOGGING UNIT NUMBER
 LUL .               CSPR:   LOGGING UNIT LOCATION
 ENGI.             KNOBEL:   RECORDING ENGINEER
 WITN.             MARTIN:   WITNESSED BY
 CLNT.            A2DTECH:   CLIENT CODE
 ORIG.     1", 2.5" PRINT:   ORIGIN OF DATA
 UWI .       490250632900:   UNIQUE WELL ID
 DICO. A2D Technologies, Inc.:   DIGITIZING COMPANY
~OTHER INFORMATION
~A   DEPT      SPR          ASN        ILD      CILD  
# ...
  465.0000   -34.4963     6.2648     5.2141   188.6661
  465.5000   -34.5808     6.2955     5.3561   187.0376
  466.0000   -34.6124     6.3494     5.4071   185.4092
  466.5000   -34.6048     6.3689     5.3926   183.5106
  467.0000   -34.5957     6.2817     5.3856   182.5646
  467.5000   -34.6011     6.1185     5.3913   181.4305
  468.0000   -34.6067     6.0192     5.3791   180.2964
  468.5000   -34.6004     6.0854     5.3778   179.1622
  469.0000   -34.5958     6.2605     5.4371   178.0281
  469.5000   -34.6056     6.3920     5.5245   176.8940
  470.0000   -34.6111     6.3952     5.5658   175.7599
  470.5000   -34.5925     6.3166     5.5686   174.6258
  471.0000   -34.5814     6.2468     5.6070   173.4916
  471.5000   -34.6435     6.2248     5.6910   172.3008
  472.0000   -34.8133     6.2406     5.7535   171.1349
  472.5000   -35.0792     6.2884     5.7594   170.0083
  473.0000   -35.4097     6.3672     5.7419   168.9410
  473.5000   -35.7389     6.4386     5.7326   167.4217
  474.0000   -35.9542     6.4284     5.7343   169.4525
  474.5000   -35.9768     6.2857     5.7501   171.4881
  475.0000   -35.8503     6.0363     5.7638   174.9247
  475.5000   -35.6929     5.7652     5.7145   183.1643
  476.0000   -35.5740     5.5322     5.5626   189.3182
  476.5000   -35.4789     5.3046     5.3464   196.1546
  477.0000   -35.3673     5.0127     5.1131   207.9315
  477.5000   -35.2257     4.6947     4.8525   217.2332
  478.0000   -35.0826     4.5175     4.5788   229.2136
  478.5000   -35.0006     4.5979     4.4072   241.4855
  479.0000   -35.0253     4.8615     4.4470   245.9133
  479.5000   -35.1320     5.1546     4.6610   250.5639
  480.0000   -35.2553     5.4264     4.9164   241.8318
  480.5000   -35.3635     5.7048     5.1398   227.8333
  481.0000   -35.4661     5.9631     5.3455   214.3492
  481.5000   -35.5685     6.1349     5.5489   201.1253
  482.0000   -35.6715     6.2290     5.7398   186.8938
  482.5000   -35.7891     6.3198     5.9281   169.8783
  483.0000   -35.9175     6.4406     6.1436   165.1445
  483.5000   -36.0016     6.5657     6.3797   161.0650
  484.0000   -35.9862     6.6792     6.5832   154.5368
  484.5000   -35.8889     6.7911     6.7113   148.4912
  485.0000   -35.7762     6.9030     6.7787   146.1497
  485.5000   -35.6837     7.0139     6.8434   144.7400
  486.0000   -35.5970     7.1365     6.9469   142.0913
  486.5000   -35.4999     7.2700     7.0661   140.2488
  487.0000   -35.4005     7.3715     7.1306   137.4113
  487.5000   -35.3070     7.3888     7.0913   137.4113
  488.0000   -35.2132     7.3085     6.9688   138.7855
  488.5000   -35.1151     7.1525     6.8157   140.9907
  489.0000   -35.0201     6.9516     6.6510   143.1959
  489.5000   -34.9302     6.7348     6.4568   146.2766
  490.0000   -34.8326     6.5212     6.2321   150.7979
  490.5000   -34.7216     6.3071     6.0056   158.2957
  491.0000   -34.6184     6.0811     5.7903   165.7934
  491.5000   -34.5465     5.8499     5.5700   176.4184
  492.0000   -34.4927     5.6165     5.3415   183.2742
  492.5000   -34.4206     5.3508     5.1276   195.0355
  493.0000   -34.3275     5.0282     4.9240   206.7967
  493.5000   -34.2626     4.6960     4.6891   218.5579
  494.0000   -34.2712     4.4545     4.4241   230.3192
  494.5000   -34.3393     4.3563     4.2048   242.0804
  495.0000   -34.4152     4.3633     4.0836   253.5826
  495.5000   -34.4741     4.4125     4.0077   266.1915
  496.0000   -34.5340     4.4915     3.9084   282.6292
  496.5000   -34.6082     4.6270     3.8359   281.3135
  497.0000   -34.6759     4.8249     3.9172   275.8402
  497.5000   -34.7250     5.0490     4.1832   267.8422
  498.0000   -34.7886     5.2431     4.5177   253.8121
  498.5000   -34.8890     5.3688     4.7826   237.8378
  499.0000   -34.9640     5.4343     4.9337   224.8216
  499.5000   -34.9163     5.4860     5.0002   207.9751
  500.0000   -34.7361     5.5511     5.0265   188.1011
  500.5000   -34.5146     5.6043     5.0678   185.7059
  501.0000   -34.3263     5.6084     5.1759   180.7650
  501.5000   -34.1626     5.5637     5.3230   180.2124
  502.0000   -33.9917     5.4850     5.3889   182.3977
  502.5000   -33.8131     5.3702     5.2961   182.5546
  503.0000   -33.6320     5.2307     5.1094   183.2753
  503.5000   -33.4443     5.1014     4.9361   191.1656
  504.0000   -33.2771     4.9736     4.7779   195.5533
  504.5000   -33.1880     4.7758     4.5678   200.1028
  505.0000   -33.1954     4.4632     4.3029   239.4451
  505.5000   -33.2494     4.0822     4.0385   273.1739
  506.0000   -33.2935     3.7264     3.7961   294.8587
  506.5000   -33.3207     3.4794     3.5643   320.7291
  507.0000   -33.3516     3.3804     3.3397   341.6763
  507.5000   -33.3912     3.3809     3.1138   368.5571
  508.0000   -33.4290     3.3778     2.8996   388.2581
  508.5000   -33.4624     3.3739     2.8264   416.5170
  509.0000   -33.4964     3.5432     3.0664   429.2846
  509.5000   -33.5328     4.0072     3.5870   433.0071
  510.0000   -33.5690     4.5998     4.1178   425.3787
  510.5000   -33.6040     4.9939     4.4529   342.7482
  511.0000   -33.6390     5.0531     4.6482   271.7258
  511.5000   -33.6748     4.9430     4.8368   211.8794
  512.0000   -33.7104     4.8973     4.9994   195.9220
  512.5000   -33.7454     4.9788     5.0410   199.9113
  513.0000   -33.7807     5.0871     4.9801   203.4043
  513.5000   -33.8165     5.1223     4.9232   206.8972
  514.0000   -33.8517     5.0776     4.9155   210.3901
  514.5000   -33.8839     5.0005     4.9072   213.6525
  515.0000   -33.9119     4.9175     4.8422   212.7216
  515.5000   -33.9369     4.8243     4.7168   211.8794
  516.0000   -33.9616     4.7201     4.5664   216.0993
  516.5000   -33.9872     4.6084     4.4230   220.1743
  517.0000   -34.0128     4.4768     4.2859   224.2908
  517.5000   -34.0376     4.3145     4.1389   239.3554
  518.0000   -34.0624     4.1382     3.9889   254.5745
  518.5000   -34.0883     3.9702     3.8563   269.7936
  519.0000   -34.1143     3.8130     3.7259   285.0127
  519.5000   -34.1384     3.6855     3.5609   300.2318
  520.0000   -34.1622     3.6411     3.3919   315.4509
  520.5000   -34.1898     3.7069     3.3280   332.4468
  521.0000   -34.2184     3.8498     3.4424   336.3032
  521.5000   -34.2369     4.0510     3.6874   341.3121
  522.0000   -34.2377     4.3403     3.9551   331.6312
  522.5000   -34.2259     4.6996     4.1834   318.2624
  523.0000   -34.2130     5.0107     4.3874   292.7704
  523.5000   -34.2038     5.1877     4.6155   261.7708
  524.0000   -34.1950     5.2871     4.8848   230.7713
  524.5000   -34.1845     5.4047     5.1411   192.3759
  525.0000   -34.1736     5.5256     5.2915   188.3865
  525.5000   -34.1637     5.5652     5.2946   181.7376
  526.0000   -34.1540     5.5034     5.1970   185.1418
  526.5000   -34.1438     5.3824     5.0660   189.7991
  527.0000   -34.1335     5.2239     4.9220   195.9220
  527.5000   -34.1234     5.0272     4.7530   210.1064
  528.0000   -34.1134     4.8097     4.5626   223.4802
  528.5000   -34.1033     4.5780     4.3779   243.4397
  529.0000   -34.0932     4.3072     4.2183   263.3992
  529.5000   -34.0831     4.0163     4.0629   283.3587
  530.0000   -34.0730     3.8018     3.8684   303.3181
  530.5000   -34.0629     3.7283     3.6471   323.2776
  531.0000   -34.0528     3.7559     3.5016   351.9503
  531.5000   -34.0427     3.8337     3.5278   348.5062
  532.0000   -34.0326     3.9844     3.6980   339.5390
  532.5000   -34.0225     4.2180     3.8989   324.6454
  533.0000   -34.0124     4.4536     4.0715   296.7021
  533.5000   -34.0023     4.6096     4.2374   268.7589
  534.0000   -33.9922     4.7087     4.4131   240.8156
  534.5000   -33.9821     4.8165     4.5832   226.0638
  535.0000   -33.9723     4.9443     4.7561   217.0656
  535.5000   -33.9624     5.0699     4.9515   213.6525
  536.0000   -33.9519     5.1836     5.1214   210.5053
  536.5000   -33.9416     5.2605     5.1684   208.3223
  537.0000   -33.9326     5.2461     5.0664   206.1392
  537.5000   -33.9233     5.1233     4.8989   204.7872
