~VERSION INFORMATION
 VERS.                2.0:   CWLS LOG ASCII STANDARD - VERSION 2.0
 WRAP.                 NO:   ONE LINE PER DEPTH STEP
~WELL INFORMATION
#MNEM.UNIT      DATA TYPE    INFORMATION
#----------   ------------   ------------------------------
 STRT.F           80.0000:   START DEPTH
 STOP.F          814.0000:   STOP DEPTH
 STEP.F            0.5000:   STEP LENGTH
 NULL.          -999.2500:   NO VALUE
 COMP.          U.S. NAVY:   COMPANY
 WELL. RES 3 TEAPOT DOM #17-S-35:   WELL
 FLD .             TEAPOT:   FIELD
 LOC .      S35 T39N R78W:   LOCATION
 CNTY.            NATRONA:   COUNTY
 STAT.            WYOMING:   STATE
 CTRY. UNITED STATES OF AMERICA:   COUNTRY
 SRVC. Schlumberger Well Surveying Corp:   SERVICE COMPANY
 DATE.        20-JUL-1952:   LOGDATE
 API .       490250650200:   API NUMBER
~CURVE INFORMATION
#MNEM.UNIT       API CODE    CURVE DESCRIPTION
#----------   ------------   ------------------------------
 DEPT.F                  :   
 SPR .MV     05 010 01 00:   SPONTANEOUS POTENTIAL FROM RES.
 ILD .OHMM   05 120 46 00:   INDUCTION LOG DEEP
 ASN .OHMM   05 041 16 00:   AMPLIFIED SHORT NORMAL 16"
 CILD.MMHO   05 110 46 00:   CONDUCTIVITY INDUCTION LOG DEEP
 GR  .GAPI   30 310 01 00:   GAMMA RAY
~PARAMETER INFORMATION
#MNEM.UNIT          VALUE    DESCRIPTION
#----------   ------------   ------------------------------
 PD  .                 KB:   PERMANENT DATUM
 LMF .                 KB:   LOG MEASURED FROM
 DMF .                 KB:   DRILLING MEASURED FROM
 EKB .F              5101:   KELLING BUSHING
 EGL .F              5096:   GROUND LEVEL
 DATE.        20-JUL-1962:   RUN DATE
 RUN .                  1:   RUN NUMBER
 DD  .F               815:   DEPTH DRILLER
 DL  .F               815:   DEPTH LOGGER
 BLI .F               814:   BOTTOM LOG INTERVAL
 TLI .F                80:   TOP LOG INTERVAL
 BS  .IN             6.75:   BIT SIZE
 BSD .F               815:   BIT SIZE AT DEPTH
 DFT .       OIL EMULSION:   DRILLING FLUID TYPE
 DFD .               10.0:   DRILLING FLUID DENSITY
 DFV .                 45:   DRILLING FLUID VISCOSITY
 DFL .                2.7:   DRILLING FLUID LOSS
 RMS .OHMM           3.64:   RESISTIVITY MUD SAMPLE
 MST .F                89:   MUD SAMPLE TEMPERATURE
 RMF .OHMM           3.01:   RESISTIVITY MUD FILTRATE SAMPLE
 MFST.F                89:   MUD FILTRATE SAMPLE TEMPERATURE
 RMC .OHMM           3.41:   RESISTIVITY MUD CAKE
 MCST.F                89:   MUD CAKE SAMPLE TEMPERATURE
 RMB .OHMM           3.41:   RESISTIVITY MUD AT BHT
 BHT .F                89:   BOTTOM HOLE TEMPERATURE
 TCS .HRS              .5:   TIME CURCULATED STOPPED
 LUN .               2503:   LOGGING UNIT NUMBER
 LUL .               CSPR:   LOGGING UNIT LOCATION
 ENGI.             DANNER:   RECORDING ENGINEER
 WITN.          JORGENSEN:   WITNESSED BY
 CLNT.            A2DTECH:   CLIENT CODE
 ORIG.           5" PRINT:   ORIGIN OF DATA
 UWI .       490250650200:   UNIQUE WELL ID
 DICO. A2D Technologies, Inc.:   DIGITIZING COMPANY
~OTHER INFORMATION
~A   DEPT      SPR          ILD        ASN      CILD        GR   
# ...
  202.0000   -50.8825     4.7729     4.3466   237.8989  -999.2500
  202.5000   -51.3581     4.6102     4.2222   253.6132  -999.2500
  203.0000   -51.8337     4.5261     4.1242   268.5425  -999.2500
  203.5000   -52.1524     4.4420     3.9966   278.7622  -999.2500
  204.0000   -52.4710     4.3579     3.9348   281.1327  -999.2500
  204.5000   -52.6327     4.1953     3.8735   277.2237  -999.2500
  205.0000   -52.4803     4.1112     3.8724   275.6656  -999.2500
  205.5000   -52.3280     4.1057     3.8084   286.6742  -999.2500
  206.0000   -52.0021     4.0216     3.6816   294.5392  -999.2500
  206.5000   -51.5300     3.9376     3.5704   302.4042  -999.2500
  207.0000   -51.2151     3.8535     3.6482   307.1294  -999.2500
  207.5000   -51.0908     3.6908     3.6154   310.2848  -999.2500
  208.0000   -51.2536     3.6067     3.4885   316.5799  -999.2500
  208.5000   -51.5723     3.5227     3.3302   331.5092  -999.2500
  209.0000   -51.5769     3.2814     3.2190   349.5783  -999.2500
  209.5000   -51.7386     3.0400     3.0764   395.9048  -999.2500
  210.0000   -51.7432     2.7201     2.9338   413.9738  -999.2500
  210.5000   -51.7479     2.4788     2.8856   426.5484  -999.2500
  211.0000   -51.5944     2.3947     2.9002   432.0546  -999.2500
  211.5000   -51.4421     2.4756     3.0092   406.1715  -999.2500
  212.0000   -51.2910     2.7086     3.1496   388.1339  -999.2500
  212.5000   -51.1386     2.9416     3.2428   370.0961  -999.2500
  213.0000   -51.1433     3.2363     3.1317   348.1338  -999.2500
  213.5000   -51.7759     3.6240     3.3035   326.9564  -999.2500
  214.0000   -52.0945     4.0902     3.7269   301.0694  -999.2500
  214.5000   -51.7852     4.3992     3.9303   272.0427  -999.2500
  215.0000   -51.1620     4.6310     4.0549   249.2954  -999.2500
  215.5000   -51.0085     4.7827     4.0856   238.3221  -999.2500
  216.0000   -51.0143     4.7759     4.0528   231.2694  -999.2500
  216.5000   -51.0190     4.6918     3.9888   239.9233  -999.2500
  217.0000   -51.0236     4.4505     3.9405   247.7882  -999.2500
  217.5000   -50.8712     4.1306     3.8608   258.0080  -999.2500
  218.0000   -50.8760     3.8107     3.7654   269.0127  -999.2500
  218.5000   -50.7237     3.5694     3.6857   285.5118  -999.2500
  219.0000   -50.7284     3.3281     3.5745   309.0754  -999.2500
  219.5000   -50.7331     3.0868     3.4633   336.5636  -999.2500
  220.0000   -50.5807     2.8455     3.2893   375.8257  -999.2500
  220.5000   -50.5856     2.6828     3.1310   419.7975  -999.2500
  221.0000   -50.4330     2.5201     2.9884   437.0816  -999.2500
  221.5000   -50.4389     2.3574     2.8928   451.2260  -999.2500
  222.0000   -50.2854     2.3519     2.8918   453.5925  -999.2500
  222.5000   -50.2912     2.5037     3.1132   419.0752  -999.2500
  223.0000   -50.2959     2.8127     3.3613   402.6074  -999.2500
  223.5000   -50.6145     3.1217     3.2628   387.7094  -999.2500
  224.0000   -51.0902     3.5093     3.1862   376.7361  -999.2500
  224.5000   -51.7228     3.8184     3.4480   339.0751  -999.2500
  225.0000   -52.3554     4.1274     4.1746   298.2744  -999.2500
  225.5000   -52.8310     4.5150     4.4841   270.8176  -999.2500
  226.0000   -52.8357     4.7506     4.7067   244.9306  -999.2500
  226.5000   -52.3694     5.0544     4.8628   208.8395  -999.2500
  227.0000   -51.7461     5.2062     5.0033   192.3717  -999.2500
  227.5000   -51.2786     5.2793     5.1279   183.7531  -999.2500
  228.0000   -50.9705     5.4311     5.2841   185.3387  -999.2500
  228.5000   -50.9752     5.6601     5.3931   186.9242  -999.2500
  229.0000   -50.8217     5.8133     5.5806   180.6604  -999.2500
  229.5000   -50.8275     6.0436     5.7525   174.3967  -999.2500
  230.0000   -50.8322     6.1954     5.9086   168.9178  -999.2500
  230.5000   -50.8368     6.4245     6.1434   164.2239  -999.2500
  231.0000   -50.9985     6.5762     6.3624   158.7451  -999.2500
  231.5000   -51.0032     6.6507     6.5657   154.0512  -999.2500
  232.0000   -51.3218     6.7239     6.6904   150.0683  -999.2500
  232.5000   -51.4836     6.8743     6.7679   147.8018  -999.2500
  233.0000   -51.6452     6.8689     6.7829   146.2476  -999.2500
  233.5000   -51.8069     6.9434     6.7975   144.6934  -999.2500
  234.0000   -51.8116     6.9366     6.7961   144.7096  -999.2500
  234.5000   -52.2882     6.9311     6.7636   145.5102  -999.2500
  235.0000   -52.2929     6.9256     6.7153   147.0957  -999.2500
  235.5000   -51.9836     6.9202     6.7142   148.6814  -999.2500
  236.0000   -51.5173     6.9147     6.6974   149.5970  -999.2500
  236.5000   -51.0510     6.9093     6.6963   151.0675  -999.2500
  237.0000   -50.7417     6.9038     6.7112   152.7789  -999.2500
  237.5000   -50.7464     6.8984     6.7570   154.3695  -999.2500
  238.0000   -50.7510     6.8143     6.7719   156.6091  -999.2500
  238.5000   -50.7557     6.8088     6.6605   158.1947  -999.2500
  239.0000   -51.0743     6.8034     6.5808   159.9268  -999.2500
  239.5000   -51.5500     6.7979     6.5168   161.3658  -999.2500
  240.0000   -52.0256     6.7138     6.5000   162.1695  -999.2500
  240.5000   -52.5012     6.7084     6.5146   161.3964  -999.2500
  241.0000   -52.9768     6.7028     6.5764   159.8461  -999.2500
  241.5000   -52.9815     6.7838     6.7954   157.5070  -999.2500
  242.0000   -52.9862     6.9279     7.0145   154.3829  -999.2500
  242.5000   -52.9908     7.0925     7.1863   150.4740  -999.2500
  243.0000   -52.6813     7.3087     7.2482   144.9951  -999.2500
  243.5000   -51.9013     7.4618     7.2790   138.7314  -999.2500
  244.0000   -50.6500     7.6908     7.3253   131.6827  -999.2500
  244.5000   -51.1257     7.8426     7.4674   126.2038  -999.2500
  245.0000   -51.9153     7.9957     7.5928   122.2949  -999.2500
  245.5000   -52.3909     8.0689     7.6867   118.3859  -999.2500
  246.0000   -52.3956     8.1421     7.7627   115.2618  -999.2500
  246.5000   -52.4003     8.1352     7.6281   113.7037  -999.2500
  247.0000   -52.4050     8.1298     7.4787   112.9345  -999.2500
  247.5000   -52.2526     8.1243     7.2065   113.7390  -999.2500
  248.0000   -52.2281     7.8044     6.9067   119.2492  -999.2500
  248.5000   -51.7921     7.0914     6.5440   129.4689  -999.2500
  249.0000   -51.4828     6.2212     6.1184   149.1078  -999.2500
  249.5000   -51.3293     5.3509     5.6927   186.0152  -999.2500
  250.0000   -51.0200     4.4146     5.2076   222.5923  -999.2500
  250.5000   -51.3458     3.3749     4.4854   357.1614  -999.2500
  251.0000   -51.5041     2.5840     3.7254   419.1867  -999.2500
  251.5000   -51.3532     2.1862     3.4262   446.5977  -999.2500
  252.0000   -51.0455     1.9319     3.2755   487.0883  -999.2500
  252.5000   -50.8948     1.8632     3.1085   500.0000  -999.2500
  253.0000   -50.7429     1.8585     3.0457   500.0000  -999.2500
  253.5000   -50.5923     2.0171     3.0494   498.3389  -999.2500
  254.0000   -50.6002     2.4811     3.2389   403.5794  -999.2500
  254.5000   -50.6065     3.1029     3.5337   343.9434  -999.2500
  255.0000   -50.6129     4.1195     3.8947   303.1397  -999.2500
  255.5000   -50.6192     5.2939     4.6489   248.8229  -999.2500
  256.0000   -50.9395     6.7829     6.4409   164.6354  -999.2500
  256.5000   -51.1029     7.8001     7.9184   126.1062  -999.2500
  257.0000   -51.1092     8.7388     8.5468   102.9713  -999.2500
  257.5000   -51.4295     9.3629     9.1910    85.7929  -999.2500
  258.0000   -51.9068     9.7513     9.5836    77.1746  -999.2500
  258.5000   -52.0702     9.9049     9.7718    74.0507  -999.2500
  259.0000   -51.9179     9.9788     9.8029    78.7762  -999.2500
  259.5000   -51.9258     9.2653     9.8023    85.8564  -999.2500
  260.0000   -51.9624     8.5530     9.7704   103.9257  -999.2500
  260.5000   -52.0942     7.9193     9.5341   125.1347  -999.2500
  261.0000   -52.4145     7.0498     8.6374   146.3437  -999.2500
  261.5000   -52.7473     6.1802     7.1589   170.6924  -999.2500
  262.0000   -53.0550     5.6251     6.3408   176.9863  -999.2500
  262.5000   -52.7473     5.4631     6.2460   177.7872  -999.2500
