~VERSION INFORMATION
 VERS.                2.0:   CWLS LOG ASCII STANDARD - VERSION 2.0
 WRAP.                 NO:   ONE LINE PER DEPTH STEP
~WELL INFORMATION
#MNEM.UNIT      DATA TYPE    INFORMATION
#----------   ------------   ------------------------------
 STRT.F           38.0000:   START DEPTH
 STOP.F          818.0000:   STOP DEPTH
 STEP.F            0.5000:   STEP LENGTH
 NULL.          -999.2500:   NO VALUE
 COMP. FENIX & SCISSON INC:   COMPANY
 WELL. NAVAL PETROLEUM RESERVE 3 SX-1 #32-14:   WELL
 FLD .             TEAPOT:   FIELD
 LOC .      S14 T38N R78W:   LOCATION
 CNTY.            NATRONA:   COUNTY
 STAT.            WYOMING:   STATE
 CTRY. UNITED STATES OF AMERICA:   COUNTRY
 SRVC.            Unknown:   SERVICE COMPANY
 DATE.        03-MAY-1978:   LOGDATE
 API .       490251061900:   API NUMBER
~CURVE INFORMATION
#MNEM.UNIT       API CODE    CURVE DESCRIPTION
#----------   ------------   ------------------------------
 DEPT.F                  :   
 SPR .MV     05 010 01 00:   SPONTANEOUS POTENTIAL FROM RES.
 ILD .OHMM   05 120 46 00:   INDUCTION LOG DEEP
 SN  .OHMM   05 040 16 00:   SHORT NORMAL 16"
 CALD.IN     45 280 60 00:   CALIPER
 GRD .GAPI   45 310 01 00:   GAMMA RAY FROM DENSITY LOG
 RHOB.G/C3   45 350 01 00:   BULK DENSITY
 DPHI.DEC    45 890 12 00:   DENSITY POROSITY SANDSTONE
 CORR.G/C3   45 356 01 00:   DENSITY CORRECTION
~PARAMETER INFORMATION
#MNEM.UNIT          VALUE    DESCRIPTION
#----------   ------------   ------------------------------
 PD  .                 GL:   PERMANENT DATUM
 EPD .F              5209:   ELEVATION PERMANENT DATUM
 LMF .                 KB:   LOG MEASURED FROM
 DAPD.F                 4:   FEET ABOVE PERMANENT DATUM
 DMF .                 KB:   DRILLING MEASURED FROM
 EKB .F              5213:   KELLING BUSHING
 EGL .F              5209:   GROUND LEVEL
 DATE.           5-3-1978:   RUN DATE
 RUN .                  1:   RUN NUMBER
 DD  .F               806:   DEPTH DRILLER
 DL  .F               824:   DEPTH LOGGER
 BLI .F               818:   BOTTOM LOG INTERVAL
 TLI .F                50:   TOP LOG INTERVAL
 CS  .IN            8.625:   CASING SIZE
 CBD .F                40:   CASING BOTTOM DRILLER
 BS  .IN            7.875:   BIT SIZE
 BSD .F               806:   BIT SIZE AT DEPTH
 DFT .                KCL:   DRILLING FLUID TYPE
 DFD .                8.6:   DRILLING FLUID DENSITY
 DFV .                 34:   DRILLING FLUID VISCOSITY
 DFPH.                  9:   DRILLING FLUID PH
 DFL .               16.4:   DRILLING FLUID LOSS
 MSS .           FLOWLINE:   MUD SAMPLE SOURCE
 RMS .OHMM            .75:   RESISTIVITY MUD SAMPLE
 MST .F                52:   MUD SAMPLE TEMPERATURE
 RMF .OHMM            .65:   RESISTIVITY MUD FILTRATE SAMPLE
 MFST.F                60:   MUD FILTRATE SAMPLE TEMPERATURE
 RMC .OHMM            1.2:   RESISTIVITY MUD CAKE
 MCST.F                62:   MUD CAKE SAMPLE TEMPERATURE
 MFSS.               MEAS:   MUD FILTRATE SAMPLE SOURCE
 RMB .OHMM            .54:   RESISTIVITY MUD AT BHT
 BHT .F                72:   BOTTOM HOLE TEMPERATURE
 TCS .HRS               1:   TIME CURCULATED STOPPED
 MRT .F                72:   MAXIMUM RECORDED TEMPERATURE
 LUN .               2958:   LOGGING UNIT NUMBER
 LUL .               CASP:   LOGGING UNIT LOCATION
 ENGI.             MILLER:   RECORDING ENGINEER
 WITN.           MCGINLEY:   WITNESSED BY
 CLNT.            A2DTECH:   CLIENT CODE
 ORIG.           5" PRINT:   ORIGIN OF DATA
 UWI .       490251061900:   UNIQUE WELL ID
 DICO. A2D Technologies, Inc.:   DIGITIZING COMPANY
~OTHER INFORMATION
~A   DEPT      SPR        ILD         SN         CALD      GRD       RHOB       DPHI       CORR   
# ...
  767.0000   -35.8486    10.9799    10.5184     8.3943    67.0952     2.5275     0.1034     0.0389
  767.5000   -35.9105    10.8900    10.4478     8.3343    67.6866     2.5272     0.1041     0.0365
  768.0000   -35.9247    10.8009    10.3434     8.2717    70.8120     2.5253     0.1068     0.0341
  768.5000   -35.7856    10.7125    10.2397     8.3146    72.0798     2.5174     0.1112     0.0318
  769.0000   -35.6527    10.6248    10.1371     8.3842    71.9807     2.5146     0.1134     0.0292
  769.5000   -35.5197    10.5446    10.0356     8.4545    73.8583     2.5117     0.1155     0.0305
  770.0000   -35.3837    10.3398     9.9351     8.5190    80.1543     2.5090     0.1141     0.0319
  770.5000   -35.3586    10.1535     9.8356     8.5204    82.9748     2.5107     0.1120     0.0338
  771.0000   -35.3567     9.9706     9.7371     8.5157    82.3430     2.5102     0.1116     0.0357
  771.5000   -35.4770     9.7909     9.6396     8.4768    78.5951     2.5109     0.1130     0.0375
  772.0000   -35.6602     9.6145     9.4456     8.4373    77.0863     2.5117     0.1140     0.0394
  772.5000   -35.7572     9.4413     9.2263     8.4077    82.7978     2.5103     0.1140     0.0412
  773.0000   -35.7570     9.4172     9.1665     8.3846    89.6634     2.5096     0.1109     0.0417
  773.5000   -35.7571     9.3874     9.1378     8.3614    94.7685     2.5220     0.1052     0.0376
  774.0000   -35.7570     9.3576     9.1093     8.3449    96.8257     2.5252     0.1055     0.0336
  774.5000   -35.7570     9.3280     9.0808     8.4354   101.9637     2.5220     0.1137     0.0296
  775.0000   -35.7570     9.2984     9.0524     8.5004   106.8976     2.5138     0.1188     0.0254
  775.5000   -35.7567     9.2689     9.0241     8.4464   109.3977     2.5039     0.1207     0.0251
  776.0000   -35.7548     9.2396     8.9959     8.2403   105.7638     2.4969     0.1191     0.0274
  776.5000   -35.8317     9.2103     8.9677     8.2443   100.6661     2.4983     0.1199     0.0299
  777.0000   -35.9202     9.1811     8.9397     8.2818    99.4662     2.5001     0.1165     0.0343
  777.5000   -36.0088     9.1520     8.9118     8.3208    97.9224     2.5055     0.1121     0.0386
  778.0000   -36.0975     9.1230     8.8839     8.3599    96.7371     2.5167     0.1093     0.0429
  778.5000   -36.2322     9.0942     8.8561     8.3990    96.5716     2.5253     0.1052     0.0443
  779.0000   -36.4593     9.0655     8.8284     8.4385    96.7946     2.5183     0.1107     0.0444
  779.5000   -36.7536     9.0366     8.8008     8.4765    97.4330     2.5151     0.1120     0.0467
  780.0000   -37.0908     8.9652     8.7706     8.3579    98.0786     2.5219     0.1020     0.0548
  780.5000   -37.3603     8.7935     8.5989     8.3531    97.9240     2.5260     0.1064     0.0538
  781.0000   -37.0645     8.6250     8.4125     8.3436    98.5918     2.5198     0.1021     0.0540
  781.5000   -36.7304     8.4534     8.2230     8.3339   101.0928     2.5320     0.0944     0.0566
  782.0000   -36.6620     8.4283     8.2024     8.3239   101.2084     2.5387     0.0944     0.0513
  782.5000   -36.5909     8.3843     8.1810     8.3311   101.1033     2.5281     0.1124     0.0320
  783.0000   -36.5201     8.3408     8.1597     8.3467   101.0026     2.5116     0.1206     0.0324
  783.5000   -36.4490     8.2975     8.1476     8.3562   100.8873     2.4969     0.1215     0.0323
  784.0000   -36.3780     8.2538     8.0422     8.3105    99.2620     2.4977     0.1187     0.0353
  784.5000   -36.3069     8.1944     7.9421     8.3186    95.8366     2.5010     0.1149     0.0393
  785.0000   -36.2343     8.0861     7.8433     8.3424    96.1205     2.5064     0.1098     0.0433
  785.5000   -36.1544     7.9806     7.7456     8.3664   100.3674     2.5157     0.1044     0.0472
  786.0000   -36.5460     7.8764     7.6492     8.3755   104.6730     2.5232     0.1048     0.0487
  786.5000   -36.9643     7.7734     7.5466     8.3491   105.4540     2.5215     0.1126     0.0405
  787.0000   -37.1380     7.6257     7.4061     8.3506   104.5985     2.5098     0.1202     0.0403
  787.5000   -37.3419     7.4051     7.2682     8.3950   103.3183     2.4981     0.1278     0.0404
  788.0000   -37.5433     7.2951     7.1330     8.4381   103.5169     2.4864     0.1311     0.0404
  788.5000   -37.5273     7.3343     7.0254     8.4218   103.8532     2.4811     0.1215     0.0404
  789.0000   -37.4953     7.3972     7.3416     8.4010   102.6161     2.4911     0.1126     0.0404
  789.5000   -37.4641     7.4788     7.7108     8.3804   100.7439     2.5089     0.1049     0.0404
  790.0000   -37.4334     7.6565     8.2882     8.3610    98.0283     2.5233     0.1054     0.0404
  790.5000   -37.4039     8.2079     8.8634     8.3604    93.9958     2.5229     0.1037     0.0404
  791.0000   -37.3737     9.0163     9.3547     8.3605    89.9667     2.5260     0.1020     0.0404
  791.5000   -37.2626     9.1840     9.4737     8.3606    87.1426     2.5306     0.1022     0.0404
  792.0000   -36.5840     9.1821     9.5172     8.3606    89.6671     2.5325     0.1026     0.0404
  792.5000   -36.5489     9.1770     9.5599     8.3606    98.3910     2.5292     0.1028     0.0404
  793.0000   -36.5528     9.1719     9.6034     8.3605   102.4215     2.5259     0.1026     0.0404
  793.5000   -36.5538     9.1669     9.6471     8.3605   101.8151     2.5223     0.1020     0.0404
  794.0000   -36.5538     9.1618     9.7058     8.3608    95.1533     2.5328     0.0997     0.0389
  794.5000   -36.5538     9.1567     9.6906     8.3778    87.6767     2.5398     0.1007     0.0353
  795.0000   -36.5538     9.1517     9.6678     8.4188    84.7372     2.5277     0.1048     0.0316
  795.5000   -36.5537     9.1466     9.6452     8.4591    84.7019     2.5184     0.1105     0.0306
  796.0000   -36.5696     9.1416     9.6226     8.4497    86.0939     2.5071     0.1128     0.0309
  796.5000   -36.6004     9.1365     9.6000     8.4263    89.3778     2.5112     0.1102     0.0312
  797.0000   -36.6313     9.1315     9.5774     8.4367    93.0937     2.5140     0.1120     0.0315
  797.5000   -36.6621     9.1264     9.5550     8.4471    96.9346     2.5138     0.1111     0.0318
  798.0000   -36.6930     9.1214     9.5326     8.4571    98.1342     2.5123     0.1115     0.0321
  798.5000   -36.7240     9.1163     9.5102     8.4784    93.6847     2.5110     0.1136     0.0323
  799.0000   -36.7525     9.1115     9.4879     8.4503    89.6599     2.5110     0.1108     0.0300
  799.5000   -36.7525     9.1063     9.4656     8.4212    87.7225     2.5115     0.1142     0.0275
  800.0000   -36.7519     9.1012     9.4434     8.3918    89.2260     2.5119     0.1247     0.0250
  800.5000   -36.7898     9.0001     9.3420     8.3624    91.9659     2.5004     0.1259     0.0249
  801.0000   -37.1007     8.8074     9.2331     8.3373    91.1318     2.4899     0.1215     0.0289
  801.5000   -37.4164     8.6114     9.1256     8.3060    88.6980     2.4945     0.1142     0.0330
  802.0000   -37.5468     8.4271     8.9168     8.2741    86.5212     2.5026     0.1160     0.0365
  802.5000   -37.5121     8.2400     8.6811     8.2614    86.3052     2.5071     0.1145     0.0363
  803.0000   -37.4727     8.0566     8.4534     8.2610    86.4306     2.5058     0.1159     0.0355
  803.5000   -37.4332     7.8773     8.1131     8.2444    87.1465     2.5013     0.1203     0.0347
  804.0000   -37.3924     7.7096     7.7890     8.1572    93.5562     2.4966     0.1221     0.0340
  804.5000   -37.3424     7.3075     7.4779     8.0734    94.3571     2.4934     0.1243     0.0332
  805.0000   -37.7707     6.9417     7.1792     8.0175    93.6962     2.4907     0.1284     0.0324
  805.5000   -38.2482     6.5943     6.8325     8.0474    87.3106     2.4869     0.1362     0.0317
  806.0000   -38.7304     6.2378     6.4436     8.1383    80.9603     2.4639     0.1515     0.0309
  806.5000   -38.8747     5.5419     6.0235     8.2285    80.7077     2.4415     0.1674     0.0301
  807.0000   -38.7591     4.8716     5.3123     8.3170    85.1645     2.4180     0.1838     0.0279
