~VERSION INFORMATION
 VERS.                2.0:   CWLS LOG ASCII STANDARD - VERSION 2.0
 WRAP.                 NO:   ONE LINE PER DEPTH STEP
~WELL INFORMATION
#MNEM.UNIT      DATA TYPE    INFORMATION
#----------   ------------   ------------------------------
 STRT.F            2.0000:   START DEPTH
 STOP.F          482.0000:   STOP DEPTH
 STEP.F            0.5000:   STEP LENGTH
 NULL.          -999.2500:   NO VALUE
 COMP. LAWRENCE/ALLISON INC:   COMPANY
 WELL.  NPR 3 #67-65-SX-3:   WELL
 FLD .             TEAPOT:   FIELD
 LOC .       S3 T38N R78W:   LOCATION
 CNTY.            NATRONA:   COUNTY
 STAT.            WYOMING:   STATE
 CTRY. UNITED STATES OF AMERICA:   COUNTRY
 SRVC.           Gearhart:   SERVICE COMPANY
 DATE.        13-JUN-1988:   LOGDATE
 API .       490251121900:   API NUMBER
~CURVE INFORMATION
#MNEM.UNIT       API CODE    CURVE DESCRIPTION
#----------   ------------   ------------------------------
 DEPT.F                  :   
 GRR .GAPI   07 310 01 00:   GAMMA RAY FROM RES. LOG.
 ILD .OHMM   07 120 46 00:   INDUCTION LOG DEEP
 ILM .OHMM   07 120 44 00:   INDUCTION LOG MEDIUM
~PARAMETER INFORMATION
#MNEM.UNIT          VALUE    DESCRIPTION
#----------   ------------   ------------------------------
 PD  .                 GL:   PERMANENT DATUM
 EPD .F              5172:   ELEVATION PERMANENT DATUM
 LMF .                 KB:   LOG MEASURED FROM
 DAPD.F                 5:   FEET ABOVE PERMANENT DATUM
 DMF .                 KB:   DRILLING MEASURED FROM
 EKB .F              5177:   KELLING BUSHING
 EGL .F              5172:   GROUND LEVEL
 DATE.            6-13-88:   RUN DATE
 RUN .                  1:   RUN NUMBER
 DD  .F               490:   DEPTH DRILLER
 DL  .F               490:   DEPTH LOGGER
 BLI .F             481.5:   BOTTOM LOG INTERVAL
 TLI .F                40:   TOP LOG INTERVAL
 CS  .IN            8.625:   CASING SIZE
 CBD .F                40:   CASING BOTTOM DRILLER
 CBL .F                40:   CASING BOTTOM LOGGER
 BS  .IN            7.875:   BIT SIZE
 BSD .F               490:   BIT SIZE AT DEPTH
 DFT .                AIR:   DRILLING FLUID TYPE
 TLAB.HRS            2345:   TIME LOGGER AT BOTTOM
 MRT .F                70:   MAXIMUM RECORDED TEMPERATURE
 LUN .               7597:   LOGGING UNIT NUMBER
 LUL .           GILLETTE:   LOGGING UNIT LOCATION
 ENGI.          HUCKFELDT:   RECORDING ENGINEER
 WITN.             STRONG:   WITNESSED BY
 CLNT.            A2DTECH:   CLIENT CODE
 ORIG.       2", 5" PRINT:   ORIGIN OF DATA
 UWI .       490251121900:   UNIQUE WELL ID
 DICO. A2D Technologies, Inc.:   DIGITIZING COMPANY
~OTHER INFORMATION
~A    DEPT      GRR       ILD        ILM   
# ...
   93.0000   123.7076     9.1168     9.5829
   93.5000   123.2847     9.0952     9.7422
   94.0000   121.8453     9.0741     9.9359
   94.5000   120.3852     9.0575     9.8986
   95.0000   120.1919     9.4045     9.8525
   95.5000   120.0282     9.7018     9.8066
   96.0000   119.2865    10.0086     9.7535
   96.5000   117.9371    10.3251     9.8707
   97.0000   117.4793    10.6516    10.0126
   97.5000   117.0409    10.9884    10.1565
   98.0000   116.3816    11.3122    10.3024
   98.5000   114.9215    11.4629    10.4505
   99.0000   113.9535    11.6913    10.6007
   99.5000   114.2396    11.9243    10.7530
  100.0000   114.4952    12.1620    11.0159
  100.5000   114.5692    12.4044    11.4611
  101.0000   113.1608    12.8891    12.0731
  101.5000   111.9202    13.6353    12.0661
  102.0000   112.5078    14.4386    13.1708
  102.5000   113.0658    14.8521    14.0734
  103.0000   111.7759    15.1285    14.6828
  103.5000   110.2443    15.4063    14.9847
  104.0000   109.7527    15.6893    15.2911
  104.5000   109.5667    15.9382    15.6511
  105.0000   108.6850    15.6876    15.3964
  105.5000   105.2021    15.4702    15.1349
  106.0000   103.4259    15.2558    14.8777
  106.5000   102.7498    14.9453    14.5277
  107.0000   105.1254    14.4542    14.5313
  107.5000   108.8580    13.8441    14.0122
  108.0000   110.9757    13.2545    13.6898
  108.5000   109.8016    12.9689    13.3752
  109.0000   108.2053    12.7062    12.9989
  109.5000   108.3367    12.4487    12.8790
  110.0000   108.9668    12.1966    12.7571
  110.5000   109.6177    11.9495    12.7577
  111.0000   110.2400    11.7393    12.7603
  111.5000   109.4028    11.6497    12.7602
  112.0000   108.4579    11.6310    12.7603
  112.5000   107.4523    11.7529    12.7606
  113.0000   105.1009    11.9597    12.7602
  113.5000   102.6515    12.1701    12.7308
  114.0000   103.2414    12.2960    12.5894
  114.5000   104.0886    11.9896    12.4497
  115.0000   104.9248    11.7770    12.3115
  115.5000   105.7433    11.5682    12.1748
  116.0000   107.3928    11.3631    12.0702
  116.5000   110.6349    11.2078    11.9406
  117.0000   113.7996    10.9796    11.8158
  117.5000   114.0114    10.7629    11.6924
  118.0000   110.5334    10.5039    11.5702
  118.5000   106.2007    10.6181    11.4493
  119.0000   102.8536    10.7974    11.3297
  119.5000   104.2196    10.9797    11.2918
  120.0000   107.3348    11.1651    11.2679
  120.5000   108.8235    11.3537    11.2441
  121.0000   108.1370    11.4174    11.2129
  121.5000   107.4756    11.3118    11.2148
  122.0000   107.2518    11.2402    10.8734
  122.5000   108.4514    11.1692    10.6933
  123.0000   108.5810    11.1044    10.5039
  123.5000   108.0705    11.1332    10.4633
  124.0000   107.5523    11.1753    10.4259
  124.5000   107.4602    11.2175    10.4071
  125.0000   107.4591    11.2599    10.7252
  125.5000   107.4542    11.3025    10.8779
  126.0000   107.1161    11.3453    11.0347
  126.5000   106.2446    11.3880    11.2078
  127.0000   105.3728    11.4174    10.9725
  127.5000   105.0453    11.1113    10.6938
  128.0000   105.0361    10.8840    10.3673
  128.5000   105.0221    10.6613    10.1229
  129.0000   105.1248    10.4282    10.0519
  129.5000   107.5992    10.2024     9.8812
  130.0000   110.2860     9.9815     9.6061
  130.5000   112.9560     9.7654     9.2922
  131.0000   115.4601     9.5539     8.9731
  131.5000   115.1742     9.3465     8.8231
  132.0000   113.3061     9.0536     8.7001
  132.5000   111.8708     8.9731     8.6453
  133.0000   111.8419     9.0594     8.7082
  133.5000   110.5583     9.1501     8.7541
  134.0000   109.2602     9.2418     8.8001
  134.5000   108.4732     9.3344     8.8464
  135.0000   109.6293     9.4279     8.8929
  135.5000   110.6711     9.5223     8.9396
  136.0000   110.8948     9.6177     8.9866
  136.5000   111.1259     9.7140     9.0338
  137.0000   112.0585     9.8113     9.0813
  137.5000   112.9800     9.9096     9.1290
  138.0000   112.8607    10.0089     9.1770
  138.5000   111.5015    10.1092     9.2252
  139.0000   111.2460    10.2104     9.2737
  139.5000   111.0492    10.3111     9.3209
  140.0000   112.3109    10.2130     9.3630
  140.5000   113.7348    10.1994     9.4052
  141.0000   115.1559    10.1859     9.4476
  141.5000   115.5975    10.1723     9.4903
  142.0000   114.8677    10.1588     9.5331
  142.5000   114.1400    10.1454     9.5748
  143.0000   113.9241    10.1319     9.5743
  143.5000   114.1359    10.1184     9.4874
  144.0000   114.3478    10.1050     9.4272
  144.5000   114.5671    10.0916     9.3676
  145.0000   115.0443    10.0782     9.3119
  145.5000   116.4540    10.0648     9.2780
  146.0000   117.8431    10.0514     9.2460
  146.5000   116.0448    10.0381     9.2142
  147.0000   113.8832    10.0284     9.1825
  147.5000   111.7905     9.9087     9.1509
  148.0000   110.9997     9.7987     9.1195
  148.5000   112.4271     9.6899     9.0881
  149.0000   113.7707     9.5823     9.0568
  149.5000   115.1471     9.4861     9.0257
  150.0000   114.9406     9.4030     8.9945
  150.5000   114.1189     9.3277     8.9530
  151.0000   114.3264     9.2531     8.8874
  151.5000   117.1398     9.1791     8.8222
  152.0000   118.7419     9.1050     8.7575
  152.5000   119.0299     9.0477     8.6933
  153.0000   117.1819     8.9729     8.6296
  153.5000   115.0905     8.8994     8.5663
  154.0000   112.4576     8.8265     8.5035
  154.5000   112.8896     8.7542     8.4416
  155.0000   114.2224     8.6825     8.3114
  155.5000   115.2549     8.6114     8.1833
  156.0000   114.9109     8.4602     8.1036
  156.5000   113.0871     8.1782     7.8692
  157.0000   112.1104     7.8824     7.5989
  157.5000   113.0693     7.5974     7.3378
  158.0000   115.6149     7.3194     7.0856
  158.5000   116.7307     7.0520     6.8426
  159.0000   116.6662     7.1395     6.5442
  159.5000   113.8721     7.2865     6.6294
  160.0000   110.9274     7.4366     6.8311
  160.5000   109.0344     7.5757     7.0388
  161.0000   110.5999     7.6977     7.2530
  161.5000   113.1392     7.8217     7.4738
  162.0000   114.8304     7.9477     7.7008
  162.5000   115.0740     8.0757     7.8463
  163.0000   115.3691     8.2058     7.9780
  163.5000   116.7377     8.3380     8.1036
  164.0000   117.5474     8.4095     8.1036
  164.5000   117.2979     8.3758     8.0870
  165.0000   116.0031     8.3529     8.0754
  165.5000   115.7865     8.3300     8.0640
  166.0000   116.2547     8.3072     8.0526
  166.5000   114.5466     8.2845     8.0413
  167.0000   113.8636     8.2618     8.0288
  167.5000   113.7590     7.9880     7.6974
  168.0000   113.6667     7.6968     7.5246
  168.5000   113.5780     7.5712     7.3431
  169.0000   113.5968     7.4477     7.1501
  169.5000   114.0133     7.3183     6.9870
  170.0000   114.2207     6.9515     6.6210
  170.5000   113.7368     6.4821     6.2506
  171.0000   112.7900     6.0243     5.9009
  171.5000   111.2286     5.9136     5.5332
  172.0000   112.7237     5.9136     5.0024
  172.5000   114.6034     5.9607     5.1339
  173.0000   116.3376     6.0100     5.3071
  173.5000   116.6838     6.0596     5.4911
  174.0000   118.1456     6.2995     5.8278
  174.5000   119.1569     6.7406     6.1941
  175.0000   117.3637     7.1712     6.6412
  175.5000   115.6460     7.4372     6.9554
  176.0000   115.4799     7.7145     7.2178
  176.5000   116.6957     7.9282     7.5946
  177.0000   117.4577     8.0419     7.6844
  177.5000   116.6117     8.1572     7.7954
  178.0000   115.7743     8.2742     7.9080
  178.5000   114.9398     8.3929     8.0222
  179.0000   114.1998     8.5131     8.1381
  179.5000   114.0171     8.6330     8.2556
  180.0000   114.7446     8.7351     8.3749
  180.5000   115.4825     8.9040     8.4878
  181.0000   116.2231     8.9560     8.5455
  181.5000   116.9808     9.0084     8.6000
  182.0000   116.9590     9.0610     8.6548
  182.5000   115.7389     9.1140     8.7100
  183.0000   114.5059     9.1672     8.7655
  183.5000   113.1774     9.2208     8.8214
