~VERSION INFORMATION
 VERS.                2.0:   CWLS LOG ASCII STANDARD - VERSION 2.0
 WRAP.                 NO:   ONE LINE PER DEPTH STEP
~WELL INFORMATION
#MNEM.UNIT      DATA TYPE    INFORMATION
#----------   ------------   ------------------------------
 STRT.F           61.0000:   START DEPTH
 STOP.F          527.0000:   STOP DEPTH
 STEP.F            0.5000:   STEP LENGTH
 NULL.          -999.2500:   NO VALUE
 COMP.       F D SERV INC:   COMPANY
 WELL.  82-5 SX 10 #82-10:   WELL
 FLD .             TEAPOT:   FIELD
 LOC .      S10 T38N R78W:   LOCATION
 CNTY.            NATRONA:   COUNTY
 STAT.            WYOMING:   STATE
 CTRY. UNITED STATES OF AMERICA:   COUNTRY
 SRVC.     Atlas Wireline:   SERVICE COMPANY
 DATE.        08-FEB-1993:   LOGDATE
 API .       490252258800:   API NUMBER
~CURVE INFORMATION
#MNEM.UNIT       API CODE    CURVE DESCRIPTION
#----------   ------------   ------------------------------
 DEPT.F                  :   
 C13 .IN     45 280 13 00:   CALIPER
 GRD .GAPI   45 310 01 00:   GAMMA RAY FROM DENSITY LOG
 NPHI.DEC    42 890 03 00:   NEUTRON POROSITY SANDSTONE
 PORZ.DEC    45 890 12 00:   DENSITY POROSITY SANDSTONE
 ZCOR.G/C3   45 356 01 00:   DENSITY CORRECTION
 ZDEN.G/C3   45 350 01 00:   BULK DENSITY
 RILD.OHMM   07 120 46 00:   INDUCTION LOG DEEP RESISTIVITY
 RILM.OHMM   07 120 44 00:   RESITIVITY LONG MEDIUM
~PARAMETER INFORMATION
#MNEM.UNIT          VALUE    DESCRIPTION
#----------   ------------   ------------------------------
 PD  .                 GL:   PERMANENT DATUM
 EPD .F              5166:   ELEVATION PERMANENT DATUM
 LMF .                 KB:   LOG MEASURED FROM
 DAPD.F                10:   FEET ABOVE PERMANENT DATUM
 DMF .                 KB:   DRILLING MEASURED FROM
 EKB .F              5176:   KELLING BUSHING
 EDF .F              5175:   DRILLING FLOOR
 EGL .F              5166:   GROUND LEVEL
 DATE.        08-FEB-1993:   RUN DATE
 RUN .                  1:   RUN NUMBER
 DD  .F               530:   DEPTH DRILLER
 DL  .F               532:   DEPTH LOGGER
 BLI .F               529:   BOTTOM LOG INTERVAL
 TLI .F                96:   TOP LOG INTERVAL
 CS  .IN            8.625:   CASING SIZE
 CBD .F                90:   CASING BOTTOM DRILLER
 CBL .F                96:   CASING BOTTOM LOGGER
 BS  .IN            7.875:   BIT SIZE
 BSD .F               530:   BIT SIZE AT DEPTH
 DFT .                AIR:   DRILLING FLUID TYPE
 MRT .F                60:   MAXIMUM RECORDED TEMPERATURE
 LUN .            HL 6274:   LOGGING UNIT NUMBER
 LUL .             CASPER:   LOGGING UNIT LOCATION
 ENGI.          V. RAUTIO:   RECORDING ENGINEER
 WITN.          G. STRONG:   WITNESSED BY
 CLNT.            A2DTECH:   CLIENT CODE
 ORIG.           5" PRINT:   ORIGIN OF DATA
 UWI .       490252258800:   UNIQUE WELL ID
 DICO. A2D Technologies, Inc.:   DIGITIZING COMPANY
~OTHER INFORMATION
~A   DEPT      C13        GRD       NPHI       PORZ       ZCOR       ZDEN       RILD       RILM   
# ...
  263.5000     8.1162   176.1230     0.3201     0.0932     0.0076     2.4928     5.9792     6.4202
  264.0000     8.1161   174.6141     0.3207     0.0893     0.0031     2.5023     6.4086     6.7921
  264.5000     8.1159   175.8161     0.3240     0.0881     0.0152     2.5046     6.8773     7.1256
  265.0000     8.1158   179.4277     0.3276     0.0878     0.0153     2.5047     7.2611     7.3268
  265.5000     8.1307   181.2320     0.3303     0.0893     0.0108     2.5002     7.4657     7.5338
  266.0000     8.1456   179.1200     0.3327     0.0944     0.0049     2.4912     7.6230     7.7468
  266.5000     8.1605   173.6955     0.3303     0.0962     0.0020     2.4905     7.7301     7.8016
  267.0000     8.1452   172.1873     0.3279     0.0938    -0.0024     2.4965     7.7843     7.9115
  267.5000     8.1602   173.7098     0.3270     0.0893    -0.0069     2.5033     7.7848     7.9678
  268.0000     8.1299   176.0959     0.3270     0.0850    -0.0038     2.5093     7.8396     7.9689
  268.5000     8.1298   176.3949     0.3279     0.0841     0.0037     2.5094     7.8946     7.9699
  269.0000     8.1146   174.8853     0.3279     0.0856     0.0038     2.5079     7.8951     7.9712
  269.5000     8.1144   173.0752     0.3282     0.0871     0.0038     2.5049     7.8958     7.9169
  270.0000     8.0993   169.7591     0.3285     0.0893     0.0024     2.5012     7.8963     7.9182
  270.5000     8.1142   173.6712     0.3291     0.0928     0.0025     2.4959     7.8421     7.9194
  271.0000     8.1140   175.4756     0.3300     0.0958    -0.0005     2.4908     7.8429     7.9204
  271.5000     8.1138   174.5691     0.3303     0.0967    -0.0124     2.4908     7.8979     7.8665
  272.0000     8.1137   170.9357     0.3300     0.0955    -0.0138     2.4916     7.8984     7.8134
  272.5000     8.0985   168.5393     0.3303     0.0940    -0.0093     2.4938     7.8989     7.8147
  273.0000     8.0983   171.5478     0.3312     0.0940    -0.0032     2.4955     7.8996     7.8157
  273.5000     8.0982   173.9546     0.3321     0.0943    -0.0016     2.4962     7.9001     7.8711
  274.0000     8.0980   175.7590     0.3312     0.0937     0.0014     2.4954     7.9006     7.9271
  274.5000     8.1130   174.8525     0.3300     0.0922     0.0029     2.4962     7.9012     7.8733
  275.0000     8.1128   176.6562     0.3290     0.0913     0.0030     2.4970     7.8470     7.8743
  275.5000     8.0976   176.9552     0.3284     0.0922     0.0031     2.4978     7.7935     7.8756
  276.0000     8.0974   176.0480     0.3278     0.0937     0.0001     2.4963     7.5809     7.8220
  276.5000     8.1123   174.5392     0.3272     0.0928    -0.0028     2.4963     7.2727     7.6622
  277.0000     8.1122   176.3428     0.3269     0.0916    -0.0013     2.4971     6.9287     7.4025
  277.5000     8.1120   177.2443     0.3281     0.0888     0.0033     2.5024     6.5103     7.1513
  278.0000     8.0968   177.2407     0.3314     0.0900     0.0034     2.5047     6.4210     6.9567
  278.5000     8.0967   178.1415     0.3405     0.1057    -0.0056     2.4995     6.3331     6.6744
  279.0000     8.0965   180.0581     0.3504     0.1150    -0.0145     2.4875     6.3336     6.4928
  279.5000     8.1115   185.9664     0.3552     0.1210    -0.0084     2.4725     6.2902     6.3161
  280.0000     8.1103   190.1804     0.3453     0.1129     0.0171     2.4497     6.2907     6.2242
  280.5000     8.1111   189.2739     0.3386     0.0996     0.0231     2.4673     6.2477     6.0604
  281.0000     8.1110   183.8494     0.3380     0.0915     0.0097     2.4846     6.2482     5.8956
  281.5000     8.1108   176.3157     0.3392     0.0891     0.0053     2.4966     5.9941     5.7294
  282.0000     8.1107   174.8068     0.3422     0.0903     0.0008     2.5027     5.6670     5.3520
  282.5000     8.1105   178.1172     0.3480     0.1023    -0.0021     2.4952     5.4406     5.0992
  283.0000     8.0953   180.2228     0.3562     0.1104    -0.0080     2.4855     5.4033     4.9950
  283.5000     8.0952   180.1757     0.3636     0.1164    -0.0005     2.4735     5.4037     5.1362
  284.0000     8.0950   175.9995     0.3588     0.1203     0.0220     2.4600     5.4417     5.3180
  284.5000     8.0949   173.5870     0.3446     0.1155     0.0191     2.4518     5.4421     5.5445
  285.0000     8.0947   175.0902     0.3361     0.1035     0.0132     2.4683     5.5184     6.0682
  285.5000     8.1096   177.7982     0.3344     0.0939     0.0072     2.4871     5.8335     6.4149
  286.0000     8.1095   181.1078     0.3350     0.0842     0.0043     2.5014     6.2960     6.7815
  286.5000     8.0943   180.5026     0.3356     0.0794     0.0044     2.5127     6.7951     7.1197
  287.0000     8.0941   176.8853     0.3359     0.0815     0.0014     2.5180     7.0353     7.2200
  287.5000     8.0940   174.7740     0.3374     0.0836    -0.0015     2.5128     7.0847     7.2210
  288.0000     8.0938   174.7550     0.3356     0.0842     0.0031     2.5120     7.1840     7.1720
  288.5000     8.0937   173.2615     0.3332     0.0806     0.0061     2.5128     7.1286     6.9770
  289.0000     8.0935   172.0538     0.3305     0.0779     0.0122     2.5181     6.8924     6.6475
  289.5000     8.0934   171.1474     0.3296     0.0770     0.0139     2.5219     6.4760     6.1922
  290.0000     8.0932   172.0481     0.3296     0.0781     0.0108     2.5189     6.0738     5.4388
  290.5000     8.0931   174.5933     0.3311     0.0890     0.0078     2.5069     5.5611     5.0753
  291.0000     8.0929   179.2706     0.3404     0.0995    -0.0041     2.4867     5.4848     5.0060
  291.5000     8.0928   182.5810     0.3533     0.1103    -0.0235     2.4580     5.4473     5.0767
  292.0000     8.0926   184.0849     0.3639     0.1407    -0.0144     2.4109     5.4478     5.1482
  292.5000     8.1075   180.4268     0.3663     0.1503     0.0166     2.4012     5.4481     5.2936
  293.0000     8.1074   175.0416     0.3455     0.1455     0.0261     2.4193     5.4465     5.7936
  293.5000     8.1072   174.7383     0.3395     0.1226     0.0112     2.4583     5.6021     6.1673
  294.0000     8.1221   175.0366     0.3389     0.1082     0.0023     2.4751     6.1306     6.4747
  294.5000     8.1219   173.8283     0.3366     0.1016    -0.0007     2.4854     6.4805     6.9404
  295.0000     8.1218   172.5804     0.3295     0.0955    -0.0096     2.4929     7.1414     7.2360
  295.5000     8.1217   170.8098     0.3238     0.0910    -0.0170     2.5012     7.6015     7.4921
  296.0000     8.1064   170.5064     0.3205     0.0883    -0.0124     2.5050     7.9247     7.8658
  296.5000     8.1063   171.7077     0.3172     0.0871    -0.0004     2.5043     8.1481     8.1442
  297.0000     8.1062   171.7009     0.3154     0.0877     0.0012     2.5051     8.2624     8.3164
  297.5000     8.1060   170.7976     0.3142     0.0871     0.0027     2.5096     8.3783     8.5572
  298.0000     8.0908   168.9876     0.3133     0.0826     0.0073     2.5164     8.4957     8.7323
  298.5000     8.0907   169.5878     0.3120     0.0790     0.0088     2.5225     8.4964     8.7334
  299.0000     8.0905   169.2831     0.3117     0.0769     0.0059     2.5240     8.6156     8.7953
  299.5000     8.0904   167.7400     0.3120     0.0781     0.0029     2.5217     8.6772     8.9195
  300.0000     8.0902   167.1689     0.3126     0.0783     0.0025     2.5202     8.7371     8.9827
  300.5000     8.0920   169.9617     0.3132     0.0787     0.0001     2.5195     8.7388     8.9845
  301.0000     8.0938   170.7771     0.3123     0.0783     0.0001     2.5203     8.7410     8.9865
  301.5000     8.0955   171.6772     0.3111     0.0786    -0.0043     2.5203     8.7427     8.9883
  302.0000     8.0973   172.2775     0.3084     0.0786    -0.0042     2.5203     8.7444     8.8663
  302.5000     8.0991   170.7680     0.3075     0.0802    -0.0057     2.5173     8.7461     8.7464
  303.0000     8.1008   162.9332     0.3072     0.0817    -0.0041     2.5121     8.6799     8.7481
  303.5000     8.1026   160.8219     0.3075     0.0844    -0.0026     2.5090     8.5695     8.6290
