~VERSION INFORMATION
 VERS.                2.0:   CWLS LOG ASCII STANDARD - VERSION 2.0
 WRAP.                 NO:   ONE LINE PER DEPTH STEP
~WELL INFORMATION
#MNEM.UNIT      DATA TYPE    INFORMATION
#----------   ------------   ------------------------------
 STRT.F         1470.0000:   START DEPTH
 STOP.F         2310.0000:   STOP DEPTH
 STEP.F            0.5000:   STEP LENGTH
 NULL.          -999.2500:   NO VALUE
 COMP. BROWN JOHN E&C INC:   COMPANY
 WELL. NAVAL PETROLEUM RESERVE 3 STX- #22-10:   WELL
 FLD .             TEAPOT:   FIELD
 LOC .      S10 T38N R78W:   LOCATION
 CNTY.            NATRONA:   COUNTY
 STAT.            WYOMING:   STATE
 CTRY. UNITED STATES OF AMERICA:   COUNTRY
 SRVC.            Unknown:   SERVICE COMPANY
 DATE.        26-AUG-1991:   LOGDATE
 API .       490251111700:   API NUMBER
~CURVE INFORMATION
#MNEM.UNIT       API CODE    CURVE DESCRIPTION
#----------   ------------   ------------------------------
 DEPT.F                  :   
 ROP .MIN/FT 91 810 01 00:   RAT OF DRILLING PENETRATION
 TGAS.UNITS  91 830 01 00:   TOTAL GAS FROM HOTWIRE
~PARAMETER INFORMATION
#MNEM.UNIT          VALUE    DESCRIPTION
#----------   ------------   ------------------------------
 EKB .F              5277:   KELLING BUSHING
 EGL .F              5267:   GROUND LEVEL
 DATE.            8-26-91:   RUN DATE
 DD  .F              2311:   DEPTH DRILLER
 TCS .HRS            0200:   TIME CURCULATED STOPPED
 TLAB.HRS            2335:   TIME LOGGER AT BOTTOM
 ENGI.              TOWER:   RECORDING ENGINEER
 WITN.               HUSK:   WITNESSED BY
 CLNT.            A2DTECH:   CLIENT CODE
 ORIG.           5" PRINT:   ORIGIN OF DATA
 UWI .       490251111700:   UNIQUE WELL ID
 DICO. A2D Technologies, Inc.:   DIGITIZING COMPANY
~OTHER INFORMATION
~A  DEPT         ROP      TGAS  
 1470.0000     1.1746   113.4615
 1470.5000     1.1746   113.4615
 1471.0000     1.1746   113.4615
 1471.5000     1.1746   113.4615
 1472.0000     1.1746   113.4085
 1472.5000     1.1746   112.4203
 1473.0000     1.1746   112.1460
 1473.5000     1.1746   112.1704
 1474.0000     1.1746   112.1807
 1474.5000     1.1727   112.1795
 1475.0000     1.1677   112.1795
 1475.5000     1.1628   112.1795
 1476.0000     1.1059   112.1794
 1476.5000     1.0407   112.1797
 1477.0000     0.9753   112.1798
 1477.5000     0.9098   112.2185
 1478.0000     0.8486   112.2829
 1478.5000     0.8720   112.3478
 1479.0000     0.9097   112.4130
 1479.5000     0.9473   112.4781
 1480.0000     0.9854   112.5432
 1480.5000     0.9897   112.6084
 1481.0000     0.9758   112.6735
 1481.5000     0.9802   112.7386
 1482.0000     0.9878   112.8037
 1482.5000     0.9961   112.8688
 1483.0000     0.9729   112.9340
 1483.5000     0.9314   112.9991
 1484.0000     0.8892   113.0642
 1484.5000     0.8881   113.1293
 1485.0000     0.9122   113.1944
 1485.5000     0.9368   113.2596
 1486.0000     0.9600   113.3247
 1486.5000     0.9450   113.3898
 1487.0000     0.9282   113.4549
 1487.5000     0.9118   113.5200
 1488.0000     0.8998   113.5852
 1488.5000     0.9123   113.6503
 1489.0000     0.9243   113.7154
 1489.5000     0.9365   113.7805
 1490.0000     0.9475   113.8456
 1490.5000     0.9169   113.9108
 1491.0000     0.8836   113.9759
 1491.5000     0.8508   114.0410
 1492.0000     0.8194   114.1061
 1492.5000     0.8047   114.1712
 1493.0000     0.8053   114.2364
 1493.5000     0.8568   114.3015
 1494.0000     0.9093   114.3666
 1494.5000     0.8943   114.4317
 1495.0000     0.8716   114.4968
 1495.5000     0.8691   114.5622
 1496.0000     0.8991   114.6278
 1496.5000     0.9290   114.6918
 1497.0000     0.9257   114.7150
 1497.5000     0.9112   114.5570
 1498.0000     0.8780   114.4023
 1498.5000     0.8422   114.2481
 1499.0000     0.8095   114.0937
 1499.5000     0.7997   113.9393
 1500.0000     0.8074   113.7848
 1500.5000     0.8215   113.6282
 1501.0000     0.8625   113.4692
 1501.5000     0.9072   113.5978
 1502.0000     0.9489   113.7521
 1502.5000     0.9008   113.9056
 1503.0000     0.8293   114.0586
 1503.5000     0.7576   114.2116
 1504.0000     0.6848   114.3646
 1504.5000     0.6843   114.5172
 1505.0000     0.7223   114.6701
 1505.5000     0.7610   114.7430
 1506.0000     0.8001   114.7434
 1506.5000     0.8809   114.7463
 1507.0000     1.0287   114.7509
 1507.5000     1.1773   114.7298
 1508.0000     1.2579   114.2619
 1508.5000     1.1152   112.0771
 1509.0000     0.9613   109.5185
 1509.5000     0.8082   106.9563
 1510.0000     0.6550   104.3851
 1510.5000     0.5669   101.8147
 1511.0000     0.5643    99.2447
 1511.5000     0.5707    96.6780
 1512.0000     0.5780    94.1020
 1512.5000     0.5867    92.5809
 1513.0000     0.6397    91.9015
 1513.5000     0.7261    91.2236
 1514.0000     0.6685    90.5358
 1514.5000     0.5724    90.5449
 1515.0000     0.5078    90.8179
 1515.5000     0.4539    91.0979
 1516.0000     0.4010    91.3802
 1516.5000     0.3968    91.6570
 1517.0000     0.4180    91.6998
 1517.5000     0.3994    91.7379
 1518.0000     0.4326    91.7777
 1518.5000     0.4914    91.8179
 1519.0000     0.5507    91.8580
 1519.5000     0.6102    91.8982
 1520.0000     0.6627    91.9383
 1520.5000     0.6432    91.9784
 1521.0000     0.5947    92.0186
 1521.5000     0.5457    92.0587
 1522.0000     0.4966    92.0989
 1522.5000     0.4474    92.1390
 1523.0000     0.3979    92.1792
 1523.5000     0.3463    92.2193
 1524.0000     0.3074    92.2595
 1524.5000     0.3308    92.2996
 1525.0000     0.4179    92.3397
 1525.5000     0.5108    92.3799
 1526.0000     0.5157    92.4200
 1526.5000     0.5072    92.4602
 1527.0000     0.4985    92.5003
 1527.5000     0.4898    92.5405
 1528.0000     0.4841    92.5806
 1528.5000     0.5056    92.6208
 1529.0000     0.5368    92.6609
 1529.5000     0.6060    92.7010
 1530.0000     0.6302    92.7412
 1530.5000     0.5909    92.7813
 1531.0000     0.5520    92.8213
 1531.5000     0.5127    92.8609
 1532.0000     0.4732    92.9020
 1532.5000     0.4343    92.9448
 1533.0000     0.4209    93.2432
 1533.5000     0.4079    93.9343
 1534.0000     0.4332    94.6215
 1534.5000     0.4657    95.3099
 1535.0000     0.4984    96.0004
 1535.5000     0.5311    96.6922
 1536.0000     0.5549    96.7257
 1536.5000     0.5709    96.6452
 1537.0000     0.5575    96.5614
 1537.5000     0.5418    96.4785
 1538.0000     0.5160    96.3961
 1538.5000     0.4800    96.3138
 1539.0000     0.4439    96.2314
 1539.5000     0.4059    96.1491
 1540.0000     0.3974    96.0667
 1540.5000     0.4114    95.9844
 1541.0000     0.5205    95.9020
 1541.5000     0.6282    95.8197
 1542.0000     0.7343    95.7372
 1542.5000     0.7712    95.6546
 1543.0000     0.7094    95.5731
 1543.5000     0.6601    95.5213
 1544.0000     0.6686    95.5648
 1544.5000     0.7217    95.6058
 1545.0000     0.7493    95.6465
 1545.5000     0.7778    95.6874
 1546.0000     0.7580    95.7283
 1546.5000     0.6445    95.7692
 1547.0000     0.5319    95.8100
 1547.5000     0.4304    95.8509
 1548.0000     0.4257    95.8918
 1548.5000     0.4804    95.9326
 1549.0000     0.5335    95.9735
 1549.5000     0.5878    96.0144
 1550.0000     0.6438    96.0552
 1550.5000     0.6636    96.0961
 1551.0000     0.6483    96.1370
 1551.5000     0.6959    96.1778
 1552.0000     0.7161    96.2187
 1552.5000     0.6416    96.2596
 1553.0000     0.5703    96.3004
 1553.5000     0.5071    96.3413
 1554.0000     0.4579    96.3821
 1554.5000     0.4462    96.4230
 1555.0000     0.4459    96.4639
 1555.5000     0.4574    96.5047
 1556.0000     0.4791    96.5456
 1556.5000     0.5009    96.5865
 1557.0000     0.5229    96.6273
 1557.5000     0.5441    96.6682
 1558.0000     0.5478    96.7092
 1558.5000     0.5065    96.7510
 1559.0000     0.4635    96.7922
 1559.5000     0.4189    96.6703
 1560.0000     0.3948    96.5305
 1560.5000     0.4593    96.3908
 1561.0000     0.5695    96.2514
 1561.5000     0.6845    96.1120
 1562.0000     0.7442    95.9721
 1562.5000     0.7612    95.8318
 1563.0000     0.7555    95.6950
 1563.5000     0.7033    95.5551
 1564.0000     0.6520    96.2295
 1564.5000     0.6007    97.6188
 1565.0000     0.5490   101.2880
 1565.5000     0.4972   105.8552
 1566.0000     0.5199   110.4386
 1566.5000     0.5514   115.0223
 1567.0000     0.5720   119.5874
 1567.5000     0.5716   123.7949
 1568.0000     0.5623   126.3560
 1568.5000     0.5057   128.7698
 1569.0000     0.4493   131.1761
 1569.5000     0.3933   133.5626
 1570.0000     0.3674   135.3011
 1570.5000     0.3946   135.8785
 1571.0000     0.4192   136.5715
 1571.5000     0.3938   137.2667
 1572.0000     0.3810   137.9594
 1572.5000     0.4452   138.6529
 1573.0000     0.5083   139.3441
 1573.5000     0.5713   140.0354
 1574.0000     0.6349   140.3819
 1574.5000     0.6380   140.3836
 1575.0000     0.6236   140.3854
 1575.5000     0.6105   140.3849
 1576.0000     0.6392   140.3846
 1576.5000     0.6696   140.3841
 1577.0000     0.6996   140.3824
 1577.5000     0.7291   140.3943
 1578.0000     0.7218   140.6253
 1578.5000     0.6584   140.8486
 1579.0000     0.5959   141.0751
 1579.5000     0.5383   141.3056
 1580.0000     0.5098   141.4891
 1580.5000     0.5205   140.5367
 1581.0000     0.5326   136.1761
 1581.5000     0.5458   131.9545
 1582.0000     0.5116   127.7380
 1582.5000     0.4699   123.5147
 1583.0000     0.4281   119.2913
 1583.5000     0.3944   115.0653
 1584.0000     0.4168   110.8476
 1584.5000     0.4497   107.0328
 1585.0000     0.4825   105.9288
 1585.5000     0.5152   104.9205
 1586.0000     0.5256   103.9171
 1586.5000     0.5070   103.2569
 1587.0000     0.4884   103.5384
 1587.5000     0.4725   103.7954
 1588.0000     0.5037   104.0515
 1588.5000     0.5357   104.3066
 1589.0000     0.5736   104.4810
 1589.5000     0.6340   104.4363
 1590.0000     0.6934   104.3971
 1590.5000     0.7525   104.3581
 1591.0000     0.7594   104.3189
