~VERSION INFORMATION
 VERS.                2.0:   CWLS LOG ASCII STANDARD - VERSION 2.0
 WRAP.                 NO:   ONE LINE PER DEPTH STEP
~WELL INFORMATION
#MNEM.UNIT      DATA TYPE    INFORMATION
#----------   ------------   ------------------------------
 STRT.F           12.0000:   START DEPTH
 STOP.F          296.0000:   STOP DEPTH
 STEP.F            0.5000:   STEP LENGTH
 NULL.          -999.2500:   NO VALUE
 COMP. BROWN JOHN E&C INC:   COMPANY
 WELL.       SX 71 #45-10:   WELL
 FLD .         N P R NO.3:   FIELD
 LOC .      S10 T38N R78W:   LOCATION
 CNTY.            NATRONA:   COUNTY
 STAT.            WYOMING:   STATE
 CTRY. UNITED STATES OF AMERICA:   COUNTRY
 SRVC.            Unknown:   SERVICE COMPANY
 DATE.        08-APR-1993:   LOGDATE
 API .       490251127200:   API NUMBER
~CURVE INFORMATION
#MNEM.UNIT       API CODE    CURVE DESCRIPTION
#----------   ------------   ------------------------------
 DEPT.F                  :   
 GR  .GAPI   81 310 01 00:   GAMMA RAY
 TT  .US/F   81 520 00 00:   TRANSIT TIME
~PARAMETER INFORMATION
#MNEM.UNIT          VALUE    DESCRIPTION
#----------   ------------   ------------------------------
 PD  .                 GL:   PERMANENT DATUM
 EPD .F              5163:   ELEVATION PERMANENT DATUM
 LMF .                 KB:   LOG MEASURED FROM
 DAPD.F                10:   FEET ABOVE PERMANENT DATUM
 DMF .                 KB:   DRILLING MEASURED FROM
 EKB .F              5173:   KELLING BUSHING
 EDF .F              5173:   DRILLING FLOOR
 EGL .F              5163:   GROUND LEVEL
 DATE.             4-8-93:   RUN DATE
 RUN .                  1:   RUN NUMBER
 DD  .F               300:   DEPTH DRILLER
 DL  .F               299:   DEPTH LOGGER
 BLI .F               293:   BOTTOM LOG INTERVAL
 BS  .IN            7.875:   BIT SIZE
 BSD .F               300:   BIT SIZE AT DEPTH
 TCS .HRS            0830:   TIME CURCULATED STOPPED
 TLAB.HRS            0930:   TIME LOGGER AT BOTTOM
 LUN .                509:   LOGGING UNIT NUMBER
 LUL .           GILLETTE:   LOGGING UNIT LOCATION
 ENGI.          R. CLANCY:   RECORDING ENGINEER
 WITN.         R.E. SYLAR:   WITNESSED BY
 CLNT.            A2DTECH:   CLIENT CODE
 ORIG.           5" PRINT:   ORIGIN OF DATA
 UWI .       490251127200:   UNIQUE WELL ID
 DICO. A2D Technologies, Inc.:   DIGITIZING COMPANY
~OTHER INFORMATION
~A   DEPT        GR        TT   
   12.0000   107.8313  -999.2500
   12.5000   107.8313  -999.2500
   13.0000   106.5335  -999.2500
   13.5000   103.3164  -999.2500
   14.0000   101.0020  -999.2500
   14.5000    99.7159  -999.2500
   15.0000    95.8588  -999.2500
   15.5000    92.0773  -999.2500
   16.0000    88.7967  -999.2500
   16.5000    88.1424  -999.2500
   17.0000    88.2858  -999.2500
   17.5000    91.3923  -999.2500
   18.0000    94.4635  -999.2500
   18.5000    96.0521  -999.2500
   19.0000    92.9916  -999.2500
   19.5000    94.5372  -999.2500
   20.0000    96.5229  -999.2500
   20.5000    90.3628  -999.2500
   21.0000    87.3425  -999.2500
   21.5000    86.9241  -999.2500
   22.0000    87.9868  -999.2500
   22.5000    89.6164  -999.2500
   23.0000    91.3488  -999.2500
   23.5000    92.1483   313.7746
   24.0000    92.1135   270.4819
   24.5000    94.6367   270.7825
   25.0000    97.8915   270.2885
   25.5000   101.1711   269.6709
   26.0000   104.4416   269.0533
   26.5000   107.1881   268.4358
   27.0000   103.4283   268.1476
   27.5000    98.9242   268.5005
   28.0000    97.8805   268.8535
   28.5000    99.8849   269.2063
   29.0000   101.7391   269.5592
   29.5000    99.7439   269.6801
   30.0000    95.2239   269.6790
   30.5000    90.6904   269.6788
   31.0000    89.3546   269.6787
   31.5000    87.3269   269.6787
   32.0000    85.7216   269.6787
   32.5000    85.7388   269.6787
   33.0000    84.9796   269.6787
   33.5000    82.6334   269.6787
   34.0000    80.3063   269.6787
   34.5000    79.9079   269.6787
   35.0000    83.5051   269.6787
   35.5000    85.7507   269.3275
   36.0000    85.8444   268.7307
   36.5000    88.4720   268.1339
   37.0000    88.5428   267.6707
   37.5000    87.0259   268.0068
   38.0000    83.4293   268.4739
   38.5000    82.9392   267.8586
   39.0000    83.3234   267.1339
   39.5000    83.3978   266.4659
   40.0000    86.9036   266.4659
   40.5000    94.2350   267.1352
   41.0000   101.6572   339.4658
   41.5000   109.0957   378.9156
   42.0000   117.5911   357.1620
   42.5000   127.3381   313.7901
   43.0000   133.5382   310.4696
   43.5000   135.4167   306.1946
   44.0000   132.0717   393.6650
   44.5000   128.7497   297.0579
   45.0000   126.2519   266.8675
   45.5000   126.3809   268.2348
   46.0000   128.2256   270.4819
   46.5000   123.5856   270.1675
   47.0000   109.2731   269.6602
   47.5000    97.4640   269.2771
   48.0000    96.0018   269.4346
   48.5000    94.4530   269.6184
   49.0000    93.0861   269.6751
   49.5000    95.1148   269.3767
   50.0000   101.2136   269.9799
   50.5000   107.3043   269.4754
   51.0000   111.2186   268.6157
   51.5000   112.6678   267.7560
   52.0000   112.6763   266.8962
   52.5000   114.5948   266.0364
   53.0000   120.3772   266.0381
   53.5000   121.4743   270.6104
   54.0000   121.4979   336.1325
   54.5000   122.2436   398.5944
   55.0000   126.4033   274.0964
   55.5000   130.1776   310.0920
   56.0000   127.9479   367.7306
   56.5000   124.0447   399.3976
   57.0000   130.0293   272.9217
   57.5000   135.9376   270.3815
   58.0000   141.8629   267.8414
   58.5000   142.6754   265.3012
   59.0000   139.6427   263.8719
   59.5000   137.0821   262.4190
   60.0000   138.7176   263.2720
   60.5000   141.6515   264.9152
   61.0000   144.6104   265.6741
   61.5000   147.5451   265.6598
   62.0000   144.8373   266.2559
   62.5000   142.2144   266.8722
   63.0000   144.0181   266.8671
   63.5000   145.7422   266.8685
   64.0000   145.2402   266.8322
   64.5000   142.5655   266.7514
   65.0000   139.9013   266.6699
   65.5000   137.5879   266.5886
   66.0000   137.6073   266.5073
   66.5000   133.2188   266.4800
   67.0000   132.1510   266.5284
   67.5000   140.8901   266.5768
   68.0000   141.6980   266.6252
   68.5000   145.8928   266.6736
   69.0000   150.1316   266.7220
   69.5000   154.2304   266.7703
   70.0000   152.4672   266.8187
   70.5000   147.7871   266.8675
   71.0000   151.1864   266.7489
   71.5000   156.4579   266.6292
   72.0000   160.9201   266.5099
   72.5000   168.1953   266.4653
   73.0000   170.5006   266.4658
   73.5000   163.4844   266.4658
   74.0000   167.6140   266.4659
   74.5000   177.1485   266.4658
   75.0000   186.0183   266.4657
   75.5000   193.8961   266.4654
   76.0000   199.5916   266.5107
   76.5000   207.5084   266.6509
   77.0000   202.4513   266.7910
   77.5000   200.2051   266.9312
   78.0000   197.0354   267.0713
   78.5000   196.1547   267.2115
   79.0000   197.7411   267.2691
   79.5000   195.4423   267.3715
   80.0000   187.4778   267.6255
   80.5000   185.3486   267.8795
   81.0000   186.5348   268.0736
   81.5000   188.3465   268.0717
   82.0000   188.1482   268.1121
   82.5000   182.7254   268.1958
   83.0000   183.9536   268.2807
   83.5000   183.9915   268.3652
   84.0000   168.2060   268.4508
   84.5000   172.8805   268.5248
   85.0000   177.7175   268.5965
   85.5000   164.9710   268.6678
   86.0000   160.1620   268.7391
   86.5000   158.8084   268.8104
   87.0000   156.3445   268.8817
   87.5000   154.9511   268.9530
   88.0000   160.0227   269.0243
   88.5000   162.6830   269.0956
   89.0000   155.6825   269.1669
   89.5000   173.0984   269.2382
   90.0000   171.9993   271.1491
   90.5000   169.4419   274.0993
   91.0000   166.1264   274.0967
   91.5000   162.8069   274.0964
   92.0000   157.5952   274.5336
   92.5000   152.0544   274.5783
   93.0000   147.9967   268.0723
   93.5000   146.7357   268.0723
   94.0000   148.7826   268.0723
   94.5000   146.2018   268.0723
   95.0000   145.1712   268.0726
   95.5000   147.4849   268.0369
   96.0000   146.2061   267.9919
   96.5000   148.0786   267.9466
   97.0000   154.2618   267.9015
   97.5000   154.9616   267.8563
   98.0000   151.9860   267.8112
   98.5000   149.1788   267.7660
   99.0000   147.4015   267.7208
   99.5000   148.4807   267.6757
  100.0000   150.0256   267.9734
  100.5000   148.3032   268.3137
  101.0000   144.1192   267.9812
  101.5000   143.4688   267.4405
  102.0000   146.6950   266.8700
  102.5000   145.2299   266.8675
  103.0000   145.2658   266.8675
  103.5000   141.9348   266.8675
  104.0000   138.0087   266.8669
  104.5000   135.1066   266.9142
  105.0000   133.7117   266.9678
  105.5000   133.2040   267.0218
  106.0000   134.6737   267.0757
  106.5000   134.7367   267.1296
  107.0000   134.7829   267.1835
  107.5000   136.4714   267.2374
  108.0000   138.2651   267.2507
  108.5000   139.9510   267.2062
  109.0000   138.8808   267.1617
  109.5000   138.0657   267.1172
  110.0000   140.3235   267.0726
  110.5000   140.0942   267.0281
  111.0000   139.1792   266.9834
  111.5000   139.5445   266.9387
  112.0000   141.8239   266.8945
  112.5000   141.2591   267.0565
  113.0000   137.6248   267.5384
  113.5000   134.0355   268.0203
  114.0000   128.5520   268.4739
  114.5000   122.3736   267.6592
  115.0000   116.9787   266.8675
  115.5000   117.7097   267.2780
  116.0000   119.7641   267.6707
  116.5000   119.9486   267.6171
  117.0000   123.4381   267.2758
  117.5000   133.3776   266.9344
  118.0000   135.1557   266.5930
  118.5000   132.3464   266.2517
  119.0000   136.9615   266.0643
  119.5000   132.4639   266.0607
  120.0000   135.9210   266.2167
  120.5000   137.5455   266.5211
  121.0000   134.5985   266.8286
  121.5000   131.5687   267.1501
  122.0000   128.4367   266.8664
  122.5000   131.1680   266.9824
  123.0000   125.6559   267.0705
  123.5000   120.9832   267.1631
  124.0000   119.8609   267.2589
  124.5000   123.3371   267.0823
  125.0000   123.9201   266.8679
  125.5000   127.3605   266.6520
  126.0000   132.7996   266.4363
  126.5000   129.7621   266.2206
  127.0000   132.0861   266.0048
  127.5000   134.7982   265.7895
  128.0000   134.7244   265.6627
  128.5000   136.2879   265.7986
  129.0000   138.7078   266.1137
  129.5000   141.1465   266.4288
  130.0000   143.5690   266.4659
  130.5000   143.4571   266.4109
  131.0000   139.1778   266.3031
  131.5000   136.6765   266.1953
  132.0000   139.6584   266.0850
  132.5000   140.3536   266.1862
  133.0000   141.0094   266.2897
