~VERSION INFORMATION
 VERS.                2.0:   CWLS LOG ASCII STANDARD - VERSION 2.0
 WRAP.                 NO:   ONE LINE PER DEPTH STEP
~WELL INFORMATION
#MNEM.UNIT      DATA TYPE    INFORMATION
#----------   ------------   ------------------------------
 STRT.F            8.0000:   START DEPTH
 STOP.F          866.5000:   STOP DEPTH
 STEP.F            0.5000:   STEP LENGTH
 NULL.          -999.2500:   NO VALUE
 COMP. LAWRENCE/ALLISON INC:   COMPANY
 WELL.    42-11 SX #11-11:   WELL
 FLD .              NPR 3:   FIELD
 LOC .      S11 T38N R78W:   LOCATION
 CNTY.            NATRONA:   COUNTY
 STAT.            WYOMING:   STATE
 CTRY. UNITED STATES OF AMERICA:   COUNTRY
 SRVC.           Gearhart:   SERVICE COMPANY
 DATE.        17-MAY-1987:   LOGDATE
 API .       490251112700:   API NUMBER
~CURVE INFORMATION
#MNEM.UNIT       API CODE    CURVE DESCRIPTION
#----------   ------------   ------------------------------
 DEPT.F                  :   
 GRR .GAPI   07 310 01 00:   GAMMA RAY FROM RES. LOG.
 RILD.OHMM   07 120 46 00:   INDUCTION LOG DEEP RESISTIVITY
 RILM.OHMM   07 120 44 00:   INDUCTION LOG MEDIUM RESISTIVITY
~PARAMETER INFORMATION
#MNEM.UNIT          VALUE    DESCRIPTION
#----------   ------------   ------------------------------
 PD  .                 GL:   PERMANENT DATUM
 EPD .F              5166:   ELEVATION PERMANENT DATUM
 LMF .                 KB:   LOG MEASURED FROM
 DAPD.F                 8:   FEET ABOVE PERMANENT DATUM
 DMF .                 KB:   DRILLING MEASURED FROM
 EKB .F              5174:   KELLING BUSHING
 EDF .F              5174:   DRILLING FLOOR
 EGL .F              5166:   GROUND LEVEL
 DATE.            5-17-87:   RUN DATE
 RUN .                  1:   RUN NUMBER
 DD  .F               891:   DEPTH DRILLER
 DL  .F               874:   DEPTH LOGGER
 BLI .F               865:   BOTTOM LOG INTERVAL
 TLI .F                44:   TOP LOG INTERVAL
 CS  .IN            8.625:   CASING SIZE
 CBD .F                49:   CASING BOTTOM DRILLER
 CBL .F                44:   CASING BOTTOM LOGGER
 BS  .IN            7.875:   BIT SIZE
 BSD .F               891:   BIT SIZE AT DEPTH
 DFT .           AIR FOAM:   DRILLING FLUID TYPE
 TCS .HRS            0300:   TIME CURCULATED STOPPED
 TLAB.HRS            1255:   TIME LOGGER AT BOTTOM
 MRT .F                80:   MAXIMUM RECORDED TEMPERATURE
 LUN .               7597:   LOGGING UNIT NUMBER
 LUL .           GILLETTE:   LOGGING UNIT LOCATION
 ENGI.            WANGLER:   RECORDING ENGINEER
 WITN.             STRONG:   WITNESSED BY
 CLNT.            A2DTECH:   CLIENT CODE
 ORIG.       2", 5" PRINT:   ORIGIN OF DATA
 UWI .       490251112700:   UNIQUE WELL ID
 DICO. A2D Technologies, Inc.:   DIGITIZING COMPANY
~OTHER INFORMATION
~A    DEPT      GRR      RILD       RILM   
# ...
   99.0000    72.0199     3.5550     3.6920
   99.5000    70.1779     3.7333     3.8772
  100.0000    68.8004     3.9206     4.0718
  100.5000    68.2885     4.1295     4.2886
  101.0000    68.9534     4.2468     4.4123
  101.5000    70.6891     4.3712     4.4391
  102.0000    72.2301     4.3705     4.4542
  102.5000    72.9930     4.3388     4.4542
  103.0000    73.7936     4.2918     4.4081
  103.5000    74.6499     4.2453     4.3660
  104.0000    75.5137     4.2032     4.3246
  104.5000    77.2577     4.1753     4.2836
  105.0000    79.2107     3.9946     4.2431
  105.5000    80.6005     3.7586     4.2026
  106.0000    79.5135     3.4035     4.1330
  106.5000    75.8842     3.0569     3.9020
  107.0000    72.2934     2.7456     3.3712
  107.5000    70.4909     2.4664     2.9101
  108.0000    70.7262     2.3282     2.5120
  108.5000    71.1144     2.2372     2.1663
  109.0000    71.5012     2.2609     1.9962
  109.5000    71.8925     2.2888     1.9373
  110.0000    71.6437     2.3424     1.9380
  110.5000    70.9927     2.4124     2.2556
  111.0000    70.4535     2.5649     2.4879
  111.5000    71.2826     2.8758     2.7503
  112.0000    72.1126     3.2250     3.0523
  112.5000    72.0286     3.5793     3.4201
  113.0000    71.3385     3.8313     3.8403
  113.5000    70.9834     3.9764     4.0907
  114.0000    71.7906     4.0548     4.1375
  114.5000    72.4086     4.1024     4.1687
  115.0000    71.9684     4.1295     4.1687
  115.5000    71.7798     4.0932     4.1687
  116.0000    72.6538     4.0382     4.1485
  116.5000    73.5341     3.9840     4.1080
  117.0000    74.5783     3.9305     4.0679
  117.5000    75.0128     3.8777     4.0043
  118.0000    74.9822     3.8290     3.9265
  118.5000    73.5449     3.6979     3.8503
  119.0000    71.2535     3.5524     3.7755
  119.5000    68.8667     3.3618     3.6659
  120.0000    68.0327     3.1814     3.5503
  120.5000    69.8093     3.0107     3.3160
  121.0000    71.7491     2.8017     3.0676
  121.5000    72.9992     2.8042     2.8378
  122.0000    73.3057     2.8030     2.6681
  122.5000    73.6202     2.8738     2.5823
  123.0000    73.9280     2.9478     2.5268
  123.5000    74.2402     3.0277     2.7660
  124.0000    74.7281     3.2198     3.0413
  124.5000    76.8111     3.4761     3.3440
  125.0000    79.9849     3.7531     3.6769
  125.5000    78.8059     3.9826     4.0429
  126.0000    75.6126     4.2378     4.4453
  126.5000    73.2674     4.5387     4.6189
  127.0000    74.2937     4.6089     4.7298
  127.5000    75.7042     4.6252     4.8149
  128.0000    75.9670     4.5075     4.8949
  128.5000    74.6328     4.3294     4.7843
  129.0000    73.1867     4.0650     4.6704
  129.5000    73.3808     3.8166     4.4131
  130.0000    77.0032     3.5835     3.9970
  130.5000    78.2372     3.3646     3.6001
  131.0000    76.7298     3.1698     3.2609
  131.5000    76.5244     3.0691     2.9983
  132.0000    78.9055     3.0194     2.8301
  132.5000    78.7166     2.9947     2.8301
  133.0000    75.5971     2.9948     2.9537
  133.5000    73.1939     3.1640     3.0483
  134.0000    74.1472     3.3068     3.1824
  134.5000    75.2907     3.4559     3.3423
  135.0000    73.2345     3.6180     3.5103
  135.5000    71.1247     3.7575     3.6866
  136.0000    70.6521     3.9071     3.8719
  136.5000    73.9550     4.0534     4.0659
  137.0000    77.7430     4.1135     4.1884
  137.5000    80.3873     4.1480     4.3323
  138.0000    81.8321     4.1687     4.3704
  138.5000    82.7654     4.1377     4.3320
  139.0000    83.7079     4.1090     4.2936
  139.5000    84.7741     4.0292     4.2083
  140.0000    84.6685     3.9200     4.1066
  140.5000    81.3348     3.7529     3.9681
  141.0000    77.6625     3.5928     3.8339
  141.5000    73.7714     3.4396     3.7062
  142.0000    69.9921     3.2930     3.5210
  142.5000    70.3711     3.1680     3.3380
  143.0000    73.7199     3.1542     3.1698
  143.5000    78.1665     3.1398     3.0389
  144.0000    81.4064     3.0974     2.9114
  144.5000    79.1919     3.0554     3.0009
  145.0000    77.1149     3.0140     3.0754
  145.5000    75.7965     2.9914     3.1538
  146.0000    76.1548     2.9671     3.1978
  146.5000    76.3173     2.9433     3.1240
  147.0000    75.4121     2.9184     3.0471
  147.5000    74.3235     2.8295     2.9796
  148.0000    74.0900     2.6968     2.8332
  148.5000    74.8856     2.5393     2.6722
  149.0000    76.1381     2.4139     2.5204
  149.5000    78.8829     2.3267     2.3770
  150.0000    81.6599     2.2882     2.2427
  150.5000    82.6213     2.2774     2.1317
  151.0000    83.5971     2.4023     2.1116
  151.5000    86.7178     2.4970     2.2123
  152.0000    89.6449     2.6297     2.3672
  152.5000    87.0274     2.8145     2.5741
  153.0000    81.9404     3.0122     2.8056
  153.5000    77.2759     3.2237     3.0580
  154.0000    75.2290     3.4506     3.3231
  154.5000    77.4955     3.7229     3.5154
  155.0000    80.1201     3.7229     3.6598
  155.5000    81.2259     3.6641     3.7896
  156.0000    79.6124     3.5836     3.8290
  156.5000    78.0766     3.4965     3.7023
  157.0000    77.9441     3.4116     3.5997
  157.5000    79.5765     3.3287     3.4998
  158.0000    80.7824     3.2483     3.4028
  158.5000    81.2074     3.0787     3.3084
  159.0000    81.8133     2.8956     3.1191
  159.5000    83.3640     2.7206     2.9391
  160.0000    85.6065     2.6082     2.7601
  160.5000    87.8503     2.5355     2.6061
  161.0000    90.0881     2.5268     2.4607
  161.5000    91.4417     2.6048     2.3976
  162.0000    90.3274     2.6995     2.3780
  162.5000    87.3009     2.8291     2.3651
  163.0000    84.2342     3.0139     2.6746
  163.5000    81.3735     3.2108     3.0357
  164.0000    79.8424     3.4592     3.4332
  164.5000    79.0496     3.7761     3.9080
  165.0000    78.9614     4.1254     4.3685
  165.5000    79.9670     4.4819     4.6015
  166.0000    80.9680     4.7489     4.8471
  166.5000    81.3849     4.9256     5.0842
  167.0000    79.6621     5.0387     5.1518
  167.5000    78.6490     5.1545     5.2154
  168.0000    79.9590     5.3146     5.3822
  168.5000    81.4495     5.4918     5.5846
  169.0000    84.5475     5.6750     5.7945
  169.5000    87.4785     5.8643     6.0124
  170.0000    84.5783     6.0537     6.2291
  170.5000    79.3339     6.2184     6.4067
  171.0000    79.1727     6.3770     6.5396
  171.5000    79.5644     6.3558     6.6226
  172.0000    80.0234     6.3359     6.5568
  172.5000    80.7657     6.3160     6.4991
  173.0000    84.3252     6.2962     6.4814
  173.5000    87.1014     6.2765     6.4603
  174.0000    84.8767     6.2568     6.4377
  174.5000    83.0338     6.2371     6.4229
  175.0000    84.2911     6.2176     6.4072
  175.5000    85.3125     6.1988     6.3915
  176.0000    83.5749     6.1871     6.3767
  176.5000    81.9957     6.1759     6.3560
  177.0000    82.1512     6.1646     6.3364
  177.5000    83.2047     6.1534     6.3169
  178.0000    85.0561     6.1422     6.2975
  178.5000    86.0042     6.1252     6.2783
  179.0000    86.2900     6.1074     6.2574
  179.5000    86.3106     6.0830     6.2583
  180.0000    84.6700     6.1226     6.2577
  180.5000    84.8805     6.1899     6.3171
  181.0000    85.0376     6.2580     6.4119
  181.5000    85.1061     6.3349     6.5599
  182.0000    82.7736     6.4632     6.6784
  182.5000    83.1325     6.5941     6.8056
  183.0000    84.6440     6.7276     6.9451
  183.5000    86.0859     6.8639     7.0867
  184.0000    85.5006     7.0088     7.2117
  184.5000    81.9185     7.0753     7.2114
  185.0000    78.8696     7.0753     7.2084
  185.5000    77.2634     7.0327     7.2136
  186.0000    80.0429     6.9681     7.1569
  186.5000    80.9984     6.9041     7.1817
  187.0000    79.3965     6.6830     7.2129
  187.5000    75.7154     6.2651     7.2103
  188.0000    72.0226     5.5946     7.0753
  188.5000    70.7736     4.9110     6.5342
  189.0000    72.3781     4.1575     5.8737
  189.5000    75.8009     3.5199     4.7749
