~VERSION INFORMATION
 VERS.                2.0:   CWLS LOG ASCII STANDARD - VERSION 2.0
 WRAP.                 NO:   ONE LINE PER DEPTH STEP
~WELL INFORMATION
#MNEM.UNIT      DATA TYPE    INFORMATION
#----------   ------------   ------------------------------
 STRT.F         1208.5000:   START DEPTH
 STOP.F         3816.0000:   STOP DEPTH
 STEP.F            0.5000:   STEP LENGTH
 NULL.          -999.2500:   NO VALUE
 COMP. BROWN JOHN E&C INC:   COMPANY
 WELL. NPR 3 STX-11 #13-11:   WELL
 FLD .             TEAPOT:   FIELD
 LOC .      S11 T38N R78W:   LOCATION
 CNTY.            NATRONA:   COUNTY
 STAT.            WYOMING:   STATE
 CTRY. UNITED STATES OF AMERICA:   COUNTRY
 SRVC.            Unknown:   SERVICE COMPANY
 DATE.        08-APR-1986:   LOGDATE
 API .       490251105000:   API NUMBER
~CURVE INFORMATION
#MNEM.UNIT       API CODE    CURVE DESCRIPTION
#----------   ------------   ------------------------------
 DEPT.F                  :   
 ROP .MIN/FT 91 810 01 00:   RATE OF DRILLING PENETRATION
 TGAS.UNITS  91 830 01 00:   TOTAL GAS FROM HOTWIRE
 GR  .GAPI   81 310 01 00:   GAMMA RAY
 TT  .US/F   81 520 00 00:   TRANSIT TIME
~PARAMETER INFORMATION
#MNEM.UNIT          VALUE    DESCRIPTION
#----------   ------------   ------------------------------
 PD  .                 GL:   PERMANENT DATUM
 EPD .F              5176:   ELEVATION PERMANENT DATUM
 LMF .                 KB:   LOG MEASURED FROM
 DAPD.F              11.8:   FEET ABOVE PERMANENT DATUM
 DMF .                 KB:   DRILLING MEASURED FROM
 EKB .F            5187.8:   KELLING BUSHING
 EGL .F              5176:   GROUND LEVEL
 DATE.             4-8-86:   RUN DATE
 RUN .                  1:   RUN NUMBER
 DD  .F              4051:   DEPTH DRILLER
 DL  .F              3815:   DEPTH LOGGER
 BLI .F              3815:   BOTTOM LOG INTERVAL
 TLI .F              2200:   TOP LOG INTERVAL
 CS  .IN              5.5:   CASING SIZE
 CBD .F              3861:   CASING BOTTOM DRILLER
 DFT .              WATER:   DRILLING FLUID TYPE
 BHT .F               167:   BOTTOM HOLE TEMPERATURE
 MRT .F               167:   MAXIMUM RECORDED TEMPERATURE
 LUN .            558/374:   LOGGING UNIT NUMBER
 LUL .             CASPER:   LOGGING UNIT LOCATION
 ENGI.             BAILEY:   RECORDING ENGINEER
 WITN.             BARRON:   WITNESSED BY
 CLNT.            A2DTECH:   CLIENT CODE
 ORIG.     2.5", 5" PRINT:   ORIGIN OF DATA
 UWI .       490251105000:   UNIQUE WELL ID
 DICO. A2D Technologies, Inc.:   DIGITIZING COMPANY
~OTHER INFORMATION
~A  DEPT         ROP     TGAS         GR         TT   
# ...
 2230.5000  -999.2500  -999.2500    66.0412   269.6539
 2231.0000  -999.2500  -999.2500    62.2890   269.5359
 2231.5000  -999.2500  -999.2500    58.4353   269.5389
 2232.0000  -999.2500  -999.2500    57.1234   269.5418
 2232.5000  -999.2500  -999.2500    58.2390   269.5447
 2233.0000  -999.2500  -999.2500    61.7752   269.5477
 2233.5000  -999.2500  -999.2500    65.8984   269.5506
 2234.0000  -999.2500  -999.2500    69.4308   269.5541
 2234.5000  -999.2500  -999.2500    69.7229   269.2536
 2235.0000  -999.2500  -999.2500    68.1467   269.2565
 2235.5000  -999.2500  -999.2500    64.5024   269.5629
 2236.0000  -999.2500  -999.2500    60.8369   269.8694
 2236.5000  -999.2500  -999.2500    59.8136   270.4792
 2237.0000  -999.2500  -999.2500    61.8958   270.9078
 2237.5000  -999.2500  -999.2500    65.9051   271.5177
 2238.0000  -999.2500  -999.2500    66.7916   272.0668
 2238.5000  -999.2500  -999.2500    65.5675   272.0087
 2239.0000  -999.2500  -999.2500    63.2752   270.4944
 2239.5000  -999.2500  -999.2500    61.7517   269.4661
 2240.0000  -999.2500  -999.2500    59.9238   269.4083
 2240.5000  -999.2500  -999.2500    59.7701   269.8361
 2241.0000  -999.2500  -999.2500    60.2252   270.2032
 2241.5000  -999.2500  -999.2500    61.7793   270.3275
 2242.0000  -999.2500  -999.2500    62.9833   270.5129
 2242.5000  -999.2500  -999.2500    63.2650   270.5161
 2243.0000  -999.2500  -999.2500    61.4814   270.3369
 2243.5000  -999.2500  -999.2500    59.6747   270.2185
 2244.0000  -999.2500  -999.2500    57.7932   270.2214
 2244.5000  -999.2500  -999.2500    56.8231   270.2243
 2245.0000  -999.2500  -999.2500    56.9595   270.4552
 2245.5000  -999.2500  -999.2500    57.8633   270.5343
 2246.0000  -999.2500  -999.2500    58.8477   270.2945
 2246.5000  -999.2500  -999.2500    59.5707   270.2366
 2247.0000  -999.2500  -999.2500    60.1285   270.2395
 2247.5000  -999.2500  -999.2500    60.4395   270.2431
 2248.0000  -999.2500  -999.2500    60.5967   270.2460
 2248.5000  -999.2500  -999.2500    60.8486   270.2489
 2249.0000  -999.2500  -999.2500    60.9619   270.2519
 2249.5000  -999.2500  -999.2500    61.0681   270.2548
 2250.0000  -999.2500  -999.2500    61.1111   270.2577
 2250.5000  -999.2500  -999.2500    61.1093   270.2613
 2251.0000  -999.2500  -999.2500    60.9556   270.2642
 2251.5000  -999.2500  -999.2500    60.9542   270.2671
 2252.0000  -999.2500  -999.2500    60.6483   270.2700
 2252.5000  -999.2500  -999.2500    58.8203   270.2729
 2253.0000  -999.2500  -999.2500    54.8576   270.2760
 2253.5000  -999.2500  -999.2500    54.0990   270.2794
 2254.0000  -999.2500  -999.2500    55.0472   270.2823
 2254.5000  -999.2500  -999.2500    59.0134   270.2852
 2255.0000  -999.2500  -999.2500    62.3667   270.2881
 2255.5000  -999.2500  -999.2500    62.4838   270.2913
 2256.0000  -999.2500  -999.2500    61.2933   270.2946
 2256.5000  -999.2500  -999.2500    58.5274   270.2975
 2257.0000  -999.2500  -999.2500    56.5129   270.3004
 2257.5000  -999.2500  -999.2500    55.9132   270.3034
 2258.0000  -999.2500  -999.2500    57.9408   270.3063
 2258.5000  -999.2500  -999.2500    60.3366   270.5681
 2259.0000  -999.2500  -999.2500    61.1670   270.7132
 2259.5000  -999.2500  -999.2500    61.7336   270.4243
 2260.0000  -999.2500  -999.2500    61.9939   270.1064
 2260.5000  -999.2500  -999.2500    61.9924   269.9708
 2261.0000  -999.2500  -999.2500    61.8245   269.9854
 2261.5000  -999.2500  -999.2500    61.5956   270.0000
 2262.0000  -999.2500  -999.2500    61.3404   270.0145
 2262.5000  -999.2500  -999.2500    60.8195   270.0312
 2263.0000  -999.2500  -999.2500    60.3999   269.8038
 2263.5000  -999.2500  -999.2500    60.4226   269.7577
 2264.0000  -999.2500  -999.2500    60.8187   269.7723
 2264.5000  -999.2500  -999.2500    60.7623   269.7868
 2265.0000  -999.2500  -999.2500    60.6086   269.8014
 2265.5000  -999.2500  -999.2500    59.6939   271.3364
 2266.0000  -999.2500  -999.2500    58.3226   275.2963
 2266.5000  -999.2500  -999.2500    53.4505   278.3458
 2267.0000  -999.2500  -999.2500    53.1405   279.2708
 2267.5000  -999.2500  -999.2500    52.9910   278.6784
 2268.0000  -999.2500  -999.2500    54.3632   277.4817
 2268.5000  -999.2500  -999.2500    57.5931   275.9788
 2269.0000  -999.2500  -999.2500    61.4998   274.4759
 2269.5000  -999.2500  -999.2500    62.0827   272.8515
 2270.0000  -999.2500  -999.2500    61.8011   271.0918
 2270.5000  -999.2500  -999.2500    60.6065   270.8810
 2271.0000  -999.2500  -999.2500    58.3364   270.8955
 2271.5000  -999.2500  -999.2500    57.6523   270.9102
 2272.0000  -999.2500  -999.2500    59.4077   271.1675
 2272.5000  -999.2500  -999.2500    61.6004   272.0030
 2273.0000  -999.2500  -999.2500    62.7195   273.2027
 2273.5000  -999.2500  -999.2500    63.4345   274.4313
 2274.0000  -999.2500  -999.2500    64.0457   275.1135
 2274.5000  -999.2500  -999.2500    64.0421   275.0673
 2275.0000  -999.2500  -999.2500    63.1150   274.0523
 2275.5000  -999.2500  -999.2500    61.8474   272.5504
 2276.0000  -999.2500  -999.2500    59.8977   271.0475
 2276.5000  -999.2500  -999.2500    57.9193   270.2728
 2277.0000  -999.2500  -999.2500    58.4411   270.1659
 2277.5000  -999.2500  -999.2500    60.7228   270.4869
 2278.0000  -999.2500  -999.2500    62.3956   270.5015
 2278.5000  -999.2500  -999.2500    63.0030   270.5160
 2279.0000  -999.2500  -999.2500    62.6971   270.5306
 2279.5000  -999.2500  -999.2500    61.2574   270.2417
 2280.0000  -999.2500  -999.2500    58.6759   270.2592
 2280.5000  -999.2500  -999.2500    57.8221   270.2737
 2281.0000  -999.2500  -999.2500    58.5046   270.2883
 2281.5000  -999.2500  -999.2500    62.0763   270.3029
 2282.0000  -999.2500  -999.2500    68.1188   270.3183
 2282.5000  -999.2500  -999.2500    68.3080   270.3351
 2283.0000  -999.2500  -999.2500    67.2063   270.3496
 2283.5000  -999.2500  -999.2500    63.4045   270.3641
 2284.0000  -999.2500  -999.2500    58.4402   270.3788
 2284.5000  -999.2500  -999.2500    56.8560   270.3948
 2285.0000  -999.2500  -999.2500    55.3424   270.4109
 2285.5000  -999.2500  -999.2500    54.0706   270.6075
 2286.0000  -999.2500  -999.2500    52.8780   270.7435
 2286.5000  -999.2500  -999.2500    51.8778   270.5759
 2287.0000  -999.2500  -999.2500    51.4663   270.6989
 2287.5000  -999.2500  -999.2500    51.4079   270.7901
 2288.0000  -999.2500  -999.2500    51.7290   270.8047
 2288.5000  -999.2500  -999.2500    52.5436   270.8193
 2289.0000  -999.2500  -999.2500    53.6115   270.8339
 2289.5000  -999.2500  -999.2500    55.0545   270.8484
 2290.0000  -999.2500  -999.2500    57.4884   270.8659
 2290.5000  -999.2500  -999.2500    59.7700   270.5770
 2291.0000  -999.2500  -999.2500    62.3561   270.5916
 2291.5000  -999.2500  -999.2500    64.3333   270.6062
 2292.0000  -999.2500  -999.2500    65.7303   270.6208
 2292.5000  -999.2500  -999.2500    66.7657   270.3347
 2293.0000  -999.2500  -999.2500    66.2101   270.3493
 2293.5000  -999.2500  -999.2500    65.1694   270.2424
 2294.0000  -999.2500  -999.2500    63.6138   269.7715
 2294.5000  -999.2500  -999.2500    62.3598   269.7868
 2295.0000  -999.2500  -999.2500    62.0091   269.8035
 2295.5000  -999.2500  -999.2500    62.9958   269.8181
 2296.0000  -999.2500  -999.2500    65.6850   269.7114
 2296.5000  -999.2500  -999.2500    68.3245   269.4225
 2297.0000  -999.2500  -999.2500    68.9478   268.8011
 2297.5000  -999.2500  -999.2500    68.8204   267.9977
 2298.0000  -999.2500  -999.2500    68.1896   267.4053
 2298.5000  -999.2500  -999.2500    67.3135   266.8129
 2299.0000  -999.2500  -999.2500    66.5409   266.4026
 2299.5000  -999.2500  -999.2500    66.0015   266.2980
 2300.0000  -999.2500  -999.2500    65.6265   266.3133
 2300.5000  -999.2500  -999.2500    65.5236   266.5706
 2301.0000  -999.2500  -999.2500    65.6357   266.8887
 2301.5000  -999.2500  -999.2500    65.6728   267.2067
 2302.0000  -999.2500  -999.2500    65.3666   267.2850
 2302.5000  -999.2500  -999.2500    63.2342   267.9066
 2303.0000  -999.2500  -999.2500    61.1018   268.5282
