~VERSION INFORMATION
 VERS.                2.0:   CWLS LOG ASCII STANDARD - VERSION 2.0
 WRAP.                 NO:   ONE LINE PER DEPTH STEP
~WELL INFORMATION
#MNEM.UNIT      DATA TYPE    INFORMATION
#----------   ------------   ------------------------------
 STRT.F           70.0000:   START DEPTH
 STOP.F         1072.0000:   STOP DEPTH
 STEP.F            0.5000:   STEP LENGTH
 NULL.          -999.2500:   NO VALUE
 COMP. LAWRENCE/ALLISON INC:   COMPANY
 WELL.    67-66 SX #11-11:   WELL
 FLD .             TEAPOT:   FIELD
 LOC .      S11 T38N R78W:   LOCATION
 CNTY.            NATRONA:   COUNTY
 STAT.            WYOMING:   STATE
 CTRY. UNITED STATES OF AMERICA:   COUNTRY
 SRVC.      Dresser Atlas:   SERVICE COMPANY
 DATE.        03-FEB-1986:   LOGDATE
 API .       490251105700:   API NUMBER
~CURVE INFORMATION
#MNEM.UNIT       API CODE    CURVE DESCRIPTION
#----------   ------------   ------------------------------
 DEPT.F                  :   
 RILD.OHMM   07 120 46 00:   RESISTIVITY INDUCTION LOG DEEP
 RILM.OHMM   07 120 44 00:   RESISTIVITY INDUCTION LOG MEDIUM
 GRD .GAPI   45 310 01 00:   GAMMA RAY FROM DENSITY LOG
 CALD.IN     45 280 60 00:   CALIPER FROM DENSITY LOG
 CORR.G/C3   45 356 01 00:   DENSITY CORRECTION
 PORD.DEC    45 890 12 00:   POROSITY DENSITY SANDSTONE
 DEN .G/C3   45 350 01 00:   COMPENSATED BULK DENSTIY
~PARAMETER INFORMATION
#MNEM.UNIT          VALUE    DESCRIPTION
#----------   ------------   ------------------------------
 PD  .                 GL:   PERMANENT DATUM
 EPD .F              5245:   ELEVATION PERMANENT DATUM
 LMF .                 GL:   LOG MEASURED FROM
 DMF .                 GL:   DRILLING MEASURED FROM
 EGL .F              5245:   GROUND LEVEL
 DATE.        03-FEB-1986:   RUN DATE
 RUN .                  1:   RUN NUMBER
 DD  .F              1120:   DEPTH DRILLER
 DL  .F              1074:   DEPTH LOGGER
 BLI .F              1068:   BOTTOM LOG INTERVAL
 TLI .F                86:   TOP LOG INTERVAL
 CS  .IN            8.625:   CASING SIZE
 CBD .F                86:   CASING BOTTOM DRILLER
 CBL .F                86:   CASING BOTTOM LOGGER
 BS  .IN             6.25:   BIT SIZE
 BSD .F              1120:   BIT SIZE AT DEPTH
 DFT .                AIR:   DRILLING FLUID TYPE
 TCS .HRS               2:   TIME CURCULATED STOPPED
 LUN .               6274:   LOGGING UNIT NUMBER
 LUL .           GILLETTE:   LOGGING UNIT LOCATION
 ENGI.             MILLER:   RECORDING ENGINEER
 WITN.           JENNINGS:   WITNESSED BY
 CLNT.            A2DTECH:   CLIENT CODE
 ORIG.           5" PRINT:   ORIGIN OF DATA
 UWI .       490251105700:   UNIQUE WELL ID
 DICO. A2D Technologies, Inc.:   DIGITIZING COMPANY
~OTHER INFORMATION
~A   DEPT     RILD       RILM        GRD       CALD       CORR       PORD        DEN   
# ...
  343.0000     5.5560     5.5230   127.4549     6.6220     0.0545     0.1622     2.4078
  343.5000     5.5617     5.4906   125.3989     6.5787     0.0592     0.1637     2.4034
  344.0000     5.6058     5.5347   126.6313     6.5649     0.0594     0.1622     2.4065
  344.5000     5.7291     5.6176   127.9203     6.6140     0.0611     0.1588     2.4126
  345.0000     5.8147     5.7812   130.0249     6.6278     0.0658     0.1576     2.4157
  345.5000     5.9838     5.9496   131.2327     6.6143     0.0705     0.1566     2.4188
  346.0000     6.1579     6.2081   132.4487     6.6159     0.0692     0.1556     2.4211
  346.5000     6.4254     6.5681   133.9800     6.6024     0.0664     0.1547     2.4212
  347.0000     6.7046     6.9972   135.8104     6.6040     0.0666     0.1535     2.4228
  347.5000     6.8997     7.3012   138.2386     6.6204     0.0744     0.1517     2.4289
  348.0000     7.0027     7.4107   139.1629     6.6070     0.0911     0.1486     2.4330
  348.5000     7.1567     7.3673   132.3327     6.5633     0.1036     0.1453     2.4391
  349.0000     7.1637     7.2737   129.6788     6.5652     0.1033     0.1395     2.4490
  349.5000     7.1195     7.2293   129.4073     6.5817     0.0945     0.1314     2.4617
  350.0000     6.9955     7.0146   131.5702     6.6185     0.0828     0.1282     2.4676
  350.5000     6.6034     6.7197   135.1666     6.6592     0.0771     0.1301     2.4617
  351.0000     6.2194     6.4249   137.0000     6.5863     0.0713     0.1352     2.4502
  351.5000     6.1308     6.1533   138.2354     6.6185     0.0670     0.1408     2.4451
  352.0000     6.1027     6.0323   137.6770     6.6652     0.0567     0.1432     2.4409
  352.5000     6.1093     5.9978   135.9229     6.6366     0.0600     0.1404     2.4470
  353.0000     6.1157     6.0067   134.1688     6.6090     0.0723     0.1389     2.4501
  353.5000     6.1646     6.0139   133.3016     6.5929     0.0876     0.1383     2.4517
  354.0000     6.2571     6.0628   132.1553     6.5823     0.1014     0.1392     2.4496
  354.5000     6.3072     6.1121   133.3907     6.5842     0.1046     0.1415     2.4444
  355.0000     6.4464     6.2476   135.8219     6.6009     0.0892     0.1445     2.4362
  355.5000     6.5432     6.4305   137.7629     6.6027     0.0775     0.1471     2.4311
  356.0000     6.6875     6.6186   140.1495     6.6046     0.0645     0.1480     2.4327
  356.5000     6.8826     6.7727   142.5362     6.5910     0.0603     0.1440     2.4380
  357.0000     7.0834     7.0249   143.4442     6.5933     0.0772     0.1401     2.4442
  357.5000     7.2900     7.2769   142.2880     6.5797     0.0864     0.1364     2.4510
  358.0000     7.5026     7.4859   139.6370     6.5516     0.0942     0.1349     2.4564
  358.5000     7.6152     7.6987   134.5944     6.5539     0.0719     0.1360     2.4538
  359.0000     7.7296     7.8127   132.5314     6.5856     0.0480     0.1390     2.4479
  359.5000     7.7915     7.8220   137.3641     6.6323     0.0452     0.1423     2.4392
  360.0000     7.8539     7.8313   142.1870     6.6790     0.0606     0.1458     2.4304
  360.5000     7.9168     7.7865   143.4224     6.6954     0.0668     0.1494     2.4253
  361.0000     7.7621     7.6357   141.9672     6.6971     0.0671     0.1512     2.4261
  361.5000     7.5580     7.4362   139.6152     6.7139     0.0733     0.1502     2.4277
  362.0000     7.2580     7.0933   139.0470     6.7306     0.0796     0.1490     2.4278
  362.5000     7.0494     6.7661   141.2307     6.7773     0.0708     0.1495     2.4279
  363.0000     6.7272     6.4096   140.3219     6.7941     0.0620     0.1498     2.4288
  363.5000     6.4260     6.1140   139.7579     6.7959     0.0713     0.1501     2.4326
  364.0000     6.3883     6.0773   140.4011     6.7977     0.0836     0.1500     2.4342
  364.5000     6.4395     6.2570   145.8219     6.7996     0.0628     0.1539     2.4238
  365.0000     6.5362     6.4401   147.0573     6.8612     0.0539     0.1632     2.4081
  365.5000     6.7268     6.7209   145.0042     6.9079     0.0843     0.1638     2.4014
  366.0000     6.8753     7.6736   141.4564     6.9695     0.1049     0.1556     2.4143
  366.5000     6.9303     7.8958   136.4137     6.8816     0.1058     0.1399     2.4408
  367.0000     6.8422     7.0794   127.1857     6.8531     0.0968     0.1245     2.4654
  367.5000     6.7552     6.8944   112.8756     6.8853     0.0882     0.0979     2.4929
  368.0000     6.7138     6.7589   106.6239     6.9359     0.0795     0.0931     2.5118
  368.5000     6.6302     6.5389   118.9305     6.9931     0.0707     0.0984     2.4953
  369.0000     6.4113     6.1943   127.3408     6.9949     0.0634     0.1219     2.4804
  369.5000     6.1568     5.9909   134.5553     6.9818     0.0832     0.1285     2.4654
  370.0000     5.9933     5.8250   137.2855     6.9686     0.1090     0.1296     2.4685
  370.5000     5.7970     5.6742   133.4386     7.0004     0.1183     0.1275     2.4686
  371.0000     5.6823     5.6089   132.2725     7.0172     0.0960     0.1302     2.4657
  371.5000     5.6100     5.6158   134.8669     6.9891     0.0782     0.1388     2.4538
  372.0000     5.5771     5.6244   138.7265     6.9755     0.0618     0.1394     2.4411
  372.5000     5.6233     5.6687   141.9578     7.0077     0.1012     0.1373     2.4472
  373.0000     5.7065     5.7538   139.0079     7.0095     0.1030     0.1359     2.4526
  373.5000     5.7521     5.8408   136.3569     7.0113     0.0957     0.1348     2.4542
  374.0000     5.8790     5.8883   136.0957     7.0281     0.0764     0.1371     2.4497
  374.5000     5.8851     5.8953   137.3329     7.0449     0.0646     0.1383     2.4483
  375.0000     5.9321     5.8616   137.3725     7.0313     0.0632     0.1392     2.4477
  375.5000     5.8973     5.8278   138.0100     7.0182     0.0681     0.1397     2.4470
  376.0000     5.7422     5.6368   142.2350     7.0051     0.0713     0.1400     2.4447
  376.5000     5.5527     5.5260   149.4494     7.0069     0.0637     0.1411     2.4419
  377.0000     5.4818     5.5342   158.1587     7.0087     0.0582     0.1438     2.4398
  377.5000     5.4879     5.5009   162.6826     7.0105     0.0614     0.1468     2.4369
  378.0000     5.4936     5.5091   155.5473     6.9970     0.0663     0.1512     2.4272
  378.5000     5.4994     5.5156   147.6920     6.9993     0.0740     0.1536     2.4218
  379.0000     5.5434     5.5222   145.4521     7.0011     0.0742     0.1427     2.4349
  379.5000     5.5493     5.5287   147.8874     7.0029     0.0730     0.1387     2.4463
  380.0000     5.5551     5.5353   149.1381     7.0047     0.0717     0.1366     2.4547
  380.5000     5.5211     5.5419   146.1688     7.0066     0.0644     0.1394     2.4503
  381.0000     5.4523     5.5086   145.0105     7.0084     0.0466     0.1405     2.4436
  381.5000     5.3444     5.4394   145.0522     7.0102     0.0303     0.1401     2.4421
  382.0000     5.2053     5.2623   141.5043     6.9966     0.0501     0.1359     2.4521
  382.5000     5.0684     5.1248   143.9355     6.9985     0.0669     0.1286     2.4635
  383.0000     4.9351     5.0241   148.7584     7.0010     0.0732     0.1243     2.4718
  383.5000     4.8644     4.8928   152.9833     7.0469     0.0839     0.1255     2.4742
  384.0000     4.7759     4.7972   154.2187     7.1534     0.1023     0.1396     2.4681
  384.5000     4.6826     4.7766   148.8772     7.2449     0.1311     0.1477     2.4227
  385.0000     4.6531     4.7561   136.9512     7.3514     0.1630     0.1835     2.3450
  385.5000     4.5960     4.6838   128.6176     7.4429     0.1903     0.2121     2.3262
  386.0000     4.6328     4.6571   135.9285     7.4148     0.1469     0.1949     2.3512
  386.5000     4.7024     4.6950   140.3560     7.3718     0.0899     0.1421     2.3912
  387.0000     4.7400     4.7991   141.8903     7.3437     0.0811     0.1255     2.4515
  387.5000     4.8112     4.9055   139.8372     7.3302     0.0921     0.1267     2.4720
  388.0000     4.8497     4.9454   135.6915     7.3474     0.0981     0.1320     2.4645
