~VERSION INFORMATION
 VERS.                2.0:   CWLS LOG ASCII STANDARD - VERSION 2.0
 WRAP.                 NO:   ONE LINE PER DEPTH STEP
~WELL INFORMATION
#MNEM.UNIT      DATA TYPE    INFORMATION
#----------   ------------   ------------------------------
 STRT.F            0.0000:   START DEPTH
 STOP.F          743.0000:   STOP DEPTH
 STEP.F            0.5000:   STEP LENGTH
 NULL.          -999.2500:   NO VALUE
 COMP. LAWRENCE/ALLISON INC:   COMPANY
 WELL.   NPR 3 #33-16SX11:   WELL
 FLD .                NPR:   FIELD
 LOC .      S11 T38N R78W:   LOCATION
 CNTY.            NATRONA:   COUNTY
 STAT.            WYOMING:   STATE
 CTRY. UNITED STATES OF AMERICA:   COUNTRY
 SRVC.           Gearhart:   SERVICE COMPANY
 DATE.        05-JUN-1986:   LOGDATE
 API .       490251107500:   API NUMBER
~CURVE INFORMATION
#MNEM.UNIT       API CODE    CURVE DESCRIPTION
#----------   ------------   ------------------------------
 DEPT.F                  :   
 GRR .GAPI   07 310 01 00:   GAMMA RAY
 RILD.OHMM   07 120 46 00:   INDUCTION LOG DEEP RESISTIVITY
 RILM.OHMM   07 120 44 00:   INDUCTION LOG MEDIUM RESISTIVITY
 RLL .OHMM   07 220 00 00:   LATEROLOG RESISTIVITY
 SPR .MV     07 010 01 00:   SPONTANEOUS POTENTIAL
~PARAMETER INFORMATION
#MNEM.UNIT          VALUE    DESCRIPTION
#----------   ------------   ------------------------------
 PD  .                 GL:   PERMANENT DATUM
 EPD .F              5175:   ELEVATION PERMANENT DATUM
 LMF .                 KB:   LOG MEASURED FROM
 DMF .                 KB:   DRILLING MEASURED FROM
 EKB .F              5175:   KELLING BUSHING
 EGL .F              5175:   GROUND LEVEL
 DATE.        05-JUN-1986:   RUN DATE
 RUN .                  1:   RUN NUMBER
 DD  .F               736:   DEPTH DRILLER
 DL  .F               744:   DEPTH LOGGER
 BLI .F               743:   BOTTOM LOG INTERVAL
 TLI .F                42:   TOP LOG INTERVAL
 CS  .IN            8.625:   CASING SIZE
 CBD .F                42:   CASING BOTTOM DRILLER
 CBL .F                42:   CASING BOTTOM LOGGER
 BS  .IN            7.875:   BIT SIZE
 BSD .F               736:   BIT SIZE AT DEPTH
 DFT .           KCL- GEL:   DRILLING FLUID TYPE
 DFD .                9.2:   DRILLING FLUID DENSITY
 DFV .                 42:   DRILLING FLUID VISCOSITY
 DFPH.                 11:   DRILLING FLUID PH
 MSS .           FLOWLINE:   MUD SAMPLE SOURCE
 RMS .OHMM            .51:   RESISTIVITY MUD SAMPLE
 MST .F                81:   MUD SAMPLE TEMPERATURE
 RMF .OHMM            .48:   RESISTIVITY MUD FILTRATE SAMPLE
 MFST.F                65:   MUD FILTRATE SAMPLE TEMPERATURE
 RMC .OHMM            .81:   RESISTIVITY MUD CAKE
 MCST.F                66:   MUD CAKE SAMPLE TEMPERATURE
 MFSS.               MEAS:   MUD FILTRATE SAMPLE SOURCE
 MCSS.               MEAS:   MUD CAKE SAMPLE SOURCE
 RMB .OHMM            .47:   RESISTIVITY MUD AT BHT
 BHT .F                90:   BOTTOM HOLE TEMPERATURE
 TCS .HRS            1930:   TIME CURCULATED STOPPED
 TLAB.HRS            2114:   TIME LOGGER AT BOTTOM
 LUN .               7609:   LOGGING UNIT NUMBER
 LUL .           GILLETTE:   LOGGING UNIT LOCATION
 ENGI. WEATHERMON/ JOHNSTON:   RECORDING ENGINEER
 WITN.           LENNINGS:   WITNESSED BY
 CLNT.            A2DTECH:   CLIENT CODE
 ORIG.           5" PRINT:   ORIGIN OF DATA
 UWI .       490251107500:   UNIQUE WELL ID
 DICO. A2D Technologies, Inc.:   DIGITIZING COMPANY
~OTHER INFORMATION
~A    DEPT     GRR       RILD       RILM        RLL        SPR   
# ...
  671.0000   102.9308     7.7246     7.5338    10.3360   -35.3327
  671.5000   105.3529     8.0568     7.8036    10.1944   -35.3356
  672.0000   101.4017     8.4032     8.0336    10.9372   -35.0350
  672.5000    96.8434     8.7035     8.2570    11.5769   -34.4310
  673.0000    94.1062     9.0214     8.4931    11.9862   -35.2089
  673.5000    93.4933     9.3373     8.7973    12.2438   -35.6508
  674.0000    95.9139     9.6037     8.9859    12.5948   -34.2880
  674.5000    97.7290     9.6729     9.2430    12.4223   -34.5952
  675.0000    98.9370     9.7427     9.4412    12.2537   -34.7499
  675.5000    97.4137     9.6764     9.5100    12.1716   -34.2976
  676.0000    92.2485     9.6115     9.5131    12.0899   -33.8453
  676.5000    88.9043     9.4744     9.5156    12.0940   -33.8746
  677.0000    89.2441     9.3510     9.5182    12.1822   -34.9141
  677.5000    94.3539     9.3529     9.5208    12.2711   -34.6135
  678.0000    97.3829     9.3548     9.4570    12.3606   -35.5269
  678.5000    97.6820     9.3567     9.3938    12.1921   -35.9851
  679.0000    95.8537     9.3586     9.3309    11.9420   -35.3810
  679.5000    94.6339     9.2953     9.2685    12.0299   -34.0183
  680.0000    94.9315     9.2325     9.2071    12.0332   -32.4732
  680.5000    94.6211     9.1701     9.2096    12.0364   -31.7480
  681.0000    93.9242     9.1082     9.1474    12.0397   -33.7243
  681.5000    91.8775     9.0466     9.0867    11.8755   -35.0929
  682.0000    89.7472     8.9234     8.9632    11.3108   -36.0063
  682.5000    88.8324     8.8626     8.7803    11.1438   -36.0093
  683.0000    91.5564     8.6811     8.6006    10.7007   -35.4052
  683.5000    94.2820     8.5001     8.4830    10.6289   -34.4835
  684.0000    96.7040     8.2132     8.3094    10.7072   -33.5909
  684.5000    94.6326     7.9330     8.0833    10.6354   -33.8973
  685.0000    92.1395     7.5561     7.8080    10.4904   -34.2037
  685.5000    90.6050     7.1470     7.4293     9.9915   -33.9024
  686.0000    90.0033     6.5739     6.8900     9.4901   -33.2991
  686.5000    93.0309     5.7986     6.4270     8.7528   -34.2125
  687.0000    95.4529     5.0042     5.8709     8.4541   -35.1299
  687.5000    96.6625     4.3318     4.9318     7.8847   -35.5842
  688.0000    92.1028     3.7373     4.0288     7.3025   -34.6773
  688.5000    89.0620     3.3663     3.6039     6.9552   -33.7698
  689.0000    87.5387     3.0748     3.2872     6.5294   -33.4692
  689.5000    86.8863     2.9083     3.0074     5.8016   -32.5617
  690.0000    87.5255     2.7702     2.8447     5.1163   -31.5024
  690.5000    90.5545     2.7514     2.7098     4.9413   -31.9615
  691.0000    94.1905     2.8358     2.6175     5.4901   -32.7445
  691.5000    96.6126     2.9933     2.6124     5.9727   -33.4846
  692.0000    97.5186     3.1220     3.0114     6.6822   -33.9428
  692.5000    94.7799     3.3020     3.4286     7.5419   -34.0974
  693.0000    91.3564     3.6674     3.9016     8.3064   -34.2521
  693.5000    87.1794     4.1305     4.3639     8.6045   -34.4068
  694.0000    85.3526     4.6196     4.9153     8.7281   -34.5615
  694.5000    86.2572     5.6489     5.6142     9.2981   -34.7162
  695.0000    91.1072     6.8333     6.2358     9.9053   -35.0233
  695.5000    94.4397     7.3290     6.6899    10.1893   -35.3297
  696.0000    96.2548     7.5910     7.0414    10.5551   -35.6361
  696.5000    96.8690     7.8076     7.4317    10.1955   -35.4866
  697.0000    97.1535     7.9190     7.6978    10.0558   -34.1246
  697.5000    96.8427     7.9206     7.8082    10.1291   -33.3688
  698.0000    96.4789     7.9222     7.9201    10.0612   -33.0682
  698.5000    95.8749     7.9242     7.9223    10.0646   -31.7741
  699.0000    94.6634     7.9258     7.9244    10.2834   -31.3144
  699.5000    92.8418     7.9274     7.9271    10.6507   -31.7666
  700.0000    91.3246     7.9356     7.9340    10.8170   -32.8267
  700.5000    91.6339     7.9790     8.0007    11.0365   -33.7349
  701.0000    93.1609     7.9904     8.0485    11.1959   -33.0978
  701.5000    95.9868     7.9931     8.0521    11.0437   -32.5107
  702.0000    98.9557     7.9958     7.9988    10.9707   -32.2030
  702.5000    97.1341     7.8876     8.0033    10.9754   -32.6552
  703.0000    95.6169     7.8353     7.9512    11.0553   -34.3232
  703.5000    95.3162     7.7834     7.9547    10.9819   -33.1037
  704.0000    97.4532     7.6787     7.9029    11.0638   -32.3410
  704.5000   100.5430     7.6278     7.7977    10.8367   -32.9452
  705.0000   103.5525     7.6838     7.8012    10.6897   -32.6366
  705.5000   104.4706     7.6864     7.7495    10.6942   -30.9612
  706.0000   102.3446     7.7971     7.7539    10.6991   -30.5015
  706.5000   100.5230     7.8545     7.7574    10.8525   -32.4987
  707.0000    98.3969     7.9128     7.8153    11.0100   -33.0777
  707.5000    98.0974     7.9709     7.8189    11.0138   -32.7691
  708.0000    99.3201     7.9736     7.8231    10.7133   -32.3094
  708.5000    98.4116     7.9762     7.8267    10.4211   -32.6096
  709.0000    98.4177     7.9789     7.7748    10.2789   -32.7588
  709.5000    99.3358     7.9227     7.7792    10.2833   -32.4502
  710.0000    97.8186     7.8187     7.7284    10.3590   -32.1425
  710.5000    94.7794     7.6599     7.6782    10.3625   -31.9869
  711.0000    90.8269     7.5562     7.5760    10.4598   -31.8312
  711.5000    94.7904     7.4020     7.4742    10.7398   -31.2195
  712.0000    99.9703     7.2510     7.3218    10.5203   -31.2158
  712.5000   103.3237     7.0523     7.1241    10.2333   -31.8200
  713.0000   105.7639     6.8145     6.8827     9.8158   -31.7908
  713.5000   106.3776     6.6754     6.6962     9.2845   -31.2037
  714.0000   102.7092     6.6307     6.4674     8.3037   -31.8079
  714.5000    99.3871     6.5409     6.2939     7.6909   -32.1091
  715.0000    98.1743     6.6357     6.2095     8.4862   -32.1044
  715.5000    97.2660     6.7313     6.3445     8.7301   -31.9487
  716.0000    96.0532     6.8836     6.6189     9.4982   -31.4891
  716.5000    95.1448     7.1234     6.9052    10.0486   -31.4853
  717.0000    95.1497     7.3789     7.2039    10.5567   -31.6338
  717.5000    95.7974     7.5905     7.4632    10.9364   -31.6299
  718.0000    97.2916     7.8628     7.6255    11.1722   -31.7781
  718.5000    99.4274     8.1449     7.8450    10.3247   -32.2303
  719.0000   100.9543     8.3857     8.0147    10.1364   -32.2265
  719.5000   102.7857     8.6798     8.2454    10.4286   -28.5745
  720.0000   103.1287     8.8665     8.4237    10.6535   -29.9386
  720.5000   100.3466     8.9942     8.6059    11.1142   -32.3674
  721.0000    97.3221     9.1238     8.7921    11.7582   -34.6424
  721.5000    95.8050     9.1268     8.9207    12.1811   -38.7420
  722.0000    94.8954     9.1939     8.8626    12.2708   -35.6988
  722.5000    94.9015     9.1977     8.8666    11.9361   -30.0720
  723.0000    94.9062     9.2008     8.8706    12.0390   -31.7400
  723.5000  -999.2500     9.2684     8.9367    12.1137   -32.9520
  724.0000  -999.2500     9.2062     9.0034    12.1178   -33.2523
  724.5000  -999.2500     9.2101     9.0075    12.1219   -32.7546
  725.0000  -999.2500     9.2132     9.0125    12.2112   -31.9783
  725.5000  -999.2500     9.1521     9.0166    12.3011   -30.6566
  726.0000  -999.2500     9.0915     9.0206    11.9655   -30.1979
  726.5000  -999.2500     8.9684     8.9609    11.7210   -30.8021
  727.0000  -999.2500     8.8470     8.8416    11.4814   -29.8856
  727.5000  -999.2500     8.7890     8.8455    11.4061   -29.2739
  728.0000  -999.2500     8.7296     8.7826    11.4100   -29.7261
  728.5000  -999.2500     8.6134     8.6699    11.3333   -30.7862
  729.0000  -999.2500     8.6163     8.5545    11.1806   -30.9600
  729.5000  -999.2500     8.5585     8.4988    11.1844   -29.2590
  730.0000  -999.2500     8.4434     8.4425    11.1882   -29.1033
  730.5000  -999.2500     8.4462     8.3301    11.1138   -29.8595
  731.0000  -999.2500     8.5082     8.3338    10.8108   -28.6906
  731.5000  -999.2500     8.5709     8.2220    10.8146   -24.9879
