~VERSION INFORMATION
 VERS.                2.0:   CWLS LOG ASCII STANDARD - VERSION 2.0
 WRAP.                 NO:   ONE LINE PER DEPTH STEP
~WELL INFORMATION
#MNEM.UNIT      DATA TYPE    INFORMATION
#----------   ------------   ------------------------------
 STRT.F           28.0000:   START DEPTH
 STOP.F          630.0000:   STOP DEPTH
 STEP.F            0.5000:   STEP LENGTH
 NULL.          -999.2500:   NO VALUE
 COMP. FENIX & SCISSON INC:   COMPANY
 WELL. NAVAL PETROLEUM RESERVE 3 SX-1 #81-15:   WELL
 FLD .             TEAPOT:   FIELD
 LOC .      S15 T38N R78W:   LOCATION
 CNTY.            NATRONA:   COUNTY
 STAT.            WYOMING:   STATE
 CTRY. UNITED STATES OF AMERICA:   COUNTRY
 SRVC.           BIRDWELL:   SERVICE COMPANY
 DATE.        03-JUN-1978:   LOGDATE
 API .       490251063900:   API NUMBER
~CURVE INFORMATION
#MNEM.UNIT       API CODE    CURVE DESCRIPTION
#----------   ------------   ------------------------------
 DEPT.F                  :   
 SPR .MV     05 010 01 00:   SPONTANEOUS POTENTIAL FROM RES.
 SN  .OHMM   05 040 16 00:   SHORT NORMAL 16"
 ILD .OHMM   05 120 46 00:   INDUCTION LOG DEEP
 CALD.IN     45 280 60 00:   CALIPER FROM DENSITY LOG
 GRD .GAPI   45 310 01 00:   GAMMA RAY FROM DENSITY LOG
 CORR.G/C3   45 356 01 00:   DENSITY CORRECTION
 DPHI.DEC    45 890 12 00:   DENSITY POROSITY SANDSTONE
 DEN .G/C3   45 350 01 00:   COMPENSATED BULK DENSITY
~PARAMETER INFORMATION
#MNEM.UNIT          VALUE    DESCRIPTION
#----------   ------------   ------------------------------
 PD  .                 GL:   PERMANENT DATUM
 EPD .F              5263:   ELEVATION PERMANENT DATUM
 LMF .                 KB:   LOG MEASURED FROM
 DAPD.F                 4:   FEET ABOVE PERMANENT DATUM
 DMF .                 KB:   DRILLING MEASURED FROM
 EKB .F              5267:   KELLING BUSHING
 EGL .F              5263:   GROUND LEVEL
 DATE.        03-JUN-1978:   RUN DATE
 RUN .                  1:   RUN NUMBER
 DD  .F               632:   DEPTH DRILLER
 DL  .F               636:   DEPTH LOGGER
 BLI .F               630:   BOTTOM LOG INTERVAL
 TLI .F                40:   TOP LOG INTERVAL
 CS  .IN            8.625:   CASING SIZE
 CBD .F                40:   CASING BOTTOM DRILLER
 CBL .F                40:   CASING BOTTOM LOGGER
 BS  .IN            7.875:   BIT SIZE
 BSD .F               632:   BIT SIZE AT DEPTH
 DFT .                KCL:   DRILLING FLUID TYPE
 DFD .                8.7:   DRILLING FLUID DENSITY
 DFV .                 31:   DRILLING FLUID VISCOSITY
 DFPH.                 10:   DRILLING FLUID PH
 DFL .                9.2:   DRILLING FLUID LOSS
 MSS .           FLOWLINE:   MUD SAMPLE SOURCE
 RMS .OHMM            .26:   RESISTIVITY MUD SAMPLE
 MST .F                66:   MUD SAMPLE TEMPERATURE
 RMF .OHMM            .24:   RESISTIVITY MUD FILTRATE SAMPLE
 MFST.F                74:   MUD FILTRATE SAMPLE TEMPERATURE
 RMC .OHMM            .34:   RESISTIVITY MUD CAKE
 MCST.F                75:   MUD CAKE SAMPLE TEMPERATURE
 MFSS.               MEAS:   MUD FILTRATE SAMPLE SOURCE
 MCSS.               MEAS:   MUD CAKE SAMPLE SOURCE
 RMB .OHMM            .23:   RESISTIVITY MUD AT BHT
 BHT .F                74:   BOTTOM HOLE TEMPERATURE
 TCS .HRS            0100:   TIME CURCULATED STOPPED
 MRT .F                74:   MAXIMUM RECORDED TEMPERATURE
 LUN .               2958:   LOGGING UNIT NUMBER
 LUL .               CASP:   LOGGING UNIT LOCATION
 ENGI.             MILLER:   RECORDING ENGINEER
 WITN.           MCGINLEY:   WITNESSED BY
 CLNT.            A2DTECH:   CLIENT CODE
 ORIG.           5" PRINT:   ORIGIN OF DATA
 UWI .       490251063900:   UNIQUE WELL ID
 DICO. A2D Technologies, Inc.:   DIGITIZING COMPANY
~OTHER INFORMATION
~A   DEPT      SPR         SN        ILD       CALD         GRD      CORR       DPHI        DEN   
# ...
  149.5000   -25.9745     8.0748     8.2443     8.3500    66.1184     0.0343     0.1323     2.4621
  150.0000   -26.1261     8.2998     8.2427     8.3647    65.6497     0.0326     0.1290     2.4632
  150.5000   -26.1291     8.2707     8.2292     8.3694    65.6396     0.0355     0.1284     2.4672
  151.0000   -26.1321     8.2391     8.2158     8.3741    65.6304     0.0292     0.1321     2.4671
  151.5000   -26.1351     8.2075     8.2024     8.3789    66.0031     0.0276     0.1312     2.4648
  152.0000   -26.1381     8.1767     8.1889     8.3836    66.9864     0.0274     0.1304     2.4586
  152.5000   -25.9908     8.2314     8.1742     8.3865    70.3350     0.0257     0.1325     2.4532
  153.0000   -25.9944     8.2287     8.2294     8.3846    72.3107     0.0271     0.1338     2.4592
  153.5000   -25.9973     8.2265     8.2267     8.3834    71.5383     0.0299     0.1314     2.4637
  154.0000   -26.0001     8.2244     8.2817     8.3829    62.2163     0.0373     0.1288     2.4613
  154.5000   -25.8509     8.2221     8.2793     8.3824    60.9859     0.0448     0.1228     2.4756
  155.0000   -25.5561     8.2195     8.3348     8.3818    61.7402     0.0446     0.1206     2.4793
  155.5000   -25.5590     8.2173     8.3322     8.3813    63.4106     0.0444     0.1215     2.4785
  156.0000   -25.2616     8.2151     8.3878     8.3808    65.9970     0.0443     0.1173     2.4845
  156.5000   -24.9641     8.2130     8.4441     8.3802    70.7208     0.0441     0.1161     2.4836
  157.0000   -24.8168     8.2106     8.4412     8.3797    74.3759     0.0424     0.1244     2.4729
  157.5000   -24.6696     8.2083     8.4977     8.3792    76.8096     0.0423     0.1256     2.4675
  158.0000   -24.5223     8.2061     8.5540     8.3786    76.8005     0.0421     0.1208     2.4773
  158.5000   -24.5259     8.2613     8.6110     8.3781    72.6694     0.0389     0.1196     2.4817
  159.0000   -24.6789     8.2584     8.6693     8.3776    72.0497     0.0372     0.1193     2.4816
  159.5000   -24.6818     8.2562     8.7267     8.3770    72.8792     0.0370     0.1188     2.4831
  160.0000   -24.6847     8.3116     8.9071     8.3765    74.0915     0.0368     0.1197     2.4815
  160.5000   -24.5374     8.3671     9.0287     8.3760    75.8382     0.0382     0.1219     2.4744
  161.0000   -24.5409     8.4231     9.0898     8.3754    77.2032     0.0411     0.1237     2.4699
  161.5000   -24.5438     8.4789     9.2136     8.3749    77.6511     0.0409     0.1223     2.4738
  162.0000   -24.5467     8.5979     9.3396     8.3744    77.9474     0.0407     0.1202     2.4781
  162.5000   -24.5495     8.7723     9.4018     8.3738    77.4804     0.0421     0.1184     2.4817
  163.0000   -24.4023     8.8929     9.4648     8.3733    75.6393     0.0404     0.1166     2.4847
  163.5000   -24.4059     9.0766     9.5279     8.3728    71.8134     0.0357     0.1151     2.4869
  164.0000   -24.4087     9.2007     9.5912     8.3722    71.3464     0.0295     0.1142     2.4891
  164.5000   -24.4116     9.2622     9.6552     8.3717    72.1007     0.0293     0.1200     2.4738
  165.0000   -24.4145     9.2592     9.6520     8.3712    72.5497     0.0291     0.1240     2.4714
  165.5000   -24.4174     9.2567     9.7165     8.3706    72.5407     0.0290     0.1250     2.4721
  166.0000   -24.2701     9.2543     9.7139     8.3701    71.9209     0.0288     0.1235     2.4743
  166.5000   -24.2736     9.3167     9.7786     8.3696    71.3012     0.0302     0.1217     2.4780
  167.0000   -24.2765     9.3784     9.7763     8.3690    70.6815     0.0300     0.1202     2.4832
  167.5000   -24.2794     9.5060     9.8416     8.3685    70.0618     0.0298     0.1190     2.4862
  168.0000   -24.4324     9.6361     9.8388     8.3680    69.9001     0.0296     0.1179     2.4838
  168.5000   -24.4360     9.8358     9.9047     8.3674    72.3326     0.0295     0.1188     2.4822
  169.0000   -24.5890    10.0396     9.9013     8.3667    76.6748     0.0293     0.1192     2.4798
  169.5000   -24.5919    10.2479     9.9679     8.3500    75.7497     0.0291     0.1189     2.4820
  170.0000   -24.7449    10.5320     9.9648     8.4152    74.7472     0.0305     0.1144     2.4918
  170.5000   -24.7482    10.7503     9.9617     8.5468    75.0435     0.0333     0.1132     2.4887
  171.0000   -24.7509    10.8973    10.0289     8.5728    75.4925     0.0393     0.1111     2.4943
  171.5000   -24.7542    11.0464    10.0256     8.5709    76.0941     0.0436     0.1051     2.5085
  172.0000   -24.7571    11.1202    10.0230     8.5695    76.2378     0.0450     0.0987     2.5218
  172.5000   -24.7600    11.1945    10.0203     8.5680    76.2287     0.0464     0.0914     2.5308
  173.0000   -24.7628    11.2693    10.0170     8.5820    76.0670     0.0447     0.0890     2.5330
  173.5000   -24.6155    11.2656    10.0147     8.5801    76.0580     0.0445     0.0857     2.5443
  174.0000   -24.4685    11.2626    10.0117     8.5786    75.7436     0.0443     0.0843     2.5237
  174.5000   -24.4718    11.2597    10.0091     8.5468    72.2231     0.0442     0.0977     2.5130
  175.0000   -24.4747    11.2559    10.0064     8.5302    66.8706     0.0425     0.1105     2.5030
  175.5000   -24.4778    11.2530     9.9341     8.5135    64.8768     0.0378     0.1163     2.4877
  176.0000   -24.4807    11.1724     9.9314     8.4969    63.7991     0.0374     0.1160     2.4816
  176.5000   -24.4836    11.0923     9.8603     8.4954    63.6374     0.0359     0.1176     2.4845
  177.0000   -24.6371    10.9369     9.7896     8.4939    64.3917     0.0342     0.1234     2.4730
  177.5000   -24.6399    10.7091     9.7195     8.4924    68.3510     0.0325     0.1274     2.4691
  178.0000   -24.6428    10.6318     9.6498     8.5061    74.2198     0.0354     0.1292     2.4683
  178.5000   -24.6457    10.5556     9.5801     8.4894    76.8826     0.0352     0.1286     2.4644
  179.0000   -24.6486    10.4800     9.5115     8.4727    78.8572     0.0366     0.1263     2.4626
  179.5000   -24.6519    10.4772     9.4433     8.4538    79.6115     0.0380     0.1233     2.4718
  180.0000   -24.6547    10.4021     9.3757     8.4391    79.4498     0.0378     0.1215     2.4771
  180.5000   -24.6581    10.3987     9.3085     8.4376    78.8301     0.0361     0.1200     2.4808
  181.0000   -24.6610    10.3960     9.2412     8.4361    77.5997     0.0329     0.1188     2.4830
  181.5000   -24.6637    10.4662     9.1750     8.4498    73.3158     0.0297     0.1201     2.4764
  182.0000   -24.6672    10.4627     9.1093     8.4485    73.1541     0.0295     0.1253     2.4683
  182.5000   -24.6701    10.4599     9.1069     8.4623    73.1451     0.0324     0.1283     2.4644
  183.0000   -24.6732    10.3843     9.0416     8.4606    71.6093     0.0353     0.1249     2.4712
  183.5000   -24.6760    10.3099     8.9763     8.4589    70.9896     0.0412     0.1214     2.4795
  184.0000   -24.6789    10.3072     8.9739     8.4576    73.4233     0.0410     0.1178     2.4885
  184.5000   -24.8324    10.1628     8.9096     8.4561    75.2464     0.0408     0.1142     2.4915
  185.0000   -24.8348    10.0899     8.9073     8.4545    74.6266     0.0390     0.1130     2.4921
  185.5000   -24.8379    10.0170     8.8434     8.4530    76.4497     0.0344     0.1134     2.4920
  186.0000   -24.9914     9.9892     8.8410     8.4515    80.1800     0.0343     0.1168     2.4858
  186.5000   -24.9940     9.8740     8.8382     8.4500    79.2549     0.0325     0.1192     2.4797
  187.0000   -24.9970     9.8033     8.7749     8.4485    75.7344     0.0293     0.1193     2.4818
  187.5000   -25.0000     9.8007     8.7725     8.4470    70.9162     0.0277     0.1196     2.4787
  188.0000   -25.0033     9.7975     8.7702     8.4455    68.4633     0.0260     0.1208     2.4733
  188.5000   -25.0065     9.8636     8.7679     8.4439    69.6756     0.0274     0.1230     2.4732
  189.0000   -25.0093     9.8604     8.8265     8.4424    72.7201     0.0332     0.1230     2.4731
  189.5000   -25.0120     9.8578     8.8236     8.4409    74.3904     0.0377     0.1231     2.4761
