~VERSION INFORMATION
 VERS.                2.0:   CWLS LOG ASCII STANDARD - VERSION 2.0
 WRAP.                 NO:   ONE LINE PER DEPTH STEP
~WELL INFORMATION
#MNEM.UNIT      DATA TYPE    INFORMATION
#----------   ------------   ------------------------------
 STRT.F           32.5000:   START DEPTH
 STOP.F          433.0000:   STOP DEPTH
 STEP.F            0.5000:   STEP LENGTH
 NULL.          -999.2500:   NO VALUE
 COMP.    FENIX & SCISSON:   COMPANY
 WELL. NPR-3 65-S-10 #65-10:   WELL
 FLD .             TEAPOT:   FIELD
 LOC .      S10 T38N R78W:   LOCATION
 CNTY.            NATRONA:   COUNTY
 STAT.            WYOMING:   STATE
 CTRY. UNITED STATES OF AMERICA:   COUNTRY
 SRVC.           BIRDWELL:   SERVICE COMPANY
 DATE.        13-JUN-1978:   LOGDATE
 API .       490251063000:   API NUMBER
~CURVE INFORMATION
#MNEM.UNIT       API CODE    CURVE DESCRIPTION
#----------   ------------   ------------------------------
 DEPT.F                  :   
 CALD.IN     45 280 60 00:   CALIPER FROM DENSITY LOG
 CORR.G/C3   45 356 01 00:   DENSITY CORRECTION
 DEN .G/C3   45 350 01 00:   COMPENSATED BULK DENSITY
 GRD .GAPI   45 310 01 00:   GAMMA RAY FROM DENSITY LOG
 DPHI.DEC    45 890 12 00:   DENSITY POROSITY SANDSTONE
 IL  .OHMM   05 120 00 00:   INDUCTION LOG 40"
 SN  .OHMM   05 040 16 00:   SHORT NORMAL 16"
 SPR .MV     05 010 01 00:   SPONTANEOUS POTENTIAL FROM RES.
~PARAMETER INFORMATION
#MNEM.UNIT          VALUE    DESCRIPTION
#----------   ------------   ------------------------------
 PD  .                 GL:   PERMANENT DATUM
 EPD .F              5193:   ELEVATION PERMANENT DATUM
 LMF .                 KB:   LOG MEASURED FROM
 DMF .                 KB:   DRILLING MEASURED FROM
 EKB .F              5197:   KELLING BUSHING
 EGL .F              5193:   GROUND LEVEL
 DATE.          6-13-1978:   RUN DATE
 RUN .                  1:   RUN NUMBER
 DD  .F               430:   DEPTH DRILLER
 DL  .F               433:   DEPTH LOGGER
 BLI .F               427:   BOTTOM LOG INTERVAL
 TLI .F                50:   TOP LOG INTERVAL
 CS  .IN            8.625:   CASING SIZE
 CBD .F                40:   CASING BOTTOM DRILLER
 CBL .F                48:   CASING BOTTOM LOGGER
 BS  .IN            7.875:   BIT SIZE
 BSD .F               430:   BIT SIZE AT DEPTH
 DFT .                KCL:   DRILLING FLUID TYPE
 DFD .                8.7:   DRILLING FLUID DENSITY
 DFV .                 32:   DRILLING FLUID VISCOSITY
 DFPH.                9.5:   DRILLING FLUID PH
 DFL .                8.4:   DRILLING FLUID LOSS
 MSS .           FLOWLINE:   MUD SAMPLE SOURCE
 RMS .OHMM            .38:   RESISTIVITY MUD SAMPLE
 MST .F                86:   MUD SAMPLE TEMPERATURE
 RMF .OHMM            .36:   RESISTIVITY MUD FILTRATE SAMPLE
 MFST.F                82:   MUD FILTRATE SAMPLE TEMPERATURE
 MFSS.               MEAS:   MUD FILTRATE SAMPLE SOURCE
 MCSS.               MEAS:   MUD CAKE SAMPLE SOURCE
 TCS .HRS               3:   TIME CURCULATED STOPPED
 MRT .F                73:   MAXIMUM RECORDED TEMPERATURE
 LUN .               2958:   LOGGING UNIT NUMBER
 LUL .               CASP:   LOGGING UNIT LOCATION
 ENGI.           REYNOLDS:   RECORDING ENGINEER
 WITN.           MCGINLEY:   WITNESSED BY
 CLNT.            A2DTECH:   CLIENT CODE
 ORIG.           5" PRINT:   ORIGIN OF DATA
 UWI .       490251063000:   UNIQUE WELL ID
 DICO. A2D Technologies, Inc.:   DIGITIZING COMPANY
~OTHER INFORMATION
~A   DEPT     CALD       CORR        DEN        GRD       DPHI         IL         SN        SPR   
# ...
  275.5000     6.8502     0.0372     2.5038   113.0942     0.0852     9.7129    12.4089   -51.3993
  276.0000     6.8943     0.0268     2.5090   118.3360     0.0864     9.7193    12.8516   -50.9401
  276.5000     6.9534     0.0300     2.5105   119.6712     0.1115     9.9958    13.3147   -49.4390
  277.0000     6.9378     0.0313     2.5098   117.8774     0.1169    10.4228    13.7871   -49.4233
  277.5000     6.9671     0.0299     2.4919   117.8774     0.1258    10.8023    14.1810   -49.4106
  278.0000     6.9965     0.0373     2.4560   114.8161     0.1527    11.2015    14.7882   -49.5498
  278.5000     7.0555     0.0511     2.4478   106.8161     0.1680    11.8179    15.4215   -49.5338
  279.0000     7.0848     0.0802     2.4209    97.1002     0.1802    12.4935    16.3046   -48.1815
  279.5000     7.1438     0.0537     2.3790    86.3378     0.1728    13.0271    17.5321   -48.1658
  280.0000     7.2179     0.0433     2.3604    81.8136     0.1629    13.7912    19.5264   -48.0042
  280.5000     7.1417     0.0478     2.3716    79.1629     0.1677    14.9676    21.5144   -47.5482
  281.0000     7.0674     0.0478     2.3985    77.9671     0.1811    16.0427    22.7465   -48.1275
  281.5000     7.0519     0.0360     2.3841    79.7608     0.1838    16.7279    23.3964   -48.7100
  282.0000     7.0812     0.0272     2.3619    79.5974     0.1747    17.4425    24.0762   -50.1821
  282.5000     7.1105     0.0183     2.3612    78.8640     0.1629    17.9389    24.7565   -49.8718
  283.0000     7.1398     0.0302     2.3687    79.1629     0.1611    18.0746    25.1160   -50.1598
  283.5000     7.1690     0.0391     2.3756    82.8998     0.1844    17.9601    25.6565   -49.1022
  284.0000     7.1385     0.0436     2.3814    86.0747     0.1936    17.9695    26.2087   -47.4524
  284.5000     7.1230     0.0392     2.3777    87.3842     0.2014    17.9790    26.5892   -52.0496
  285.0000     7.1438     0.0377     2.3628    85.8894     0.2068    17.9884    26.6111   -50.5488
  285.5000     7.2113     0.0392     2.3351    82.7504     0.2113    18.5007    26.4417   -50.9825
  286.0000     7.2854     0.0393     2.3157    80.4643     0.2092    18.7691    26.4635   -52.1634
  286.5000     7.2697     0.0319     2.3120    78.7145     0.2077    18.9087    26.4809   -49.4688
  287.0000     7.2393     0.0364     2.3083    74.3797     0.2065    18.9187    26.4983   -50.0481
  287.5000     7.2238     0.0408     2.3075    71.0912     0.2185    18.9286    26.6987   -50.1873
  288.0000     7.2233     0.0497     2.3098    67.2048     0.2214    18.8086    26.5332   -50.3202
  288.5000     7.3271     0.0364     2.3001    64.5142     0.2173    18.8210    26.5550   -50.1586
  289.0000     7.2519     0.0246     2.3001    64.2152     0.2063    18.6993    26.7559   -50.1459
  289.5000     7.1170     0.0158     2.3046    72.4365     0.1984    18.5807    26.7735   -50.2819
  290.0000     7.0398     0.0143     2.3487    77.9671     0.1951    18.5930    27.1622   -50.2659
  290.5000     6.9515     0.0188     2.3510    79.4619     0.2023    18.6029    27.1845   -50.2532
  291.0000     6.9211     0.0203     2.3517    79.7608     0.2041    18.6131    27.2024   -50.2404
  291.5000     6.8907     0.0248     2.3301    80.0598     0.2035    18.6248    26.8484   -50.2276
  292.0000     6.8752     0.0278     2.3219    80.0598     0.2032    18.8929    26.6775   -50.5125
  292.5000     6.8815     0.0337     2.3211    80.2093     0.2017    19.0334    26.5161   -50.4965
  293.0000     6.8890     0.0397     2.3212    81.2556     0.1963    19.3074    26.1714   -50.7814
  293.5000     6.8883     0.0427     2.3212    80.6577     0.1903    19.4510    26.1929   -52.2567
  294.0000     6.8878     0.0427     2.3227    77.0703     0.1781    19.4637    26.3910   -52.5417
  294.5000     6.9022     0.0442     2.3332    75.2765     0.1714    19.3378    26.5907   -52.5256
  295.0000     6.9165     0.0457     2.3469    77.2197     0.1682    19.2153    26.7918   -52.5129
  295.5000     6.9158     0.0487     2.3676    81.2696     0.1661    18.9650    27.0009   -52.5001
  296.0000     6.9302     0.0517     2.3930    83.0493     0.1646    18.7155    27.7704   -52.4873
  296.5000     6.9370     0.0576     2.4020    82.1525     0.1634    18.4694    27.9804   -52.9211
  297.0000     6.9440     0.0562     2.4080    81.8535     0.1765    18.3523    27.9988   -53.2282
  297.5000     6.9731     0.0710     2.3901    81.6966     0.1972    18.2360    27.8206   -53.6363
  298.0000     7.0024     0.1080     2.3669    81.5546     0.2103    17.9982    27.4631   -53.9244
  298.5000     7.0614     0.0844     2.3408    81.8535     0.1945    17.4959    27.4817   -54.5036
  299.0000     7.1653     0.0504     2.3077    81.8535     0.1822    16.5911    27.3152   -54.1933
  299.5000     7.2245     0.0312     2.3019    82.4629     0.1735    16.1490    27.1414   -54.1805
  300.0000     7.1790     0.0253     2.3154    79.7608     0.1712    15.7166    27.1637   -54.4653
  300.5000     7.2232     0.0253     2.3603    79.6114     0.1700    15.5116    26.9946   -54.5961
  301.0000     7.4167     0.0268     2.3648    79.7608     0.1685    15.3078    26.4613   -54.5804
  301.5000     7.5952     0.0283     2.3722    80.3896     0.1637    15.2108    26.1169   -53.9657
  302.0000     7.3707     0.0299     2.3790    82.4514     0.1568    15.1144    25.4290   -53.5036
  302.5000     7.3253     0.0328     2.3812    85.4410     0.1589    15.1243    24.9261   -53.3431
  303.0000     7.2800     0.0343     2.3902    87.2347     0.1610    15.1323    24.7674   -54.5140
  303.5000     7.1748     0.0447     2.3977    88.9954     0.1604    15.1403    24.2815   -54.9449
  304.0000     7.0548     0.0488     2.3977    96.3528     0.1543    15.2549    24.1309   -54.6310
  304.5000     7.0244     0.0399     2.3970    96.5022     0.1493    15.2629    23.8155   -54.0167
  305.0000     7.0239     0.0294     2.4045    96.3528     0.1466    15.2709    23.6711   -53.8522
  305.5000     7.0382     0.0148     2.4127    96.3528     0.1409    15.3886    23.6874   -54.4318
  306.0000     7.0526     0.0029     2.4262    97.9970     0.1149    15.1963    23.8703   -55.4578
  306.5000     7.0519    -0.0030     2.4444    97.1002     0.1125    14.9952    23.8860   -54.9881
  307.0000     7.0513     0.0014     2.4621    96.2033     0.1406    14.7990    23.9017   -54.5297
  307.5000     7.0506     0.0032     2.4651    95.1570     0.1478    14.7078    23.9174   -54.3653
  308.0000     7.0501     0.0073     2.4666    93.4429     0.1544    14.8187    23.9331   -54.3496
  308.5000     7.0795     0.0073     2.4442    90.8221     0.1603    14.8277    23.7847   -55.3796
  309.0000     7.1073     0.0073     2.4188    90.8221     0.1633    14.9410    23.8042   -54.4671
  309.5000     7.1040     0.0073     2.4054    93.9611     0.1639    15.0508    23.6527   -54.3021
  310.0000     7.1006     0.0072     2.3934    97.5486     0.1621    14.8539    23.3449   -54.1343
  310.5000     7.0972     0.0072     2.3890    97.6981     0.1600    14.6613    23.2036   -53.8210
  311.0000     7.0939     0.0072     2.3912    96.6517     0.1579    14.3672    23.2196   -54.6982
  311.5000     7.0907     0.0072     2.3958    95.6009     0.1558    14.2803    23.0790   -55.2783
  312.0000     7.0901     0.0072     2.3980    94.1106     0.1534    14.2909    22.7786   -54.0615
  312.5000     7.1194     0.0072     2.3987    93.8117     0.1553    14.2985    22.3280   -54.3497
  313.0000     7.2381     0.0086     2.3987    94.1106     0.1565    14.3078    22.0369   -54.9332
  313.5000     7.3122     0.0131     2.3987    92.6835     0.1574    14.3163    21.7448   -54.3184
  314.0000     7.3564     0.0190     2.3987    90.9716     0.1640    14.3248    21.4676   -53.7076
  314.5000     7.3707     0.0337     2.3942    91.4200     0.1735    14.1373    21.3344   -53.6919
  315.0000     7.3701     0.0396     2.3837    91.7239     0.1807    14.1478    21.3520   -53.9700
  315.5000     7.3695     0.0396     2.3731    91.4200     0.1819    14.0570    21.0706   -53.9543
