~VERSION INFORMATION
 VERS.                2.0:   CWLS LOG ASCII STANDARD - VERSION 2.0
 WRAP.                 NO:   ONE LINE PER DEPTH STEP
~WELL INFORMATION
#MNEM.UNIT      DATA TYPE    INFORMATION
#----------   ------------   ------------------------------
 STRT.F           32.0000:   START DEPTH
 STOP.F          501.0000:   STOP DEPTH
 STEP.F            0.5000:   STEP LENGTH
 NULL.          -999.2500:   NO VALUE
 COMP.    FENIX & SCISSON:   COMPANY
 WELL.    NPR "SX" #75-10:   WELL
 FLD .             TEAPOT:   FIELD
 LOC .      S10 T38N R78W:   LOCATION
 CNTY.            NATRONA:   COUNTY
 STAT.            WYOMING:   STATE
 CTRY. UNITED STATES OF AMERICA:   COUNTRY
 SRVC.              Welex:   SERVICE COMPANY
 DATE.        08-MAR-1977:   LOGDATE
 API .       490251029200:   API NUMBER
~CURVE INFORMATION
#MNEM.UNIT       API CODE    CURVE DESCRIPTION
#----------   ------------   ------------------------------
 DEPT.F                  :   
 SPR .MV     07 010 01 00:   SPONTANEOUS POTENTIAL
 ILD .OHMM   07 120 46 00:   INDUCTION LOG DEEP
 ILM .OHMM   07 120 44 00:   INDUCTION LOG MEDIUM
 SGRD.OHMM   07 221 05 00:   SHALLOW SHORT GUARD RESISTIVITY
 GRD .GAPI   45 310 01 00:   GAMMA RAY FROM DENSITY LOG
 CALD.IN     45 280 60 00:   CALIPER FROM DENSITY LOG
 CORR.G/C3   45 356 01 00:   DENSITY CORRECTION
 RHOB.G/C3   45 350 01 00:   BULK DENSITY
 DPHI.DEC    45 890 12 00:   DENSITY POROSITY SANDSTONE
~PARAMETER INFORMATION
#MNEM.UNIT          VALUE    DESCRIPTION
#----------   ------------   ------------------------------
 PD  .                 GL:   PERMANENT DATUM
 EPD .F              5184:   ELEVATION PERMANENT DATUM
 LMF .                 GL:   LOG MEASURED FROM
 DAPD.F                GL:   FEET ABOVE PERMANENT DATUM
 EGL .F              5184:   GROUND LEVEL
 DATE.          03-8-1977:   RUN DATE
 RUN .                  1:   RUN NUMBER
 DD  .F               510:   DEPTH DRILLER
 DL  .F               505:   DEPTH LOGGER
 BLI .F               503:   BOTTOM LOG INTERVAL
 TLI .F                35:   TOP LOG INTERVAL
 CS  .IN            8.625:   CASING SIZE
 CBD .F                42:   CASING BOTTOM DRILLER
 CBL .F                43:   CASING BOTTOM LOGGER
 BS  .IN            7.875:   BIT SIZE
 BSD .F               510:   BIT SIZE AT DEPTH
 DFT .            KCL MUD:   DRILLING FLUID TYPE
 DFD .                8.6:   DRILLING FLUID DENSITY
 DFV .                 36:   DRILLING FLUID VISCOSITY
 DFPH.                9.5:   DRILLING FLUID PH
 DFL .                  2:   DRILLING FLUID LOSS
 MSS .           FLOWLINE:   MUD SAMPLE SOURCE
 RMS .OHMM            .49:   RESISTIVITY MUD SAMPLE
 MST .F                56:   MUD SAMPLE TEMPERATURE
 RMF .OHMM            .42:   RESISTIVITY MUD FILTRATE SAMPLE
 MFST.F                56:   MUD FILTRATE SAMPLE TEMPERATURE
 RMC .OHMM            .62:   RESISTIVITY MUD CAKE
 MCST.F                56:   MUD CAKE SAMPLE TEMPERATURE
 MFSS.               MEAS:   MUD FILTRATE SAMPLE SOURCE
 MCSS.               MEAS:   MUD CAKE SAMPLE SOURCE
 RMB .OHMM            .44:   RESISTIVITY MUD AT BHT
 BHT .F                62:   BOTTOM HOLE TEMPERATURE
 TCS .HRS               2:   TIME CURCULATED STOPPED
 MRT .F                62:   MAXIMUM RECORDED TEMPERATURE
 LUN .               8611:   LOGGING UNIT NUMBER
 LUL .           GILLETTE:   LOGGING UNIT LOCATION
 ENGI.            C. DOAK:   RECORDING ENGINEER
 WITN.           S. BURNE:   WITNESSED BY
 CLNT.            A2DTECH:   CLIENT CODE
 ORIG.        2" 5" PRINT:   ORIGIN OF DATA
 UWI .       490251029200:   UNIQUE WELL ID
 DICO. A2D Technologies, Inc.:   DIGITIZING COMPANY
~OTHER INFORMATION
~A   DEPT      SPR        ILD        ILM       SGRD         GRD        CALD      CORR        RHOB     DPHI   
# ...
  433.5000   -39.4637     8.9354    12.1259    12.7078   109.0216     7.8213     0.0497     2.4679     0.1075
  434.0000   -39.7695     8.7482    11.1580    12.3583   112.3138     7.8077     0.0450     2.4590     0.1177
  434.5000   -40.0796     8.4474    10.2673    12.0185   112.9234     7.8094     0.0409     2.4493     0.1195
  435.0000   -40.2403     7.9878    10.2632    11.7690   113.6820     7.8110     0.0457     2.4524     0.1207
  435.5000   -40.5504     7.4011    10.1885    11.6849   115.9309     7.7977     0.0503     2.4660     0.1119
  436.0000   -40.8604     7.0001    10.0430    11.5992   120.1172     7.7845     0.0500     2.4570     0.1194
  436.5000   -41.0212     6.5753     9.6232    11.3604   123.8565     7.7861     0.0442     2.4383     0.1257
  437.0000   -41.1861     6.1763     8.6225    11.1239   128.3409     7.7729     0.0443     2.4320     0.1280
  437.5000   -41.4925     5.7615     7.9343    10.8180   132.5272     7.7745     0.0444     2.4210     0.1340
  438.0000   -41.5065     5.4871     7.4536    10.3762   131.6465     7.7762     0.0445     2.4006     0.1384
  438.5000   -41.6673     5.2620     7.0505     9.5486   130.6167     7.7778     0.0400     2.3905     0.1406
  439.0000   -41.8281     5.2589     7.0477     5.3821   128.0966     7.7795     0.0357     2.4058     0.1350
  439.5000   -41.9888     5.4037     7.1922     4.1390   124.2353     7.7960     0.0404     2.4306     0.1220
  440.0000   -42.0004     5.7079     7.5036     9.5997   114.7107     7.7976     0.0494     2.5013     0.0960
  440.5000   -42.0119     5.9056     8.3635    13.3775   113.9757     7.7993     0.0510     2.5072     0.0853
  441.0000   -42.0239     6.1652     8.8957    14.1334   115.9299     7.8009     0.0496     2.4982     0.0865
  441.5000   -41.8857     6.5568     9.3967    14.5262   116.8375     7.8026     0.0467     2.4903     0.0919
  442.0000   -41.9002     7.1053     9.9947    12.6485   117.8942     7.8042     0.0467     2.4797     0.0981
  442.5000   -41.9117     7.6624    10.4850    12.3858   118.3548     7.8058     0.0514     2.4873     0.0948
  443.0000   -41.6218     8.3204    10.9994    13.2677   118.0702     7.8224     0.0575     2.4933     0.0915
  443.5000   -41.4866     8.7888    11.3026    13.1729   116.7423     7.8240     0.0621     2.5017     0.0891
  444.0000   -41.2000     9.0933    11.5344    12.8993   115.4112     7.8257     0.0652     2.5062     0.0866
  444.5000   -41.0438     9.2792    11.3706    13.1649   115.4280     7.8273     0.0653     2.4921     0.0887
  445.0000   -40.7753     9.2738    10.9806    13.7181   115.4414     7.8289     0.0654     2.4839     0.0941
  445.5000   -40.6376     9.0795    10.9019    14.0994   117.0942     7.8306     0.0655     2.4690     0.1052
  446.0000   -40.4999     8.8280    11.5944    14.4894   118.8961     7.8322     0.0640     2.4533     0.1153
  446.5000   -40.5143     8.5245    11.7520    14.3858   120.9960     7.8190     0.0611     2.4361     0.1255
  447.0000   -40.5259     8.1185    10.5185    12.7012   122.6488     7.8058     0.0597     2.4257     0.1324
  447.5000   -40.5374     7.6258     8.5418    10.2409   123.2584     7.7776     0.0583     2.4122     0.1384
  448.0000   -40.8637     7.0027     7.9755     8.5977   125.9544     7.7640     0.0584     2.3921     0.1465
  448.5000   -41.1604     6.2787     8.3092     8.2711   127.1567     7.8107     0.0569     2.3704     0.1593
  449.0000   -41.6197     5.5424     7.4371     8.2688   120.9142     7.8272     0.0555     2.3449     0.1774
  449.5000   -41.7805     5.0294     5.2652     6.6738   117.9459     7.8437     0.0496     2.3338     0.1863
  450.0000   -42.1383     4.8418     4.6489     4.6623   116.9128     7.8298     0.0428     2.3446     0.1600
  450.5000   -42.4533     4.7470     4.7290     4.4775   118.2678     7.8279     0.0408     2.4015     0.1429
  451.0000   -42.7682     4.6870     5.0810     5.0591   121.1093     7.8260     0.0500     2.4473     0.1155
  451.5000   -43.0402     4.7825     5.8308     6.5751   122.7585     7.8241     0.0517     2.4723     0.1066
  452.0000   -43.2068     4.9131     5.9924     8.3125   123.6625     7.8222     0.0518     2.4668     0.1028
  452.5000   -43.5228     5.0830     6.2001     9.2810   125.9078     7.8211     0.0520     2.4763     0.1042
  453.0000   -43.6896     5.2951     6.6407     9.6048   131.1338     7.8084     0.0521     2.4827     0.0982
  453.5000   -43.7075     5.6341     7.2115     9.4701   132.6315     7.7948     0.0523     2.4805     0.0973
  454.0000   -43.8778     5.9646     7.4622     9.8673   129.3651     7.7961     0.0524     2.4836     0.0994
  454.5000   -44.1937     6.3690     7.6156    10.2112   126.5434     7.7825     0.0526     2.4761     0.1002
  455.0000   -44.2111     6.6348     7.6728    10.2799   120.1449     7.7987     0.0512     2.4799     0.0984
  455.5000   -44.2285     6.7701     8.0974    10.0657   123.1354     7.8000     0.0484     2.4747     0.1008
  456.0000   -44.3952     6.8142     8.4368     9.8567   126.7220     7.8162     0.0455     2.4650     0.1074
  456.5000   -44.4126     6.8577     8.6103     9.9224   128.8183     7.8324     0.0411     2.4718     0.1047
  457.0000   -44.7285     6.9493     8.5482    10.0577   127.1888     7.8512     0.0382     2.4629     0.1097
  457.5000   -45.0448     6.9929     8.3128    10.2654   130.0302     7.9271     0.0414     2.4705     0.1058
  458.0000   -45.0662     7.0858     8.1398    10.3337   133.4678     7.8812     0.0461     2.4728     0.1046
  458.5000   -45.2328     7.0823     8.5396    10.3302   131.9873     7.9123     0.0477     2.4773     0.0992
  459.0000   -45.5487     7.0784     8.8388    10.2564   130.0598     8.0029     0.0479     2.4789     0.0985
  459.5000   -45.7154     7.0738     8.9562    10.5408   126.1948     8.0042     0.0450     2.4737     0.1039
  460.0000   -46.0313     7.0700     8.7690    11.0597   124.4163     7.9608     0.0361     2.4610     0.1138
  460.5000   -46.3472     7.0661     8.7661    11.2113   123.9791     7.8728     0.0241     2.4520     0.1180
  461.0000   -46.5139     7.0137     8.8245    11.1304   125.7974     7.8295     0.0169     2.4491     0.1187
  461.5000   -46.8299     7.0100     8.7602    10.9748   126.6964     7.8156     0.0218     2.4484     0.1182
  462.0000   -46.9970     6.9580     8.5189    10.1694   127.1386     7.8172     0.0294     2.4515     0.1191
  462.5000   -47.3167     6.9542     8.4575     8.7093   126.8008     7.8334     0.0357     2.4673     0.1148
  463.0000   -47.4834     6.9505     8.7514     8.2624   124.9250     7.8347     0.0416     2.4681     0.1064
  463.5000   -47.6500     6.9467     9.2564     9.7482   121.8052     7.8360     0.0433     2.4734     0.1055
  464.0000   -47.9659     6.9429     9.7106    10.8839   120.7693     7.8521     0.0434     2.4826     0.1008
  464.5000   -48.2818     6.9383     9.8305    11.4989   124.2094     7.8534     0.0436     2.4885     0.0941
  465.0000   -48.2992     6.9346     9.4932    11.5755   127.6469     7.8547     0.0437     2.4833     0.0959
  465.5000   -48.6151     6.9798     9.0426    11.5723   130.7865     7.8560     0.0469     2.4918     0.0919
  466.0000   -48.7921     7.0721     8.8544    11.4106   126.7725     7.8722     0.0560     2.4947     0.0904
  466.5000   -48.9528     7.1173     8.9134    11.0204   123.9507     7.8735     0.0577     2.4850     0.0964
  467.0000   -49.1195     7.1134     8.9097    10.4818   120.0858     7.8897     0.0594     2.4880     0.0973
  467.5000   -49.4354     7.1096     8.9067    10.1387   116.9660     7.8758     0.0625     2.4889     0.0943
  468.0000   -49.4528     6.9601     8.9654    10.5640   116.3772     7.8774     0.0657     2.4814     0.0957
  468.5000   -49.6194     6.8593     8.9000    10.8569   119.8173     7.8638     0.0688     2.4762     0.1032
  469.0000   -49.6368     6.6642     8.8358    10.9299   123.5529     7.8651     0.0720     2.4733     0.1119
  469.5000   -49.8035     6.3515     8.7118    10.9262   124.4569     7.8367     0.0752     2.4471     0.1173
