~VERSION INFORMATION
 VERS.                2.0:   CWLS LOG ASCII STANDARD - VERSION 2.0
 WRAP.                 NO:   ONE LINE PER DEPTH STEP
~WELL INFORMATION
#MNEM.UNIT      DATA TYPE    INFORMATION
#----------   ------------   ------------------------------
 STRT.F           84.0000:   START DEPTH
 STOP.F          849.5000:   STOP DEPTH
 STEP.F            0.5000:   STEP LENGTH
 NULL.          -999.2500:   NO VALUE
 COMP. U S NAVY/INTEX OIL CO:   COMPANY
 WELL.     NPR 3 #81-S-34:   WELL
 FLD .        TEAPOT DOME:   FIELD
 LOC .      S34 T39N R78W:   LOCATION
 CNTY.            NATRONA:   COUNTY
 STAT.            WYOMING:   STATE
 CTRY. UNITED STATES OF AMERICA:   COUNTRY
 SRVC.       Schlumberger:   SERVICE COMPANY
 DATE.        29-JUL-1963:   LOGDATE
 API .       490250656700:   API NUMBER
~CURVE INFORMATION
#MNEM.UNIT       API CODE    CURVE DESCRIPTION
#----------   ------------   ------------------------------
 DEPT.F                  :   
 CALS.IN     60 280 50 00:   CALIPER FROM SONIC LOG
 DT  .US/F   60 520 33 00:   INTERVAL TRANSIT TIME
 SPR .MV     05 010 01 00:   SPONTANEOUS POTENTIAL FROM RES.
 ILD .OHMM   05 120 46 00:   INDUCTION LOG DEEP
 ASN .OHMM   05 041 16 00:   AMPLIFIED SHORT NORMAL 16"
 CILD.MMHO   05 110 46 00:   CONDUCTIVITY INDUCTION LOG DEEP
 GR  .GAPI   30 310 01 00:   GAMMA RAY FROM RES.
~PARAMETER INFORMATION
#MNEM.UNIT          VALUE    DESCRIPTION
#----------   ------------   ------------------------------
 PD  .                 GL:   PERMANENT DATUM
 EPD .F              5067:   ELEVATION PERMANENT DATUM
 LMF .                 KB:   LOG MEASURED FROM
 DAPD.F                 5:   FEET ABOVE PERMANENT DATUM
 DMF .                 KB:   DRILLING MEASURED FROM
 EKB .F              5072:   KELLING BUSHING
 EGL .F              5067:   GROUND LEVEL
 DATE.          7-29-1963:   RUN DATE
 RUN .                  1:   RUN NUMBER
 DD  .F               850:   DEPTH DRILLER
 DL  .F               850:   DEPTH LOGGER
 BLI .F               849:   BOTTOM LOG INTERVAL
 TLI .F                90:   TOP LOG INTERVAL
 CS  .IN            8.625:   CASING SIZE
 CBD .F                10:   CASING BOTTOM DRILLER
 BS  .IN            7.875:   BIT SIZE
 BSD .F               850:   BIT SIZE AT DEPTH
 DFT .            GEL-OIL:   DRILLING FLUID TYPE
 DFD .                9.4:   DRILLING FLUID DENSITY
 DFV .                 40:   DRILLING FLUID VISCOSITY
 DFPH.                  9:   DRILLING FLUID PH
 DFL .                8.4:   DRILLING FLUID LOSS
 MSS .           FLOWLINE:   MUD SAMPLE SOURCE
 RMS .OHMM           3.08:   RESISTIVITY MUD SAMPLE
 MST .F                79:   MUD SAMPLE TEMPERATURE
 RMF .OHMM           2.39:   RESISTIVITY MUD FILTRATE SAMPLE
 MFST.F                79:   MUD FILTRATE SAMPLE TEMPERATURE
 RMC .OHMM           3.29:   RESISTIVITY MUD CAKE
 MCST.F                79:   MUD CAKE SAMPLE TEMPERATURE
 MFSS.                 MP:   MUD FILTRATE SAMPLE SOURCE
 MCSS.                 MP:   MUD CAKE SAMPLE SOURCE
 TCS .HRS               1:   TIME CURCULATED STOPPED
 LUN .               4507:   LOGGING UNIT NUMBER
 LUL .              CSPR.:   LOGGING UNIT LOCATION
 ENGI.             KNOBEL:   RECORDING ENGINEER
 WITN.          JORGENSON:   WITNESSED BY
 CLNT.            A2DTECH:   CLIENT CODE
 ORIG.           5" PRINT:   ORIGIN OF DATA
 UWI .       490250656700:   UNIQUE WELL ID
 DICO. A2D Technologies, Inc.:   DIGITIZING COMPANY
~OTHER INFORMATION
~A   DEPT     CALS         DT        SPR        ILD        ASN       CILD         GR   
   84.0000  -999.2500  -999.2500   -66.0896  -999.2500  -999.2500  -999.2500  -999.2500
   84.5000  -999.2500  -999.2500   -65.0947  -999.2500  -999.2500  -999.2500  -999.2500
   85.0000  -999.2500  -999.2500   -64.0924  -999.2500  -999.2500  -999.2500  -999.2500
   85.5000  -999.2500  -999.2500   -63.0893  -999.2500  -999.2500  -999.2500  -999.2500
   86.0000  -999.2500  -999.2500   -62.0884  -999.2500  -999.2500  -999.2500  -999.2500
   86.5000  -999.2500  -999.2500   -61.2101  -999.2500  -999.2500  -999.2500  -999.2500
   87.0000  -999.2500  -999.2500   -60.3634  -999.2500  -999.2500  -999.2500  -999.2500
   87.5000  -999.2500  -999.2500   -59.4634  -999.2500  -999.2500  -999.2500  -999.2500
   88.0000  -999.2500  -999.2500   -58.4031  -999.2500  -999.2500  -999.2500  -999.2500
   88.5000  -999.2500  -999.2500   -57.3148  -999.2500  -999.2500  -999.2500  -999.2500
   89.0000  -999.2500  -999.2500   -56.2261  -999.2500  -999.2500  -999.2500  -999.2500
   89.5000  -999.2500  -999.2500   -55.1381  -999.2500  -999.2500  -999.2500  -999.2500
   90.0000  -999.2500  -999.2500   -54.0499     6.2424     2.6886   163.8991  -999.2500
   90.5000  -999.2500  -999.2500   -52.9598     6.2594     2.8147   164.5267  -999.2500
   91.0000  -999.2500  -999.2500   -51.8608     6.2807     2.9470   165.1543  -999.2500
   91.5000  -999.2500  -999.2500   -51.4663     6.3019     3.0802   165.7950  -999.2500
   92.0000  -999.2500  -999.2500   -51.2142     6.3233     3.2132   164.7489  -999.2500
   92.5000  -999.2500  -999.2500   -50.9653     6.3943     3.3459   162.7945  -999.2500
   93.0000  -999.2500  -999.2500   -50.7150     6.5208     3.4789   159.8877  -999.2500
   93.5000  -999.2500  -999.2500   -50.4645     6.5704     3.6143   156.9808  -999.2500
   94.0000  -999.2500  -999.2500   -50.2138     6.6463     3.8921   154.0740  -999.2500
   94.5000  -999.2500  -999.2500   -49.9637     6.7213     4.4054   152.1967  -999.2500
   95.0000  -999.2500  -999.2500   -49.7142     6.7958     4.9669   152.1967  -999.2500
   95.5000  -999.2500  -999.2500   -49.5757     6.8565     5.7821   152.1967  -999.2500
   96.0000  -999.2500  -999.2500   -49.4368     6.9206     6.6080   152.1967  -999.2500
   96.5000  -999.2500  -999.2500   -49.2974     7.0651     7.4456   152.1967  -999.2500
   97.0000  -999.2500  -999.2500   -49.1591     7.0420     7.8270   152.1967  -999.2500
   97.5000  -999.2500  -999.2500   -49.0219     7.0227     8.0177   152.1967  -999.2500
   98.0000  -999.2500  -999.2500   -48.8859     7.0055     8.0863   152.1967  -999.2500
   98.5000  -999.2500  -999.2500   -48.6997     6.9883     8.2314   152.1967  -999.2500
   99.0000  -999.2500  -999.2500   -48.5452     6.9710     8.2080   152.1967  -999.2500
   99.5000  -999.2500  -999.2500   -48.4654     6.9425     8.1955   153.5789  -999.2500
  100.0000  -999.2500  -999.2500   -47.9479     6.8480     8.2333   155.3721  -999.2500
  100.5000  -999.2500  -999.2500   -47.4284     6.7532     8.1916   157.1653  -999.2500
  101.0000  -999.2500  -999.2500   -46.9115     6.6605     7.9787   158.9585  -999.2500
  101.5000  -999.2500  -999.2500   -46.4372     6.5672     7.7593   160.7517  -999.2500
  102.0000  -999.2500  -999.2500   -46.4483     6.4366     7.7768   162.0220  -999.2500
  102.5000  -999.2500  -999.2500   -46.4503     6.4339     7.7577   162.8112  -999.2500
  103.0000  -999.2500  -999.2500   -46.4748     6.4347     7.5802   163.6004  -999.2500
  103.5000  -999.2500  -999.2500   -46.6838     6.3466     7.4231   164.3856  -999.2500
  104.0000  -999.2500  -999.2500   -46.8938     6.2297     7.3142   166.5089  -999.2500
  104.5000  -999.2500  -999.2500   -47.0518     6.1148     7.2861   169.7640  -999.2500
  105.0000  -999.2500  -999.2500   -46.7869     6.0189     7.2607   173.1172  -999.2500
  105.5000  -999.2500  -999.2500   -46.5234     5.9129     7.2275   174.2618  -999.2500
  106.0000  -999.2500  -999.2500   -46.2616     5.9109     7.1385   175.2700  -999.2500
  106.5000  -999.2500  -999.2500   -46.0036     5.9099     7.0452   175.4344  -999.2500
  107.0000  -999.2500  -999.2500   -45.8353     5.9100     6.9540   175.5988  -999.2500
  107.5000  -999.2500  -999.2500   -45.8829     5.9099     6.8838   175.7633  -999.2500
  108.0000  -999.2500  -999.2500   -45.9262     5.9090     6.9214   175.9277  -999.2500
  108.5000  -999.2500  -999.2500   -45.9693     5.9188     6.9033   176.0921  -999.2500
  109.0000  -999.2500  -999.2500   -46.0145     5.8055     6.8397   176.2552  -999.2500
  109.5000  -999.2500  -999.2500   -45.8159     5.7048     6.8096   177.7705  -999.2500
  110.0000  -999.2500  -999.2500   -45.4124     5.7033     6.8247   180.3739  -999.2500
  110.5000  -999.2500  -999.2500   -45.0063     5.5970     6.9334   183.6624  -999.2500
  111.0000  -999.2500  -999.2500   -44.9049     5.4342     6.8274   186.9371  -999.2500
  111.5000  -999.2500  -999.2500   -44.8192     5.2704     6.6587   190.5472  -999.2500
  112.0000  -999.2500  -999.2500   -44.6989     5.1773     6.4937   193.5437  -999.2500
  112.5000  -999.2500  -999.2500   -44.5905     5.1770     6.3587   196.0550  -999.2500
  113.0000  -999.2500  -999.2500   -44.7491     5.1745     6.2257   198.5605  -999.2500
  113.5000  -999.2500  -999.2500   -44.9050     5.0663     6.1966   201.0659  -999.2500
  114.0000  -999.2500  -999.2500   -45.0601     5.0711     6.2177   202.4059  -999.2500
  114.5000  -999.2500  -999.2500   -45.2158     5.0721     6.0548   201.3598  -999.2500
  115.0000  -999.2500  -999.2500   -45.3791     5.1163     5.9499   199.3828  -999.2500
  115.5000  -999.2500  -999.2500   -45.2172     5.1656     6.2090   197.5413  -999.2500
  116.0000  -999.2500  -999.2500   -44.9694     5.2150     6.4769   195.6998  -999.2500
  116.5000  -999.2500  -999.2500   -44.7198     5.2644     6.4822   194.0377  -999.2500
  117.0000  -999.2500  -999.2500   -44.4696     5.3135     6.4231   192.8347  -999.2500
  117.5000  -999.2500  -999.2500   -44.4044     5.3631     6.3664   191.7386  -999.2500
  118.0000  -999.2500  -999.2500   -44.5705     5.3779     6.3100   190.6424  -999.2500
  118.5000  -999.2500  -999.2500   -44.4147     5.3614     6.2534   189.5463  -999.2500
  119.0000  -999.2500  -999.2500   -43.9699     5.3444     6.1933   188.9032  -999.2500
  119.5000  -999.2500  -999.2500   -44.1176     5.3274     6.2057   189.6548  -999.2500
  120.0000  -999.2500  -999.2500   -44.1477     5.3104     6.3186   190.4065  -999.2500
  120.5000  -999.2500  -999.2500   -43.9349     5.2938     6.3833   192.2568  -999.2500
  121.0000  -999.2500  -999.2500   -43.7108     5.2839     6.4097   196.2029  -999.2500
  121.5000  -999.2500  -999.2500   -43.6002     5.2123     6.3125   200.1491  -999.2500
  122.0000  -999.2500  -999.2500   -44.0682     5.1198     6.2058   204.0952  -999.2500
  122.5000  -999.2500  -999.2500   -44.1545     5.0271     6.1013   208.0413  -999.2500
  123.0000  -999.2500  -999.2500   -44.1556     4.9358     5.9851   211.9875  -999.2500
  123.5000  -999.2500  -999.2500   -44.1302     4.8485     5.8264   213.5425  -999.2500
  124.0000  -999.2500  -999.2500   -43.9878     4.7593     5.7231   214.7118  -999.2500
  124.5000  -999.2500  -999.2500   -43.8474     4.6571     5.6562   214.9582  -999.2500
  125.0000  -999.2500  -999.2500   -43.7398     4.8678     5.6787   212.2955  -999.2500
  125.5000  -999.2500  -999.2500   -43.9262     4.8621     5.7535   211.3389  -999.2500
  126.0000  -999.2500  -999.2500   -44.1204     4.8632     5.9261   209.5065  -999.2500
  126.5000  -999.2500  -999.2500   -44.1560     4.9293     6.0986   206.4115  -999.2500
  127.0000  -999.2500  -999.2500   -44.0316     5.0351     6.1092   203.3165  -999.2500
  127.5000  -999.2500  -999.2500   -43.8315     5.0436     6.0298   200.3138  -999.2500
  128.0000  -999.2500  -999.2500   -43.6302     4.9990     5.9542   202.5239  -999.2500
  128.5000  -999.2500  -999.2500   -43.4290     4.9531     5.9359   204.4255  -999.2500
  129.0000  -999.2500  -999.2500   -43.2283     4.9069     5.9177   206.3171  -999.2500
