~VERSION INFORMATION
 VERS.                2.0:   CWLS LOG ASCII STANDARD - VERSION 2.0
 WRAP.                 NO:   ONE LINE PER DEPTH STEP
~WELL INFORMATION
#MNEM.UNIT      DATA TYPE    INFORMATION
#----------   ------------   ------------------------------
 STRT.F            0.0000:   START DEPTH
 STOP.F          978.0000:   STOP DEPTH
 STEP.F            0.5000:   STEP LENGTH
 NULL.          -999.2500:   NO VALUE
 COMP. FENIX & SCISSON INC:   COMPANY
 WELL. N.P.R #3 SX-14 #53:   WELL
 FLD .             TEAPOT:   FIELD
 LOC .      S14 T38N R78W:   LOCATION
 CNTY.            NATRONA:   COUNTY
 STAT.            WYOMING:   STATE
 CTRY. UNITED STATES OF AMERICA:   COUNTRY
 SRVC.              Welex:   SERVICE COMPANY
 DATE.        06-MAR-1977:   LOGDATE
 API .       490251029800:   API NUMBER
~CURVE INFORMATION
#MNEM.UNIT       API CODE    CURVE DESCRIPTION
#----------   ------------   ------------------------------
 DEPT.F                  :   
 SPR .MV     07 010 01 00:   SPONTANEOUS POTENTIAL
 SGRD.OHMM   07 220 05 00:   SHALLOW RESISTIVITY
 ILD .OHMM   07 120 46 00:   INDUCTION LOG DEEP
 ILM .OHMM   07 120 44 00:   INDUCTION LOG MEDIUM
 GRD .GAPI   45 310 01 00:   GAMMA RAY FROM DENSITY LOG
 CALD.IN     45 280 60 00:   CALIPER
 RHOB.G/C3   45 350 01 00:   BULK DENSITY
 DPHI.DEC    45 890 12 00:   DENSITY POROSITY SANDSTONE
 CORR.G/C3   45 356 01 00:   DENSITY CORRECTION
~PARAMETER INFORMATION
#MNEM.UNIT          VALUE    DESCRIPTION
#----------   ------------   ------------------------------
 PD  .                 GL:   PERMANENT DATUM
 EPD .F              5230:   ELEVATION PERMANENT DATUM
 LMF .                 GL:   LOG MEASURED FROM
 DMF .                 GL:   DRILLING MEASURED FROM
 EGL .F              5230:   GROUND LEVEL
 DATE.             3-6-77:   RUN DATE
 RUN .                  1:   RUN NUMBER
 DD  .F               989:   DEPTH DRILLER
 DL  .F               980:   DEPTH LOGGER
 BLI .F               978:   BOTTOM LOG INTERVAL
 TLI .F                50:   TOP LOG INTERVAL
 CS  .IN            8.625:   CASING SIZE
 CBD .F                42:   CASING BOTTOM DRILLER
 CBL .F                42:   CASING BOTTOM LOGGER
 BS  .IN            7.875:   BIT SIZE
 BSD .F               989:   BIT SIZE AT DEPTH
 DFT .            KCL MUD:   DRILLING FLUID TYPE
 DFD .                8.4:   DRILLING FLUID DENSITY
 DFV .                 30:   DRILLING FLUID VISCOSITY
 DFPH.                7.2:   DRILLING FLUID PH
 DFL .               14.4:   DRILLING FLUID LOSS
 MSS .            MUD PIT:   MUD SAMPLE SOURCE
 RMS .OHMM            .41:   RESISTIVITY MUD SAMPLE
 MST .F                48:   MUD SAMPLE TEMPERATURE
 RMF .OHMM            .39:   RESISTIVITY MUD FILTRATE SAMPLE
 MFST.F                48:   MUD FILTRATE SAMPLE TEMPERATURE
 RMC .OHMM            .55:   RESISTIVITY MUD CAKE
 MCST.F                48:   MUD CAKE SAMPLE TEMPERATURE
 MFSS.           FANN KIT:   MUD FILTRATE SAMPLE SOURCE
 MCSS.           FANN KIT:   MUD CAKE SAMPLE SOURCE
 RMB .OHMM            .34:   RESISTIVITY MUD AT BHT
 BHT .F                58:   BOTTOM HOLE TEMPERATURE
 TCS .HRS               2:   TIME CURCULATED STOPPED
 MRT .F                58:   MAXIMUM RECORDED TEMPERATURE
 LUN .               8611:   LOGGING UNIT NUMBER
 LUL .           GILLETTE:   LOGGING UNIT LOCATION
 ENGI.            C. DOAK:   RECORDING ENGINEER
 WITN.           S. BURKE:   WITNESSED BY
 CLNT.            A2DTECH:   CLIENT CODE
 ORIG.        2" 5" PRINT:   ORIGIN OF DATA
 UWI .       490251029800:   UNIQUE WELL ID
 DICO. A2D Technologies, Inc.:   DIGITIZING COMPANY
~OTHER INFORMATION
~A    DEPT     SPR       SGRD        ILD        ILM        GRD       CALD       RHOB       DPHI       CORR   
# ...
  109.5000   -30.2585     9.4852     6.3746     7.8405   132.2829     7.8227     2.4383     0.1264     0.0477
  110.0000   -30.2579     9.2029     6.2448     7.6506   130.4580     7.8227     2.4434     0.1226     0.0491
  110.5000   -30.2541     8.9974     6.1176     7.4653   131.1926     7.8227     2.4483     0.1189     0.0503
  111.0000   -30.2444     9.3321     5.9929     7.2844   132.4549     7.8227     2.4534     0.1159     0.0495
  111.5000   -30.2349     9.2465     5.8709     7.1079   131.8216     7.8227     2.4584     0.1131     0.0487
  112.0000   -30.2253     9.0864     5.7512     6.9357   130.9504     7.8227     2.4631     0.1104     0.0480
  112.5000   -30.2157     8.7822     5.6340     6.7677   130.7742     7.8227     2.4623     0.1107     0.0472
  113.0000   -30.2061     8.1767     5.5194     6.6038   130.7759     7.8227     2.4613     0.1115     0.0464
  113.5000   -30.1965     7.3093     5.3795     6.4049   130.9782     7.8227     2.4604     0.1126     0.0457
  114.0000   -30.1869     6.8353     5.4360     6.5218   131.8333     7.8227     2.4594     0.1138     0.0449
  114.5000   -30.1773     8.3751     5.5120     6.6803   133.1841     7.8227     2.4585     0.1141     0.0441
  115.0000   -30.1677     8.4297     5.5890     6.8427   132.9999     7.8227     2.4575     0.1137     0.0434
  115.5000   -30.1581     8.5504     5.6670     7.0090   131.6620     7.8227     2.4566     0.1145     0.0426
  116.0000   -30.1486     8.6811     5.7462     7.1793   131.4820     7.8227     2.4544     0.1158     0.0419
  116.5000   -30.1390     8.8137     5.8265     7.3172   131.9356     7.8227     2.4512     0.1172     0.0411
  117.0000   -30.1294     8.9793     5.9080     7.4021   132.4066     7.8227     2.4480     0.1185     0.0404
  117.5000   -30.1198     9.2418     5.9902     7.4879   132.8788     7.8227     2.4448     0.1199     0.0396
  118.0000   -30.1102     9.4191     6.0616     7.5751   133.5034     7.8227     2.4415     0.1211     0.0388
  118.5000   -30.1006     8.8327     6.0530     7.6958   134.3876     7.8227     2.4436     0.1201     0.0381
  119.0000   -30.0910     8.8104     6.0455     7.6429   135.2926     7.8227     2.4463     0.1191     0.0373
  119.5000   -30.0814     8.7881     6.0381     7.5550   135.0801     7.8227     2.4493     0.1181     0.0365
  120.0000   -30.0718     8.7660     6.0307     7.4691   135.2225     7.8227     2.4588     0.1134     0.0384
  120.5000   -30.0617     8.6748     6.0233     7.3841   136.0702     7.8227     2.4685     0.1078     0.0409
  121.0000   -30.0658     8.4690     6.0157     7.3503   136.7325     7.8227     2.4786     0.1022     0.0434
  121.5000   -30.0744     8.2071     6.0065     7.3507   136.5232     7.8227     2.4829     0.0975     0.0459
  122.0000   -30.0832     8.2898     6.0398     7.3506   136.3955     7.8227     2.4857     0.0956     0.0484
  122.5000   -30.0919     8.4574     6.0898     7.3508   138.1470     7.8227     2.4814     0.0989     0.0501
  123.0000   -30.1006     8.7504     6.1398     7.3508   140.1284     7.8227     2.4755     0.1031     0.0487
  123.5000   -30.1093     9.5060     6.1902     7.5489   141.8806     7.8227     2.4695     0.1073     0.0472
  124.0000   -30.1180     9.0402     6.2410     7.7493   139.4748     7.8227     2.4636     0.1116     0.0458
  124.5000   -30.1267     8.6755     6.2922     7.9549   135.0942     7.8227     2.4577     0.1152     0.0444
  125.0000   -30.1354     9.2662     6.3439     8.2063   130.6006     7.8227     2.4559     0.1155     0.0457
  125.5000   -30.1441     9.8144     6.3960     8.0820   129.8234     7.8227     2.4571     0.1144     0.0472
  126.0000   -30.1528    10.2306     6.4639     7.9310   130.5570     7.8227     2.4585     0.1132     0.0487
  126.5000   -30.1615     9.2350     6.3854     7.7824   131.2472     7.8227     2.4598     0.1120     0.0502
  127.0000   -30.1702     8.8302     6.2758     7.6365   131.7871     7.8227     2.4610     0.1112     0.0517
  127.5000   -30.1789     8.6818     6.1677     7.4934   131.5780     7.8227     2.4565     0.1127     0.0516
  128.0000   -30.1876     8.5359     6.0617     7.3530   129.9512     7.8231     2.4515     0.1158     0.0501
  128.5000   -30.1963     8.3588     5.9574     7.2546   125.7362     7.8238     2.4465     0.1185     0.0487
  129.0000   -30.2050     8.1116     5.8550     7.1966   121.5581     7.8245     2.4414     0.1207     0.0473
  129.5000   -30.2137     8.0006     5.7544     7.1391   117.3791     7.8252     2.4364     0.1231     0.0459
  130.0000   -30.2224     7.9278     5.6840     7.0865   113.2666     7.8259     2.4331     0.1236     0.0444
  130.5000   -30.2311     7.8556     5.6207     7.0149   110.1111     7.8267     2.4406     0.1210     0.0452
  131.0000   -30.2398     7.7672     5.5581     6.9341   107.1742     7.8274     2.4480     0.1185     0.0460
  131.5000   -30.2481     7.8818     5.4961     6.8541   104.2416     7.8281     2.4524     0.1160     0.0469
  132.0000   -30.2583     8.0578     5.4349     6.7751   101.6440     7.8288     2.4529     0.1148     0.0478
  132.5000   -30.3497     7.8388     5.3795     6.6962   101.2792     7.8295     2.4534     0.1144     0.0486
  133.0000   -30.4502     7.0209     5.4205     6.6449   102.7536     7.8302     2.4538     0.1141     0.0495
  133.5000   -30.5506     8.0578     5.4584     6.7115   104.6018     7.8309     2.4539     0.1151     0.0503
  134.0000   -30.6508     7.8924     5.4967     6.7625   105.6313     7.8317     2.4530     0.1155     0.0512
  134.5000   -30.7514     7.6258     5.5353     6.8140   105.4816     7.8324     2.4614     0.1116     0.0521
  135.0000   -30.8512     7.9257     5.5740     6.8659   104.4383     7.8331     2.4714     0.1069     0.0532
  135.5000   -30.9049     8.3824     5.6131     6.9181   104.7177     7.8338     2.4760     0.1027     0.0542
  136.0000   -30.9568     8.6720     5.6525     6.9708   104.1941     7.8345     2.4713     0.1087     0.0515
  136.5000   -31.0091     7.8400     5.6921     7.0209   101.8134     7.8352     2.4592     0.1167     0.0485
  137.0000   -31.0614     7.8499     5.7320     7.0209   100.3474     7.8360     2.4412     0.1247     0.0455
  137.5000   -31.1137     7.8758     5.7895     7.1068    99.8151     7.8367     2.4233     0.1326     0.0425
  138.0000   -31.1660     7.8965     5.7731     7.2283    99.3274     7.8374     2.4199     0.1350     0.0395
  138.5000   -31.2183     8.1216     5.7434     7.3518    98.8361     7.8381     2.4185     0.1366     0.0366
  139.0000   -31.2706     9.0979     5.7141     7.4186    98.3395     7.8388     2.4175     0.1379     0.0393
  139.5000   -31.3230    10.0377     5.6849     7.2562    98.1092     7.8396     2.4252     0.1333     0.0425
  140.0000   -31.3753     7.8445     5.6560     7.1475    98.2546     7.8403     2.4332     0.1286     0.0456
  140.5000   -31.4276     7.9188     5.6271     7.0404    99.1949     7.8410     2.4413     0.1240     0.0487
  141.0000   -31.4799     8.0551     5.5985     6.9349   100.1259     7.8417     2.4475     0.1195     0.0518
  141.5000   -31.5322     7.7346     5.5699     6.8311   101.0568     7.8423     2.4423     0.1208     0.0542
  142.0000   -31.5845     7.4415     5.5297     6.7059   101.9886     7.8486     2.4371     0.1231     0.0527
  142.5000   -31.6368     7.2147     5.5412     6.7760   102.8985     7.8572     2.4355     0.1237     0.0513
  143.0000   -31.6891     7.5020     5.5610     6.8678   102.8961     7.8659     2.4358     0.1238     0.0499
  143.5000   -31.7415     7.9798     5.5808     6.9608   101.2857     7.8747     2.4359     0.1244     0.0484
  144.0000   -31.7942     8.5142     5.6007     7.0550    99.6978     7.8810     2.4332     0.1254     0.0486
  144.5000   -31.8455     8.4652     5.6206     7.1508    98.1040     7.8490     2.4305     0.1264     0.0488
  145.0000   -31.7924     8.4080     5.6627     7.1754    96.4508     7.8168     2.4279     0.1274     0.0490
  145.5000   -31.7274     8.3604     5.7357     7.1993    96.5627     7.8035     2.4251     0.1284     0.0493
