~VERSION INFORMATION
 VERS.                2.0:   CWLS LOG ASCII STANDARD - VERSION 2.0
 WRAP.                 NO:   ONE LINE PER DEPTH STEP
~WELL INFORMATION
#MNEM.UNIT      DATA TYPE    INFORMATION
#----------   ------------   ------------------------------
 STRT.F           34.0000:   START DEPTH
 STOP.F          496.0000:   STOP DEPTH
 STEP.F            0.5000:   STEP LENGTH
 NULL.          -999.2500:   NO VALUE
 COMP. LAWRENCE/ALLISON INC:   COMPANY
 WELL.   55-55 SX FI #3-3:   WELL
 FLD .             TEAPOT:   FIELD
 LOC .       S3 T38N R78W:   LOCATION
 CNTY.            NATRONA:   COUNTY
 STAT.            WYOMING:   STATE
 CTRY. UNITED STATES OF AMERICA:   COUNTRY
 SRVC.       Schlumberger:   SERVICE COMPANY
 DATE.        18-JUL-1982:   LOGDATE
 API .       490251089500:   API NUMBER
~CURVE INFORMATION
#MNEM.UNIT       API CODE    CURVE DESCRIPTION
#----------   ------------   ------------------------------
 DEPT.F                  :   
 CALD.IN     45 280 60 00:   CALIPER FROM DENSITY LOG
 GRD .GAPI   45 310 01 00:   GAMMA RAY FROM DENSITY LOG
 CORR.G/C3   45 356 01 00:   DENSITY CORRECTION
 RHOB.G/C3   45 350 01 00:   BULK DENSITY
 DPHI.DEC    45 890 12 00:   DENSITY POROSITY SANDSTONE
 SPR .MV     07 010 01 00:   SPONTANEOUS POTENTIAL
 ILD .OHMM   07 120 46 00:   INDUCTION LOG DEEP
 ILM .OHMM   07 120 44 00:   INDUCTION LOG MEDIUM
 SFL .OHMM   07 220 01 00:   SHALLOW FOCUSED LOG RESISTIVITY
~PARAMETER INFORMATION
#MNEM.UNIT          VALUE    DESCRIPTION
#----------   ------------   ------------------------------
 PD  .                 GL:   PERMANENT DATUM
 EPD .F              5167:   ELEVATION PERMANENT DATUM
 LMF .                 KB:   LOG MEASURED FROM
 DAPD.F                 9:   FEET ABOVE PERMANENT DATUM
 DMF .                 KB:   DRILLING MEASURED FROM
 EKB .F              5176:   KELLING BUSHING
 EDF .F                  :   DRILLING FLOOR
 EGL .F              5167:   GROUND LEVEL
 DATE.        18-JUL-1982:   RUN DATE
 RUN .                  1:   RUN NUMBER
 DD  .F               500:   DEPTH DRILLER
 DL  .F               499:   DEPTH LOGGER
 BLI .F               436:   BOTTOM LOG INTERVAL
 TLI .F                50:   TOP LOG INTERVAL
 CS  .IN           13.375:   CASING SIZE
 CBD .F                50:   CASING BOTTOM DRILLER
 CBL .F                50:   CASING BOTTOM LOGGER
 BS  .IN            12.25:   BIT SIZE
 BSD .F               500:   BIT SIZE AT DEPTH
 DFT .         KCL FILLED:   DRILLING FLUID TYPE
 DFD .                   :   DRILLING FLUID DENSITY
 DFV .                   :   DRILLING FLUID VISCOSITY
 DFPH.                   :   DRILLING FLUID PH
 DFL .                   :   DRILLING FLUID LOSS
 MSS .           WELLHEAD:   MUD SAMPLE SOURCE
 RMS .OHMM           2.82:   RESISTIVITY MUD SAMPLE
 MST .F                80:   MUD SAMPLE TEMPERATURE
 RMF .OHMM               :   RESISTIVITY MUD FILTRATE SAMPLE
 MFST.F                  :   MUD FILTRATE SAMPLE TEMPERATURE
 RMC .OHMM               :   RESISTIVITY MUD CAKE
 MCST.F                  :   MUD CAKE SAMPLE TEMPERATURE
 MFSS.                   :   MUD FILTRATE SAMPLE SOURCE
 MCSS.                   :   MUD CAKE SAMPLE SOURCE
 RMB .OHMM           2.62:   RESISTIVITY MUD AT BHT
 BHT .F                86:   BOTTOM HOLE TEMPERATURE
 TCS .HRS            1530:   TIME CURCULATED STOPPED
 TLAB.HRS            1800:   TIME LOGGER AT BOTTOM
 MRT .F                86:   MAXIMUM RECORDED TEMPERATURE
 LUN .               8035:   LOGGING UNIT NUMBER
 LUL .             CASPER:   LOGGING UNIT LOCATION
 ENGI.              PENNY:   RECORDING ENGINEER
 WITN.             TAYLOR:   WITNESSED BY
 CLNT.            A2DTECH:   CLIENT CODE
 ORIG.           5" PRINT:   ORIGIN OF DATA
 UWI .       490251089500:   UNIQUE WELL ID
 DICO. A2D Technologies, Inc.:   DIGITIZING COMPANY
 OS  .                   :   OTHER SERVICES
 PWI .                   :   PRIMARY WELL IDENTIFIER
 R1  . POROSITY WITH SANDSTONE:   REMARKS 1
 R2  .                   :   REMARKS 2
 LSRV.                   :   LOG MNEMONIC
~OTHER INFORMATION
~A   DEPT     CALD         GRD      CORR       RHOB       DPHI        SPR        ILD        ILM        SFL   
# ...
  399.0000    12.0159    57.5474     0.0160     2.4236     0.1515   -79.5385    12.5037    12.6379    12.8130
  399.5000    12.0154    57.7613     0.0076     2.4212     0.1542   -79.5460    12.4097    12.5430    12.6299
  400.0000    11.9850    60.4511     0.0129     2.4181     0.1549   -79.5516    12.3182    12.4437    12.5365
  400.5000    11.9851    60.6857     0.0189     2.4135     0.1561   -79.4435    12.3668    12.3594    12.5283
  401.0000    11.9853    61.1638     0.0113     2.4112     0.1585   -79.2631    12.3026    12.2664    12.3492
  401.5000    11.9854    61.8588     0.0006     2.4150     0.1576   -79.2677    12.2109    12.2604    12.3436
  402.0000    11.9856    62.2556     0.0051     2.4271     0.1540   -79.1218    12.1199    12.2544    12.3368
  402.5000    12.0008    62.2556     0.0119     2.4439     0.1427   -78.9782    12.1131    12.2484    12.3300
  403.0000    12.0009    62.9323     0.0217     2.4614     0.1277   -78.9827    12.1063    12.2424    12.3232
  403.5000    12.0011    64.0602     0.0285     2.4788     0.1216   -78.9872    12.0996    12.2364    12.3163
  404.0000    12.0012    64.9624     0.0254     2.4605     0.1299   -78.9918    12.0928    12.2304    12.3095
  404.5000    12.0014    65.8647     0.0155     2.4514     0.1366   -78.9963    12.0861    12.2244    12.3026
  405.0000    12.0015    65.4135     0.0101     2.4491     0.1369   -79.0008    12.0793    12.2185    12.2957
  405.5000    12.0017    65.6391     0.0056     2.4521     0.1357   -79.0053    12.0726    12.1283    12.2888
  406.0000    12.0169    66.0902    -0.0021     2.4482     0.1381   -79.0098    11.9826    12.1235    12.1973
  406.5000    12.0320    65.4135    -0.0067     2.4391     0.1418   -79.1627    11.9759    12.0219    12.1064
  407.0000    12.0322    63.1579    -0.0090     2.4345     0.1448   -79.3164    11.8879    11.9453    12.0162
  407.5000    12.0474    61.3534    -0.0060     2.4359     0.1449   -79.3209    11.8677    11.8572    11.9266
  408.0000    12.0475    60.2256    -0.0030     2.4428     0.1405   -79.3254    11.7928    11.7697    11.9200
  408.5000    12.0477    60.0000     0.0007     2.4481     0.1378   -79.3298    11.7863    11.7640    11.8311
  409.0000    12.0328    60.2256     0.0060     2.4442     0.1378   -79.1851    11.6984    11.7583    11.8245
  409.5000    12.0179    60.9023     0.0044     2.4313     0.1463   -79.1896    11.6893    11.6715    11.8179
  410.0000    12.0030    62.7068    -0.0024     2.4289     0.1488   -79.0448    11.6048    11.5853    11.7298
  410.5000    12.0182    65.1880    -0.0002     2.4350     0.1457   -79.0494    11.5984    11.5797    11.6424
  411.0000    12.0033    66.3158     0.0066     2.4479     0.1354   -78.9045    11.5119    11.4942    11.5557
  411.5000    12.0185    67.4436     0.0134     2.4570     0.1314   -78.9092    11.4260    11.4886    11.4696
  412.0000    12.0337    69.9248     0.0088     2.4486     0.1345   -78.9137    11.3409    11.4037    11.3056
  412.5000    12.0339    71.9549     0.0026     2.4554     0.1329   -78.9182    11.2563    11.4773    11.2214
  413.0000    12.0340    72.6316     0.0003     2.4646     0.1265   -79.0720    11.2500    11.4717    11.2003
  413.5000    12.0041    70.8091     0.0026     2.4752     0.1207   -79.0765    11.2437    11.4661    11.2104
  414.0000    12.0042    69.9248     0.0063     2.4782     0.1183   -79.2303    11.3171    11.5401    11.2911
  414.5000    11.9893    69.8887     0.0078     2.4721     0.1198   -79.2348    11.3092    11.5344    11.5121
  415.0000    11.9895    66.3158     0.0017     2.4629     0.1229   -79.2393    11.3830    11.5288    11.5856
  415.5000    11.9896    64.5113    -0.0007     2.4545     0.1293   -79.2438    11.3751    11.5231    11.6595
  416.0000    11.9898    64.2857    -0.0007     2.4530     0.1329   -79.2483    11.3687    11.4381    11.6530
  416.5000    11.9899    65.6391     0.0008     2.4567     0.1320   -79.2529    11.3624    11.4325    11.5661
  417.0000    11.9901    66.3158     0.0053     2.4605     0.1305   -79.2574    11.2777    11.3481    11.4799
  417.5000    11.9902    65.1880     0.0113     2.4650     0.1280   -79.2619    11.1936    11.2643    11.3944
  418.0000    11.9754    64.5113     0.0211     2.4597     0.1302   -79.2664    11.1873    11.1812    11.3095
  418.5000    11.9304    64.5113     0.0256     2.4536     0.1326   -79.2709    11.1039    11.0997    11.2252
  419.0000    11.9305    65.1880     0.0240     2.4505     0.1351   -79.2754    11.0211    11.0179    11.1416
  419.5000    11.9758    66.3158     0.0225     2.4512     0.1366   -79.2800    10.9390    11.0125    11.1353
  420.0000    12.0060    67.2180     0.0217     2.4542     0.1329   -79.2836    10.9329    10.9313    11.0524
  420.5000    12.0362    67.6692     0.0231     2.4603     0.1280   -79.2881    10.9268    10.8486    10.8944
  421.0000    12.0364    68.1203     0.0246     2.4686     0.1256   -79.2925    10.8453    10.6963    10.7386
  421.5000    12.0365    69.0226     0.0253     2.4747     0.1210   -79.2970    10.8392    10.6911    10.6586
  422.0000    12.0367    69.9248     0.0253     2.4815     0.1180   -79.3015    10.8194    10.5390    10.5062
  422.5000    12.0218    70.6015     0.0260     2.4861     0.1137   -79.3060    10.6794    10.3890    10.3560
  423.0000    12.0220    69.0226     0.0259     2.4837     0.1146   -79.4597    10.5267    10.2412    10.2080
  423.5000    12.0221    67.6692     0.0251     2.4852     0.1155   -79.4642    10.3762    10.1656    10.0620
  424.0000    12.0373    66.0902     0.0259     2.4913     0.1122   -79.4688    10.2278     9.9519     9.9870
  424.5000    12.0224    63.6090     0.0281     2.4996     0.1085   -79.4733    10.0815     9.8784     9.8443
  425.0000    12.0376    63.6090     0.0295     2.5027     0.1061   -79.4778     9.9374     9.7379     9.7720
  425.5000    12.0378    63.8437     0.0318     2.5042     0.1040   -79.4823     9.8633     9.5332     9.6993
  426.0000    12.0379    64.5473     0.0348     2.5087     0.1012   -79.4868     9.7222     9.3975     9.6218
  426.5000    12.0531    65.8917     0.0377     2.5140     0.0991   -79.4914     9.4513     9.2000     9.4217
  427.0000    12.0533    67.0286     0.0422     2.5086     0.1000   -79.4959     9.1879     9.0065     9.2253
  427.5000    12.0534    69.0226     0.0369     2.4957     0.1049   -79.6497     8.9319     8.8172     9.0934
  428.0000    12.0536    71.7293     0.0293     2.4796     0.1131   -79.8034     8.6231     8.6318     8.8402
  428.5000    12.0537    74.2105     0.0239     2.4773     0.1207   -79.9572     8.3250     8.3342     8.4760
  429.0000    12.0388    75.1128     0.0201     2.4689     0.1220   -80.1110     7.9817     7.8271     8.1831
  429.5000    12.0540    76.2406     0.0170     2.4498     0.1296   -80.2647     7.3411     7.1999     7.7918
  430.0000    12.0391    79.8496     0.0154     2.4254     0.1540   -80.5678     6.5222     6.5319     7.2167
  430.5000    12.0242    83.6842     0.0131     2.3980     0.1677   -80.5723     5.9573     5.6849     6.3241
  431.0000    12.0093    87.5188     0.0108     2.3858     0.1762   -80.5768     5.7117     5.2824     5.1356
  431.5000    12.0396    90.0000     0.0077     2.3888     0.1753   -80.5813     5.6691     4.9751     3.8917
  432.0000    12.0547    82.7820     0.0069     2.4207     0.1613   -80.4366     5.7061     5.0584     3.7578
  432.5000    12.0699    78.0451     0.0122     2.4740     0.1146   -80.4411     5.8218     5.4111     5.6486
  433.0000    12.0701    74.2105     0.0182     2.5067     0.1027   -80.2952     6.0654     5.8746     8.2032
  433.5000    12.0853    69.4737     0.0235     2.5235     0.0966   -80.1505     6.4967     6.3766     9.7470
  434.0000    12.0854    68.1203     0.0219     2.5196     0.1049   -80.1293     7.1541     6.9734    10.2974
  434.5000    12.0856    67.2180     0.0097     2.5036     0.1186   -79.9901     7.8781     7.6791     9.9403
  435.0000    12.0707    67.8947     0.0014     2.4670     0.1280   -79.8507     8.4969     8.3398     9.6635
