~VERSION INFORMATION
 VERS.                2.0:   CWLS LOG ASCII STANDARD - VERSION 2.0
 WRAP.                 NO:   ONE LINE PER DEPTH STEP
~WELL INFORMATION
#MNEM.UNIT      DATA TYPE    INFORMATION
#----------   ------------   ------------------------------
 STRT.F            0.0000:   START DEPTH
 STOP.F         4112.0000:   STOP DEPTH
 STEP.F            0.5000:   STEP LENGTH
 NULL.          -999.2500:   NO VALUE
 COMP. LAWRENCE-ALLISON &AS:   COMPANY
 WELL. N P R 3-76-1-SX #3-3:   WELL
 FLD .          N.P.R. #3:   FIELD
 LOC .       S3 T38N R78W:   LOCATION
 CNTY.            NATRONA:   COUNTY
 STAT.            WYOMING:   STATE
 CTRY. UNITED STATES OF AMERICA:   COUNTRY
 SRVC.      Dresser Atlas:   SERVICE COMPANY
 DATE.        04-SEP-1983:   LOGDATE
 API .       490251093100:   API NUMBER
~CURVE INFORMATION
#MNEM.UNIT       API CODE    CURVE DESCRIPTION
#----------   ------------   ------------------------------
 DEPT.F                  :   
 DEN .G/C3   45 350 01 00:   COMPENSATED BULK DENSTIY
 CORR.G/C3   45 356 01 00:   DENSITY CORRECTION
 PORD.DEC    45 890 12 00:   POROSITY DENSITY SANDSTONE
 CNC .DEC    42 890 03 00:   NEUTRON POROSITY SANDSTONE
 SPR .MV     07 010 01 00:   SPONTANEOUS POTENTIAL
 GRR .GAPI   07 310 01 00:   GAMMA RAY FROM RES. LOG.
 RFOC.OHMM   07 220 04 00:   RESISTIVITY FOCUSED LOG
 CALD.IN     45 280 60 00:   CALIPER
 AC  .US/F   60 520 00 00:   ACOUSTIC SONIC
 RILD.OHMM   07 120 46 00:   INDUCTION LOG DEEP RESISTIVITY
 RILM.OHMM   07 120 44 00:   INDUCTION LOG MEDIUM RESISTIVITY
~PARAMETER INFORMATION
#MNEM.UNIT          VALUE    DESCRIPTION
#----------   ------------   ------------------------------
 PD  .                 GL:   PERMANENT DATUM
 EPD .F              5147:   ELEVATION PERMANENT DATUM
 LMF .                 KB:   LOG MEASURED FROM
 DAPD.F                10:   FEET ABOVE PERMANENT DATUM
 DMF .                 KB:   DRILLING MEASURED FROM
 EKB .F              5157:   KELLING BUSHING
 EGL .F              5147:   GROUND LEVEL
 DATE.             9-4-83:   RUN DATE
 RUN .                  1:   RUN NUMBER
 DD  .F              4119:   DEPTH DRILLER
 DL  .F              4115:   DEPTH LOGGER
 BLI .F              4112:   BOTTOM LOG INTERVAL
 CS  .IN            9.625:   CASING SIZE
 CBD .F               491:   CASING BOTTOM DRILLER
 CBL .F               494:   CASING BOTTOM LOGGER
 BS  .IN             8.75:   BIT SIZE
 BSD .F              4119:   BIT SIZE AT DEPTH
 DFT .            KCL GEL:   DRILLING FLUID TYPE
 DFD .                8.9:   DRILLING FLUID DENSITY
 DFV .                 46:   DRILLING FLUID VISCOSITY
 DFPH.                  9:   DRILLING FLUID PH
 DFL .               13.6:   DRILLING FLUID LOSS
 MSS .            MUDTANK:   MUD SAMPLE SOURCE
 RMS .OHMM           .315:   RESISTIVITY MUD SAMPLE
 MST .F                92:   MUD SAMPLE TEMPERATURE
 RMF .OHMM            .25:   RESISTIVITY MUD FILTRATE SAMPLE
 MFST.F                84:   MUD FILTRATE SAMPLE TEMPERATURE
 RMC .OHMM             .4:   RESISTIVITY MUD CAKE
 MCST.F                92:   MUD CAKE SAMPLE TEMPERATURE
 MFSS.                  M:   MUD FILTRATE SAMPLE SOURCE
 MCSS.                  C:   MUD CAKE SAMPLE SOURCE
 RMB .OHMM            .22:   RESISTIVITY MUD AT BHT
 BHT .F               132:   BOTTOM HOLE TEMPERATURE
 TCS .HRS               4:   TIME CURCULATED STOPPED
 MRT .F               132:   MAXIMUM RECORDED TEMPERATURE
 LUN .               6274:   LOGGING UNIT NUMBER
 LUL .               GLTE:   LOGGING UNIT LOCATION
 ENGI.             RAUTIO:   RECORDING ENGINEER
 WITN.             STRONG:   WITNESSED BY
 CLNT.            A2DTECH:   CLIENT CODE
 ORIG. 1", 2", 2.5", 5" PRINT:   ORIGIN OF DATA
 UWI .       490251093100:   UNIQUE WELL ID
 DICO. A2D Technologies, Inc.:   DIGITIZING COMPANY
~OTHER INFORMATION
~A    DEPT     DEN       CORR       PORD        CNC        SPR          GRR     RFOC       CALD         AC       RILD       RILM   
# ...
 4087.0000     2.6249     0.0368     0.0122     0.0699   -35.4717  -999.2500    28.8453     8.7190  -999.2500    21.2358    23.9071
 4087.5000     2.6309     0.0350     0.0112     0.0699   -34.1783  -999.2500    26.5638     8.7176  -999.2500    19.9836    22.3103
 4088.0000     2.6313     0.0303     0.0122     0.0731   -32.8682  -999.2500    24.8738     8.7162  -999.2500    18.8018    20.8199
 4088.5000     2.6278     0.0255     0.0130     0.0776   -32.0421  -999.2500    22.7642     8.7148  -999.2500    17.5982    19.4293
 4089.0000     2.6246     0.0212     0.0139     0.0820   -31.5722  -999.2500    20.8336     8.7134  -999.2500    16.4660    18.1320
 4089.5000     2.6211     0.0230     0.0161     0.0868   -31.0830  -999.2500    19.0667     8.7121  -999.2500    14.8878    16.9613
 4090.0000     2.6179     0.0297     0.0213     0.0924   -30.5974  -999.2500    17.2747     8.7110  -999.2500    12.9126    14.6996
 4090.5000     2.6103     0.0371     0.0264     0.0985   -30.1397  -999.2500    16.7187     8.7124  -999.2500    11.1995    12.7801
 4091.0000     2.6036     0.0320     0.0307     0.1045   -29.6432  -999.2500    14.9840     8.7137  -999.2500     9.7137    11.1112
 4091.5000     2.5967     0.0233     0.0345     0.1105   -29.1148  -999.2500    12.4418     8.7152  -999.2500     8.4249     9.6603
 4092.0000     2.5914     0.0138     0.0367     0.1258   -28.6095  -999.2500    10.3308     8.7166  -999.2500     7.3072     8.3988
 4092.5000     2.5867     0.0216     0.0386     0.1541   -28.1109  -999.2500     8.5781     8.7180  -999.2500     6.3378     7.3021
 4093.0000     2.5823     0.0304     0.0419     0.1823   -27.6072  -999.2500     7.1227     8.7194  -999.2500     5.8916     6.1956
 4093.5000     2.5782     0.0405     0.0450     0.2013   -27.1073  -999.2500     6.1956     8.7208  -999.2500     5.5102     5.9137
 4094.0000     2.5731     0.0462     0.0466     0.2193   -26.5925  -999.2500     6.3572     8.7222  -999.2500     5.1534     5.5894
 4094.5000     2.5751     0.0340     0.0458     0.2201   -26.1023  -999.2500     6.9064     8.7236  -999.2500     4.8198     5.2829
 4095.0000     2.5794     0.0192     0.0389     0.2124   -25.6455  -999.2500     7.5031     8.7250  -999.2500     4.5077     4.9932
 4095.5000     2.5865     0.0418     0.0321     0.2075   -25.3062  -999.2500     7.8607     8.7264  -999.2500     4.2316     4.7141
 4096.0000     2.5934     0.0558     0.0348     0.2131   -24.7347  -999.2500     6.9204     8.7278  -999.2500     4.0103     4.4377
 4096.5000     2.5871     0.0344     0.0401     0.2233   -24.2133  -999.2500     6.0196     8.7291  -999.2500     3.8005     4.1774
 4097.0000     2.5770     0.0067     0.0454     0.2336   -23.6933  -999.2500     5.2363     8.7305  -999.2500     3.5770     3.9325
 4097.5000     2.5720     0.0079     0.0485     0.2438   -23.1538  -999.2500     4.7907     8.7319  -999.2500     3.4928     3.7019
 4098.0000     2.5685     0.0130     0.0487     0.2513   -22.6539  -999.2500     4.8204     8.7333  -999.2500     3.3280     3.4848
 4098.5000     2.5703     0.0183     0.0479     0.2538   -22.0607  -999.2500     4.8841     8.7347  -999.2500     3.1709     3.3165
 4099.0000     2.5719     0.0204     0.0474     0.2538   -22.0299  -999.2500     4.8682     8.7361  -999.2500     3.0335     3.2811
 4099.5000     2.5691     0.0041     0.0490     0.2588   -22.0142  -999.2500     4.8390     8.7375  -999.2500     3.0335     3.2460
 4100.0000     2.5668    -0.0115     0.0505     0.2643   -22.0212  -999.2500     4.7956     8.7389  -999.2500     3.0335     3.2113
 4100.5000     2.5644    -0.0144     0.0514     0.2643   -22.0136  -999.2500     4.8133     8.7403  -999.2500     3.0335     3.2685
 4101.0000     2.5678     0.0001     0.0495     0.2637   -22.1764  -999.2500     4.8601     8.7417  -999.2500     3.0335     3.3488
 4101.5000     2.5711     0.0135     0.0474     0.2627   -22.7117  -999.2500     4.9657     8.7431  -999.2500     3.1311     3.4310
 4102.0000     2.5716     0.0269     0.0470  -999.2500   -23.2339  -999.2500     5.1233     8.7445  -999.2500     3.2402     3.5121
 4102.5000     2.5712     0.0400     0.0466  -999.2500   -23.7572  -999.2500     5.2857     8.7459  -999.2500     3.3531     3.6532
 4103.0000     2.5757     0.0521     0.0440  -999.2500   -24.2894  -999.2500     5.4528     8.7473  -999.2500     3.4699     3.7946
 4103.5000     2.5804     0.0431     0.0412  -999.2500   -24.8188  -999.2500     5.6245     8.7487  -999.2500     3.5909     3.9415
 4104.0000     2.5854     0.0342     0.0385  -999.2500   -25.1976  -999.2500     5.7580     8.7500  -999.2500     3.7790     4.0941
 4104.5000     2.5886     0.0244     0.0353  -999.2500   -25.1422  -999.2500     5.8078     8.7529  -999.2500     3.7759     4.2525
 4105.0000     2.5888     0.0193     0.0353  -999.2500   -25.0883  -999.2500     5.8644     8.7584  -999.2500     3.7711     4.4171
 4105.5000     2.5895     0.0300     0.0353  -999.2500   -25.0272  -999.2500     6.1956     8.7640  -999.2500     3.7649     4.5881
 4106.0000     2.5897     0.0344     0.0349  -999.2500   -24.9653  -999.2500     6.7875     8.7694  -999.2500     3.7587     4.7657
 4106.5000     2.5916     0.0248     0.0345  -999.2500   -24.9059  -999.2500     7.8607     8.7749  -999.2500     3.7526     4.8832
 4107.0000     2.5862     0.0160     0.0369  -999.2500   -24.8452  -999.2500     7.5228     8.7807  -999.2500     3.7466     4.8832
 4107.5000     2.5811     0.0062     0.0391  -999.2500   -24.7846  -999.2500     6.9947     8.7857  -999.2500     3.7405     4.8832
 4108.0000     2.5777    -0.0009     0.0410  -999.2500   -24.7244  -999.2500     6.5037     8.7901  -999.2500     3.7343     4.8832
 4108.5000     2.5799     0.0143     0.0405  -999.2500   -24.6644  -999.2500     6.0471     8.7728  -999.2500     3.7280     4.8832
 4109.0000     2.5834     0.0396     0.0392  -999.2500   -24.6040  -999.2500     5.3514     8.7560  -999.2500     3.7245     4.8834
 4109.5000     2.5793     0.0586     0.0396  -999.2500   -24.5440  -999.2500     5.4184     8.7383  -999.2500     3.7141     4.8833
 4110.0000     2.5721     0.0591     0.0418  -999.2500   -24.4844  -999.2500     5.6329     8.7210  -999.2500     3.7209     4.8832
 4110.5000     2.5652     0.0484     0.0479  -999.2500   -24.4233  -999.2500     5.8559     8.7034  -999.2500     3.6365     4.8832
 4111.0000     2.5589     0.0385     0.0539  -999.2500   -24.4034  -999.2500     6.1956     8.6860  -999.2500     3.6464     4.8832
 4111.5000  -999.2500  -999.2500  -999.2500  -999.2500   -24.4045  -999.2500     6.0802  -999.2500  -999.2500     3.6418     4.8832
 4112.0000  -999.2500  -999.2500  -999.2500  -999.2500   -24.4048  -999.2500     5.6521  -999.2500  -999.2500     3.6430     4.8832
