~VERSION INFORMATION
 VERS.                2.0:   CWLS LOG ASCII STANDARD - VERSION 2.0
 WRAP.                 NO:   ONE LINE PER DEPTH STEP
~WELL INFORMATION
#MNEM.UNIT      DATA TYPE    INFORMATION
#----------   ------------   ------------------------------
 STRT.F           84.0000:   START DEPTH
 STOP.F          860.0000:   STOP DEPTH
 STEP.F            0.5000:   STEP LENGTH
 NULL.          -999.2500:   NO VALUE
 COMP.               NAVY:   COMPANY
 WELL. 52-S-11  NPR #3 #52S-11:   WELL
 FLD .        TEAPOT DOME:   FIELD
 LOC .      S11 T38N R78W:   LOCATION
 CNTY.            NATRONA:   COUNTY
 STAT.            WYOMING:   STATE
 CTRY. UNITED STATES OF AMERICA:   COUNTRY
 SRVC.       Schlumberger:   SERVICE COMPANY
 DATE.        01-JUL-1962:   LOGDATE
 API .       490250637300:   API NUMBER
~CURVE INFORMATION
#MNEM.UNIT       API CODE    CURVE DESCRIPTION
#----------   ------------   ------------------------------
 DEPT.F                  :   
 ASN .OHMM   05 041 16 00:   AMPLIFIED SHORT NORMAL 16"
 CILD.MMHO   05 110 46 00:   CONDUCTIVITY INDUCTION LOG DEEP
 ILD .OHMM   05 120 46 00:   INDUCTION LOG DEEP
 SPR .MV     05 010 01 00:   SPONTANEOUS POTENTIAL FROM RES.
 GR  .GAPI   30 310 01 00:   GAMMA RAY
~PARAMETER INFORMATION
#MNEM.UNIT          VALUE    DESCRIPTION
#----------   ------------   ------------------------------
 LMF .                 KB:   LOG MEASURED FROM
 DMF .                 KB:   DRILLING MEASURED FROM
 EKB .F              5191:   KELLING BUSHING
 EGL .F              5186:   GROUND LEVEL
 DATE.           7-1-1962:   RUN DATE
 RUN .                  1:   RUN NUMBER
 DD  .F               860:   DEPTH DRILLER
 DL  .F               861:   DEPTH LOGGER
 BLI .F               860:   BOTTOM LOG INTERVAL
 TLI .F                91:   TOP LOG INTERVAL
 CBD .F                10:   CASING BOTTOM DRILLER
 BS  .IN             6.75:   BIT SIZE
 BSD .F               860:   BIT SIZE AT DEPTH
 DFT .            GEL-OIL:   DRILLING FLUID TYPE
 DFD .               10.2:   DRILLING FLUID DENSITY
 DFV .                 45:   DRILLING FLUID VISCOSITY
 DFL .                  4:   DRILLING FLUID LOSS
 MSS .           FLOWLINE:   MUD SAMPLE SOURCE
 RMS .OHMM           5.54:   RESISTIVITY MUD SAMPLE
 MST .F                75:   MUD SAMPLE TEMPERATURE
 RMB .OHMM           5.19:   RESISTIVITY MUD AT BHT
 BHT .F                80:   BOTTOM HOLE TEMPERATURE
 TCS .HRS               1:   TIME CURCULATED STOPPED
 MRT .F                80:   MAXIMUM RECORDED TEMPERATURE
 LUN .               2503:   LOGGING UNIT NUMBER
 LUL .              CSPR.:   LOGGING UNIT LOCATION
 ENGI.             KNOBEL:   RECORDING ENGINEER
 WITN.          JORGENSEN:   WITNESSED BY
 CLNT.            A2DTECH:   CLIENT CODE
 ORIG.      2" & 5" PRINT:   ORIGIN OF DATA
 UWI .       490250637300:   UNIQUE WELL ID
 DICO. A2D Technologies, Inc.:   DIGITIZING COMPANY
~OTHER INFORMATION
~A   DEPT      ASN       CILD        ILD        SPR         GR   
# ...
  389.0000    20.7648    46.2235    18.8734   -32.7939  -999.2500
  389.5000    24.1701    43.2524    19.5502   -31.7329  -999.2500
  390.0000    27.9542    41.7926    19.9235   -30.9767  -999.2500
  390.5000    28.8605    40.3915    19.9949   -30.8288  -999.2500
  391.0000    28.0982    41.2085    19.5321   -31.1413  -999.2500
  391.5000    24.9884    43.6154    18.5397   -32.3669  -999.2500
  392.0000    20.2877    48.3089    16.9403   -34.5071  -999.2500
  392.5000    18.7688    55.1862    15.5686   -36.4949  -999.2500
  393.0000    18.0832    61.3096    14.6521   -38.1778  -999.2500
  393.5000    16.8673    66.6764    13.8114   -39.4033  -999.2500
  394.0000    15.5757    71.2891    12.8949   -39.8667  -999.2500
  394.5000    14.4356    75.6193    12.3578   -39.8728  -999.2500
  395.0000    13.9773    76.4471    12.0483   -39.4200  -999.2500
  395.5000    13.8953    76.5073    12.0422   -38.8179  -999.2500
  396.0000    13.7424    75.7972    12.0362   -38.0617  -999.2500
  396.5000    13.5795    76.6278    11.9543   -37.6090  -999.2500
  397.0000    13.3561    77.4433    11.7965   -38.5312  -999.2500
  397.5000    13.1124    81.2799    11.4111   -39.6043  -999.2500
  398.0000    12.6659    87.3824    10.9498   -39.7628  -999.2500
  398.5000    12.0561    94.9955    10.1850   -39.0067  -999.2500
  399.0000    11.2190   104.8745     9.1927   -37.3359  -999.2500
  399.5000    10.0789   116.2640     8.4279   -35.6652  -999.2500
  400.0000     9.2616   124.0576     7.8907   -32.7221  -999.2500
  400.5000     8.5731   135.5116     7.4302   -30.6517  -999.2500
  401.0000     7.9242   146.9039     7.1973   -29.4427  -999.2500
  401.5000     7.6152   156.7820     7.0296   -28.3862  -999.2500
  402.0000     7.2933   164.1505     6.7931   -28.0915  -999.2500
  402.5000     7.0394   164.9654     6.6492   -28.4072  -999.2500
  403.0000     6.9775   162.7591     6.6440   -28.8751  -999.2500
  403.5000     6.9764   159.7975     6.7159   -29.1905  -999.2500
  404.0000     7.0224   156.8359     6.6335   -29.0486  -999.2500
  404.5000     7.0827   156.1253     6.7054   -28.7190  -999.2500
  405.0000     7.1543   157.7104     6.6988   -27.6727  -999.2500
  405.5000     7.1837   158.5252     6.6936   -27.5558  -999.2500
  406.0000     7.1977   159.3401     6.7655   -28.1788  -999.2500
  406.5000     7.1356   159.3997     6.7590   -28.3417  -999.2500
  407.0000     6.9526   158.6891     6.7537   -28.1998  -999.2500
  407.5000     6.8605   158.0061     6.7485   -27.7504  -999.2500
  408.0000     6.7987   157.3112     6.7432   -27.1538  -999.2500
  408.5000     6.8429   156.6169     6.7380   -26.8595  -999.2500
  409.0000     6.8872   155.9061     6.7327   -26.8700  -999.2500
  409.5000     6.9617   154.4137     6.8035   -26.7255  -999.2500
  410.0000     7.0515   152.9206     6.7981   -26.5836  -999.2500
  410.5000     7.0806   151.5831     6.7928   -26.5968  -999.2500
  411.0000     7.0945   151.6426     6.7876   -26.4522  -999.2500
  411.5000     7.1085   151.7022     6.7064   -26.4654  -999.2500
  412.0000     7.1073   152.5171     6.6251   -26.4760  -999.2500
  412.5000     7.1048   154.0872     6.5313   -26.3339  -999.2500
  413.0000     7.0897   155.6574     6.4618   -26.1921  -999.2500
  413.5000     7.0276   157.9828     6.4565   -26.2027  -999.2500
  414.0000     6.9507   159.5530     6.4513   -26.2134  -999.2500
  414.5000     6.8737   161.1231     6.3715   -26.2241  -999.2500
  415.0000     6.8119   163.4486     6.4421   -26.2348  -999.2500
  415.5000     6.7653   163.5082     6.5114   -26.3999  -999.2500
  416.0000     6.7489   162.8124     6.5820   -26.4105  -999.2500
  416.5000     6.7632   161.3596     6.5768   -26.5734  -999.2500
  417.0000     6.7920   159.9105     6.6474   -26.5840  -999.2500
  417.5000     6.8211   157.7042     6.6422   -26.4395  -999.2500
  418.0000     6.8654   156.2532     6.7141   -26.4526  -999.2500
  418.5000     6.9399   154.8022     6.7834   -26.3081  -999.2500
  419.0000     7.0751   153.2377     6.8540   -26.3213  -999.2500
  419.5000     7.1800   150.4045     6.8488   -26.1767  -999.2500
  420.0000     7.2091   148.9386     6.9196   -26.1899  -999.2500
  420.5000     7.2079   146.7472     6.9901   -26.2004  -999.2500
  421.0000     7.2225   145.2962     7.1365   -26.2110  -999.2500
  421.5000     7.2827   144.5856     7.2071   -26.0686  -999.2500
  422.0000     7.4236   142.3943     7.2778   -26.0796  -999.2500
  422.5000     7.5513   140.1880     7.3484   -26.0902  -999.2500
  423.0000     7.6258   137.9817     7.4299   -26.1007  -999.2500
  423.5000     7.6853   136.5158     7.5642   -26.2637  -999.2500
  424.0000     7.6841   135.8201     7.5589   -26.2744  -999.2500
  424.5000     7.6829   135.1244     7.5537   -26.4375  -999.2500
  425.0000     7.6971   135.1989     7.5493   -26.6006  -999.2500
  425.5000     7.7562   136.7690     7.4673   -26.7658  -999.2500
  426.0000     7.8005   137.5839     7.4621   -26.9288  -999.2500
  426.5000     7.7538   139.1541     7.4568   -27.0917  -999.2500
  427.0000     7.6920   140.7704     7.3757   -27.1023  -999.2500
  427.5000     7.5696   143.1396     7.2187   -26.9604  -999.2500
  428.0000     7.4624   144.7534     7.0617   -26.8158  -999.2500
  428.5000     7.3854   147.7154     6.9806   -26.6766  -999.2500
  429.0000     7.2630   149.2855     6.8995   -26.5320  -999.2500
  429.5000     7.1860   150.8557     6.8183   -26.2377  -999.2500
  430.0000     7.1233   152.4258     6.7372   -26.0958  -999.2500
  430.5000     7.0625   153.9960     6.6561   -25.9539  -999.2500
  431.0000     7.0157   155.5662     6.6504   -25.8120  -999.2500
  431.5000     6.9840   156.3810     6.6456   -25.6722  -999.2500
  432.0000     6.9828   156.4406     6.6403   -25.5305  -999.2500
  432.5000     6.9816   155.7449     6.7110   -25.3887  -999.2500
  433.0000     6.9956   154.2939     6.7816   -25.2469  -999.2500
  433.5000     6.9944   152.8429     6.8522   -25.2576  -999.2500
  434.0000     7.0235   152.1450     6.9357   -25.2683  -999.2500
  434.5000     7.1132   151.4502     6.9935   -25.2790  -999.2500
  435.0000     7.2029   150.0005     7.0641   -25.2896  -999.2500
  435.5000     7.2775   149.3048     7.0575   -25.3024  -999.2500
  436.0000     7.3369   148.6091     7.0523   -25.3129  -999.2500
  436.5000     7.3663   147.9134     7.0470   -25.3234  -999.2500
  437.0000     7.2890   146.4624     7.0418   -25.4864  -999.2500
  437.5000     7.2272   145.7667     7.0365   -25.4970  -999.2500
  438.0000     7.2109   145.0710     7.0313   -25.5075  -999.2500
  438.5000     7.2097   144.3753     7.0260   -25.5180  -999.2500
  439.0000     7.2237   142.9392     7.0980   -25.5286  -999.2500
  439.5000     7.2549   142.2285     7.1686   -25.5391  -999.2500
  440.0000     7.3530   142.3030     7.3138   -25.5497  -999.2500
  440.5000     7.4901   142.3626     7.3857   -25.5602  -999.2500
  441.0000     7.5975   142.4222     7.4552   -25.4157  -999.2500
  441.5000     7.6569   143.2371     7.3739   -25.4288  -999.2500
  442.0000     7.6405   145.5625     7.2169   -25.4394  -999.2500
  442.5000     7.4424   147.1326     6.9840   -25.4499  -999.2500
  443.0000     7.2291   150.9686     6.9029   -25.3079  -999.2500
  443.5000     7.0309   154.8047     6.7458   -25.3186  -999.2500
  444.0000     6.8933   158.6407     6.6647   -25.3293  -999.2500
  444.5000     6.8005   160.9993     6.5835   -25.3399  -999.2500
  445.0000     6.7228   164.0483     6.5012   -25.3506  -999.2500
  445.5000     6.6776   164.9823     6.4201   -25.3633  -999.2500
  446.0000     6.6610   166.4468     6.4149   -25.3739  -999.2500
  446.5000     6.6598   168.0169     6.4096   -25.2293  -999.2500
  447.0000     6.6586   168.8318     6.3285   -25.2425  -999.2500
  447.5000     6.6574   169.6466     6.3232   -25.2531  -999.2500
  448.0000     6.6562   169.7062     6.3180   -25.2636  -999.2500
  448.5000     6.6550   169.7658     6.3127   -25.1191  -999.2500
  449.0000     6.6387   169.8254     6.3075   -24.9772  -999.2500
  449.5000     6.5769   169.1148     6.3794   -24.9903  -999.2500
