~VERSION INFORMATION
 VERS.                2.0:   CWLS LOG ASCII STANDARD - VERSION 2.0
 WRAP.                 NO:   ONE LINE PER DEPTH STEP
~WELL INFORMATION
#MNEM.UNIT      DATA TYPE    INFORMATION
#----------   ------------   ------------------------------
 STRT.F           32.5000:   START DEPTH
 STOP.F          433.0000:   STOP DEPTH
 STEP.F            0.5000:   STEP LENGTH
 NULL.          -999.2500:   NO VALUE
 COMP.    FENIX & SCISSON:   COMPANY
 WELL. NPR-3 65-S-10 #65-10:   WELL
 FLD .             TEAPOT:   FIELD
 LOC .      S10 T38N R78W:   LOCATION
 CNTY.            NATRONA:   COUNTY
 STAT.            WYOMING:   STATE
 CTRY. UNITED STATES OF AMERICA:   COUNTRY
 SRVC.           BIRDWELL:   SERVICE COMPANY
 DATE.        13-JUN-1978:   LOGDATE
 API .       490251063000:   API NUMBER
~CURVE INFORMATION
#MNEM.UNIT       API CODE    CURVE DESCRIPTION
#----------   ------------   ------------------------------
 DEPT.F                  :   
 CALD.IN     45 280 60 00:   CALIPER FROM DENSITY LOG
 CORR.G/C3   45 356 01 00:   DENSITY CORRECTION
 DEN .G/C3   45 350 01 00:   COMPENSATED BULK DENSITY
 GRD .GAPI   45 310 01 00:   GAMMA RAY FROM DENSITY LOG
 DPHI.DEC    45 890 12 00:   DENSITY POROSITY SANDSTONE
 IL  .OHMM   05 120 00 00:   INDUCTION LOG 40"
 SN  .OHMM   05 040 16 00:   SHORT NORMAL 16"
 SPR .MV     05 010 01 00:   SPONTANEOUS POTENTIAL FROM RES.
~PARAMETER INFORMATION
#MNEM.UNIT          VALUE    DESCRIPTION
#----------   ------------   ------------------------------
 PD  .                 GL:   PERMANENT DATUM
 EPD .F              5193:   ELEVATION PERMANENT DATUM
 LMF .                 KB:   LOG MEASURED FROM
 DMF .                 KB:   DRILLING MEASURED FROM
 EKB .F              5197:   KELLING BUSHING
 EGL .F              5193:   GROUND LEVEL
 DATE.          6-13-1978:   RUN DATE
 RUN .                  1:   RUN NUMBER
 DD  .F               430:   DEPTH DRILLER
 DL  .F               433:   DEPTH LOGGER
 BLI .F               427:   BOTTOM LOG INTERVAL
 TLI .F                50:   TOP LOG INTERVAL
 CS  .IN            8.625:   CASING SIZE
 CBD .F                40:   CASING BOTTOM DRILLER
 CBL .F                48:   CASING BOTTOM LOGGER
 BS  .IN            7.875:   BIT SIZE
 BSD .F               430:   BIT SIZE AT DEPTH
 DFT .                KCL:   DRILLING FLUID TYPE
 DFD .                8.7:   DRILLING FLUID DENSITY
 DFV .                 32:   DRILLING FLUID VISCOSITY
 DFPH.                9.5:   DRILLING FLUID PH
 DFL .                8.4:   DRILLING FLUID LOSS
 MSS .           FLOWLINE:   MUD SAMPLE SOURCE
 RMS .OHMM            .38:   RESISTIVITY MUD SAMPLE
 MST .F                86:   MUD SAMPLE TEMPERATURE
 RMF .OHMM            .36:   RESISTIVITY MUD FILTRATE SAMPLE
 MFST.F                82:   MUD FILTRATE SAMPLE TEMPERATURE
 MFSS.               MEAS:   MUD FILTRATE SAMPLE SOURCE
 MCSS.               MEAS:   MUD CAKE SAMPLE SOURCE
 TCS .HRS               3:   TIME CURCULATED STOPPED
 MRT .F                73:   MAXIMUM RECORDED TEMPERATURE
 LUN .               2958:   LOGGING UNIT NUMBER
 LUL .               CASP:   LOGGING UNIT LOCATION
 ENGI.           REYNOLDS:   RECORDING ENGINEER
 WITN.           MCGINLEY:   WITNESSED BY
 CLNT.            A2DTECH:   CLIENT CODE
 ORIG.           5" PRINT:   ORIGIN OF DATA
 UWI .       490251063000:   UNIQUE WELL ID
 DICO. A2D Technologies, Inc.:   DIGITIZING COMPANY
~OTHER INFORMATION
~A   DEPT     CALD       CORR        DEN        GRD       DPHI         IL         SN        SPR   
# ...
  113.5000     7.5548     0.0346     2.4574   108.1614     0.1284    10.2041    10.5427   -68.1721
  114.0000     7.4520     0.0300     2.4522   108.7593     0.1263    10.4993    10.6233   -68.3912
  114.5000     7.3476     0.0242     2.4484   107.7130     0.1285    10.7268    10.8528   -68.6157
  115.0000     7.1985     0.0213     2.4469   104.5740     0.1322    10.8094    11.0096   -68.6015
  115.5000     7.0792     0.0184     2.4447    99.9402     0.1343    10.8179    10.9406   -68.7362
  116.0000     6.9899     0.0169     2.4410    99.6413     0.1346    10.7521    10.7235   -68.7185
  116.5000     6.9601     0.0169     2.4365   100.0897     0.1325    10.6135    10.5831   -68.7043
  117.0000     6.9155     0.0169     2.4357   102.4813     0.1304    10.4068    10.3644   -68.6902
  117.5000     6.9007     0.0214     2.4365   109.8057     0.1316    10.2706    10.3082   -68.6756
  118.0000     6.8710     0.0288     2.4365   112.9447     0.1345    10.2082    10.1734   -68.5095
  118.5000     6.9473     0.0303     2.4372   111.8984     0.1339     9.9407    10.0418   -68.4953
  119.0000     7.0803     0.0303     2.4380   110.5331     0.1318     9.7452    10.0477   -68.6335
  119.5000     7.2297     0.0392     2.4395   109.6562     0.1291     9.5554    10.0538   -68.3182
  120.0000     7.3791     0.0510     2.4395   110.5531     0.1354     9.4303    10.0611   -68.1349
  120.5000     7.4987     0.0777     2.4387   113.5426     0.1387     9.1832    10.0670   -67.8399
  121.0000     7.5734     0.0703     2.4380   119.2227     0.1322     9.0647    10.1420   -67.9781
  121.5000     7.6781     0.0422     2.4365   120.4185     0.1147     8.9479    10.0775   -67.2163
  122.0000     7.6335     0.0289     2.4350   115.4858     0.1081     8.8343    10.1545   -66.9046
  122.5000     7.5291     0.0215     2.4574   108.7593     0.1234     8.7806    10.0909   -67.1880
  123.0000     7.4397     0.0156     2.4770   105.7698     0.1290     8.7255    10.0983   -67.1703
  123.5000     7.3637     0.0112     2.4664   103.9761     0.1290     8.7341    10.1043   -64.7752
  124.0000     7.2908     0.0068     2.4439   105.1918     0.1296     8.8015    10.0395   -68.4813
  124.5000     7.2163     0.0038     2.4417   106.0688     0.1326     8.8100    10.0469   -69.0624
  125.0000     7.1418     0.0053     2.4402   106.3677     0.1356     8.7547     9.9839   -69.1970
  125.5000     7.0822     0.0098     2.4395   104.5740     0.1353     8.6435     9.9913   -68.8817
  126.0000     7.0525     0.0098     2.4380   103.9761     0.1340     8.6236     9.6592   -68.8675
  126.5000     7.0825     0.0098     2.4365   104.1256     0.1331     8.5978     9.2742   -68.8534
  127.0000     7.0528     0.0069     2.4350   104.7235     0.1331     8.6062     9.2159   -68.8392
  127.5000     7.0231     0.0039     2.4350   106.3677     0.1313     8.6725     9.2217   -68.5239
  128.0000     6.9934     0.0025     2.4365   107.8625     0.1295     8.6793     9.2283   -68.5097
  128.5000     6.9921     0.0010     2.4372   107.5635     0.1307     8.8066     9.2338   -68.4956
  129.0000     6.9639     0.0010     2.4380   107.2646     0.1337     8.8136     9.1759   -68.7826
  129.5000     6.9790     0.0010     2.4395   107.5635     0.1373     8.8831     8.9936   -69.0625
  130.0000     6.9791     0.0010     2.4372   101.5845     0.1378     8.9498     8.8762   -69.0448
  130.5000     7.0390     0.0011     2.4335   102.1824     0.1354     8.7153     9.0679   -69.0306
  131.0000     7.0988     0.0040     2.4297   104.5740     0.1447     8.4853     9.2625   -69.0165
  131.5000     7.1437     0.0070     2.4283   102.7803     0.1480     8.3152     9.3963   -69.0023
  132.0000     7.1588     0.0159     2.4312   101.4350     0.1495     8.1548     8.7769   -68.9881
  132.5000     7.1590     0.0277     2.4305   102.6308     0.1479     7.9960     8.5438   -68.8216
  133.0000     7.1442     0.0351     2.4215   106.3677     0.1432     7.8928     8.4915   -68.6587
  133.5000     7.1279     0.0352     2.4170   112.6457     0.1327     7.6318     8.4370   -68.6445
  134.0000     7.0549     0.0307     2.4185   112.9447     0.1267     7.5334     8.3266   -68.6303
  134.5000     6.9954     0.0293     2.4245   110.8520     0.1192     7.5929     8.2189   -68.7650
  135.0000     6.9657     0.0248     2.4417   110.7025     0.1216     7.6514     8.0006   -68.8961
  135.5000     6.9658     0.0130     2.4574   111.1510     0.1276     7.6574     7.8960   -68.8819
  136.0000     6.9660     0.0084     2.4590   108.3109     0.1401     7.6094     7.9018   -69.0201
  136.5000     6.9960     0.0279     2.4604   106.3677     0.1413     7.5646     8.0713   -69.1518
  137.0000     7.1156     0.0397     2.4604   105.4709     0.1386     7.6244     8.3014   -68.8393
  137.5000     7.2351     0.0501     2.4253   104.5740     0.1298     7.5780     8.3636   -68.6729
  138.0000     7.3248     0.0545     2.4312   106.3677     0.1266     7.5840     8.3687   -68.3612
  138.5000     7.4175     0.0516     2.4402   109.0583     0.1260     7.5900     8.0916   -68.0494
  139.0000     7.5938     0.0398     2.4469   111.1709     0.1278     7.5959     7.9299   -68.0352
  139.5000     7.6834     0.0339     2.4529   112.3468     0.1289     7.6034     7.9357   -67.8720
  140.0000     7.6687     0.0294     2.4552   112.3468     0.1295     7.6094     8.1619   -67.8546
  140.5000     7.5942     0.0280     2.4581   112.0478     0.1298     7.5113     8.2799   -67.9927
  141.0000     7.5048     0.0295     2.4619   111.7489     0.1301     7.4641     8.0599   -67.9750
  141.5000     7.4452     0.0324     2.4507   113.5426     0.1289     7.4715     7.9545   -67.8121
  142.0000     7.3558     0.0191     2.4387   115.6751     0.1301     7.5305     8.0707   -67.7937
  142.5000     7.2664     0.0132     2.4365   114.8879     0.1340     7.5364     8.1312   -67.5703
  143.0000     7.2069     0.0118     2.4372   114.4395     0.1351     7.5424     8.3056   -67.4684
  143.5000     7.1443     0.0118     2.4372   114.2900     0.1381     7.5483     8.3691   -68.0530
  144.0000     7.0579     0.0118     2.4305   114.2900     0.1441     7.5543     8.4319   -68.3333
  144.5000     6.9984     0.0118     2.4290   114.2900     0.1477     7.5098     8.6128   -68.3185
  145.0000     6.9836     0.0118     2.4268   114.5889     0.1471     7.5157     8.9194   -68.3036
  145.5000     6.9688     0.0104     2.4200   115.6353     0.1464     7.5210     8.8027   -68.1381
  146.0000     6.9690     0.0059     2.4133   115.9342     0.1428     7.5276     8.6876   -67.9762
  146.5000     6.9691     0.0045     2.4103   115.3363     0.1392     7.5335     8.8144   -67.9610
  147.0000     6.9991     0.0045     2.4170   115.3164     0.1383     7.4877     8.9418   -67.9464
  147.5000     6.9993     0.0045     2.4225   116.0837     0.1401     7.4951     8.9471   -67.7803
  148.0000     6.9844     0.0060     2.4275   117.2795     0.1392     7.3984     8.6497   -67.9185
  148.5000     6.9846     0.0060     2.4260   117.7280     0.1362     7.4043     8.4781   -67.9008
  149.0000     6.9848     0.0060     2.4275   117.7280     0.1344     7.4101     8.3684   -67.7378
  149.5000     6.9700     0.0061     2.4290   117.7280     0.1359     7.4161     8.3734   -67.7232
  150.0000     6.9701     0.0075     2.4320   117.7280     0.1371     7.4232     8.4944   -67.7060
  150.5000     6.9852     0.0076     2.4343   117.4290     0.1368     7.4284     9.1675   -67.8442
  151.0000     7.1197     0.0076     2.4335   116.5321     0.1350     7.4345     9.1043   -67.8265
  151.5000     7.2691     0.0135     2.4335   114.1405     0.1293     7.3896     8.8680   -68.1101
  152.0000     7.3290     0.0342     2.4342   113.0942     0.1310     7.3330     8.8746   -68.0952
  152.5000     7.3291     0.0313     2.4365   112.1973     0.1233     7.1524     8.8798   -67.9292
  153.0000     7.2994     0.0298     2.4417   111.7489     0.1170     7.1580     8.8851   -67.7663
  153.5000     7.2697     0.0299     2.4477   111.4499     0.1217     7.0643     8.8294   -67.7521
