~VERSION INFORMATION
 VERS.                2.0:   CWLS LOG ASCII STANDARD - VERSION 2.0
 WRAP.                 NO:   ONE LINE PER DEPTH STEP
~WELL INFORMATION
#MNEM.UNIT      DATA TYPE    INFORMATION
#----------   ------------   ------------------------------
 STRT.F            8.0000:   START DEPTH
 STOP.F          508.0000:   STOP DEPTH
 STEP.F            0.1000:   STEP LENGTH
 NULL.          -999.2500:   NO VALUE
 COMP. LAWRENCE/ALLISON INC:   COMPANY
 WELL. NPR 3 47-12 SX #3-3:   WELL
 FLD .             TEAPOT:   FIELD
 LOC .       S3 T38N R78W:   LOCATION
 CNTY.            NATRONA:   COUNTY
 STAT.            WYOMING:   STATE
 CTRY. UNITED STATES OF AMERICA:   COUNTRY
 SRVC.           Gearhart:   SERVICE COMPANY
 DATE.        12-AUG-1988:   LOGDATE
 API .       490251124100:   API NUMBER
~CURVE INFORMATION
#MNEM.UNIT       API CODE    CURVE DESCRIPTION
#----------   ------------   ------------------------------
 DEPT.F                  :   
 GRR .GAPI   07 310 01 00:   GAMMA RAY
 RILD.OHMM   07 120 46 00:   INDUCTION LOG DEEP RESISTIVITY
 RILM.OHMM   07 120 44 00:   INDUCTION LOG MEDIUM RESISTIVITY
~PARAMETER INFORMATION
#MNEM.UNIT          VALUE    DESCRIPTION
#----------   ------------   ------------------------------
 PD  .                 GL:   PERMANENT DATUM
 EPD .F              5208:   ELEVATION PERMANENT DATUM
 LMF .                 KB:   LOG MEASURED FROM
 DAPD.F                10:   FEET ABOVE PERMANENT DATUM
 DMF .                 KB:   DRILLING MEASURED FROM
 EKB .F              5218:   KELLING BUSHING
 EDF .F              5216:   DRILLING FLOOR
 EGL .F              5208:   GROUND LEVEL
 DATE.        12-AUG-1988:   RUN DATE
 RUN .                  1:   RUN NUMBER
 DD  .F               515:   DEPTH DRILLER
 DL  .F               516:   DEPTH LOGGER
 BLI .F               508:   BOTTOM LOG INTERVAL
 TLI .F                50:   TOP LOG INTERVAL
 CS  .IN            9.625:   CASING SIZE
 CBD .F                50:   CASING BOTTOM DRILLER
 CBL .F                50:   CASING BOTTOM LOGGER
 BS  .IN             8.75:   BIT SIZE
 BSD .F               515:   BIT SIZE AT DEPTH
 DFT .                AIR:   DRILLING FLUID TYPE
 TCS .HRS            1500:   TIME CURCULATED STOPPED
 TLAB.HRS            1640:   TIME LOGGER AT BOTTOM
 MRT .F                70:   MAXIMUM RECORDED TEMPERATURE
 LUN .               7597:   LOGGING UNIT NUMBER
 LUL .           GILLETTE:   LOGGING UNIT LOCATION
 ENGI.         WEATHERMON:   RECORDING ENGINEER
 WITN.             STRONG:   WITNESSED BY
 CLNT.            A2DTECH:   CLIENT CODE
 ORIG.       2", 5" PRINT:   ORIGIN OF DATA
 UWI .       490251124100:   UNIQUE WELL ID
 DICO. A2D Technologies, Inc.:   DIGITIZING COMPANY
~OTHER INFORMATION
~A    DEPT      GRR      RILD       RILM   
# ...
   99.0000   132.5204     9.6460     8.9609
   99.1000   132.7659     9.5911     8.9506
   99.2000   133.2148     9.5355     8.8988
   99.3000   133.5757     9.4802     8.8988
   99.4000   133.9252     9.4253     8.8988
   99.5000   134.4315     9.3811     8.8988
   99.6000   134.9446     9.3809     8.8783
   99.7000   135.4446     9.3269     8.8372
   99.8000   135.9512     9.3157     8.8372
   99.9000   136.4578     9.2834     8.7760
  100.0000   136.8956     9.2351     8.7664
  100.1000   137.2299     9.1954     8.7544
  100.2000   137.5641     9.1557     8.7424
  100.3000   137.8983     9.1160     8.7305
  100.4000   138.3617     9.0762     8.7185
  100.5000   138.8622     9.0365     8.6836
  100.6000   139.2730     8.9960     8.6526
  100.7000   139.4856     8.9958     8.6428
  100.8000   139.4856     8.9553     8.5920
  100.9000   139.4856     8.9035     8.5427
  101.0000   139.3020     8.8521     8.4931
  101.1000   139.0517     8.8009     8.4438
  101.2000   138.6433     8.7480     8.4133
  101.3000   137.8924     8.7478     8.4043
  101.4000   137.0650     8.7475     8.3543
  101.5000   136.3902     8.7473     8.3539
  101.6000   135.6393     8.7471     8.3162
  101.7000   134.8885     8.7469     8.2954
  101.8000   134.0694     8.7466     8.2950
  101.9000   133.0836     8.7464     8.2865
  102.0000   132.2239     8.7461     8.2369
  102.1000   131.5820     8.7459     8.2365
  102.2000   130.9926     8.7456     8.2361
  102.3000   130.4918     8.7518     8.2358
  102.4000   129.9913     8.8061     8.2355
  102.5000   129.5008     8.8059     8.2275
  102.6000   129.5008     8.8422     8.1777
  102.7000   129.2976     8.8667     8.1774
  102.8000   129.3491     8.8665     8.1770
  102.9000   129.5994     8.8718     8.1767
  103.0000   129.8033     8.9278     8.1764
  103.1000   129.8033     8.9276     8.1760
  103.2000   130.0478     8.9273     8.1757
  103.3000   130.1059     8.9271     8.1754
  103.4000   130.1059     8.9268     8.1751
  103.5000   130.1059     8.9266     8.2006
  103.6000   130.1059     8.9263     8.2478
  103.7000   130.1059     8.9261     8.2885
  103.8000   130.1059     8.9258     8.2881
  103.9000   130.1059     8.9502     8.3329
  104.0000   130.1059     8.9875     8.3453
  104.1000   130.1059     8.9873     8.3708
  104.2000   130.0813     8.9870     8.4027
  104.3000   129.8033     8.9868     8.4087
  104.4000   129.8033     8.9865     8.4606
  104.5000   129.6329     8.9863     8.4603
  104.6000   129.5008     8.9992     8.4600
  104.7000   129.5008     9.0484     8.4854
  104.8000   129.5008     9.0481     8.5182
  104.9000   129.5008     9.0479     8.5239
  105.0000   129.2890     9.0813     8.5769
  105.1000   129.1982     9.1105     8.6224
  105.2000   129.1982     9.1102     8.6361
  105.3000   129.1431     9.1116     8.6357
  105.4000   128.8956     9.1731     8.6353
  105.5000   128.8956     9.1729     8.6406
  105.6000   128.6946     9.2058     8.6948
  105.7000   128.2957     9.2588     8.6945
  105.8000   127.8915     9.3120     8.6941
  105.9000   127.5967     9.3662     8.7192
  106.0000   127.0802     9.4957     8.7540
  106.1000   126.5956     9.4955     8.7589
  106.2000   126.4750     9.5285     8.8143
  106.3000   126.1995     9.5833     8.8140
  106.4000   125.8699     9.6276     8.8494
  106.5000   125.8699     9.6273     8.8747
  106.6000   125.8699     9.6823     8.8744
  106.7000   125.6384     9.6938     8.8740
  106.8000   125.5673     9.6936     8.8736
  106.9000   125.5673     9.6933     8.9191
  107.0000   125.6419     9.6931     8.9348
  107.1000   125.8922     9.6928     8.9344
  107.2000   126.1725     9.6925     8.9488
  107.3000   126.3929     9.6922     8.9960
  107.4000   127.1477     9.6920     8.9955
  107.5000   128.0332     9.6917     9.0412
  107.6000   128.7845     9.6914     9.0576
  107.7000   129.5354     9.6911     9.0572
  107.8000   130.4085     9.6909     9.0568
  107.9000   131.0374     9.7327     9.0604
  108.0000   131.3162     9.7579     9.1192
  108.1000   131.3162     9.7576     9.1188
  108.2000   131.3690     9.7574     9.1185
  108.3000   131.6188     9.7571     9.1181
  108.4000   131.6188     9.7568     9.1177
  108.5000   131.6188     9.7565     9.1174
  108.6000   131.4724     9.7563     9.1169
  108.7000   131.3162     9.7560     9.1165
  108.8000   131.2742     9.7625     9.1162
  108.9000   131.0136     9.8234     9.1158
  109.0000   130.7736     9.8232     9.1154
  109.1000   130.5233     9.8633     9.1151
  109.2000   130.2730     9.8911     9.1146
  109.3000   129.9392     9.8908     9.1143
  109.4000   129.4698     9.8906     9.1139
  109.5000   129.1982     9.8902     9.1135
  109.6000   129.1982     9.9413     9.1131
  109.7000   129.3752     9.9586     9.1128
  109.8000   129.7500     9.9584     9.1123
  109.9000   130.1783     9.9581     9.1120
  110.0000   130.4491     9.9578     9.1116
  110.1000   131.0136     9.9575     9.1113
  110.2000   131.2318     9.9573     9.1109
  110.3000   131.6480     9.9570     9.1105
  110.4000   132.1487     9.9837     9.1100
  110.5000   132.5880    10.0258     9.1097
  110.6000   132.8383    10.0256     9.1093
  110.7000   133.1316    10.0252     9.1090
  110.8000   133.1316    10.0250     9.1086
  110.9000   133.1316    10.0247     9.1082
  111.0000   133.1316    10.0245     9.1078
  111.1000   133.1316    10.0241     9.1075
  111.2000   133.1316    10.0239     9.1070
  111.3000   132.8828    10.0236     9.1067
  111.4000   132.6326    10.0233     9.1063
  111.5000   132.2382    10.0230     9.1059
  111.6000   131.6455    10.0228     9.1055
  111.7000   130.8544    10.0225     9.1052
  111.8000   129.8033    10.0222     9.1048
  111.9000   129.0901    10.0219     9.1044
  112.0000   128.5244    10.0216     9.1040
  112.1000   128.1571    10.0213     9.1037
  112.2000   127.9068    10.0211     9.1032
  112.3000   127.6853    10.0208     9.1029
  112.4000   127.6853    10.0205     9.1025
  112.5000   127.6853    10.0203     9.1021
  112.6000   127.8600    10.0200     9.1017
  112.7000   128.1103     9.9854     9.1014
  112.8000   128.2905     9.9501     9.1010
  112.9000   128.3085     9.9498     9.1006
  113.0000   128.5930     9.9495     9.1003
  113.1000   128.8090     9.9493     9.0998
  113.2000   128.8956     9.9044     9.0994
  113.3000   129.1189     9.8799     9.0991
  113.4000   129.5601     9.8796     9.0987
  113.5000   129.8103     9.8697     9.0983
  113.6000   130.1059     9.8106     9.0980
  113.7000   130.1059     9.8104     9.0976
  113.8000   130.1059     9.8101     9.0972
  113.9000   130.2065     9.7784     9.0968
  114.0000   130.4085     9.7416     9.0965
  114.1000   130.4085     9.7414     9.0961
  114.2000   130.4085     9.7411     9.0957
  114.3000   130.4085     9.7409     9.0953
  114.4000   130.5505     9.7406     9.0949
  114.5000   130.7110     9.7403     9.0945
  114.6000   130.7110     9.7400     9.0942
  114.7000   130.7110     9.7398     9.0938
  114.8000   130.9465     9.7394     9.0934
  114.9000   131.1970     9.7392     9.0930
  115.0000   131.3162     9.7389     9.0926
  115.1000   131.3162     9.7387     9.0923
  115.2000   131.3162     9.7384     9.0919
  115.3000   131.3162     9.7381     9.0915
  115.4000   131.3162     9.7378     9.0911
  115.5000   131.3162     9.7376     9.0908
  115.6000   131.3162     9.7373     9.0903
  115.7000   131.3162     9.7370     9.0900
  115.8000   131.3162     9.7534     9.0896
  115.9000   131.3162     9.8044     9.0893
  116.0000   131.3162     9.8041     9.0889
  116.1000   131.1546     9.8038     9.0885
  116.2000   131.0136     9.8035     9.0881
  116.3000   130.9565     9.8305     9.0877
  116.4000   130.7110     9.8713     9.0873
  116.5000   130.7110     9.8711     9.0870
  116.6000   130.7110     9.8707     9.0866
  116.7000   130.5604     9.8705     9.0862
  116.8000   130.3100     9.9082     9.0928
  116.9000   130.0596     9.9387     9.1488
  117.0000   129.8033     9.9532     9.1484
  117.1000   129.5591    10.0075     9.1481
