~VERSION INFORMATION
 VERS.                2.0:   CWLS LOG ASCII STANDARD - VERSION 2.0
 WRAP.                 NO:   ONE LINE PER DEPTH STEP
~WELL INFORMATION
#MNEM.UNIT      DATA TYPE    INFORMATION
#----------   ------------   ------------------------------
 STRT.F           30.0000:   START DEPTH
 STOP.F          691.0000:   STOP DEPTH
 STEP.F            0.5000:   STEP LENGTH
 NULL.          -999.2500:   NO VALUE
 COMP. U.S. DEPARTMENT OF ENERGY:   COMPANY
 WELL. NAVAL PETROLEUM RESERVE #3 #77-S-34:   WELL
 FLD .        TEAPOT DOME:   FIELD
 LOC .      S34 T39N R78W:   LOCATION
 CNTY.            NATRONA:   COUNTY
 STAT.            WYOMING:   STATE
 CTRY. UNITED STATES OF AMERICA:   COUNTRY
 SRVC.              Welex:   SERVICE COMPANY
 DATE.        26-APR-1977:   LOGDATE
 API .       490251034700:   API NUMBER
~CURVE INFORMATION
#MNEM.UNIT       API CODE    CURVE DESCRIPTION
#----------   ------------   ------------------------------
 DEPT.F                  :   
 CALD.IN     45 280 60 00:   CALIPER FROM DENSITY LOG
 CORR.G/C3   45 356 01 00:   DENSITY CORRECTION
 DPHI.DEC    45 890 12 00:   DENSITY POROSITY SANDSTONE
 RHOB.G/C3   45 350 01 00:   BULK DENSITY
 GRD .GAPI   45 310 01 00:   GAMMA RAY FROM DENSITY LOG
 ILD .OHMM   07 120 46 00:   INDUCTION LOG DEEP
 ILM .OHMM   07 120 44 00:   INDUCTION LOG MEDIUM
 SGRD.OHMM   07 220 05 00:   SHALLOW GUARD RESISTIVITY
 SPR .MV     07 010 01 00:   SPONTANEOUS POTENTIAL FROM RES.
~PARAMETER INFORMATION
#MNEM.UNIT          VALUE    DESCRIPTION
#----------   ------------   ------------------------------
 PD  .                 GL:   PERMANENT DATUM
 EPD .F              5075:   ELEVATION PERMANENT DATUM
 LMF .                 GL:   LOG MEASURED FROM
 DMF .                 GL:   DRILLING MEASURED FROM
 EGL .F              5075:   GROUND LEVEL
 DATE.          4-26-1977:   RUN DATE
 RUN .                  1:   RUN NUMBER
 DD  .F               700:   DEPTH DRILLER
 DL  .F               693:   DEPTH LOGGER
 BLI .F               691:   BOTTOM LOG INTERVAL
 TLI .F                35:   TOP LOG INTERVAL
 CS  .IN            8.625:   CASING SIZE
 CBD .F                40:   CASING BOTTOM DRILLER
 CBL .F                39:   CASING BOTTOM LOGGER
 BS  .IN            7.875:   BIT SIZE
 BSD .F               700:   BIT SIZE AT DEPTH
 DFT .            KCL MUD:   DRILLING FLUID TYPE
 DFD .                9.5:   DRILLING FLUID DENSITY
 DFV .                 35:   DRILLING FLUID VISCOSITY
 DFPH.               10.5:   DRILLING FLUID PH
 DFL .                 12:   DRILLING FLUID LOSS
 MSS .           FLOWLINE:   MUD SAMPLE SOURCE
 RMS .OHMM            .32:   RESISTIVITY MUD SAMPLE
 MST .F                66:   MUD SAMPLE TEMPERATURE
 RMF .OHMM            .28:   RESISTIVITY MUD FILTRATE SAMPLE
 MFST.F                66:   MUD FILTRATE SAMPLE TEMPERATURE
 RMC .OHMM            .49:   RESISTIVITY MUD CAKE
 MCST.F                66:   MUD CAKE SAMPLE TEMPERATURE
 RMB .OHMM            .28:   RESISTIVITY MUD AT BHT
 BHT .F                74:   BOTTOM HOLE TEMPERATURE
 TCS .HRS             1.5:   TIME CURCULATED STOPPED
 MRT .F                74:   MAXIMUM RECORDED TEMPERATURE
 LUN .               8611:   LOGGING UNIT NUMBER
 LUL .           GILLETTE:   LOGGING UNIT LOCATION
 ENGI.            C. DOAK:   RECORDING ENGINEER
 WITN.       MR. ROB LYON:   WITNESSED BY
 CLNT.            A2DTECH:   CLIENT CODE
 ORIG.           5" PRINT:   ORIGIN OF DATA
 UWI .       490251034700:   UNIQUE WELL ID
 DICO. A2D Technologies, Inc.:   DIGITIZING COMPANY
~OTHER INFORMATION
~A   DEPT       CALD      CORR      DPHI         RHOB       GRD       ILD        ILM       SGRD        SPR   
# ...
  431.5000     8.0069     0.0402     0.0969     2.5206   123.6921     7.0262     7.8241     9.6203   -45.9838
  432.0000     8.0072     0.0401     0.0990     2.5049   126.9806     7.0273     7.8251     9.7550   -46.1347
  432.5000     8.0075     0.0401     0.1004     2.4902   128.6248     7.0282     7.8262     9.6893   -46.2856
  433.0000     8.0078     0.0401     0.1013     2.4847   124.5889     7.0292     7.8274     9.5580   -46.4365
  433.5000     8.0081     0.0385     0.0999     2.5056   117.8625     7.0301     7.7745     9.3640   -46.4380
  434.0000     8.0084     0.0370     0.0972     2.5123   116.5172     7.0310     7.7224     9.1737   -46.4397
  434.5000     8.0087     0.0353     0.0969     2.5131   119.2078     7.0322     7.6177     9.1086   -46.4411
  435.0000     8.0090     0.0294     0.1007     2.5019   120.5531     6.9848     7.4561     8.9267   -46.4426
  435.5000     8.0093     0.0249     0.1130     2.4854   121.8984     6.8900     7.1619     8.7455   -46.4440
  436.0000     8.0096     0.0204     0.1209     2.4787   122.0478     6.7966     7.0646     8.6863   -46.5949
  436.5000     8.0099     0.0173     0.1241     2.4705   122.0478     6.7508     7.0170     8.7478   -46.7462
  437.0000     8.0102     0.0128     0.1295     2.4592   122.5222     6.7053     6.9699     8.8095   -46.7476
  437.5000     8.0105     0.0096     0.1375     2.4480   122.7952     6.6601     6.8755     8.8109   -46.7490
  438.0000     8.0108     0.0082     0.1465     2.4346   122.6457     6.5248     6.6895     8.5722   -46.8999
  438.5000     8.0111     0.0097     0.1504     2.4246   121.7489     6.4363     6.4197     8.3980   -47.2003
  439.0000     8.0114     0.0112     0.1498     2.4226   120.4036     6.3386     6.1605     8.2276   -47.5010
  439.5000     8.0117     0.0141     0.1492     2.4271   119.8057     6.0093     5.9939     7.5760   -47.9509
  440.0000     8.0120     0.0171     0.1489     2.4286   120.2740     5.6876     5.9128     7.1215   -48.4007
  440.5000     8.0123     0.0201     0.1489     2.4263   121.3004     5.2367     5.6352     6.8813   -48.8506
  441.0000     7.9976     0.0231     0.1501     2.4248   122.0478     4.6582     5.1888     6.5582   -49.1609
  441.5000     7.9829     0.0260     0.1551     2.4136   122.0478     4.2125     4.7449     6.1174   -49.6012
  442.0000     7.9683     0.0260     0.1681     2.3934   121.7489     3.6859     4.3069     5.5223   -49.9015
  442.5000     7.9665     0.0230     0.1860     2.3755   120.1046     3.3243     3.9408     4.9808   -50.0524
  443.0000     7.9539     0.0199     0.2046     2.3418   119.1939     3.0397     3.6037     4.5235   -50.2033
  443.5000     7.9543     0.0124     0.2201     2.3067   117.7130     2.7795     3.2954     3.8611   -50.3642
  444.0000     7.9546     0.0047     0.2429     2.2663   116.5172     2.5242     3.0135     3.0843   -50.6550
  444.5000     7.9549    -0.0027     0.2576     2.2428   116.8161     2.3890     2.7703     2.5901   -50.6564
  445.0000     7.9552    -0.0072     0.2590     2.2446   117.7130     2.3084     2.5201     2.4180   -50.6578
  445.5000     7.9705    -0.0102     0.2453     2.2678   118.7593     2.2928     2.7002     2.3204   -50.3603
  446.0000     7.9707    -0.0103     0.2135     2.3074   120.1206     2.3252     2.8339     3.6819   -50.2023
  446.5000     7.9860    -0.0058     0.1962     2.3485   122.9447     2.4236     2.9743     6.0054   -49.7656
  447.0000     7.9863    -0.0035     0.1986     2.3441   125.0374     2.4917     3.2845     4.2857   -49.4681
  447.5000     7.9866     0.0016     0.2064     2.3336   126.6816     2.6698     3.6582     2.9344   -49.1705
  448.0000     7.9868     0.0046     0.1402     2.3815   126.9806     2.9407     3.9467     6.8481   -48.8729
  448.5000     7.9871     0.0091     0.1280     2.4473   126.3827     3.1979     4.2874     7.5960   -48.5755
  449.0000     7.9875     0.0136     0.1316     2.4547   124.7384     3.5926     4.5938     7.7545   -48.1288
  449.5000     7.9877     0.0165     0.1340     2.4503   129.0732     4.0399     5.0035     7.7555   -47.8313
  450.0000     7.9731     0.0195     0.1358     2.4510   128.9658     4.3286     5.4211     7.7780   -47.6822
  450.5000     7.9584     0.0210     0.1265     2.4600   127.5816     4.7024     5.8091     7.7574   -47.3776
  451.0000     7.9737     0.0226     0.1229     2.4705   126.6875     5.0732     5.9315     7.7587   -47.3720
  451.5000     7.9590     0.0226     0.1217     2.4743   131.1754     5.5111     6.0150     7.7062   -47.0673
  452.0000     7.9594     0.0226     0.1286     2.4609   135.0647     5.7443     6.0164     7.4966   -47.0604
  452.5000     7.9297     0.0226     0.1316     2.4586   132.2274     5.8648     6.0176     7.2953   -47.0548
  453.0000     7.9289     0.0226     0.1277     2.4617   129.6892     5.9057     6.0604     7.2963   -47.0491
  453.5000     7.9154     0.0226     0.1265     2.4639   127.7085     5.9470     6.1035     7.4496   -47.2122
  454.0000     7.9157     0.0226     0.1265     2.4640   126.4071     5.9473     6.1049     7.6587   -47.6344
  454.5000     7.9160     0.0197     0.1272     2.4610   126.1103     5.8261     6.1483     7.6599   -47.7783
  455.0000     7.9313     0.0182     0.1328     2.4503   128.6549     5.6290     6.1495     7.7139   -47.9223
  455.5000     7.9316     0.0167     0.1426     2.4207   133.5905     5.2907     6.1050     7.9304   -48.2155
  456.0000     7.9318     0.0197     0.1615     2.4028   136.5829     4.9359     5.7033     8.1621   -48.3593
  456.5000     7.9322     0.0227     0.1672     2.3968   134.7927     4.6740     5.3985     7.6116   -48.3523
  457.0000     7.9175     0.0287     0.1571     2.4103   134.6454     4.5472     5.2167     6.6786   -48.3467
  457.5000     7.9178     0.0333     0.1426     2.4302   134.0510     4.4851     5.1819     5.2124   -48.1902
  458.0000     7.9031     0.0348     0.1381     2.4470   130.0180     4.4855     5.1832     5.7818   -47.8856
  458.5000     7.9034     0.0348     0.1399     2.4448   126.0792     4.5481     5.2561     6.8209   -47.4316
  459.0000     7.9037     0.0318     0.1426     2.4411   124.0453     4.6435     5.3301     6.5007   -47.2765
  459.5000     7.9040     0.0288     0.1351     2.4493   126.2903     4.8066     5.5211     5.3610   -46.9705
  460.0000     7.9043     0.0243     0.1316     2.4524   130.3290     4.9436     5.7919     6.9227   -46.6659
  460.5000     7.9046     0.0198     0.1426     2.4434   132.4246     5.2219     6.0375     7.6199   -46.5108
  461.0000     7.9049     0.0168     0.1468     2.4330   135.2017     5.4428     6.2935     7.5166   -46.5052
  461.5000     7.9052     0.0139     0.1405     2.4360   137.2142     5.6730     6.5680     7.1542   -46.4982
  462.0000     7.9055     0.0139     0.1365     2.4442   139.1603     5.8353     6.8389     9.9039   -46.7915
  462.5000     7.9058     0.0124     0.1313     2.4518   140.5084     5.9135     6.9831     8.6306   -47.2343
  463.0000     7.9062     0.0109     0.1310     2.4540   141.4081     5.9139     6.9365     8.9342   -47.5277
  463.5000     7.9064     0.0094     0.1420     2.4466   141.3642     5.9142     6.6953     9.4416   -47.8196
  464.0000     7.9067     0.0109     0.1477     2.4361   139.0229     5.8299     6.2153     9.3140   -47.9635
  464.5000     7.9071     0.0124     0.1492     2.4287   136.3351     5.6753     5.9648     6.8794   -47.9578
  465.0000     7.9074     0.0155     0.1402     2.4407   133.3484     5.4458     5.7639     5.3323   -47.9522
  465.5000     7.9076     0.0186     0.1223     2.4602   130.9597     5.4838     5.9775     4.7110   -47.7957
  466.0000     7.9079     0.0245     0.1133     2.4752   129.1695     5.6807     6.4829     9.1285   -47.4911
  466.5000     7.9083     0.0275     0.1112     2.4849   132.0124     5.8761     6.7578     9.7804   -47.4855
  467.0000     7.8993     0.0326     0.1087     2.4955   133.9585     6.0408     6.9479     8.8217   -47.1809
  467.5000     7.8938     0.0351     0.1037     2.5067   133.0644     6.2101     7.0985     9.0071   -47.1739
