~VERSION INFORMATION
 VERS.                2.0:   CWLS LOG ASCII STANDARD - VERSION 2.0
 WRAP.                 NO:   ONE LINE PER DEPTH STEP
~WELL INFORMATION
#MNEM.UNIT      DATA TYPE    INFORMATION
#----------   ------------   ------------------------------
 STRT.F           20.0000:   START DEPTH
 STOP.F          546.0000:   STOP DEPTH
 STEP.F            0.5000:   STEP LENGTH
 NULL.          -999.2500:   NO VALUE
 COMP. LAWRENCE/ALLISON INC:   COMPANY
 WELL.   83-61 STX #10-10:   WELL
 FLD .             TEAPOT:   FIELD
 LOC .      S10 T38N R78W:   LOCATION
 CNTY.            NATRONA:   COUNTY
 STAT.            WYOMING:   STATE
 CTRY. UNITED STATES OF AMERICA:   COUNTRY
 SRVC.           Gearhart:   SERVICE COMPANY
 DATE.        09-JUN-1987:   LOGDATE
 API .       490251113100:   API NUMBER
~CURVE INFORMATION
#MNEM.UNIT       API CODE    CURVE DESCRIPTION
#----------   ------------   ------------------------------
 DEPT.F                  :   
 GRR .GAPI   07 310 01 00:   GAMMA RAY FROM RES. LOG.
 RILD.OHMM   07 120 46 00:   INDUCTION LOG DEEP RESISTIVITY
 RILM.OHMM   07 120 44 00:   INDUCTION LOG MEDIUM RESISTIVITY
 RLL .OHMM   07 220 00 00:   LATEROLOG RESISTIVITY
~PARAMETER INFORMATION
#MNEM.UNIT          VALUE    DESCRIPTION
#----------   ------------   ------------------------------
 PD  .                 GL:   PERMANENT DATUM
 EPD .F              5163:   ELEVATION PERMANENT DATUM
 LMF .                 KB:   LOG MEASURED FROM
 DAPD.F                 8:   FEET ABOVE PERMANENT DATUM
 DMF .                 KB:   DRILLING MEASURED FROM
 EKB .F              5171:   KELLING BUSHING
 EDF .F              5169:   DRILLING FLOOR
 EGL .F              5163:   GROUND LEVEL
 DATE.             6-9-87:   RUN DATE
 RUN .                  1:   RUN NUMBER
 DD  .F             552.5:   DEPTH DRILLER
 DL  .F               549:   DEPTH LOGGER
 BLI .F               546:   BOTTOM LOG INTERVAL
 TLI .F                49:   TOP LOG INTERVAL
 CS  .IN             8.62:   CASING SIZE
 CBD .F                50:   CASING BOTTOM DRILLER
 CBL .F                46:   CASING BOTTOM LOGGER
 BS  .IN             7.87:   BIT SIZE
 BSD .F             552.5:   BIT SIZE AT DEPTH
 DFT .                MUD:   DRILLING FLUID TYPE
 TCS .HRS            0300:   TIME CURCULATED STOPPED
 TLAB.HRS            0400:   TIME LOGGER AT BOTTOM
 LUN .               7597:   LOGGING UNIT NUMBER
 LUL .           GILLETTE:   LOGGING UNIT LOCATION
 ENGI.           JOHNSTON:   RECORDING ENGINEER
 WITN.             STRONG:   WITNESSED BY
 CLNT.            A2DTECH:   CLIENT CODE
 ORIG.       2", 5" PRINT:   ORIGIN OF DATA
 UWI .       490251113100:   UNIQUE WELL ID
 DICO. A2D Technologies, Inc.:   DIGITIZING COMPANY
~OTHER INFORMATION
~A   DEPT       GRR      RILD       RILM        RLL   
# ...
  458.0000    64.0899    23.0750    21.9948    25.9864
  458.5000    68.4088    22.4481    21.1921    22.6109
  459.0000    72.0928    21.8382    20.4198    19.6739
  459.5000    74.2219    21.2449    19.6756    17.1183
  460.0000    72.2729    20.6678    18.9586    16.8186
  460.5000    69.9008    20.1063    18.2677    16.7712
  461.0000    67.7412    19.5957    17.6551    16.7241
  461.5000    66.2795    19.3585    17.4497    16.5808
  462.0000    67.2452    19.1220    17.2443    16.3530
  462.5000    68.1877    18.8897    17.0428    16.1283
  463.0000    67.6442    18.6601    16.8435    15.9066
  463.5000    67.0800    18.4333    16.6465    15.6880
  464.0000    68.4414    18.2092    16.4518    15.4724
  464.5000    70.2189    17.9879    16.2593    15.2598
  465.0000    70.4797    17.7698    16.0692    15.0500
  465.5000    70.6964    17.5511    15.8812    14.8432
  466.0000    70.9288    17.3759    15.6953    14.6883
  466.5000    71.4816    17.1506    15.5122    14.5657
  467.0000    73.2645    16.9301    15.3538    14.4441
  467.5000    74.9830    16.7124    15.2027    14.3236
  468.0000    74.6225    16.4974    15.0527    14.2040
  468.5000    73.9367    16.2852    14.9042    14.0854
  469.0000    73.7149    16.0757    14.7572    13.9678
  469.5000    74.0349    15.9223    14.6247    13.8156
  470.0000    74.3720    15.9022    14.6059    13.8550
  470.5000    75.2330    15.8822    14.5886    13.9120
  471.0000    76.2112    15.8622    14.5714    13.9692
  471.5000    76.0962    15.8422    14.5542    14.0267
  472.0000    75.4554    15.8223    14.5370    14.0844
  472.5000    74.8405    15.8022    14.5198    14.1424
  473.0000    75.8367    15.7829    14.5026    14.2141
  473.5000    76.9609    15.6898    14.4855    14.1280
  474.0000    78.0037    15.5753    14.4684    14.0160
  474.5000    76.8395    15.4616    14.4513    13.9044
  475.0000    75.5687    15.3487    14.4342    13.7938
  475.5000    75.4314    15.2367    14.4171    13.6841
  476.0000    74.9874    15.1255    14.4001    13.5753
  476.5000    73.3287    15.0151    14.3831    13.4674
  477.0000    72.4207    14.9055    14.3660    13.3603
  477.5000    74.0330    14.7967    14.3499    13.3013
  478.0000    75.5932    14.6887    14.2643    13.3782
  478.5000    76.1182    14.5815    14.1832    13.4280
  479.0000    75.4213    14.4750    14.1025    13.2689
  479.5000    74.7451    14.3694    14.0223    13.0885
  480.0000    74.9493    14.2645    13.9426    12.9106
  480.5000    76.0953    14.1604    13.8633    12.6852
  481.0000    77.2330    14.0570    13.7845    12.7409
  481.5000    78.3767    13.9480    13.7061    12.8482
  482.0000    79.5195    13.8939    13.6281    12.9571
  482.5000    80.7005    13.8376    13.5507    13.0513
  483.0000    80.4560    13.7812    13.4736    13.1757
  483.5000    79.5913    13.7249    13.3970    13.0798
  484.0000    78.7127    13.6689    13.3208    12.9554
  484.5000    77.8010    13.6131    13.2451    12.8316
  485.0000    78.6283    13.5576    13.1698    12.7092
  485.5000    79.8416    13.5022    13.0949    12.5881
  486.0000    81.0616    13.4472    13.0174    12.4680
  486.5000    81.8008    13.3923    12.9364    12.4468
  487.0000    80.5958    13.3376    12.8558    12.4469
  487.5000    79.1945    13.2832    12.7757    12.4467
  488.0000    77.7841    13.2290    12.6961    12.4468
  488.5000    76.3730    13.1750    12.6171    12.4465
  489.0000    74.9806    13.1213    12.5386    12.4467
  489.5000    74.4243    13.0662    12.4609    12.2826
  490.0000    76.2534    12.9025    12.3834    12.1136
  490.5000    80.1570    12.6860    12.1634    11.9493
  491.0000    84.0403    12.4751    11.6330    11.7869
  491.5000    85.2197    12.2677    11.1269    11.6267
  492.0000    84.2649    12.0638    10.8294    11.4686
  492.5000    81.3203    11.8632    10.7004    11.3127
  493.0000    78.3085    11.6660    10.5730    11.1590
  493.5000    76.6017    11.4720    10.4472    11.0028
  494.0000    76.3883    11.1542    10.3229    10.8169
  494.5000    76.9948    10.8090    10.2000    10.6286
  495.0000    77.9954    10.4745    10.0786    10.4435
  495.5000    79.2204    10.1504     9.9564    10.2617
  496.0000    81.4741     9.8363     9.4276    10.0835
  496.5000    84.3056     9.5319     8.6773     9.9127
  497.0000    87.1420     9.0262     7.9900     9.6929
  497.5000    88.7402     8.2957     7.3572     9.4841
  498.0000    88.7308     7.6243     6.7745     8.6735
  498.5000    88.7124     7.0072     6.2367     7.8393
  499.0000    89.8303     6.5303     5.7484     7.0853
  499.5000    91.4269     6.4686     5.1927     6.5303
  500.0000    93.0399     6.4686     5.1936     6.5303
  500.5000    94.3597     6.9127     5.6768     7.3471
  501.0000    92.9554     7.4078     6.6638     8.2858
  501.5000    91.5663     7.9893     7.3221     9.3443
  502.0000    90.1807     8.6158     7.8698    10.5932
  502.5000    88.8281     9.2972     8.4585    10.7961
  503.0000    87.0013     9.6693     9.0912    10.5393
  503.5000    84.7087     9.9599     9.6849    10.4932
  504.0000    82.4193    10.2583     9.9472    10.7664
  504.5000    80.8408    10.5907    10.2165    10.9670
  505.0000    80.3428    10.7495    10.4932    11.1881
  505.5000    79.7138    10.9013    10.7773    11.4149
  506.0000    78.9792    11.0564    11.0691    11.6468
  506.5000    80.4237    11.2139    11.3688    11.8834
  507.0000    82.3420    11.3736    11.6767    12.1248
  507.5000    84.2061    11.5356    11.9928    12.3711
  508.0000    84.9862    11.7075    12.3176    12.6224
  508.5000    83.3289    11.9036    12.6511    12.8788
  509.0000    81.2663    12.1013    12.8577    13.1405
  509.5000    79.2328    12.3024    12.9532    13.4074
  510.0000    79.8695    12.5070    13.0494    13.6852
  510.5000    83.8804    12.7149    13.1463    13.7715
  511.0000    87.8037    12.9273    13.2439    13.8601
  511.5000    89.2729    13.0510    13.3423    13.9493
  512.0000    88.1093    13.0686    13.4414    14.0390
  512.5000    86.0718    13.0847    13.5412    14.1293
  513.0000    84.0019    13.1013    13.6417    14.2202
  513.5000    81.9302    13.1179    13.7430    14.3117
  514.0000    79.7639    13.1345    13.8451    14.4037
  514.5000    80.4598    13.1511    13.9479    14.4867
  515.0000    82.0278    13.1678    14.0515    14.4866
  515.5000    83.5781    13.2954    14.1558    14.4865
  516.0000    83.4146    13.5257    14.2610    14.4867
  516.5000    79.7767    13.8156    14.3499    14.4867
  517.0000    76.2465    13.7404    14.2189    14.4867
  517.5000    74.7723    13.6088    14.1071    14.4869
  518.0000    77.0721    13.4786    13.9959    14.4864
  518.5000    79.3100    13.3496    13.8857    14.4003
  519.0000    81.5664    13.2218    13.7763    14.2944
  519.5000    83.8627    13.1574    13.6679    14.1889
  520.0000    83.4182    13.1286    13.5602    14.0843
  520.5000    82.4315    13.1001    13.4535    13.9805
  521.0000    81.4321    13.0708    13.3475    13.8775
  521.5000    80.4327    13.0168    13.2424    13.7752
  522.0000    79.4126    12.8956    13.1382    13.6736
  522.5000    80.3150    12.7769    13.0347    13.5728
  523.0000    81.5059    12.6593    12.9321    13.4728
  523.5000    82.7031    12.5427    12.8302    13.3074
  524.0000    83.8968    12.4055    12.6788    13.0910
  524.5000    85.0981    12.1648    12.5136    12.8782
  525.0000    85.7667    11.9288    12.3506    12.6688
  525.5000    85.3729    11.6973    12.1896    12.4628
  526.0000    84.6970    11.4704    12.0308    12.2601
  526.5000    84.3049    11.2478    11.8740    12.0607
  527.0000    85.0872    11.1155    11.7193    11.8646
  527.5000    87.1034    11.0006    11.5666    11.6717
  528.0000    89.3189    10.8868    11.4159    11.5536
  528.5000  -999.2500    10.7741    11.2671    11.4473
  529.0000  -999.2500    10.6627    11.1203    11.3419
  529.5000  -999.2500    10.5524    10.9754    11.2375
  530.0000  -999.2500    10.4432    10.8324    11.1341
  530.5000  -999.2500    10.3793    10.6913    11.0357
