~VERSION INFORMATION
 VERS.                2.0:   CWLS LOG ASCII STANDARD - VERSION 2.0
 WRAP.                 NO:   ONE LINE PER DEPTH STEP
~WELL INFORMATION
#MNEM.UNIT      DATA TYPE    INFORMATION
#----------   ------------   ------------------------------
 STRT.F            0.0000:   START DEPTH
 STOP.F         3030.0000:   STOP DEPTH
 STEP.F            0.5000:   STEP LENGTH
 NULL.          -999.2500:   NO VALUE
 COMP. LAWRENCE/ALLISON INC:   COMPANY
 WELL. NAVAL PETROLEUM RESERVE 3 AX-3 #36  X 34-34:   WELL
 FLD .         N. P. R #3:   FIELD
 LOC .      S34 T39N R78W:   LOCATION
 CNTY.            NATRONA:   COUNTY
 STAT.            WYOMING:   STATE
 CTRY. UNITED STATES OF AMERICA:   COUNTRY
 SRVC.      Dresser Atlas:   SERVICE COMPANY
 DATE.        29-JUN-1985:   LOGDATE
 API .       490251103200:   API NUMBER
~CURVE INFORMATION
#MNEM.UNIT       API CODE    CURVE DESCRIPTION
#----------   ------------   ------------------------------
 DEPT.F                  :   
 RFOC.OHMM   07 220 01 00:   RESISTIVITY FOCUSED LOG
 RILM.OHMM   07 120 44 00:   RESITIVITY LONG MEDIUM
 SPR .MV     07 010 01 00:   SPONTANEOUS POTENTIAL
 RILD.OHMM   07 120 46 00:   INDUCTION LOG DEEP RESITIVITY
 GRR .GAPI   07 310 01 00:   GAMMA RAY
 DT  .US/F   60 520 00 00:   INTERVAL TRANSIT TIME
 CALD.IN     45 280 60 00:   CALIPER FROM DENSITY LOG
 CORR.G/C3   45 356 01 00:   DENSITY CORRECTION
 CNC .DEC    42 890 03 00:   NEUTRON POROSITY SANDSTONE
 DEN .G/C3   45 350 01 00:   COMPENSATED BULK DENSTIY
 PORD.DEC    45 890 12 00:   POROSITY DENSITY SANDSTONE
~PARAMETER INFORMATION
#MNEM.UNIT          VALUE    DESCRIPTION
#----------   ------------   ------------------------------
 PD  .                 GL:   PERMANENT DATUM
 EPD .F              5108:   ELEVATION PERMANENT DATUM
 LMF .                 KB:   LOG MEASURED FROM
 DAPD.F                12:   FEET ABOVE PERMANENT DATUM
 DMF .                 KB:   DRILLING MEASURED FROM
 EKB .F              5120:   KELLING BUSHING
 EGL .F              5108:   GROUND LEVEL
 DATE.       29-JUNE-1985:   RUN DATE
 RUN .                  1:   RUN NUMBER
 DD  .F              3033:   DEPTH DRILLER
 DL  .F              3033:   DEPTH LOGGER
 BLI .F              3030:   BOTTOM LOG INTERVAL
 CS  .IN            8.625:   CASING SIZE
 CBD .F               601:   CASING BOTTOM DRILLER
 CBL .F               601:   CASING BOTTOM LOGGER
 BS  .IN            7.875:   BIT SIZE
 BSD .F              3033:   BIT SIZE AT DEPTH
 DFT .   FOAM & KCL WATER:   DRILLING FLUID TYPE
 MSS .           FLOWLINE:   MUD SAMPLE SOURCE
 RMS .OHMM           0.44:   RESISTIVITY MUD SAMPLE
 MST .F                82:   MUD SAMPLE TEMPERATURE
 RMF .OHMM           0.44:   RESISTIVITY MUD FILTRATE SAMPLE
 MFST.F                82:   MUD FILTRATE SAMPLE TEMPERATURE
 MFSS.               MEAS:   MUD FILTRATE SAMPLE SOURCE
 RMB .OHMM           0.31:   RESISTIVITY MUD AT BHT
 BHT .F               116:   BOTTOM HOLE TEMPERATURE
 TCS .HRS               3:   TIME CURCULATED STOPPED
 MRT .F               116:   MAXIMUM RECORDED TEMPERATURE
 LUN .               6274:   LOGGING UNIT NUMBER
 LUL .               GLTE:   LOGGING UNIT LOCATION
 ENGI.             RAUTIO:   RECORDING ENGINEER
 WITN.       MR. JENNINGS:   WITNESSED BY
 CLNT.            A2DTECH:   CLIENT CODE
 ORIG.        2" 5" PRINT:   ORIGIN OF DATA
 UWI .       490251103200:   UNIQUE WELL ID
 DICO. A2D Technologies, Inc.:   DIGITIZING COMPANY
~OTHER INFORMATION
~A    DEPT    RFOC       RILM        SPR       RILD         GRR        DT       CALD       CORR        CNC        DEN       PORD   
# ...
 2958.5000     6.1821     4.9955    76.3895     5.0114    68.7578    49.3358     7.4780     0.0235     0.2602     2.3327     0.1899
 2959.0000     6.2273     4.9635    76.0879     4.9798    71.5406    49.3313     7.4883     0.0265     0.2835     2.3275     0.1950
 2959.5000     6.2733     4.9680    75.9378     4.9831    76.4071    49.3268     7.4881     0.0251     0.2816     2.3358     0.1941
 2960.0000     6.1886     4.9716    75.9396     4.9857    87.1231    49.3223     7.4880     0.0252     0.2719     2.3779     0.1714
 2960.5000     5.7743     4.9761    78.9076     5.0583    93.4285    49.3178     7.4878     0.0364     0.2381     2.4305     0.1270
 2961.0000     5.2402     4.9442    77.9968     5.1687    95.8680    49.3133     7.4877     0.0614     0.2344     2.4749     0.1113
 2961.5000     5.5809     4.9833    77.8438     5.2805    96.7900    49.3087     7.4875     0.0645     0.2359     2.4795     0.0998
 2962.0000     6.1115     4.9869    77.8305     5.3202    96.4981    49.3042     7.4873     0.0540     0.2432     2.4772     0.1005
 2962.5000     8.2565     4.9914    77.9925     5.2854    96.2061    49.2997     7.4872     0.0376     0.2477     2.4713     0.1155
 2963.0000     8.7229     4.9950    78.4456     5.2888    95.6136    49.2952     7.4870     0.0256     0.2501     2.4555     0.1279
 2963.5000     7.2810     4.9986    78.8984     5.1111    95.9286    49.2907     7.4869     0.0152     0.2537     2.4300     0.1405
 2964.0000     6.6070     5.0022    79.2000     5.0080    95.9402    49.2861     7.4867     0.0016     0.2555     2.3917     0.1602
 2964.5000     5.4014     4.9711    79.1982     4.9752    96.2552    49.2815     7.4866    -0.0012     0.2564     2.3707     0.1692
 2965.0000     5.3652     4.9755    79.1968     4.9439    96.8741    49.2611     7.5015     0.0064     0.2570     2.3753     0.1632
 2965.5000     5.2932     4.9624    78.8923     4.9472    97.1917    49.2407     7.5014     0.0050     0.2587     2.3843     0.1586
 2966.0000     5.2217     4.9478    78.7394     4.9148    98.1137    49.2203     7.5012    -0.0040     0.2933     2.3896     0.1565
 2966.5000     5.1516     4.9869    78.5864     4.9180   101.7672    49.1999     7.5011    -0.0069     0.2948     2.3934     0.1556
 2967.0000     5.0467     4.9905    78.4331     4.9550   107.2415    49.1795     7.5009    -0.0053     0.2896     2.3950     0.1543
 2967.5000     4.7749     4.9941    78.2802     4.9929   114.7503    49.1591     7.5007     0.0008     0.2804     2.3965     0.1538
 2968.0000     3.9216     4.9986    78.4303     4.9955   123.7400    49.1387     7.5006     0.0099     0.2587     2.3973     0.1568
 2968.5000     3.6930     4.9666    78.4288     4.9982   124.6561    49.1183     7.5005     0.0159     0.2469     2.3943     0.1580
 2969.0000     3.7988     4.9711    78.5786     4.9661   112.2188    49.0979     7.5003     0.0190     0.2400     2.3884     0.1580
 2969.5000     3.9074     4.9401    78.5771     4.9693   110.7070    49.0775     7.5001     0.0101     0.2372     2.3876     0.1528
 2970.0000     4.0757     4.3976    78.7273     4.9374   110.4092    49.0571     7.5000     0.0041     0.2420     2.3922     0.1456
 2970.5000     5.0251     3.4903    78.7258     3.5151   107.9885    49.0404     7.5061    -0.0003     0.2581     2.4022     0.1383
 2971.0000     4.9582     3.5407    78.7240     3.5912   104.6558    63.4457     7.5148     0.0043     0.2629     2.4238     0.1332
 2971.5000     4.6603     3.5419    78.7226     3.5928    99.7554    84.3027     7.5146     0.0269     0.2602     2.4284     0.1334
 2972.0000     4.1714     3.5431    78.7212     3.5695   100.4198    85.5061     7.5145     0.0225     0.2541     2.4299     0.1313
 2972.5000     4.2916     3.5197    78.5682     3.5459   104.0674    85.9561     7.5293    -0.0045     0.2475     2.4307     0.1286
 2973.0000     4.4153     3.4965    78.2634     3.5233   107.7150    85.8777     7.5292    -0.0134     0.2447     2.4345     0.1280
 2973.5000     4.4797     3.4977    77.9589     3.5281   108.6311    85.5739     7.5291     0.0017     0.2468     2.4368     0.1283
 2974.0000     4.4505     3.5271    77.5030     3.6012   107.4229    85.3454     7.5289     0.0108     0.2568     2.4368     0.1283
 2974.5000     4.3921     3.5741    76.8823     3.6280   107.4300    85.2671     7.5438     0.0048     0.2611     2.4369     0.1277
 2975.0000     4.3344     3.6003    75.9846     3.6296   107.7392    85.1140     7.5437    -0.0071     0.2631     2.4369     0.1270
 2975.5000     4.3368     3.6015    75.5286     3.6566   114.2191    84.5088     7.5689    -0.0101     0.2637     2.4377     0.1222
 2976.0000     4.4308     3.6279    75.5272     3.6837   120.1952    83.3760     7.5735    -0.0040     0.2625     2.4392     0.1167
 2976.5000     4.4949     3.6544    77.5632     3.7136   123.2358    83.1470     7.5903     0.0367     0.2598     2.4464     0.1272
 2977.0000     4.2248     3.7069    81.5846     3.7652   122.3310    83.8982     7.6033     0.1164     0.2625     2.4551     0.1506
 2977.5000     4.0261     3.7601    83.4014     3.8197   114.9017    86.6087     7.6182     0.1660     0.2661     2.4416     0.1684
 2978.0000     4.1160     3.7879    84.1575     3.8480   105.6519    89.6960     7.6331     0.1646     0.2633     2.3778     0.1596
 2978.5000     4.3318     3.8156    84.6197     3.8498   103.8353    93.6206     7.6028     0.1009     0.2552     2.3883     0.1603
 2979.0000     4.6685     3.8435    84.7607     3.8515   105.6634    93.3078     7.5726    -0.0155     0.2497     2.3771     0.1273
 2979.5000     5.0072     3.8448    84.6074     3.8249   109.6918    91.7983     7.5724    -0.0185     0.2440     2.3974     0.1239
 2980.0000     4.5138     3.8730    84.1514     3.7753   113.2635    89.5350     7.5723     0.0026     0.2479     2.4298     0.1221
 2980.5000     4.2127     3.7934    83.5370     3.7512   114.4831    88.7036     7.5872     0.0313     0.2518     2.4397     0.1206
 2981.0000     4.1279     3.7174    83.6937     3.7265   115.3993    88.6929     7.6021     0.0389     0.2557     2.4449     0.1222
 2981.5000     4.0731     3.7187    84.4498     3.7023   116.9478    89.3018     7.6019     0.0329     0.2605     2.4456     0.1311
 2982.0000     4.0191     3.7459    85.0545     3.7043   119.3576    90.3538     7.6018     0.0225     0.2515     2.4472     0.1324
 2982.5000     4.0500     3.7997    85.3611     3.7326   120.5758    90.8041     7.6016     0.0286     0.2436     2.4430     0.1314
 2983.0000     4.0523     3.8542    85.6573     3.8127   116.6881    90.7258     7.6015     0.0407     0.2424     2.4307     0.1287
 2983.5000     4.0829     3.8824    85.5044     3.8410   115.4042    90.3466     7.6014     0.0527     0.2427     2.4315     0.1235
 2984.0000     4.4103     3.9120    85.0484     3.8695   113.6155    88.9872     7.6012     0.0378     0.2381     2.4346     0.1151
 2984.5000     4.6010     3.9673    84.7408     3.9255   112.4073    87.0255     7.6011     0.0048     0.2366     2.4418     0.1127
 2985.0000     4.6681     3.9686    84.2876     3.9273   111.5025    85.2146     7.6009     0.0019     0.2387     2.4579     0.1142
 2985.5000     4.6708     3.9699    84.2862     3.9290   110.5978    84.4586     7.6007     0.0065     0.2432     2.4670     0.1148
 2986.0000     4.6088     3.9434    83.9817     3.8994   110.6049    84.3808     7.6006     0.0141     0.2444     2.4730     0.1116
 2986.5000     4.5167     3.8636    83.8288     3.8250   110.0022    84.4538     7.6023     0.0231     0.2408     2.4806     0.1078
 2987.0000     4.4258     3.7850    83.5240     3.7734   110.0093    84.7523     7.6154     0.0262     0.2386     2.4791     0.1111
 2987.5000     4.3970     3.7326    83.5225     3.7230   110.3439    84.8259     7.6303     0.0157     0.2380     2.4656     0.1153
 2988.0000     4.4308     3.6581    83.5211     3.6732   113.6641    84.5968     7.6301     0.0084     0.2387     2.4604     0.1165
 2988.5000     4.4333     3.6088    83.5197     3.6244   115.7942    84.1417     7.6312     0.0024     0.2507     2.4567     0.1165
