~VERSION INFORMATION
 VERS.                2.0:   CWLS LOG ASCII STANDARD - VERSION 2.0
 WRAP.                 NO:   ONE LINE PER DEPTH STEP
~WELL INFORMATION
#MNEM.UNIT      DATA TYPE    INFORMATION
#----------   ------------   ------------------------------
 STRT.F           11.0000:   START DEPTH
 STOP.F          685.0000:   STOP DEPTH
 STEP.F            0.5000:   STEP LENGTH
 NULL.          -999.2500:   NO VALUE
 COMP. BROWN JOHN E&C INC:   COMPANY
 WELL. 78-1 STX-34 #78-34:   WELL
 FLD .             TEAPOT:   FIELD
 LOC .      S34 T39N R78W:   LOCATION
 CNTY.            NATRONA:   COUNTY
 STAT.            WYOMING:   STATE
 CTRY. UNITED STATES OF AMERICA:   COUNTRY
 SRVC.     Atlas Wireline:   SERVICE COMPANY
 DATE.        28-JAN-1992:   LOGDATE
 API .       490252250300:   API NUMBER
~CURVE INFORMATION
#MNEM.UNIT       API CODE    CURVE DESCRIPTION
#----------   ------------   ------------------------------
 DEPT.F                  :   
 GRR .GAPI   07 310 01 00:   GAMMA RAY
 RILD.OHMM   07 120 46 00:   INDUCTION LOG DEEP RESISTIVITY
 RILM.OHMM   07 120 44 00:   INDUCTION LOG MEDIUM RESISTIVITY
~PARAMETER INFORMATION
#MNEM.UNIT          VALUE    DESCRIPTION
#----------   ------------   ------------------------------
 PD  .                 GL:   PERMANENT DATUM
 EPD .F              5077:   ELEVATION PERMANENT DATUM
 LMF .                 KB:   LOG MEASURED FROM
 DAPD.F                10:   FEET ABOVE PERMANENT DATUM
 DMF .                 KB:   DRILLING MEASURED FROM
 EKB .F              5087:   KELLING BUSHING
 EDF .F              5086:   DRILLING FLOOR
 EGL .F              5077:   GROUND LEVEL
 DATE.        28-JAN-1992:   RUN DATE
 RUN .                  1:   RUN NUMBER
 DD  .F               693:   DEPTH DRILLER
 DL  .F               693:   DEPTH LOGGER
 BLI .F               691:   BOTTOM LOG INTERVAL
 CS  .IN            9.625:   CASING SIZE
 CBD .F                50:   CASING BOTTOM DRILLER
 CBL .F                60:   CASING BOTTOM LOGGER
 BS  .IN             8.75:   BIT SIZE
 BSD .F               693:   BIT SIZE AT DEPTH
 DFT .                AIR:   DRILLING FLUID TYPE
 MRT .F                90:   MAXIMUM RECORDED TEMPERATURE
 LUN .           HL- 6274:   LOGGING UNIT NUMBER
 LUL .             CASPER:   LOGGING UNIT LOCATION
 ENGI.             RAUTIO:   RECORDING ENGINEER
 WITN.        GARY STRONG:   WITNESSED BY
 CLNT.            A2DTECH:   CLIENT CODE
 ORIG.           5" PRINT:   ORIGIN OF DATA
 UWI .       490252250300:   UNIQUE WELL ID
 DICO. A2D Technologies, Inc.:   DIGITIZING COMPANY
~OTHER INFORMATION
~A   DEPT       GRR      RILD       RILM   
# ...
  193.0000   128.3317     7.7264     7.6160
  193.5000   131.9476     7.6186     7.5087
  194.0000   136.7604     7.4085     7.4551
  194.5000   136.3077     7.3052     7.3504
  195.0000   130.4055     7.2032     7.2979
  195.5000   129.1922     7.2020     7.1954
  196.0000   130.3900     7.2010     7.1940
  196.5000   128.8706     7.2001     7.1925
  197.0000   127.6551     7.1991     7.1910
  197.5000   128.8528     7.2989     7.2398
  198.0000   131.8605     7.3489     7.2889
  198.5000   132.1556     7.3479     7.3384
  199.0000   130.9378     7.3469     7.3882
  199.5000   128.8173     7.3972     7.4383
  200.0000   130.0151     7.4478     7.4888
  200.5000   130.9235     7.4478     7.4361
  201.0000   131.5298     7.3449     7.3839
  201.5000   128.2145     7.3449     7.3834
  202.0000   123.3909     7.3962     7.3829
  202.5000   122.7898     7.4478     7.3824
  203.0000   127.6200     7.4478     7.3819
  203.5000   130.3379     7.4478     7.4330
  204.0000   130.3247     7.4478     7.4325
  204.5000   129.1372     7.4537     7.4840
  205.0000   129.7442     7.4998     7.5358
  205.5000   129.7471     7.5521     7.5878
  206.0000   129.7501     7.6048     7.5873
  206.5000   130.0547     7.6579     7.6400
  207.0000   130.6610     7.7114     7.7465
  207.5000   131.2672     7.8194     7.8547
  208.0000   132.7785     7.9290     7.9644
  208.5000   138.2113     7.9290     7.9638
  209.0000   142.4375     8.0962     8.0189
  209.5000   144.2504     8.1527     8.1876
  210.0000   142.6442     8.2669     8.3021
  210.5000   136.3670     8.2669     8.3014
  211.0000   137.0202     8.3827     8.3008
  211.5000   138.8331     8.3827     8.3584
  212.0000   141.2493     8.3827     8.4163
  212.5000   142.1572     8.3827     8.4744
  213.0000   141.8585     8.3827     8.5331
  213.5000   139.4482     8.5002     8.5325
  214.0000   135.5296     8.6193     8.5996
  214.5000   136.4375     8.6795     8.7115
  215.0000   138.2504     8.8011     8.8948
  215.5000   139.4724     8.9256     8.9565
  216.0000   140.0663     9.1126     9.1450
  216.5000   138.2600     9.3047     9.2083
  217.0000   137.0563     9.4351     9.4020
  217.5000   136.7569     9.5673     9.5333
  218.0000   136.7606     9.7013     9.7340
  218.5000   136.7635     9.9059     9.8722
  219.0000   135.8615    10.1854    10.0871
  219.5000   133.4512    10.3281    10.3616
  220.0000   130.7392    10.4002    10.5063
  220.5000   127.1223    10.4002    10.5056
  221.0000   123.8070    10.4728    10.5785
  221.5000   122.6033    10.4728    10.5776
  222.0000   122.6063    10.4728    10.5034
  222.5000   123.2132    10.4728    10.5027
  223.0000   125.6295    10.2565    10.4291
  223.5000   127.1407    10.0447    10.2841
  224.0000   126.8413     9.9059    10.1411
  224.5000   125.6383     9.9059     9.9999
  225.0000   125.3389     9.9059     9.9298
  225.5000   127.4542     9.9059     9.8602
  226.0000   131.0770     9.9059     9.7231
  226.5000   134.6999     9.9059     9.7224
  227.0000   138.0251     9.8363     9.6543
  227.5000   139.5625     9.7690     9.5866
  228.0000   139.8370     9.7013     9.5859
  228.5000   138.0307     9.7013     9.5853
  229.0000   135.6204     9.7013     9.5846
  229.5000   133.2101     9.7013     9.5838
  230.0000   131.7047     9.7013     9.5832
  230.5000   131.1036     9.7013     9.6497
  231.0000   131.7106     9.6341     9.5819
  231.5000   132.3169     9.6341     9.5147
  232.0000   134.7331     9.6341     9.5140
  232.5000   138.0543     9.6341     9.5134
  233.0000   141.4076     9.5673     9.5128
  233.5000   143.8762     9.5673     9.5121
  234.0000   144.7004     9.5673     9.5115
  234.5000   143.4967     9.5673     9.4446
  235.0000   140.7848     9.5010     9.4440
  235.5000   137.1678     9.3697     9.3778
  236.0000   136.5667     9.2402     9.3120
  236.5000   137.1737     9.2402     9.2468
  237.0000   136.8743     9.1762     9.2461
  237.5000   135.9730     9.1126     9.1813
  238.0000   135.6742     9.0494     9.1807
  238.5000   137.4931     8.9867     8.9881
  239.0000   139.6580     8.8011     8.7954
  239.5000   142.1267     8.6687     8.6208
  240.0000   144.1333     8.5002     8.4419
  240.5000   144.1362     8.3246     8.2093
  241.0000   145.3458     8.1527     7.9832
  241.5000   146.8571     7.9290     7.7633
  242.0000   147.4633     7.7114     7.6022
  242.5000   147.4663     7.4998     7.4965
  243.0000   148.0726     7.4478     7.4960
  243.5000   149.2822     7.5521     7.4954
  244.0000   149.2851     7.6579     7.5543
  244.5000   148.9724     7.7652     7.7601
  245.0000   147.4007     7.8813     8.0345
  245.5000   144.1665     8.1527     8.2038
  246.0000   139.3429     8.3246     8.3183
  246.5000   134.2176     8.3827     8.4933
  247.0000   130.9024     8.5595     8.6721
  247.5000   128.7937     8.8625     8.8546
  248.0000   129.4000     8.8625     8.9783
  248.5000   130.3079     9.0494     9.1036
  249.0000   130.0091     9.0604     9.1667
  249.5000   129.7104     8.8625     8.8521
  250.0000   124.8869     8.5000     8.6682
  250.5000   123.6682     8.7375     8.7869
  251.0000   127.4691     8.6144     8.7229
  251.5000   134.5015     8.5523     8.4803
  252.0000   136.6043     8.4319     8.4185
  252.5000   134.7795     8.4884     8.4156
  253.0000   133.5640     8.4860     8.4716
  253.5000   135.9625     8.6021     8.5272
  254.0000   137.4590     8.6603     8.5846
  254.5000   137.4471     8.7787     8.6416
  255.0000   134.1171     8.7763     8.7599
  255.5000   132.5611     8.7739     8.8181
  256.0000   133.1885     8.7715     8.7532
  256.5000   133.1765     8.7691     8.7502
  257.0000   132.2232     8.7667     8.7472
  257.5000   130.1334     8.7036     8.7442
  258.0000   129.2166     8.5810     8.7412
  258.5000   128.9061     8.5192     8.6776
  259.0000   132.2095     8.5167     8.6143
  259.5000   136.1192     8.5139     8.5509
  260.0000   137.3141     8.5116     8.5480
  260.5000   137.6068     8.4503     8.5451
  261.0000   133.9721     8.5075     8.5422
  261.5000   127.3238     8.5646     8.5997
  262.0000   127.9153     8.5617     8.5960
  262.5000   133.9366     8.5593     8.5334
  263.0000   138.1719     8.4983     8.5305
  263.5000   138.4379     8.4954     8.5276
  264.0000   135.7082     8.4930     8.5247
  264.5000   135.3947     8.3734     8.5218
  265.0000   134.1762     8.3131     8.4597
  265.5000   132.9577     8.3107     8.3397
  266.0000   134.4542     8.3080     8.3363
  266.5000   135.6520     8.2482     8.3334
  267.0000   136.2435     8.2459     8.3306
  267.5000   136.5333     8.2437     8.3277
  268.0000   137.7251     8.2995     8.3249
  268.5000   137.7133     8.2392     8.3220
  269.0000   136.7964     8.2369     8.3192
  269.5000   138.0996     8.1776     8.3164
  270.0000   142.8031     8.0624     8.2558
  270.5000   141.8862     8.0602     8.1388
  271.0000   140.6678     8.0021     8.0795
  271.5000   141.8626     7.9999     8.0767
  272.0000   145.4707     7.9972     8.0733
  272.5000   146.0651     7.9950     8.0705
  273.0000   143.9387     8.0492     8.0678
  273.5000   139.7037     8.1032     8.1221
  274.0000   140.2952     8.2145     8.2333
  274.5000   141.4900     8.2696     8.4036
  275.0000   141.4781     8.3831     8.5193
  275.5000   139.0286     8.4393     8.5157
  276.0000   137.5324     8.4955     8.5723
  276.5000   136.9148     8.5524     8.6294
  277.0000   135.6963     8.6097     8.6866
  277.5000   131.4613     8.6674     8.7444
  278.0000   129.0362     8.7255     8.8025
  278.5000   129.3289     8.7226     8.8610
  279.0000   130.2191     8.7202     8.8572
  279.5000   131.4140     8.7178     8.7317
  280.0000   135.9270     8.7154     8.7287
  280.5000   143.1550     8.7131     8.7257
  281.0000   144.9532     8.6503     8.6622
  281.5000   142.4795     8.5880     8.5394
  282.0000   138.4131     8.4670     8.4772
  282.5000   135.2616     8.3478     8.4155
  283.0000   137.0597     8.2302     8.3542
  283.5000   139.7628     8.2264     8.2358
