~VERSION INFORMATION
 VERS.                2.0:   CWLS LOG ASCII STANDARD - VERSION 2.0
 WRAP.                 NO:   ONE LINE PER DEPTH STEP
~WELL INFORMATION
#MNEM.UNIT      DATA TYPE    INFORMATION
#----------   ------------   ------------------------------
 STRT.F           30.0000:   START DEPTH
 STOP.F          732.0000:   STOP DEPTH
 STEP.F            0.5000:   STEP LENGTH
 NULL.          -999.2500:   NO VALUE
 COMP. FENIX & SCISSON INC:   COMPANY
 WELL.        31-S #31-14:   WELL
 FLD .             TEAPOT:   FIELD
 LOC .      S14 T38N R78W:   LOCATION
 CNTY.            NATRONA:   COUNTY
 STAT.            WYOMING:   STATE
 CTRY. UNITED STATES OF AMERICA:   COUNTRY
 SRVC.              Welex:   SERVICE COMPANY
 DATE.        16-FEB-1977:   LOGDATE
 API .       490251027300:   API NUMBER
~CURVE INFORMATION
#MNEM.UNIT       API CODE    CURVE DESCRIPTION
#----------   ------------   ------------------------------
 DEPT.F                  :   
 CALD.IN     45 280 60 00:   CALIPER FROM DENSITY LOG
 CORR.G/C3   45 356 01 00:   DENSITY CORRECTION
 DPHI.DEC    45 890 12 00:   DENSITY POROSITY SANDSTONE
 GRD .GAPI   45 310 01 00:   GAMMA RAY FROM DENSITY LOG
 RHOB.G/C3   45 350 01 00:   BULK DENSITY
 GURD.OHMM   07 270 05 00:   SHALLOW SHORT GUARD RESISTIVITY
 ILM .OHMM   07 120 44 00:   INDUCTION LOG MEDIUM
 ILD .OHMM   07 120 46 00:   INDUCTION LOG DEEP
 SPR .MV     07 010 01 00:   SPONTANEOUS POTENTIAL
~PARAMETER INFORMATION
#MNEM.UNIT          VALUE    DESCRIPTION
#----------   ------------   ------------------------------
 PD  .                 GL:   PERMANENT DATUM
 EPD .F              5186:   ELEVATION PERMANENT DATUM
 LMF .                 GL:   LOG MEASURED FROM
 DMF .                 GL:   DRILLING MEASURED FROM
 EKB .F              5195:   KELLING BUSHING
 EGL .F              5186:   GROUND LEVEL
 DATE.        16-FEB-1977:   RUN DATE
 RUN .                  1:   RUN NUMBER
 DD  .F               740:   DEPTH DRILLER
 DL  .F               736:   DEPTH LOGGER
 BLI .F               734:   BOTTOM LOG INTERVAL
 TLI .F                30:   TOP LOG INTERVAL
 CS  .IN            8.625:   CASING SIZE
 CBD .F                40:   CASING BOTTOM DRILLER
 CBL .F                44:   CASING BOTTOM LOGGER
 BS  .IN            7.875:   BIT SIZE
 BSD .F               740:   BIT SIZE AT DEPTH
 DFT .   OIL EMULSION MUD:   DRILLING FLUID TYPE
 DFD .                8.3:   DRILLING FLUID DENSITY
 DFV .                 48:   DRILLING FLUID VISCOSITY
 DFPH.               10.5:   DRILLING FLUID PH
 DFL .                7.5:   DRILLING FLUID LOSS
 MSS .           FLOWLINE:   MUD SAMPLE SOURCE
 RMS .OHMM           0.80:   RESISTIVITY MUD SAMPLE
 MST .F                64:   MUD SAMPLE TEMPERATURE
 RMF .OHMM           0.68:   RESISTIVITY MUD FILTRATE SAMPLE
 MFST.F                64:   MUD FILTRATE SAMPLE TEMPERATURE
 RMC .OHMM           1.01:   RESISTIVITY MUD CAKE
 MCST.F                63:   MUD CAKE SAMPLE TEMPERATURE
 MFSS.               MEAS:   MUD FILTRATE SAMPLE SOURCE
 MCSS.               MEAS:   MUD CAKE SAMPLE SOURCE
 RMB .OHMM           0.74:   RESISTIVITY MUD AT BHT
 BHT .F                69:   BOTTOM HOLE TEMPERATURE
 TCS .HRS               5:   TIME CURCULATED STOPPED
 MRT .F                69:   MAXIMUM RECORDED TEMPERATURE
 LUN .               8611:   LOGGING UNIT NUMBER
 LUL .           GILLETTE:   LOGGING UNIT LOCATION
 ENGI.           D.LAWSON:   RECORDING ENGINEER
 WITN.             K.JAPP:   WITNESSED BY
 CLNT.            A2DTECH:   CLIENT CODE
 ORIG.         2.5" PRINT:   ORIGIN OF DATA
 UWI .       490251027300:   UNIQUE WELL ID
 DICO. A2D Technologies, Inc.:   DIGITIZING COMPANY
~OTHER INFORMATION
~A   DEPT       CALD      CORR      DPHI         GRD        RHOB     GURD        ILM        ILD        SPR   
# ...
  468.0000     8.0166     0.1467     0.0923   128.2552     2.4798   821.8168     6.9416     5.8386   -51.0267
  468.5000     8.0755     0.1404     0.0954   127.6677     2.4745   824.8139     7.3298     6.1672   -51.0215
  469.0000     8.1047     0.1372     0.0958   127.3769     2.4849   827.8083     7.6390     6.6167   -51.0173
  469.5000     8.1340     0.1328     0.0970   127.3834     2.4804   833.7831     7.9611     7.0177   -51.0130
  470.0000     8.1335     0.1299     0.1008   127.6858     2.4730   839.9572     8.1838     7.1278   -50.7121
  470.5000     8.1331     0.1269     0.1033   129.4719     2.4715   846.2604     8.4218     7.2749   -50.4110
  471.0000     8.1326     0.1269     0.0994   130.6647     2.4747   852.5638     8.6707     7.5827   -50.4065
  471.5000     8.1233     0.1299     0.0953   130.5777     2.4877   857.6850     8.8899     7.9035   -50.4021
  472.0000     8.0902     0.1328     0.0858   128.9673     2.5094   859.2098     9.0655     8.1256   -50.2750
  472.5000     8.0571     0.1358     0.0780   127.1068     2.5235   857.7148     9.2062     8.2401   -50.0964
  473.0000     8.0121     0.1388     0.0745   125.3789     2.5286   857.7316     9.3958     8.2424   -49.7945
  473.5000     8.0117     0.1388     0.0727   125.7270     2.5309   857.7458     9.5269     8.2819   -49.7903
  474.0000     8.0409     0.1388     0.0736   131.5915     2.5308   863.7206     9.7933     8.5280   -49.4893
  474.5000     8.0702     0.1405     0.0768   132.4243     2.5249   872.8450     9.7946     8.7148   -49.1884
  475.0000     8.0697     0.1388     0.0808   130.7126     2.5160   875.6713     9.9313     8.8380   -49.1592
  475.5000     8.0990     0.1388     0.0858   129.2346     2.5041   874.8618     9.9327     8.7195   -48.8828
  476.0000     8.0985     0.1388     0.0899   127.4362     2.5057   868.5879     9.9340     8.4859   -48.7873
  476.5000     8.0892     0.1388     0.0887   125.8724     2.5178   865.2949     9.9354     8.2575   -48.5772
  477.0000     8.0680     0.1388     0.0834   124.3739     2.5204   860.8320     9.9368     8.1478   -48.5727
  477.5000     8.0675     0.1388     0.0792   123.6193     2.5150   860.8462     9.8029     8.1501   -48.4730
  478.0000     8.0670     0.1388     0.0780   123.7488     2.5115   863.8406     9.6705     8.2650   -48.2665
  478.5000     8.0666     0.1388     0.0793   124.9762     2.5122   869.8154     9.6717     8.4348   -48.2623
  479.0000     8.0661     0.1388     0.0805   126.6065     2.5189   872.8102     9.5411     8.5671   -48.2582
  479.5000     8.0657     0.1418     0.0810   126.3154     2.5248   872.3580     9.4123     8.6199   -47.9570
  480.0000     8.0653     0.1418     0.0797   125.4308     2.5322   866.0845     9.2852     8.5046   -47.9525
  480.5000     8.0648     0.1448     0.0742   124.8430     2.5352   862.7914     9.2471     8.3909   -47.9481
  481.0000     8.0644     0.1448     0.0662   124.5519     2.5367   860.9485     9.0363     8.2786   -47.9436
  481.5000     8.0639     0.1448     0.0668   124.5846     2.5382   866.9269     8.7852     8.1524   -47.9392
  482.0000     8.0635     0.1478     0.0691   125.2127     2.5291   869.9213     8.2109     7.8136   -47.9340
  482.5000     8.0631     0.1478     0.0721   125.8408     2.5095   867.5004     7.7733     7.5923   -47.6330
  483.0000     8.0625     0.1473     0.0745   126.4688     2.5084   861.0086     7.1597     7.2767   -47.6288
  483.5000     8.0918     0.1448     0.0788   126.5173     2.5012   854.9530     6.7781     7.0314   -47.6246
  484.0000     8.0914     0.1448     0.0845   126.3680     2.4825   848.6797     6.2195     6.8428   -47.9171
  484.5000     8.1206     0.1478     0.0914   126.0771     2.4698   838.6606     5.7027     6.5685   -47.9125
  485.0000     8.1202     0.1478     0.0992   126.6772     2.4668   827.9855     5.2287     6.3051   -47.9080
  485.5000     8.1494     0.1448     0.1073   127.2764     2.4638   813.5367     4.7667     5.9586   -47.9036
  486.0000     8.1193     0.1448     0.1142   127.2820     2.4593   792.5529     4.3042     5.5394   -47.8991
  486.5000     8.1188     0.1448     0.1255   126.0672     2.4514   774.6851     3.8115     5.0794   -47.8939
  487.0000     8.0887     0.1478     0.1374   124.8289     2.4308   753.8369     3.4156     4.5940   -47.5930
  487.5000     8.0438     0.1507     0.1516   123.6647     2.3969   724.0477     3.2335     4.1842   -47.5888
  488.0000     7.9987     0.1597     0.1700   122.7517     2.3540   684.6026     3.1035     3.6977   -47.2878
  488.5000     7.9686     0.1597     0.1869   121.9703     2.3267   626.6703     3.0616     3.4063   -47.2834
  489.0000     7.9385     0.1559     0.1920   121.6795     2.3173   601.1633     3.1133     3.2252   -46.9822
  489.5000     7.9084     0.1507     0.1817   123.1702     2.3285   606.1644     3.2054     3.1386   -46.8823
  490.0000     7.8783     0.1478     0.1549   126.1432     2.3627   663.5229     3.3864     3.0966   -46.6766
  490.5000     7.9076     0.1507     0.1250   128.5227     2.4429   705.4495     3.8265     3.1052   -46.5104
  491.0000     7.9368     0.1627     0.1125   132.3860     2.4667   708.1371     4.2592     3.2106   -46.3702
  491.5000     7.9749     0.1746     0.1053   137.7329     2.4713   697.3448     4.5002     3.5181   -46.0692
  492.0000     7.9953     0.1806     0.0982   136.4451     2.4854   755.9420     4.6899     3.8390   -46.0650
  492.5000     8.0245     0.1776     0.0869   134.9456     2.5036   812.6373     4.8877     4.2523   -46.0608
  493.0000     7.9943     0.1745     0.0792   134.1890     2.5098   811.0551     5.1717     4.6185   -46.0564
  493.5000     7.9939     0.1683     0.0823   135.6944     2.5035   805.0803     5.3405     4.9479   -46.0519
  494.0000     7.9934     0.1627     0.0867   138.5143     2.4956   799.1054     5.5577     5.3008   -46.0475
  494.5000     7.9633     0.1588     0.0920   140.7370     2.4875   796.1109     5.7219     5.5384   -46.0430
  495.0000     7.9629     0.1555     0.0923   141.1276     2.4889   790.1359     5.8910     5.7910   -46.0386
  495.5000     7.9654     0.1493     0.0904   139.5614     2.4964   790.4637     6.0933     6.0027   -46.0334
  496.0000     7.9917     0.1448     0.0966   136.8965     2.4919   800.9546     6.1783     6.0519   -45.7325
  496.5000     7.9616     0.1388     0.1047   132.4511     2.4845   817.8428     6.0949     6.0060   -45.7282
  497.0000     7.9493     0.1328     0.1089   131.2698     2.4768   810.2523     6.0957     6.0079   -45.7240
  497.5000     7.9310     0.1299     0.1113   133.9219     2.4708   783.9519     5.9227     5.9276   -45.7196
  498.0000     7.9305     0.1269     0.1136   138.1781     2.4673   745.3388     5.7543     5.8934   -45.7151
  498.5000     7.9301     0.1239     0.1148   143.1226     2.4636   748.3049     5.5907     5.8498   -45.7107
  499.0000     7.9296     0.1239     0.1148   142.3047     2.4642   787.0349     5.4317     5.7632   -45.7062
  499.5000     7.9589     0.1246     0.1134   139.8220     2.4667   804.9028     5.4324     5.6167   -45.9985
  500.0000     7.9881     0.1276     0.1098   131.3056     2.4692   801.9082     5.5419     5.5416   -45.9934
  500.5000     7.9907     0.1287     0.1056   132.8768     2.4717   795.6395     5.6969     5.5433   -46.2859
  501.0000     8.0170     0.1297     0.1014   135.1010     2.4740   789.9571     5.9372     5.5878   -46.2817
  501.5000     8.0098     0.1308     0.0969   137.5029     2.4759   791.7009     6.1034     5.7947   -46.5742
  502.0000     8.0034     0.1319     0.0895   139.2522     2.4821   811.3259     6.2881     6.0910   -46.5697
  502.5000     7.9969     0.1342     0.0810   138.1231     2.4994   831.5873     6.5515     6.3873   -46.8625
  503.0000     7.9904     0.1404     0.0760   134.5605     2.5158   843.5405     6.8149     6.6836   -46.8576
  503.5000     7.9839     0.1447     0.0722   131.8885     2.5304   846.5088     7.0784     6.9799   -46.8531
  504.0000     7.9786     0.1476     0.0710   132.4806     2.5393   852.4531     7.3933     7.3006   -47.0148
