~VERSION INFORMATION
 VERS.                2.0:   CWLS LOG ASCII STANDARD - VERSION 2.0
 WRAP.                 NO:   ONE LINE PER DEPTH STEP
~WELL INFORMATION
#MNEM.UNIT      DATA TYPE    INFORMATION
#----------   ------------   ------------------------------
 STRT.F            0.0000:   START DEPTH
 STOP.F          539.0000:   STOP DEPTH
 STEP.F            0.5000:   STEP LENGTH
 NULL.          -999.2500:   NO VALUE
 COMP. FENIX & SCISSON INC:   COMPANY
 WELL.     NPR 3 SX #23-3:   WELL
 FLD .             TEAPOT:   FIELD
 LOC .       S3 T38N R78W:   LOCATION
 CNTY.            NATRONA:   COUNTY
 STAT.            WYOMING:   STATE
 CTRY. UNITED STATES OF AMERICA:   COUNTRY
 SRVC.           BIRDWELL:   SERVICE COMPANY
 DATE.        27-JUL-1978:   LOGDATE
 API .       490251067500:   API NUMBER
~CURVE INFORMATION
#MNEM.UNIT       API CODE    CURVE DESCRIPTION
#----------   ------------   ------------------------------
 DEPT.F                  :   
 ILD .OHMM   05 120 40 00:   INDUCTION LOG DEEP
 SPR .MV     05 010 01 00:   SPONTANEOUS POTENTIAL
 SN  .OHMM   05 040 16 00:   SHORT NORMAL 16"
 CALD.IN     45 280 60 00:   CALIPER FROM DENSITY LOG
 CORR.G/C3   45 356 01 00:   DENSITY CORRECTION
 DPHI.DEC    45 890 12 00:   DENSITY POROSITY SANDSTONE
 GRD .GAPI   45 310 01 00:   GAMMA RAY FROM DENSITY LOG
 RHOB.G/C3   45 350 01 00:   BULK DENSITY
~PARAMETER INFORMATION
#MNEM.UNIT          VALUE    DESCRIPTION
#----------   ------------   ------------------------------
 PD  .                 GL:   PERMANENT DATUM
 EPD .F              5787:   ELEVATION PERMANENT DATUM
 LMF .                 KB:   LOG MEASURED FROM
 DAPD.F                 4:   FEET ABOVE PERMANENT DATUM
 DMF .                 KB:   DRILLING MEASURED FROM
 EKB .F              5191:   KELLING BUSHING
 EGL .F              5187:   GROUND LEVEL
 DATE.         7-JUL-1978:   RUN DATE
 RUN .                  1:   RUN NUMBER
 DD  .F               540:   DEPTH DRILLER
 DL  .F               540:   DEPTH LOGGER
 BLI .F               539:   BOTTOM LOG INTERVAL
 CS  .IN            8.625:   CASING SIZE
 CBD .F                40:   CASING BOTTOM DRILLER
 BS  .IN            7.875:   BIT SIZE
 BSD .F               540:   BIT SIZE AT DEPTH
 DFT .                KCL:   DRILLING FLUID TYPE
 DFD .                8.6:   DRILLING FLUID DENSITY
 DFV .                 30:   DRILLING FLUID VISCOSITY
 DFPH.                  9:   DRILLING FLUID PH
 MSS .           FLOWLINE:   MUD SAMPLE SOURCE
 MRT .F                74:   MAXIMUM RECORDED TEMPERATURE
 LUN .               2958:   LOGGING UNIT NUMBER
 LUL .               CASP:   LOGGING UNIT LOCATION
 ENGI.            POINTER:   RECORDING ENGINEER
 WITN.              AMEND:   WITNESSED BY
 CLNT.            A2DTECH:   CLIENT CODE
 ORIG.           5" PRINT:   ORIGIN OF DATA
 UWI .       490251067500:   UNIQUE WELL ID
 DICO. A2D Technologies, Inc.:   DIGITIZING COMPANY
~OTHER INFORMATION
~A    DEPT     ILD        SPR         SN         CALD     CORR       DPHI         GRD      RHOB   
# ...
   40.5000  -999.2500  -999.2500  -999.2500     7.8598     0.0232     0.1214    70.8982     2.4551
   41.0000     6.2751   -47.9984     9.0384     7.8286     0.0231     0.1238    71.0479     2.4551
   41.5000     6.5861   -47.8302     9.0420     7.8124     0.0230     0.1262    71.3473     2.4528
   42.0000     6.6336   -47.8101     9.0449     7.8114     0.0229     0.1274    71.7964     2.4506
   42.5000     6.6101   -47.7858     9.0479     7.7953     0.0228     0.1286    73.2934     2.4491
   43.0000     6.4990   -47.7660     9.0508     8.4815     0.0286     0.1268    73.8922     2.4491
   43.5000     6.4603   -47.5979     9.0539     8.8809     0.0345     0.1238    72.8283     2.4491
   44.0000     6.4629   -47.1330     9.0574     7.9733     0.0463     0.1214    72.6946     2.4521
   44.5000     6.3769   -46.8160     9.0604     8.0327     0.0567     0.1190    73.2934     2.4573
   45.0000     6.2920   -47.0935     9.0632     8.0317     0.0641     0.1172    72.6946     2.4611
   45.5000     6.2942   -47.6622     9.0663     8.0911     0.0700     0.1166    72.9940     2.4641
   46.0000     6.2966   -47.9392     9.0699     8.1505     0.0743     0.1190    73.8922     2.4641
   46.5000     6.2986   -47.9194     9.0729     8.1794     0.0742     0.1283    74.1916     2.4611
   47.0000     6.3007   -48.0480     9.2011     8.1938     0.0755     0.1370    74.7904     2.4521
   47.5000     6.2596   -48.1766     9.3311     8.1018     0.1159     0.1370    75.2495     2.4371
   48.0000     6.2622   -48.7503     9.3342     7.8440     0.1532     0.1298    75.3892     2.4326
   48.5000     6.2642   -49.3240     9.3379     7.5258     0.1635     0.1238    75.5389     2.4364
   49.0000     6.2663   -49.4477     9.3409     7.3578     0.1649     0.1201    75.6886     2.4446
   49.5000     6.2736   -49.7433     9.4729     7.1761     0.1573     0.1187    75.6886     2.4701
   50.0000     6.3141   -49.8533     9.6068     7.0542     0.1407     0.1184    74.7904     2.4790
   50.5000     6.4475   -49.8286     9.8778     6.9928     0.0927     0.1183    73.8922     2.4775
   51.0000     6.5838   -49.9621    10.0862     6.9918     0.0596     0.1189    73.8922     2.4753
   51.5000     6.8158   -50.9760    10.1589     6.9756     0.0490     0.1238    73.8922     2.4633
   52.0000     7.1542   -51.5497    10.1622     6.9897     0.0504     0.1373    73.8922     2.4385
   52.5000     7.2554   -51.5250    10.3058     6.9887     0.0533     0.1352    73.8922     2.4326
   53.0000     7.4598   -51.5052    10.3099     7.0481     0.0502     0.1298    74.1916     2.4333
   53.5000     7.5654   -51.4854    10.1729     7.1073     0.0426     0.1250    74.4910     2.4386
   54.0000     7.6746   -51.7626    10.0377     7.1669     0.0320     0.1208    74.4910     2.4490
   54.5000     7.8892   -52.0394     9.6365     7.3469     0.0259     0.1152    73.8922     2.4610
   55.0000     7.8918   -52.0147     9.3789     7.5272     0.0257     0.1119    72.8443     2.4701
   55.5000     7.8943   -52.4400     9.2550     7.7102     0.0256     0.1101    71.4970     2.4790
   56.0000     7.8969   -52.5736     9.1948     7.9176     0.0255     0.1101    72.0958     2.4804
   56.5000     7.8995   -52.5488     9.1350     8.0224     0.0254     0.1107    72.6946     2.4797
   57.0000     7.9027   -53.1226     9.2008     8.1273     0.0253     0.1125    73.2934     2.4767
   57.5000     7.8506   -53.3946     9.2678     8.1716     0.0251     0.1173    72.6946     2.4714
   58.0000     7.9078   -53.6765     9.3346     8.1250     0.0250     0.1197    72.0958     2.4651
   58.5000     7.9104   -54.2453     9.4018     8.0318     0.0339     0.1212    72.0958     2.4565
   59.0000     7.9136   -54.2255     9.4049     7.9415     0.0442     0.1209    72.0958     2.4565
   59.5000     8.1366   -54.7992     9.6041     7.8801     0.0561     0.1203    71.9461     2.4564
   60.0000     8.1392   -55.3680     9.6733     7.8186     0.0605     0.1190    72.5549     2.4564
   60.5000     8.3685   -55.4966     9.8100     7.7572     0.0544     0.1173    72.6946     2.4587
   61.0000     8.8437   -55.9219     9.8132     7.7108     0.0468     0.1155    72.2455     2.4624
   61.5000     9.3466   -56.2018     9.9519     7.6946     0.0361     0.1137    71.4970     2.4684
   62.0000     9.6099   -57.0644     9.9559     7.6330     0.0300     0.1122    70.8982     2.4736
   62.5000     9.8130   -57.9348     9.9591     7.6169     0.0239     0.1113    70.8982     2.4774
   63.0000     9.8838   -58.8102    10.0998     7.5706     0.0208     0.1125    70.8982     2.4766
   63.5000     9.8871   -59.3839    10.1726     7.5393     0.0222     0.1125    70.8982     2.4743
   64.0000     9.8910   -59.5075    10.1767     7.5081     0.0236     0.1125    71.1976     2.4743
   64.5000     9.8943   -59.9279    10.2500     7.4467     0.0234     0.1125    71.4970     2.4743
   65.0000     9.8975   -59.9082    10.2533     7.4134     0.0278     0.1125    73.8922     2.4758
   65.5000     9.9007   -60.4868    10.2567     7.3840     0.0322     0.1113    74.4910     2.4766
   66.0000     9.8370   -61.0605    10.2600     7.3225     0.0351     0.1101    75.4212     2.4773
   66.5000     9.6397   -61.1842    10.2642     7.3064     0.0230     0.1089    75.3892     2.4804
   67.0000     9.6428   -61.6095    10.1970     7.2601     0.0169     0.1089    75.2395     2.4833
   67.5000     9.5800   -61.5848    10.1302     7.2590     0.0182     0.1119    75.0898     2.4773
   68.0000     9.3878   -62.1585     9.9963     7.2429     0.0226     0.1209    75.0898     2.4631
   68.5000     9.3916   -62.7322     9.9997     7.2570     0.0255     0.1251    75.0898     2.4571
   69.0000     9.1396   -63.0092     9.8675     7.2557     0.0284     0.1257    75.0898     2.4525
   69.5000     9.1433   -63.2862     9.7356     7.3154     0.0342     0.1257    76.2874     2.4488
   70.0000     9.1463   -64.4484     9.7395     7.3748     0.0341     0.1257    77.1856     2.4488
   70.5000     9.3396   -66.8025     9.6748     7.4491     0.0355     0.1257    76.2874     2.4495
   71.0000     9.4077   -68.7685     9.4825     7.4942     0.0369     0.1269    75.0898     2.4495
   71.5000     9.4108   -60.5315     9.4862     7.4921     0.0368     0.1269    74.3413     2.4495
   72.0000     9.1582   -70.3041     9.4237     7.4911     0.0363     0.1269    73.8922     2.4494
   72.5000     8.9138   -38.8253     9.3630     7.4901     0.0350     0.1252    73.2934     2.4473
   73.0000     8.8470    -0.8234     9.3381     7.5193     0.0349     0.1222    73.2934     2.4480
   73.5000     8.6781    -0.8036     9.3700     7.5485     0.0348     0.1186    73.2934     2.4532
   74.0000     8.6816    -2.7537     9.3730     7.5474     0.0347     0.1162    73.2934     2.4615
   74.5000     8.6244    -4.1716     9.3120     7.6068     0.0330     0.1138    72.6946     2.4652
   75.0000     8.5689    -4.7453     9.2514     7.6207     0.0329     0.1126    75.5389     2.4704
   75.5000     8.5130    -5.4674     9.2546     7.6652     0.0328     0.1126    78.5329     2.4712
   76.0000     8.5751    -6.1894     9.2578     7.6791     0.0327     0.1126    79.7305     2.4719
   76.5000     8.5779    -6.7789     9.2612     7.7236     0.0281     0.1126    79.7305     2.4697
   77.0000     8.5807    -7.3319     9.2642     7.7223     0.0264     0.1135    79.8802     2.4674
   77.5000     8.4665    -8.9442     9.2673     7.7515     0.0203     0.1141    79.8877     2.4652
   78.0000     8.4700   -10.1114     9.2710     7.7805     0.0172     0.1162    80.4790     2.4659
   78.5000     8.4727   -11.2786     9.2740     7.7795     0.0141     0.1210    79.8802     2.4674
   79.0000     8.4755   -12.0376     9.2770     7.7785     0.0110     0.1243    79.2814     2.4681
   79.5000     8.4782   -12.7178     9.2800     7.7774     0.0139     0.1258    78.8323     2.4539
   80.0000     8.4811   -13.5882     9.2832     7.7764     0.0167     0.1270    76.2874     2.4501
   80.5000     8.4845   -15.2005     9.2864     7.7754     0.0256     0.1258    74.1806     2.4501
