~VERSION INFORMATION
 VERS.                2.0:   CWLS LOG ASCII STANDARD - VERSION 2.0
 WRAP.                 NO:   ONE LINE PER DEPTH STEP
~WELL INFORMATION
#MNEM.UNIT      DATA TYPE    INFORMATION
#----------   ------------   ------------------------------
 STRT.F          690.5000:   START DEPTH
 STOP.F         2366.0000:   STOP DEPTH
 STEP.F            0.5000:   STEP LENGTH
 NULL.          -999.2500:   NO VALUE
 COMP. LAWRENCE/ALLISON INC:   COMPANY
 WELL.  NPR 3 #26SHX10-10:   WELL
 FLD .             TEAPOT:   FIELD
 LOC .      S10 T38N R78W:   LOCATION
 CNTY.            NATRONA:   COUNTY
 STAT.            WYOMING:   STATE
 CTRY. UNITED STATES OF AMERICA:   COUNTRY
 SRVC.            Unknown:   SERVICE COMPANY
 DATE.        30-DEC-1992:   LOGDATE
 API .       490251113600:   API NUMBER
~CURVE INFORMATION
#MNEM.UNIT       API CODE    CURVE DESCRIPTION
#----------   ------------   ------------------------------
 DEPT.F                  :   
 ROP .MIN/FT 91 810 01 00:   RATE OF DRILLING PENETRATION
 TGAS.UNITS  91 830 01 00:   TOTAL GAS FROM HOTWIRE
~PARAMETER INFORMATION
#MNEM.UNIT          VALUE    DESCRIPTION
#----------   ------------   ------------------------------
 EKB .F              5235:   KELLING BUSHING
 EGL .F              5225:   GROUND LEVEL
 DATE.           12-30-92:   RUN DATE
 DD  .F              2365:   DEPTH DRILLER
 BLI .F              2360:   BOTTOM LOG INTERVAL
 TLI .F              2160:   TOP LOG INTERVAL
 CS  .IN            8.625:   CASING SIZE
 CBD .F               675:   CASING BOTTOM DRILLER
 TCS .HRS            0200:   TIME CURCULATED STOPPED
 TLAB.HRS            1700:   TIME LOGGER AT BOTTOM
 ENGI.               HUSK:   RECORDING ENGINEER
 WITN.              TOWER:   WITNESSED BY
 CLNT.            A2DTECH:   CLIENT CODE
 ORIG.           5" PRINT:   ORIGIN OF DATA
 UWI .       490251113600:   UNIQUE WELL ID
 DICO. A2D Technologies, Inc.:   DIGITIZING COMPANY
~OTHER INFORMATION
~A   DEPT      ROP         TGAS 
# ...
 2148.5000     0.5364   436.1096
 2149.0000     0.5370   431.9151
 2149.5000     0.5375   433.0248
 2150.0000     0.5360   437.3027
 2150.5000     0.5239   440.5308
 2151.0000     0.5175   441.6413
 2151.5000     0.5073   440.6341
 2152.0000     0.5076   436.4505
 2152.5000     0.5358   433.3235
 2153.0000     0.5504   433.3773
 2153.5000     0.5507   435.5810
 2154.0000     0.5617   438.9183
 2154.5000     0.6464   442.0158
 2155.0000     0.7100   443.1263
 2155.5000     0.7630   442.1062
 2156.0000     0.8583   436.8766
 2156.5000     0.9851   433.7389
 2157.0000     1.1120   432.7317
 2157.5000     1.2600   433.8551
 2158.0000     1.5038   433.9068
 2158.5000     1.5349   433.9948
 2159.0000     1.4298   437.1882
 2159.5000     1.3563   441.4864
 2160.0000     1.2827   443.6556
 2160.5000     1.2409   443.7073
 2161.0000     1.2305   441.6413
 2161.5000     1.2309   438.5165
 2162.0000     1.2312   436.4376
 2162.5000     1.2315   434.3824
 2163.0000     1.2424   435.4950
 2163.5000     1.2533   440.8772
 2164.0000     1.2642   414.8770
 2164.5000     1.2645     0.8476
 2165.0000  -999.2500     0.9622
 2165.5000  -999.2500     0.9687
 2166.0000  -999.2500     0.9761
 2166.5000  -999.2500     0.9835
 2167.0000  -999.2500     0.9908
 2167.5000  -999.2500     0.9982
 2168.0000  -999.2500     1.0056
 2168.5000  -999.2500     1.0130
 2169.0000  -999.2500     1.0204
 2169.5000  -999.2500     1.0278
 2170.0000  -999.2500     1.0352
 2170.5000  -999.2500     1.0429
 2171.0000     0.4156     0.6275
 2171.5000     0.4151     0.2121
 2172.0000     0.4146     0.1154
 2172.5000     0.4142     0.1226
 2173.0000     0.4137     0.1298
 2173.5000     0.4133     0.1369
 2174.0000     0.4128     0.1441
 2174.5000     0.4123     0.1513
 2175.0000     0.4119     0.0528
 2175.5000     0.4114     0.0602
 2176.0000     0.4109     0.0000
 2176.5000     0.4105     0.0761
 2177.0000     0.4100     0.0833
 2177.5000     0.4095     0.0904
 2178.0000     0.4091     0.0976
 2178.5000     0.4086     0.1048
 2179.0000     0.4081     0.1120
 2179.5000     0.4077     0.1194
 2180.0000     0.4072     0.1281
 2180.5000     0.4068     0.1342
 2181.0000     0.4063     0.1424
 2181.5000     0.4058     0.1496
 2182.0000     0.4054     0.1567
 2182.5000     0.4049     0.1639
 2183.0000     0.4044     0.1711
 2183.5000     0.4040     0.1785
 2184.0000     0.4035     0.1860
 2184.5000     0.4030     0.1933
 2185.0000     0.4026     0.2015
 2185.5000     0.4021     0.2087
 2186.0000     0.4017     0.2159
 2186.5000     0.4012     0.2236
 2187.0000     0.4007     0.2308
 2187.5000     0.4003     0.2377
 2188.0000     0.3998     0.2463
 2188.5000     0.3993     0.1461
 2189.0000     0.3989     0.1550
 2189.5000     0.3984     0.1622
 2190.0000     0.3979     0.1694
 2190.5000     0.3975     0.2822
 2191.0000     0.3970     0.2894
 2191.5000     0.3965     0.2983
 2192.0000     0.3961     0.1980
 2192.5000     0.3956     0.2070
 2193.0000     0.3952     0.2142
 2193.5000     0.3947     0.2213
 2194.0000     0.3942     0.1211
 2194.5000     0.3938     0.1300
 2195.0000     0.3933     0.1373
 2195.5000     0.3928     0.2518
 2196.0000     0.3924     0.2590
 2196.5000     0.3919     0.3718
 2197.0000     0.3914     0.2715
 2197.5000     0.3910     0.2805
 2198.0000     0.3905     0.2876
 2198.5000     0.3900     0.2948
 2199.0000     0.3896     0.3021
 2199.5000     0.3891     0.3109
 2200.0000     0.3887     0.2107
 2200.5000     0.3886     0.2196
 2201.0000     0.3884     0.2268
 2201.5000     0.3883     0.2340
 2202.0000     0.3882     0.2411
 2202.5000     0.3881     0.1426
 2203.0000     0.3880     0.1500
 2203.5000     0.3879     0.1588
 2204.0000     0.3878     0.0585
 2204.5000     0.3877     0.0675
 2205.0000     0.3876     0.0000
 2205.5000     0.3875     0.0000
 2206.0000     0.3874     0.0000
 2206.5000     0.3873     0.0000
 2207.0000     0.3872     0.0000
 2207.5000     0.3871     0.0067
 2208.0000     0.3870     0.0127
 2208.5000     0.3869     0.0210
 2209.0000     0.3868     0.0282
 2209.5000     0.3867     0.0000
 2210.0000     0.3866     0.0000
 2210.5000     0.3864     0.0497
 2211.0000     0.3863     0.0574
 2211.5000     0.3862     0.0658
 2212.0000     0.3861     0.0730
 2212.5000     0.3860     0.0801
 2213.0000     0.3859     0.0000
 2213.5000     0.3858     0.0000
 2214.0000     0.3857     0.0000
 2214.5000     0.3856     0.0032
 2215.0000     0.3855     0.0106
 2215.5000     0.3854     0.0193
 2216.0000     0.3853     0.0265
 2216.5000     0.4062     0.0336
 2217.0000     0.4586     0.0408
 2217.5000     0.5110     0.0480
 2218.0000     0.5424     0.0551
 2218.5000     0.5633     0.0623
 2219.0000     0.5842     0.0697
 2219.5000     0.5946     0.0784
 2220.0000     0.5945     0.0856
 2220.5000     0.5944     0.0933
 2221.0000     0.5838     0.0999
 2221.5000     0.5627     0.1077
 2222.0000     0.5311     0.1143
 2222.5000     0.4890     0.1215
 2223.0000     0.4363     0.1292
 2223.5000     0.4047     0.0301
 2224.0000     0.3941     0.0391
 2224.5000     0.3940     0.0462
 2225.0000     0.3939     0.0534
 2225.5000     0.3938     0.0606
 2226.0000     0.3937     0.0677
 2226.5000     0.3936     0.0750
 2227.0000     0.3935     0.0824
 2227.5000     0.3934     0.0910
 2228.0000     0.3933     0.0982
 2228.5000     0.3932     0.1048
 2229.0000     0.3825     0.1125
 2229.5000     0.3824     0.1197
 2230.0000     0.3928     0.1269
 2230.5000     0.3927     0.1342
 2231.0000     0.3926     0.1424
 2231.5000     0.3925     0.1502
 2232.0000     0.3924     0.1567
 2232.5000     0.3923     0.1645
 2233.0000     0.3922     0.1717
 2233.5000     0.4026     0.1788
 2234.0000     0.4025     0.0803
 2234.5000     0.4024     0.0000
 2235.0000     0.4023     0.0000
 2235.5000     0.4022     0.0000
 2236.0000     0.3916     0.0000
 2236.5000     0.3915     0.0000
 2237.0000     0.3914     0.0000
 2237.5000     0.3913     0.0000
 2238.0000     0.3912     0.0000
 2238.5000     0.3911     0.0000
 2239.0000     0.3910     0.0000
 2239.5000     0.3909     0.0000
 2240.0000     0.3907     0.0000
 2240.5000     0.3906     0.0000
 2241.0000     0.3905     0.0000
 2241.5000     0.3904     0.0000
 2242.0000     0.3903     0.0000
 2242.5000     0.3902     0.0000
 2243.0000     0.4006     0.0000
 2243.5000     0.4005     0.0000
 2244.0000     0.4004     0.0000
 2244.5000     0.4108     0.0000
 2245.0000     0.4527     0.0000
 2245.5000     0.4946     0.0000
 2246.0000     0.5471     0.0000
 2246.5000     0.5575     0.0000
 2247.0000     0.5573     0.0000
 2247.5000     0.5572     0.0000
 2248.0000     0.5571     0.0000
 2248.5000     0.5570     0.0000
 2249.0000     0.5464     0.0000
 2249.5000     0.5043     0.0000
 2250.0000     0.4202     0.0000
 2250.5000     0.4097     0.0000
 2251.0000     0.4202     0.0000
 2251.5000     0.4202     0.0000
 2252.0000     0.4202     0.0000
 2252.5000     0.4202     0.0000
 2253.0000     0.4202     0.0000
 2253.5000     0.4202     0.0000
 2254.0000     0.4202     0.0000
 2254.5000     0.4202     0.0000
 2255.0000     0.4202     0.0000
 2255.5000     0.4202     0.0000
 2256.0000     0.4202     0.0000
 2256.5000     0.4202     0.0000
 2257.0000     0.4202     0.0000
 2257.5000     0.4202     0.0000
 2258.0000     0.4202     0.0000
 2258.5000     0.4202     0.0000
 2259.0000     0.4202     0.0000
 2259.5000     0.4202     0.0000
 2260.0000     0.4202     0.0000
 2260.5000     0.4202     0.0000
 2261.0000     0.4202     0.0000
 2261.5000     0.4202     0.0000
 2262.0000     0.4202     0.0000
 2262.5000     0.4202     0.0000
 2263.0000     0.4202     0.0000
 2263.5000     0.4202     0.0000
 2264.0000     0.4202     0.0000
 2264.5000     0.4202     0.0000
 2265.0000     0.4202     0.0000
 2265.5000     0.4202     0.0000
 2266.0000     0.4202     0.0000
 2266.5000     0.4202     0.0000
 2267.0000     0.4202     0.0000
 2267.5000     0.4202     0.0000
 2268.0000     0.4202     0.0000
 2268.5000     0.4202     0.0000
 2269.0000     0.4202     0.0000
 2269.5000     0.4202     0.0000
