~VERSION INFORMATION
 VERS.                2.0:   CWLS LOG ASCII STANDARD - VERSION 2.0
 WRAP.                 NO:   ONE LINE PER DEPTH STEP
~WELL INFORMATION
#MNEM.UNIT      DATA TYPE    INFORMATION
#----------   ------------   ------------------------------
 STRT.F           16.0000:   START DEPTH
 STOP.F          634.0000:   STOP DEPTH
 STEP.F            0.5000:   STEP LENGTH
 NULL.          -999.2500:   NO VALUE
 COMP. LAWRENCE/ALLISON INC:   COMPANY
 WELL.    14-15 SX #11-11:   WELL
 FLD .             TEAPOT:   FIELD
 LOC .      S11 T38N R78W:   LOCATION
 CNTY.            NATRONA:   COUNTY
 STAT.            WYOMING:   STATE
 CTRY. UNITED STATES OF AMERICA:   COUNTRY
 SRVC.      Dresser Atlas:   SERVICE COMPANY
 DATE.        06-JAN-1985:   LOGDATE
 API .       490251101700:   API NUMBER
~CURVE INFORMATION
#MNEM.UNIT       API CODE    CURVE DESCRIPTION
#----------   ------------   ------------------------------
 DEPT.F                  :   
 SPR .MV     11 010 01 00:   SPONTANEOUS POTENTIAL FROM RES.
 RD  .OHMM   11 220 10 00:   RESISTIVITY DEEP
 RS  .OHMM   11 220 09 00:   RESISTIVITY SHALLOW
 RMLL.OHMM   20 270 04 00:   RESISTIVITY MICROLATEROLOG
 AC  .US/F   60 520 00 00:   ACCOUSTIC SONIC
 CNC .DEC    42 890 03 00:   COMPENSATED NEUTRON POROSITY SANDSTONE
 PORD.DEC    45 890 12 00:   POROSITY DENSITY SANDSTONE
 GRD .GAPI   45 310 01 00:   GAMMA RAY FROM DENSITY LOG
 CALD.IN     45 280 60 00:   CALIPER FROM DENSITY
 CORR.G/C3   45 356 01 00:   DENSITY CORRECTION
 DEN .G/C3   45 350 01 00:   COMPENSATED BULK DENSTIY
~PARAMETER INFORMATION
#MNEM.UNIT          VALUE    DESCRIPTION
#----------   ------------   ------------------------------
 PD  .                 GL:   PERMANENT DATUM
 EPD .F            5196.8:   ELEVATION PERMANENT DATUM
 LMF .                 KB:   LOG MEASURED FROM
 DMF .                 KB:   DRILLING MEASURED FROM
 EKB .F            5196.8:   KELLING BUSHING
 EGL .F            5196.8:   GROUND LEVEL
 DATE.        06-JAN-1985:   RUN DATE
 RUN .                  1:   RUN NUMBER
 DD  .F               650:   DEPTH DRILLER
 DL  .F               636:   DEPTH LOGGER
 BLI .F               634:   BOTTOM LOG INTERVAL
 CS  .IN            8.625:   CASING SIZE
 CBD .F                20:   CASING BOTTOM DRILLER
 CBL .F                22:   CASING BOTTOM LOGGER
 BS  .IN             6.25:   BIT SIZE
 BSD .F               650:   BIT SIZE AT DEPTH
 DFT .        KCL POLYMER:   DRILLING FLUID TYPE
 RMS .OHMM           .105:   RESISTIVITY MUD SAMPLE
 MST .F                72:   MUD SAMPLE TEMPERATURE
 RMF .OHMM            .08:   RESISTIVITY MUD FILTRATE SAMPLE
 MFST.F                72:   MUD FILTRATE SAMPLE TEMPERATURE
 RMC .OHMM            .13:   RESISTIVITY MUD CAKE
 MCST.F                72:   MUD CAKE SAMPLE TEMPERATURE
 MFSS.               CALC:   MUD FILTRATE SAMPLE SOURCE
 MCSS.               CALC:   MUD CAKE SAMPLE SOURCE
 TCS .HRS               3:   TIME CURCULATED STOPPED
 LUN .               6307:   LOGGING UNIT NUMBER
 LUL .               GLTE:   LOGGING UNIT LOCATION
 ENGI.               MACK:   RECORDING ENGINEER
 WITN.               PAGE:   WITNESSED BY
 CLNT.            A2DTECH:   CLIENT CODE
 ORIG.           5" PRINT:   ORIGIN OF DATA
 UWI .       490251101700:   UNIQUE WELL ID
 DICO. A2D Technologies, Inc.:   DIGITIZING COMPANY
 R1  . POROSITY WITH SANDSTONE:   REMARKS 1
~OTHER INFORMATION
~A   DEPT      SPR         RD         RS       RMLL         AC        CNC       PORD        GRD       CALD       CORR        DEN   
# ...
  168.5000   -67.7296    15.4894     9.2712  -999.2500   104.8958     0.3015     0.0967   110.7716     6.5359     0.1994     2.5184
  169.0000   -67.7311    15.2708     9.1403  -999.2500   104.5220     0.2898     0.0983   107.9546     6.5203     0.2040     2.5162
  169.5000   -67.7326    15.1558     8.9490  -999.2500   104.2987     0.2899     0.1003   107.4426     6.5200     0.1965     2.5170
  170.0000   -67.7344    14.8358     8.8841  -999.2500   104.3761     0.2971     0.0991   109.7307     6.5197     0.1875     2.5186
  170.5000   -67.7359    14.7351     8.8196  -999.2500   104.4535     0.2983     0.1006   108.6868     6.5194     0.1695     2.5156
  171.0000   -67.5860    15.0397     8.9398  -999.2500   104.4558     0.2968     0.1070   103.4068     6.5039     0.1319     2.5095
  171.5000   -67.5879    15.1392     9.1246  -999.2500   104.3828     0.3074     0.1109   100.9976     6.5036     0.1153     2.4990
  172.0000   -67.5891    15.1520     9.1850  -999.2500   104.1595     0.3126     0.1167   103.8909     6.5033     0.1109     2.4801
  172.5000   -67.5909    15.2340     9.1817  -999.2500   104.0865     0.3004     0.1284   110.8651     6.5030     0.1110     2.4642
  173.0000   -67.5924    15.1222     9.1785  -999.2500   104.1639     0.2963     0.1293   112.5443     6.5180     0.1141     2.4658
  173.5000   -67.5939    15.0125     9.1754  -999.2500   104.4694     0.2903     0.1248   110.2901     6.5176     0.1156     2.4764
  174.0000   -67.4440    14.9036     9.1722  -999.2500   105.1509     0.2851     0.1197   108.3347     6.5173     0.1142     2.4825
  174.5000   -67.4459    14.7955     9.1057  -999.2500   105.2233     0.2846     0.1221   109.5638     6.5170     0.1097     2.4788
  175.0000   -67.4474    14.6882     9.0396  -999.2500   105.3133     0.2931     0.1270   111.5456     6.5319     0.1083     2.4675
  175.5000   -67.4489    14.5817     9.0352  -999.2500   105.9801     0.3118     0.1282   111.5607     6.5316     0.1084     2.4675
  176.0000   -67.4504    14.4759     8.9710  -999.2500   106.2831     0.3166     0.1273   111.8784     6.5313     0.1100     2.4683
  176.5000   -67.4519    14.2716     8.9059  -999.2500   106.5109     0.3127     0.1255   112.9524     6.5462     0.1267     2.4706
  177.0000   -67.4534    14.1681     8.9027  -999.2500   106.5878     0.3013     0.1246   115.6907     6.5459     0.1343     2.4729
  177.5000   -67.3035    13.9681     8.8996  -999.2500   106.2898     0.3046     0.1255   118.1263     6.5456     0.1298     2.4699
  178.0000   -67.3054    13.8668     8.8966  -999.2500   106.2163     0.3176     0.1307   119.5030     6.5453     0.1223     2.4616
  178.5000   -67.1554    13.8620     8.8320  -999.2500   106.4446     0.3227     0.1298   118.6103     6.5450     0.1209     2.4647
  179.0000   -67.1573    13.7614     8.8290  -999.2500   106.8980     0.3237     0.1274   116.5074     6.5446     0.1285     2.4700
  179.5000   -67.1588    13.7567     8.8259  -999.2500   107.1258     0.3179     0.1246   114.7071     6.5443     0.1528     2.4746
  180.0000   -67.0089    13.8477     8.8222  -999.2500   106.9776     0.3092     0.1229   113.5118     6.5440     0.1543     2.4731
  180.5000   -67.0108    13.8429     8.8192  -999.2500   106.9041     0.3144     0.1248   112.0141     6.5285     0.1167     2.4709
  181.0000   -66.8608    13.8381     8.8161  -999.2500   106.7565     0.3313     0.1250   112.3317     6.5282     0.1032     2.4762
  181.5000   -66.8627    13.6428     8.8131  -999.2500   106.6083     0.3391     0.1187   113.8597     6.5127     0.1138     2.4831
  182.0000   -66.7132    13.4502     8.8101  -999.2500   106.3098     0.3319     0.1160   111.7567     6.5124     0.1260     2.4869
  182.5000   -66.7147    13.1687     8.7462  -999.2500   106.0113     0.3132     0.1142   108.4435     6.5121     0.1291     2.4892
  183.0000   -66.4141    13.0732     8.7431  -999.2500   105.7128     0.3093     0.1130   107.2445     6.5118     0.1291     2.4923
  183.5000   -66.4156    12.9784     8.6797  -999.2500   105.6398     0.3118     0.1115   109.6840     6.5115     0.1202     2.4961
  184.0000   -66.2656    12.9739     8.6767  -999.2500   105.4867     0.3234     0.1091   116.3556     6.5112     0.0991     2.5007
  184.5000   -66.2675    13.0599     8.7348  -999.2500   105.0165     0.3287     0.1076   116.5220     6.5109     0.0992     2.5045
  185.0000   -66.2690    13.0552     8.7926  -999.2500   104.5814     0.3299     0.1040   114.7216     6.5106     0.1204     2.5106
  185.5000   -66.1191    13.1417     8.8507  -999.2500   104.1455     0.3302     0.0992   110.9546     6.5103     0.1476     2.5167
  186.0000   -65.9699    13.3206     8.9085  -999.2500   103.9968     0.3106     0.0998   108.5491     6.5100     0.1598     2.5136
  186.5000   -65.8200    13.4087     9.0298  -999.2500   104.2252     0.3016     0.1050   106.7487     6.4945     0.1583     2.5039
  187.0000   -65.8219    13.4040     9.0903  -999.2500   104.5282     0.2941     0.1047   106.3062     6.4937     0.1494     2.5063
  187.5000   -65.6720    13.5865     9.0864  -999.2500   104.3800     0.2920     0.1023   107.5353     6.4775     0.1434     2.5142
  188.0000   -65.6738    13.7715     9.1472  -999.2500   104.1567     0.2944     0.0938   109.5171     6.4632     0.1571     2.5268
  188.5000   -65.6753    13.7667     9.1433  -999.2500   104.0080     0.3258     0.0951   112.2553     6.4601     0.1647     2.5266
  189.0000   -65.8279    13.8578     9.1401  -999.2500   104.3867     0.3294     0.0975   112.8755     6.4474     0.1602     2.5157
  189.5000   -65.8294    13.9495     9.1370  -999.2500   104.9152     0.3249     0.1069   112.5880     6.4471     0.1420     2.5061
  190.0000   -66.1330    13.8481     9.1338  -999.2500   105.2934     0.3070     0.1080   107.0055     6.4620     0.1241     2.5042
  190.5000   -66.2856    13.8433     9.1950  -999.2500   105.4460     0.2988     0.1044   106.2604     6.4617     0.1244     2.5088
  191.0000   -66.4382    13.8385     9.2558  -999.2500   105.5234     0.2939     0.1058   107.0357     6.4614     0.1322     2.5050
  191.5000   -66.8928    13.7372     9.3811  -999.2500   105.7512     0.3087     0.1108   108.7149     6.4763     0.1505     2.4990
  192.0000   -67.0454    13.7325     9.5096  -999.2500   105.8286     0.3063     0.1117   110.5454     6.4912     0.1531     2.4983
  192.5000   -67.3490    13.6329     9.4398  -999.2500   105.7556     0.2976     0.1102   111.9221     6.4909     0.1427     2.4983
  193.0000   -67.5016    13.5340     9.3066  -999.2500   105.6827     0.2937     0.1099   111.3320     6.5058     0.1488     2.4991
  193.5000   -67.8052    13.5293     9.1752  -999.2500   105.4594     0.3073     0.1087   111.9522     6.5054     0.1654     2.5014
  194.0000   -68.1088    13.6188     9.1087  -999.2500   105.7674     0.3284     0.1048   116.3546     6.5051     0.1685     2.5037
  194.5000   -68.1103    13.6141     9.0426  -999.2500   106.3085     0.3316     0.1057   119.8493     6.5048     0.1611     2.5060
  195.0000   -68.2629    13.7053     9.0395  -999.2500   106.9824     0.3351     0.1067   120.0156     6.5045     0.1476     2.5068
  195.5000   -68.4155    13.6994     8.9739  -999.2500   107.3486     0.3351     0.1064   119.8790     6.5042     0.1371     2.5084
  196.0000   -68.5680    13.6000     8.9708  -999.2500   107.2756     0.3204     0.1010   119.4406     6.5039     0.1371     2.5114
  196.5000   -68.7206    13.1320     8.9057  -999.2500   106.5259     0.3152     0.1070   118.3967     6.5036     0.1433     2.5107
  197.0000   -68.8731    12.5924     8.9027  -999.2500   105.0244     0.3210     0.1182   113.7219     6.5033     0.1554     2.4949
  197.5000   -68.8746    12.2436     8.8381  -999.2500   103.8236     0.3222     0.1266   112.5265     6.5030     0.1630     2.4639
  198.0000   -69.0272    11.9045     8.7133  -999.2500   102.5477     0.3051     0.1313   115.1137     6.5027     0.1556     2.4601
  198.5000   -69.1798    11.6554     8.4720  -999.2500   101.4973     0.3015     0.1239   114.6749     6.4872     0.1239     2.4776
