~VERSION INFORMATION
 VERS.                2.0:   CWLS LOG ASCII STANDARD - VERSION 2.0
 WRAP.                 NO:   ONE LINE PER DEPTH STEP
~WELL INFORMATION
#MNEM.UNIT      DATA TYPE    INFORMATION
#----------   ------------   ------------------------------
 STRT.F           13.0000:   START DEPTH
 STOP.F          508.0000:   STOP DEPTH
 STEP.F            0.5000:   STEP LENGTH
 NULL.          -999.2500:   NO VALUE
 COMP. LAWRENCE/ALLISON INC:   COMPANY
 WELL.    51-35 SX #10-10:   WELL
 FLD .             TEAPOT:   FIELD
 LOC .      S10 T38N R78W:   LOCATION
 CNTY.            NATRONA:   COUNTY
 STAT.            WYOMING:   STATE
 CTRY. UNITED STATES OF AMERICA:   COUNTRY
 SRVC.       Schlumberger:   SERVICE COMPANY
 DATE.        26-FEB-1988:   LOGDATE
 API .       490251115500:   API NUMBER
~CURVE INFORMATION
#MNEM.UNIT       API CODE    CURVE DESCRIPTION
#----------   ------------   ------------------------------
 DEPT.F                  :   
 GRR .GAPI   07 310 01 00:   GAMMA RAY
 RILD.OHMM   07 120 46 00:   INDUCTION LOG DEEP RESISTIVITY
 RILM.OHMM   07 120 44 00:   RESITIVITY LONG MEDIUM
~PARAMETER INFORMATION
#MNEM.UNIT          VALUE    DESCRIPTION
#----------   ------------   ------------------------------
 PD  .                 GL:   PERMANENT DATUM
 EPD .F              5181:   ELEVATION PERMANENT DATUM
 LMF .                 KB:   LOG MEASURED FROM
 DAPD.F                 8:   FEET ABOVE PERMANENT DATUM
 DMF .                 KB:   DRILLING MEASURED FROM
 EKB .F              5189:   KELLING BUSHING
 EDF .F              5188:   DRILLING FLOOR
 EGL .F              5181:   GROUND LEVEL
 DATE.        26-FEB-1988:   RUN DATE
 RUN .                  1:   RUN NUMBER
 DD  .F               458:   DEPTH DRILLER
 DL  .F               440:   DEPTH LOGGER
 BLI .F               430:   BOTTOM LOG INTERVAL
 TLI .F               140:   TOP LOG INTERVAL
 CS  .IN            8.625:   CASING SIZE
 CBD .F                46:   CASING BOTTOM DRILLER
 CBL .F                46:   CASING BOTTOM LOGGER
 BSD .F               458:   BIT SIZE AT DEPTH
 DFT .          WATER/AIR:   DRILLING FLUID TYPE
 BHT .F               172:   BOTTOM HOLE TEMPERATURE
 TLAB.HRS            0830:   TIME LOGGER AT BOTTOM
 MRT .F               172:   MAXIMUM RECORDED TEMPERATURE
 LUN .               8256:   LOGGING UNIT NUMBER
 LUL .             CASPER:   LOGGING UNIT LOCATION
 ENGI.      PREISLER/FINK:   RECORDING ENGINEER
 WITN.               LOWE:   WITNESSED BY
 CLNT.            A2DTECH:   CLIENT CODE
 ORIG.           5" PRINT:   ORIGIN OF DATA
 UWI .       490251115500:   UNIQUE WELL ID
 DICO. A2D Technologies, Inc.:   DIGITIZING COMPANY
~OTHER INFORMATION
~A   DEPT       GRR      RILD       RILM   
# ...
  104.0000    99.1744     9.8960     9.8462
  104.5000    96.7460     9.9666     9.8489
  105.0000    94.3175     9.9680     9.8515
  105.5000    95.5476     9.8296     9.7814
  106.0000    98.9118     9.5522     9.5846
  106.5000   104.1054     9.1714     8.8149
  107.0000   106.2501     8.9202     8.4544
  107.5000   106.8704     8.8590     8.1657
  108.0000   104.4446     8.7377     8.1679
  108.5000   102.9308     8.6779     8.2854
  109.0000   100.5024     8.6189     8.2876
  109.5000    96.8206     8.6202     8.3482
  110.0000    94.3904     8.6898     8.5283
  110.5000    93.1797     8.8668     8.5906
  111.0000   107.2152     8.9926     8.5929
  111.5000   112.7119     9.1203     8.5953
  112.0000   113.6331     9.1215     8.6580
  112.5000   111.8149     9.1224     8.7825
  113.0000   109.3848     9.1109     8.6627
  113.5000   106.9546     9.1079     8.6651
  114.0000   104.5245     9.1087     8.7289
  114.5000   103.6187     9.1731     8.6698
  115.0000   107.2883     9.1737     8.6724
  115.5000   113.0898     9.3034     8.7540
  116.0000   111.2694     9.4348     8.8617
  116.5000   104.5710     9.5015     9.1160
  117.0000   103.0532     9.7031     9.1825
  117.5000   106.7228     9.7038     9.2496
  118.0000   110.3984     9.7724     9.3832
  118.5000   108.4390     9.7731     9.3858
  119.0000   106.7494     9.7058     9.3679
  119.5000   107.0653     9.7064     9.3143
  120.0000   107.3791     9.5727     9.2800
  120.5000   106.1684     9.6404     9.0955
  121.0000   103.1285     9.6411     9.0320
  121.5000   102.1992     9.7092     9.0955
  122.0000   104.0772     9.7099     8.9063
  122.5000   105.5963     9.7105     8.9689
  123.0000   104.6905     9.7792     9.0955
  123.5000   102.2604     9.7799     9.2886
  124.0000   100.7449     9.7842     9.4858
  124.5000   108.0708     9.8498     9.6282
  125.0000   113.5674     9.8505     9.8354
  125.5000   114.5244     9.7825     9.8930
  126.0000   110.2315     9.7834     9.8239
  126.5000   116.3401     9.6484     9.6873
  127.0000   120.3124     9.5152     9.4196
  127.5000   119.1018     9.4498     9.1594
  128.0000   117.2813     9.3848     9.0320
  128.5000   118.2048     9.2472     8.8442
  129.0000   119.7381     9.0014     8.8442
  129.5000   115.7711     8.9392     8.8442
  130.0000   103.7805     8.8161     8.7824
  130.5000   100.5596     8.6944     8.7824
  131.0000   103.3123     8.6345     8.5998
  131.5000   108.5041     8.4564     8.4802
  132.0000   110.6471     8.2242     8.0745
  132.5000   108.5218     8.0525     7.6345
  133.0000   105.7868     7.8800     7.3717
  133.5000   103.9532     7.6182     7.1681
  134.0000   103.6703     7.3575     6.9700
  134.5000   110.6936     7.1554     6.8251
  135.0000   112.5317     7.1560     6.8251
  135.5000   105.5284     7.3590     6.8251
  136.0000    99.7446     7.5152     6.9214
  136.5000    97.3144     7.6213     7.0190
  137.0000    95.7989     7.7831     7.1180
  137.5000    93.6484     7.9483     7.2692
  138.0000    92.4629     8.0606     7.4236
  138.5000    96.1325     8.1744     7.6345
  139.0000   106.8121     8.2899     7.7999
  139.5000   110.7822     8.3485     7.9713
  140.0000   105.9152     8.3491     8.0745
  140.5000   101.6558     8.2339     8.0745
  141.0000    99.8354     8.2345     8.0745
  141.5000    98.9296     8.1736     8.0181
  142.0000   100.7699     8.1215     7.8514
  142.5000   103.5227     8.0655     7.8514
  143.0000   107.1901     8.0100     7.7966
  143.5000   113.2965     7.8447     7.6881
  144.0000   111.7810     7.7366     7.5234
  144.5000   106.9118     7.5768     7.2692
  145.0000   105.0813     7.3688     7.1180
  145.5000   103.5264     6.7302     6.8251
  146.0000   101.1479     6.4016     6.5902
  146.5000    99.0226     6.1476     6.2311
  147.0000    99.9461     6.0627     5.9330
  147.5000   106.9672     5.9792     5.6491
  148.0000   116.1224     5.8967     5.3788
  148.5000   118.6739     5.8971     5.1198
  149.0000   111.1504     5.9804     5.0150
  149.5000   103.6512     6.0648     5.3040
  150.0000   101.2188     6.5036     5.7691
  150.5000   106.1079     7.0341     6.2311
  151.0000   106.4194     7.3750     6.5902
  151.5000   104.9039     7.7989     6.8251
  152.0000   103.6954     7.9644     7.0190
  152.5000   102.7897     8.0769     7.2185
  153.0000   102.1888     8.2483     7.4236
  153.5000   101.8928     8.4824     7.6345
  154.0000   102.8185     8.7841     7.7966
  154.5000   115.6322     8.9081     7.9066
  155.0000   123.5679     8.9088     8.0181
  155.5000   126.0158     8.8474     8.0745
  156.0000   117.1832     8.8482     8.1312
  156.5000   116.5752     8.9107     8.2459
  157.0000   115.8882     8.9737     8.2459
  157.5000   112.0290     8.9913     8.3622
  158.0000    99.1016     9.2290     8.5398
  158.5000    97.1063     9.2297     8.6658
  159.0000   101.6906     9.2303     8.7824
  159.5000   113.5898     9.1667     8.8442
  160.0000   119.9990     9.1674     8.8723
  160.5000   112.6931     9.0409     8.9426
  161.0000   108.4337     9.0416     9.0042
  161.5000   106.3085     9.0422     9.0660
  162.0000   106.2642     8.9799     9.0647
  162.5000   108.7654     9.0434     9.0635
  163.0000   110.3008     9.0441     9.0623
  163.5000   111.2520     9.0448     9.0843
  164.0000   111.8433     8.9824     9.1235
  164.5000   112.4620     8.9205     9.0586
  165.0000   111.8612     8.7975     8.9941
  165.5000   111.2581     8.7369     8.7441
  166.0000   110.6573     8.4972     8.5612
  166.5000   112.4978     8.2639     8.3235
  167.0000   114.0311     8.0369     8.2066
  167.5000   115.2596     7.8136     7.9231
  168.0000   114.0490     7.5939     7.5960
  168.5000   108.5701     7.3416     7.3851
  169.0000   112.9796     6.8473     7.1801
  169.5000   119.6717     6.3863     6.8274
  170.0000   116.5260     5.5548     6.2835
  170.5000   104.3399     5.1448     5.9403
  171.0000    94.5927     4.8658     5.6553
  171.5000    88.1992     4.5066     5.2353
  172.0000    86.3766     4.1449     4.5823
  172.5000    89.7415     3.7849     4.2124
  173.0000    99.2017     3.5693     4.0103
  173.5000   103.7838     3.3394     3.7385
  174.0000   104.0976     3.2027     3.0848
  174.5000   104.4350     3.1366     2.6890
  175.0000   105.7419     3.1149     2.6144
  175.5000   110.5291     3.1152     2.6140
  176.0000   111.7553     3.2036     2.6880
  176.5000   107.8031     3.3877     2.7834
  177.0000   105.3730     3.7097     2.9024
  177.5000   100.8088     4.1192     3.1787
  178.0000    95.6348     4.5209     3.5063
  178.5000    92.8998     4.9516     3.8945
  179.0000    96.5673     5.4847     4.9743
  179.5000   101.4543     5.8406     5.4097
  180.0000   105.7927     6.0063     5.9662
  180.5000   109.1900     6.1338     6.0498
  181.0000   110.3226     6.1772     6.0912
  181.5000   106.0655     6.2207     6.0904
  182.0000   104.2430     6.1350     6.0471
  182.5000   109.4371     6.0505     5.9608
  183.0000   115.5436     5.8396     5.7503
  183.5000   116.7698     5.5986     5.5184
  184.0000   110.6834     5.3004     5.2536
  184.5000   105.2045     5.1549     5.1078
  185.0000    99.4208     5.1193     4.8627
  185.5000   101.0234     5.1197     4.6947
  186.0000   107.1585     5.1559     4.5644
  186.5000   116.8279     5.1924     4.5638
  187.0000   118.0564     5.3026     4.5649
  187.5000   115.3214     5.4151     4.6649
  188.0000   111.0621     5.6088     4.7910
  188.5000   108.9369     5.8934     4.9611
  189.0000   108.9458     6.1841     5.1372
  189.5000   110.1743     6.4941     5.3946
  190.0000   111.7076     6.8196     5.8668
  190.5000   113.2410     7.1117     6.3804
  191.0000   116.6606     7.3647     6.5608
  191.5000   121.3110     7.6267     6.8485
  192.0000   125.1603     7.7885     7.1840
  192.5000   126.9985     7.9538     7.5439
  193.0000   128.8367     8.0662     7.8117
  193.5000   130.3700     8.1232     7.9768
  194.0000   131.9034     8.1238     7.9754
  194.5000   134.6540     8.0678     8.0307
