~VERSION INFORMATION
 VERS.                2.0:   CWLS LOG ASCII STANDARD - VERSION 2.0
 WRAP.                 NO:   ONE LINE PER DEPTH STEP
~WELL INFORMATION
#MNEM.UNIT      DATA TYPE    INFORMATION
#----------   ------------   ------------------------------
 STRT.F           31.0000:   START DEPTH
 STOP.F         1450.0000:   STOP DEPTH
 STEP.F            0.5000:   STEP LENGTH
 NULL.          -999.2500:   NO VALUE
 COMP. FENIX & SCISSON INC:   COMPANY
 WELL.    NPR-3 SX #86-14:   WELL
 FLD .             TEAPOT:   FIELD
 LOC .      S14 T38N R78W:   LOCATION
 CNTY.            NATRONA:   COUNTY
 STAT.            WYOMING:   STATE
 CTRY. UNITED STATES OF AMERICA:   COUNTRY
 SRVC.            Unknown:   SERVICE COMPANY
 DATE.        05-APR-1978:   LOGDATE
 API .       490251060800:   API NUMBER
~CURVE INFORMATION
#MNEM.UNIT       API CODE    CURVE DESCRIPTION
#----------   ------------   ------------------------------
 DEPT.F                  :   
 CALD.IN     45 280 60 00:   CALIPER
 GRD .GAPI   45 310 01 00:   GAMMA RAY FROM DENSITY LOG
 RHOB.G/C3   45 350 01 00:   BULK DENSITY
 CORR.G/C3   45 356 01 00:   DENSITY CORRECTION
 DPHI.DEC    45 890 12 00:   DENSITY POROSITY SANDSTONE
 SPR .MV     05 010 01 00:   SPONTANEOUS POTENTIAL FROM RES.
 SN  .OHMM   05 040 16 00:   SHORT NORMAL 16"
 ILD .OHMM   05 120 46 00:   INDUCTION LOG DEEP
~PARAMETER INFORMATION
#MNEM.UNIT          VALUE    DESCRIPTION
#----------   ------------   ------------------------------
 PD  .                 GL:   PERMANENT DATUM
 EPD .F              5367:   ELEVATION PERMANENT DATUM
 LMF .                 KB:   LOG MEASURED FROM
 DMF .                 KB:   DRILLING MEASURED FROM
 EKB .F              5371:   KELLING BUSHING
 EGL .F              5369:   GROUND LEVEL
 DATE.           4-5-1978:   RUN DATE
 RUN .                  1:   RUN NUMBER
 DD  .F              1455:   DEPTH DRILLER
 DL  .F              1446:   DEPTH LOGGER
 BLI .F              1440:   BOTTOM LOG INTERVAL
 TLI .F               100:   TOP LOG INTERVAL
 CS  .IN            8.625:   CASING SIZE
 CBD .F                40:   CASING BOTTOM DRILLER
 BS  .IN            7.875:   BIT SIZE
 BSD .F              1455:   BIT SIZE AT DEPTH
 DFT .                KCL:   DRILLING FLUID TYPE
 DFD .                8.6:   DRILLING FLUID DENSITY
 DFV .                 31:   DRILLING FLUID VISCOSITY
 DFPH.                 10:   DRILLING FLUID PH
 DFL .                8.4:   DRILLING FLUID LOSS
 MSS .           FLOWLINE:   MUD SAMPLE SOURCE
 RMS .OHMM            .95:   RESISTIVITY MUD SAMPLE
 MST .F                54:   MUD SAMPLE TEMPERATURE
 RMF .OHMM            .95:   RESISTIVITY MUD FILTRATE SAMPLE
 MFST.F                62:   MUD FILTRATE SAMPLE TEMPERATURE
 RMC .OHMM             .8:   RESISTIVITY MUD CAKE
 MCST.F                62:   MUD CAKE SAMPLE TEMPERATURE
 MFSS.               MEAS:   MUD FILTRATE SAMPLE SOURCE
 RMB .OHMM            .66:   RESISTIVITY MUD AT BHT
 BHT .F                78:   BOTTOM HOLE TEMPERATURE
 TCS .HRS               6:   TIME CURCULATED STOPPED
 MRT .F                78:   MAXIMUM RECORDED TEMPERATURE
 LUN .               2958:   LOGGING UNIT NUMBER
 LUL .               CASP:   LOGGING UNIT LOCATION
 ENGI.             MILLER:   RECORDING ENGINEER
 WITN.           MCGINLEY:   WITNESSED BY
 CLNT.            A2DTECH:   CLIENT CODE
 ORIG.        2" 5" PRINT:   ORIGIN OF DATA
 UWI .       490251060800:   UNIQUE WELL ID
 DICO. A2D Technologies, Inc.:   DIGITIZING COMPANY
~OTHER INFORMATION
~A   DEPT     CALD         GRD      RHOB       CORR       DPHI        SPR         SN        ILD   
# ...
   71.5000     8.4820    88.7489     2.3494     0.0404     0.1759  -999.2500  -999.2500  -999.2500
   72.0000     8.4764    91.0147     2.3482     0.0413     0.1682  -999.2500  -999.2500  -999.2500
   72.5000     8.4698    95.5837     2.3595     0.0422     0.1688  -999.2500  -999.2500  -999.2500
   73.0000     8.4308   100.2316     2.3611     0.0389     0.1711  -999.2500  -999.2500  -999.2500
   73.5000     8.3885   104.0891     2.3551     0.0351     0.1714  -999.2500  -999.2500  -999.2500
   74.0000     8.3460   105.1681     2.3542     0.0240     0.1730  -999.2500  -999.2500  -999.2500
   74.5000     8.3039   103.7653     2.3533     0.0203     0.1779  -999.2500  -999.2500  -999.2500
   75.0000     8.2708   102.6763     2.3486     0.0202     0.1776  -999.2500  -999.2500  -999.2500
   75.5000     8.2811   102.9822     2.3476     0.0156     0.1775  -999.2500  -999.2500  -999.2500
   76.0000     8.2889   103.4513     2.3513     0.0104     0.1844  -999.2500  -999.2500  -999.2500
   76.5000     8.2708   103.9702     2.3352     0.0105     0.1874  -999.2500  -999.2500  -999.2500
   77.0000     8.2765   101.9710     2.3291     0.0109     0.1862  -999.2500  -999.2500  -999.2500
   77.5000     8.2830    99.6714     2.3340     0.0112     0.1850  -999.2500  -999.2500  -999.2500
   78.0000     8.2899    97.3672     2.3358     0.0116     0.1854  -999.2500  -999.2500  -999.2500
   78.5000     8.2697    95.2656     2.3292     0.0120     0.1863  -999.2500  -999.2500  -999.2500
   79.0000     8.2466    94.7371     2.3345     0.0122     0.1869  -999.2500  -999.2500  -999.2500
   79.5000     8.2235    95.2256     2.3295     0.0126     0.1871  -999.2500  -999.2500  -999.2500
   80.0000     8.2004    96.9652     2.3295     0.0133     0.1850  -999.2500  -999.2500  -999.2500
   80.5000     8.1927    98.7221     2.3400     0.0140     0.1790  -999.2500  -999.2500  -999.2500
   81.0000     8.1971    99.3597     2.3403     0.0153     0.1800  -999.2500  -999.2500  -999.2500
   81.5000     8.2017    99.4869     2.3391     0.0168     0.1811  -999.2500  -999.2500  -999.2500
   82.0000     8.2063    99.5985     2.3383     0.0182     0.1805  -999.2500  -999.2500  -999.2500
   82.5000     8.2110    99.7368     2.3489     0.0166     0.1786  -999.2500  -999.2500  -999.2500
   83.0000     8.2156   105.0871     2.3484     0.0148     0.1799  -999.2500  -999.2500  -999.2500
   83.5000     8.2202   105.8193     2.3372     0.0130     0.1804  -999.2500  -999.2500  -999.2500
   84.0000     8.2248   105.2239     2.3412     0.0113     0.1829  -999.2500  -999.2500  -999.2500
   84.5000     8.2294   106.3853     2.3404     0.0101     0.1840  -999.2500  -999.2500  -999.2500
   85.0000     8.2340   109.1706     2.3370     0.0115     0.1845  -999.2500  -999.2500  -999.2500
   85.5000     8.2386   109.6506     2.3332     0.0133     0.1868  -999.2500  -999.2500  -999.2500
   86.0000     8.2432   109.8168     2.3328     0.0153     0.1832  -999.2500  -999.2500  -999.2500
   86.5000     8.2479   110.1422     2.3403     0.0177     0.1797  -999.2500  -999.2500  -999.2500
   87.0000     8.2582   112.1771     2.3433     0.0201     0.1695  -999.2500  -999.2500  -999.2500
   87.5000     8.2676   114.2231     2.3569     0.0222     0.1669  -999.2500  -999.2500  -999.2500
   88.0000     8.2638   114.8531     2.3627     0.0217     0.1686  -999.2500  -999.2500  -999.2500
   88.5000     8.2597   115.0092     2.3613     0.0211     0.1691  -999.2500  -999.2500  -999.2500
   89.0000     8.2557   114.8739     2.3594     0.0206     0.1717  -999.2500  -999.2500  -999.2500
   89.5000     8.2512   114.4821     2.3538     0.0229     0.1748  -999.2500  -999.2500  -999.2500
   90.0000     8.2760   108.3163     2.3491     0.0308     0.1740  -999.2500  -999.2500  -999.2500
   90.5000     8.3180   105.5683     2.3502     0.0306     0.1720  -999.2500  -999.2500  -999.2500
   91.0000     8.3665    98.4709     2.3559     0.0279     0.1715  -999.2500  -999.2500  -999.2500
   91.5000     8.4422    97.7093     2.3571     0.0252     0.1773  -999.2500  -999.2500  -999.2500
   92.0000     8.5163    98.7322     2.3457     0.0259     0.1852  -999.2500  -999.2500  -999.2500
   92.5000     8.5906    99.8758     2.3345     0.0284     0.1928  -999.2500  -999.2500  -999.2500
   93.0000     8.6648   103.5743     2.3235     0.0309     0.1894  -999.2500  -999.2500  -999.2500
   93.5000     8.7327   107.1837     2.3257     0.0335     0.1820  -999.2500  -999.2500  -999.2500
   94.0000     8.7369   108.8947     2.3407     0.0331     0.1718  -999.2500  -999.2500  -999.2500
   94.5000     8.7427   108.3239     2.3538     0.0230     0.1783  -999.2500  -999.2500  -999.2500
   95.0000     8.7489   108.3868     2.3466     0.0147     0.1832  -999.2500  -999.2500  -999.2500
   95.5000     8.7433   108.9651     2.3371     0.0199     0.1829  -999.2500  -999.2500  -999.2500
   96.0000     8.7345   109.2097     2.3380     0.0260     0.1797  -999.2500  -999.2500  -999.2500
   96.5000     8.7256   106.1018     2.3403     0.0321     0.1748  -999.2500  -999.2500  -999.2500
   97.0000     8.7168   103.5079     2.3589     0.0341     0.1699  -999.2500  -999.2500  -999.2500
   97.5000     8.7111   106.9427     2.3508     0.0358     0.1791  -999.2500  -999.2500  -999.2500
   98.0000     8.7180   111.6232     2.3422     0.0409     0.1795  -999.2500  -999.2500  -999.2500
   98.5000     8.7246   110.6350     2.3507     0.0462     0.1699  -999.2500  -999.2500  -999.2500
   99.0000     8.7311   109.3609     2.3600     0.0408     0.1611  -999.2500  -999.2500  -999.2500
   99.5000     8.7377   108.5657     2.3731     0.0327     0.1664  -999.2500  -999.2500  -999.2500
  100.0000     8.7443   108.8239     2.3634     0.0297     0.1712  -999.2500  -999.2500  -999.2500
  100.5000     8.7461   109.1085     2.3510     0.0290     0.1780  -999.2500  -999.2500  -999.2500
  101.0000     8.7089   107.4384     2.3467     0.0282     0.1687  -999.2500  -999.2500  -999.2500
  101.5000     8.6716   104.2586     2.3584     0.0220     0.1751  -999.2500  -999.2500  -999.2500
  102.0000     8.6343   102.0867     2.3610     0.0152     0.1820  -999.2500  -999.2500  -999.2500
  102.5000     8.5971   103.2735     2.3368     0.0123     0.1892  -999.2500  -999.2500  -999.2500
  103.0000     8.5599   104.1049     2.3304     0.0176     0.1892  -999.2500  -999.2500  -999.2500
  103.5000     8.5227   104.1137     2.3261     0.0232     0.1808  -999.2500  -999.2500  -999.2500
  104.0000     8.4854   105.0239     2.3376     0.0288     0.1734  -999.2500  -999.2500     6.1525
  104.5000     8.4599   107.4418     2.3508     0.0320     0.1680  -999.2500  -999.2500     6.1525
  105.0000     8.4422   107.4649     2.3622     0.0314     0.1627  -999.2500  -999.2500     6.1860
  105.5000     8.4246   101.2346     2.3664     0.0307     0.1551  -999.2500  -999.2500     6.1497
  106.0000     8.4071    93.9410     2.3769     0.0280     0.1605  -999.2500  -999.2500     6.2257
  106.5000     8.3898    88.1721     2.3804     0.0176     0.1667  -999.2500  -999.2500     6.2686
  107.0000     8.3722    88.1953     2.3624     0.0161     0.1701  -999.2500  -999.2500     6.3256
  107.5000     8.3549    96.0037     2.3586     0.0138     0.1840  -999.2500  -999.2500     6.2695
  108.0000     8.3375   102.0506     2.3445     0.0125     0.1819  -999.2500  -999.2500     6.1917
  108.5000     8.3202   106.5992     2.3310     0.0140     0.1809  -999.2500     1.4947     6.0953
  109.0000     8.3029   106.3661     2.3352     0.0153     0.1828    -0.0355     1.0703     6.0004
  109.5000     8.2855   105.3306     2.3396     0.0167     0.1828     1.0978     0.4250     5.9842
  110.0000     8.2714   106.5804     2.3332     0.0182     0.1855    -0.4944     0.4305     5.8566
  110.5000     8.2837   109.7459     2.3293     0.0231     0.1880    -1.7103     0.4619     5.6652
  111.0000     8.2965   109.0780     2.3297     0.0246     0.1883    -3.2238     0.4705     5.4801
  111.5000     8.3092   107.4791     2.3300     0.0252     0.1886    -4.6752     0.4689     5.3556
