~VERSION INFORMATION
 VERS.                2.0:   CWLS LOG ASCII STANDARD - VERSION 2.0
 WRAP.                 NO:   ONE LINE PER DEPTH STEP
~WELL INFORMATION
#MNEM.UNIT      DATA TYPE    INFORMATION
#----------   ------------   ------------------------------
 STRT.F           30.0000:   START DEPTH
 STOP.F          502.0000:   STOP DEPTH
 STEP.F            0.5000:   STEP LENGTH
 NULL.          -999.2500:   NO VALUE
 COMP.   FLUOR DANIEL INC:   COMPANY
 WELL. NPR 3  74-66 SX-1 #66-10:   WELL
 FLD .             TEAPOT:   FIELD
 LOC .      S10 T38N R78W:   LOCATION
 CNTY.            NATRONA:   COUNTY
 STAT.            WYOMING:   STATE
 CTRY. UNITED STATES OF AMERICA:   COUNTRY
 SRVC.           Gearhart:   SERVICE COMPANY
 DATE.        19-JUL-1987:   LOGDATE
 API .       490251114700:   API NUMBER
~CURVE INFORMATION
#MNEM.UNIT       API CODE    CURVE DESCRIPTION
#----------   ------------   ------------------------------
 DEPT.F                  :   
 RLL .OHMM   07 220 00 00:   LATEROLOG RESISTIVITY
 RILD.OHMM   07 120 46 00:   INDUCTION LOG DEEP RESISTIVITY
 RILM.OHMM   07 120 44 00:   INDUCTION LOG MEDIUM RESISTIVITY
 GRR .GAPI   07 310 01 00:   GAMMA RAY FROM RES. LOG
 SPR .MV     07 010 01 00:   SPONTANEOUS POTENTIAL FROM RES. LOG
~PARAMETER INFORMATION
#MNEM.UNIT          VALUE    DESCRIPTION
#----------   ------------   ------------------------------
 PD  .                 GL:   PERMANENT DATUM
 EPD .F              5163:   ELEVATION PERMANENT DATUM
 LMF .                 KB:   LOG MEASURED FROM
 DAPD.F                 8:   FEET ABOVE PERMANENT DATUM
 DMF .                 KB:   DRILLING MEASURED FROM
 EKB .F              5171:   KELLING BUSHING
 EDF .F              5169:   DRILLING FLOOR
 EGL .F              5163:   GROUND LEVEL
 DATE.            7-19-87:   RUN DATE
 RUN .                  1:   RUN NUMBER
 DD  .F               500:   DEPTH DRILLER
 DL  .F               502:   DEPTH LOGGER
 BLI .F               500:   BOTTOM LOG INTERVAL
 TLI .F                30:   TOP LOG INTERVAL
 CS  .IN            8.625:   CASING SIZE
 CBD .F                40:   CASING BOTTOM DRILLER
 CBL .F                48:   CASING BOTTOM LOGGER
 BS  .IN            7.875:   BIT SIZE
 BSD .F               500:   BIT SIZE AT DEPTH
 DFT .                MUD:   DRILLING FLUID TYPE
 DFD .                8.9:   DRILLING FLUID DENSITY
 DFV .                 40:   DRILLING FLUID VISCOSITY
 MSS .            MUD PIT:   MUD SAMPLE SOURCE
 RMS .OHMM             .4:   RESISTIVITY MUD SAMPLE
 MST .F                70:   MUD SAMPLE TEMPERATURE
 RMF .OHMM             .3:   RESISTIVITY MUD FILTRATE SAMPLE
 MFST.F                70:   MUD FILTRATE SAMPLE TEMPERATURE
 RMC .OHMM            .32:   RESISTIVITY MUD CAKE
 MCST.F                70:   MUD CAKE SAMPLE TEMPERATURE
 MFSS.              CHART:   MUD FILTRATE SAMPLE SOURCE
 MCSS.              CHART:   MUD CAKE SAMPLE SOURCE
 RMB .OHMM            .35:   RESISTIVITY MUD AT BHT
 BHT .F                80:   BOTTOM HOLE TEMPERATURE
 TCS .HRS            2230:   TIME CURCULATED STOPPED
 TLAB.HRS            2330:   TIME LOGGER AT BOTTOM
 MRT .F                80:   MAXIMUM RECORDED TEMPERATURE
 LUN .               7597:   LOGGING UNIT NUMBER
 LUL .           GILLETTE:   LOGGING UNIT LOCATION
 ENGI.         WEATHERMON:   RECORDING ENGINEER
 WITN.             STRONG:   WITNESSED BY
 CLNT.            A2DTECH:   CLIENT CODE
 ORIG.       2", 5" PRINT:   ORIGIN OF DATA
 UWI .       490251114700:   UNIQUE WELL ID
 DICO. A2D Technologies, Inc.:   DIGITIZING COMPANY
~OTHER INFORMATION
~A   DEPT      RLL       RILD       RILM         GRR       SPR   
# ...
  396.0000    22.0761    24.0856    20.9913    84.9773  -101.0624
  396.5000    21.5437    24.7666    20.5655    86.1536  -100.9087
  397.0000    21.6454    24.5374    21.7668    86.6547  -100.8972
  397.5000    21.7279    24.9079    22.6548    86.9787  -100.7913
  398.0000    21.8106    25.1338    23.5816    86.0406  -101.6638
  398.5000    21.8937    25.2312    24.5374    84.4990  -102.5150
  399.0000    21.9771    25.2312    23.5423    82.9542  -101.9747
  399.5000    22.0617    25.2310    22.5802    81.7774  -101.2663
  400.0000    22.1527    25.2311    21.7449    83.0549  -100.5401
  400.5000    21.9732    25.1514    20.4765    84.8275  -100.4980
  401.0000    21.7738    25.0422    19.8150    86.4578  -100.4966
  401.5000    21.5775    24.4048    19.6235    86.6578  -100.8824
  402.0000    21.0573    23.4414    19.3919    85.0263  -101.2534
  402.5000    20.4837    22.5535    19.0914    83.1240  -100.2903
  403.0000    19.9258    21.7882    19.0933    81.9315  -100.9823
  403.5000    19.3830    21.0489    18.7403    82.0816  -100.9471
  404.0000    19.2572    20.6250    18.1096    84.7437   -99.9695
  404.5000    19.2349    20.4047    17.4884    87.4567   -98.8938
  405.0000    19.2138    20.1868    16.8885    87.7118  -101.1479
  405.5000    19.1924    20.0000    16.5885    87.4738  -101.5850
  406.0000    19.1708    20.0456    16.5521    87.1068  -102.3819
  406.5000    19.1495    20.0941    16.5149    89.1561  -103.1690
  407.0000    19.1283    20.1427    16.4813    91.2354  -103.6949
  407.5000    19.1063    20.1868    16.4521    91.4714  -103.7274
  408.0000    19.0919    20.9946    17.0974    88.8564  -103.9327
  408.5000    19.8545    21.7598    17.6106    86.0122  -104.1495
  409.0000    22.8278    22.5529    18.4720    82.6414  -104.2857
  409.5000    26.9966    23.3749    19.4622    78.9361  -104.3554
  410.0000    31.9266    24.3104    20.2080    74.1785  -104.5914
  410.5000    35.7425    24.3104    20.6367    72.4324  -104.8371
  411.0000    37.7321    24.3104    21.0771    72.3677  -105.0813
  411.5000    38.3330    24.3104    21.3792    73.3225  -105.3171
  412.0000    34.1619    23.3270    21.4654    73.5200  -105.0178
  412.5000    29.7199    22.1906    21.5437    73.6758  -104.3271
  413.0000    25.8678    21.1096    20.6603    74.5587  -103.6390
  413.5000    22.5193    20.0813    19.7357    76.1805  -102.9480
  414.0000    19.8650    19.1031    18.8524    80.9981  -102.2517
  414.5000    18.4122    18.2250    18.0087    81.4175  -101.5494
  415.0000    17.7733    17.9350    17.2026    81.4163  -101.7456
  415.5000    17.2654    17.6662    16.4326    81.4298  -102.4624
  416.0000    16.7719    17.3981    15.6932    82.3094  -103.1189
  416.5000    16.2925    17.2216    15.2549    84.4002  -103.1351
  417.0000    15.8534    17.0442    15.1476    85.1702  -103.1314
  417.5000    16.0163    16.8015    15.0434    85.7527  -103.1326
  418.0000    16.1718    16.4004    14.7942    86.3446  -103.2276
  418.5000    16.3016    16.2174    14.4175    87.2425  -103.4770
  419.0000    16.1701    16.1059    14.0512    88.5553  -103.7224
  419.5000    16.0589    15.9950    13.9172    89.0368  -104.0368
  420.0000    15.9484    15.8850    13.9179    88.2417  -104.2855
  420.5000    15.8386    15.7757    13.9192    87.1109  -104.1520
  421.0000    15.7297    15.6031    13.9192    86.2408  -104.0229
  421.5000    15.6215    15.3226    13.9832    86.3696  -104.4419
  422.0000    15.5614    15.0477    14.1432    87.4212  -105.1489
  422.5000    15.9609    14.8552    14.3049    87.5479  -104.7451
  423.0000    16.1508    15.0293    14.4685    87.8948  -104.3778
  423.5000    16.1185    15.1658    14.6340    88.4364  -104.6102
  424.0000    16.0942    15.3042    14.8013    89.3706  -104.7693
  424.5000    16.0699    15.4439    14.9706    90.2645  -104.4477
  425.0000    16.0455    15.5836    14.9935    90.0793  -103.6323
  425.5000    16.0210    15.7067    14.8387    89.8986  -104.7378
  426.0000    15.9613    15.5070    14.7197    90.8952  -103.6675
  426.5000    15.7316    15.3331    14.6024    91.9390  -103.1745
  427.0000    15.5051    15.1613    14.4827    91.3211  -102.7696
  427.5000    15.2819    14.9913    14.2388    90.6806  -102.3414
  428.0000    15.0620    14.8230    13.9300    90.7575  -101.8683
  428.5000    14.8452    14.6283    13.6303    91.8201  -101.7183
  429.0000    14.6315    14.3873    13.3373    92.6907  -101.7147
  429.5000    14.4209    14.1503    13.1165    92.1840  -101.7327
  430.0000    14.2133    13.9171    12.9130    91.6833  -102.0887
  430.5000    14.0087    13.6878    12.7126    92.2015  -101.5327
  431.0000    13.8885    13.4623    12.5154    93.0509  -101.1426
  431.5000    13.8048    13.2729    12.3212    92.3592  -101.3162
  432.0000    13.6079    13.2054    12.1301    91.6392  -100.8261
  432.5000    13.4112    13.1382    11.9702    92.7715  -100.8672
  433.0000    13.4934    13.0721    11.8815    96.0348  -101.2501
  433.5000    13.5689    13.0390    11.7935    97.8280  -101.4148
  434.0000    13.6448    13.0219    11.5577    97.6960  -101.3155
  434.5000    13.7211    13.0044    11.4155    95.1606  -101.5870
  435.0000    13.7978    12.9870    11.3455    93.1254  -101.8791
  435.5000    13.8750    12.9696    11.4505    92.7552  -101.7239
  436.0000    13.9526    12.9522    11.5221    92.9308  -101.5434
  436.5000    14.0311    12.9349    11.5942    93.0988  -101.6604
  437.0000    14.1119    12.9101    11.6667    93.1297  -101.8721
  437.5000    14.1774    12.8595    11.7397    93.1131  -101.7399
  438.0000    13.7084    12.8099    11.7896    93.7649  -100.9430
  438.5000    13.2863    12.7604    11.8347    94.5085  -100.2835
  439.0000    13.0142    12.7112    11.8800    95.2591  -100.3011
  439.5000    12.9445    12.6074    11.9254    95.5436  -100.3037
  440.0000    12.8752    12.3350    11.9710    95.0860  -100.3027
  440.5000    12.8022    12.3350    12.0168    93.9903  -100.2455
  441.0000    13.0546    12.3350    12.0629    93.9317  -100.0002
  441.5000    13.1630    12.3350    12.1077    93.9316   -99.9532
  442.0000    13.1701    12.3350    12.0854    94.5797  -100.0436
  442.5000    12.8883    12.2783    12.0490    95.6243  -100.1367
  443.0000    12.5782    12.0624    12.0118    96.6782  -100.2298
  443.5000    12.3772    11.8880    11.7823    97.7330  -100.3226
  444.0000    12.1794    11.7162    11.4087    98.7843  -100.4144
  444.5000    11.9959    11.5584    11.1363    99.6876  -100.5116
  445.0000    11.9959    11.6272    11.1363   100.0396  -100.7425
  445.5000    12.0630    11.6949    11.3453   100.3700  -100.9738
  446.0000    12.2198    11.7775    11.2078    98.7640  -101.2042
  446.5000    11.9204    11.5480    11.0513    96.9949  -101.4345
  447.0000    11.5517    11.1722    10.6579    96.3999  -101.6646
  447.5000    11.1928    10.8095    10.2785    97.1613  -101.8856
  448.0000    10.8454    10.4592     9.8827    97.0205  -102.2014
  448.5000    10.6086     9.8873     9.3194    96.9046  -102.5202
  449.0000    10.5484     9.2130     8.7882    96.7740  -102.7996
  449.5000    10.4886     8.9209     8.0922    97.0713  -103.0776
  450.0000    10.4349     8.1589     7.2308    98.6363  -103.3518
  450.5000     9.6796     7.2581     6.4611   100.3423  -103.7105
  451.0000     8.9094     6.4568     5.8254   102.0136  -104.2027
  451.5000     7.8132     5.7439     5.2907   105.5044  -104.8161
  452.0000     6.7581     5.4952     4.8050   109.7244  -105.4236
  452.5000     6.2592     5.6415     4.5461   115.4657  -105.3399
  453.0000     6.6384     5.7197     4.5208   119.2509  -104.4446
  453.5000     6.9317     5.7989     5.0317   117.0736  -103.5663
  454.0000     8.2429     5.9679     5.5403   109.6869  -103.4038
  454.5000     9.6290     6.5711     6.1003   103.3984  -103.2463
  455.0000    10.2459     7.2353     6.7168   101.4770  -102.8162
  455.5000    10.2191     7.9666     7.3957   101.0709  -102.3957
  456.0000    10.1840     8.7718     8.1433    99.2175  -101.9807
  456.5000    10.1480     9.2835     8.8840    96.5882  -101.7552
