~VERSION INFORMATION
 VERS.                2.0:   CWLS LOG ASCII STANDARD - VERSION 2.0
 WRAP.                 NO:   ONE LINE PER DEPTH STEP
~WELL INFORMATION
#MNEM.UNIT      DATA TYPE    INFORMATION
#----------   ------------   ------------------------------
 STRT.F           52.5000:   START DEPTH
 STOP.F         2929.0000:   STOP DEPTH
 STEP.F            0.5000:   STEP LENGTH
 NULL.          -999.2500:   NO VALUE
 COMP.   FLUOR DANIEL INC:   COMPANY
 WELL. NAVAL PETROLEUM RESERVE 3 X-23 #52-23:   WELL
 FLD .            WILDCAT:   FIELD
 LOC .      S23 T38N R78W:   LOCATION
 CNTY.            NATRONA:   COUNTY
 STAT.            WYOMING:   STATE
 CTRY. UNITED STATES OF AMERICA:   COUNTRY
 SRVC.            Unknown:   SERVICE COMPANY
 DATE.        23-APR-1995:   LOGDATE
 API .       490252271500:   API NUMBER
~CURVE INFORMATION
#MNEM.UNIT       API CODE    CURVE DESCRIPTION
#----------   ------------   ------------------------------
 DEPT.F                  :   
 ROP .MIN/FT 91 810 01 00:   RAT OF DRILLING PENETRATION
 TGAS.UNITS  91 830 01 00:   TOTAL GAS FROM HOTWIRE
~PARAMETER INFORMATION
#MNEM.UNIT          VALUE    DESCRIPTION
#----------   ------------   ------------------------------
 EKB .F              5344:   KELLING BUSHING
 EGL .F              5334:   GROUND LEVEL
 DATE.            4-23-95:   RUN DATE
 DD  .F              2929:   DEPTH DRILLER
 CS  .IN            9.625:   CASING SIZE
 CBD .F                53:   CASING BOTTOM DRILLER
 BS  .IN             8.75:   BIT SIZE
 BSD .F              2929:   BIT SIZE AT DEPTH
 ENGI.              TOWER:   RECORDING ENGINEER
 WITN.               HUSK:   WITNESSED BY
 CLNT.            A2DTECH:   CLIENT CODE
 ORIG.           5" PRINT:   ORIGIN OF DATA
 UWI .       490252271500:   UNIQUE WELL ID
 DICO. A2D Technologies, Inc.:   DIGITIZING COMPANY
~OTHER INFORMATION
~A   DEPT        ROP     TGAS   
# ...
  417.0000     0.3002     0.9059
  417.5000     0.3007     0.8475
  418.0000     0.3013     0.7891
  418.5000     0.3018     0.7308
  419.0000     0.3023     0.6724
  419.5000     0.3029     0.6669
  420.0000     0.3034     0.7102
  420.5000     0.3050     0.7535
  421.0000     0.3066     0.7968
  421.5000     0.3081     0.8401
  422.0000     0.3097     0.8834
  422.5000     0.3113     0.9267
  423.0000     0.3128     0.9701
  423.5000     0.3144     1.0134
  424.0000     0.3160     1.0567
  424.5000     0.3175     1.0822
  425.0000     0.3191     1.0959
  425.5000     0.3207     1.1096
  426.0000     0.3222     1.1233
  426.5000     0.3238     1.1370
  427.0000     0.3254     1.1507
  427.5000     0.3269     1.1644
  428.0000     0.3285     1.1781
  428.5000     0.3301     1.1918
  429.0000     0.3316     1.2055
  429.5000     0.3332     1.2192
  430.0000     0.3348     1.2329
  430.5000     0.3363     1.2466
  431.0000     0.3379     1.2603
  431.5000     0.3395     1.2740
  432.0000     0.3410     1.2888
  432.5000     0.3426     1.3298
  433.0000     0.3442     1.3744
  433.5000     0.3457     1.4189
  434.0000     0.3473     1.4635
  434.5000     0.3489     1.5081
  435.0000     0.3504     1.5527
  435.5000     0.3520     1.5972
  436.0000     0.3536     1.6418
  436.5000     0.3551     1.6864
  437.0000     0.3567     1.7310
  437.5000     0.3583     1.7755
  438.0000     0.3491     1.8201
  438.5000     0.4347     1.8647
  439.0000     0.4362     1.9093
  439.5000     0.4378     1.9332
  440.0000     0.4393     1.9332
  440.5000     0.4393     1.9332
  441.0000     0.4393     1.9332
  441.5000     0.4393     1.9332
  442.0000     0.4393     1.9332
  442.5000     0.4393     1.9332
  443.0000     0.4393     1.9332
  443.5000     0.4393     1.9332
  444.0000     0.4393     1.9332
  444.5000     0.4393     1.9332
  445.0000     0.4393     1.9332
  445.5000     0.4393     1.9332
  446.0000     0.4393     1.9332
  446.5000     0.4393     1.9332
  447.0000     0.4393     1.9332
  447.5000     0.4393     1.9332
  448.0000     0.4393     1.9332
  448.5000     0.4393     1.9332
  449.0000     0.4393     1.9332
  449.5000     0.4289     1.8665
  450.0000     0.4289     1.7963
  450.5000     0.4289     1.7262
  451.0000     0.4289     1.6560
  451.5000     0.4289     1.5859
  452.0000     0.4289     1.5157
  452.5000     0.4289     1.4456
  453.0000     0.4289     1.3755
  453.5000     0.4289     1.3053
  454.0000     0.4289     1.3213
  454.5000     0.4289     1.3640
  455.0000     0.4289     1.4066
  455.5000     0.4289     1.4492
  456.0000     0.4289     1.4918
  456.5000     0.4289     1.5344
  457.0000     0.4289     1.5770
  457.5000     0.4289     1.6196
  458.0000     0.4289     1.6623
  458.5000     0.4289     1.7049
  459.0000     0.4289     1.7066
  459.5000     0.4289     1.6893
  460.0000     0.4275     1.6720
  460.5000     0.4233     1.6548
  461.0000     0.4191     1.6375
  461.5000     0.4149     1.6202
  462.0000     0.4107     1.6030
  462.5000     0.4065     1.5857
  463.0000     0.4023     1.5684
  463.5000     0.3981     1.5512
  464.0000     0.3938     1.5339
  464.5000     0.3896     1.5166
  465.0000     0.3854     1.5042
  465.5000     0.3812     1.5067
  466.0000     0.3770     1.5093
  466.5000     0.3728     1.5118
  467.0000     0.3686     1.5143
  467.5000     0.3644     1.5468
  468.0000     0.3599     1.5793
  468.5000     0.5589     1.6118
  469.0000     0.5591     1.6442
  469.5000     0.5594     1.6767
  470.0000     0.5596     1.7092
  470.5000     0.5599     1.7417
  471.0000     0.5602     1.7742
  471.5000     0.5604     1.8067
  472.0000     0.5607     1.8391
  472.5000     0.5504     1.8716
  473.0000     0.5508     1.9041
  473.5000     0.5510     1.9405
  474.0000     0.5513     1.9345
  474.5000     0.5515     1.9278
  475.0000     0.5518     1.9211
  475.5000     0.5521     1.9143
  476.0000     0.5523     1.9076
  476.5000     0.5526     1.9008
  477.0000     0.5529     1.8941
  477.5000     0.5531     1.8874
  478.0000     0.5534     1.8806
  478.5000     0.5536     1.8739
  479.0000     0.5539     1.8671
  479.5000     0.5541     1.8604
  480.0000     0.5544     1.8537
  480.5000     0.5547     1.8469
  481.0000     0.5550     1.8402
  481.5000     0.5552     1.8334
  482.0000     0.5555     1.8267
  482.5000     0.5557     1.8199
  483.0000     0.5560     1.8137
  483.5000     0.5562     1.8263
  484.0000     0.5565     1.8380
  484.5000     0.5567     1.8497
  485.0000     0.5571     1.8613
  485.5000     0.5573     1.8730
  486.0000     0.5576     1.8846
  486.5000     0.5578     1.8963
  487.0000     0.5581     1.9080
  487.5000     0.5583     1.9196
  488.0000     0.5586     1.9332
  488.5000     0.5588     1.9332
  489.0000     0.5591     1.9332
  489.5000     0.5594     1.9332
  490.0000     0.5597     1.9332
  490.5000     0.5599     1.9332
  491.0000     0.5602     1.9332
  491.5000     0.5604     1.9332
  492.0000     0.5607     1.9332
  492.5000     0.5609     1.9332
  493.0000     0.5612     1.9332
  493.5000     0.5615     1.9332
  494.0000     0.5617     1.9332
  494.5000     0.5620     1.9332
  495.0000     0.5623     1.9332
  495.5000     0.5625     1.9332
  496.0000     0.5628     1.9332
  496.5000     0.5630     1.9332
  497.0000     0.5633     1.9332
  497.5000     0.5636     1.9332
  498.0000     0.5638     1.9332
  498.5000     0.5641     1.9332
  499.0000     0.5643     1.9555
  499.5000     0.5646     1.9889
  500.0000     0.5649     2.0223
  500.5000     0.3784     2.0558
  501.0000     0.3802     2.0892
  501.5000     0.3824     2.1226
  502.0000     0.3842     2.1561
  502.5000     0.3860     2.1895
  503.0000     0.3878     2.2229
  503.5000     0.3896     2.2564
  504.0000     0.3914     2.2898
  504.5000     0.3932     2.3233
  505.0000     0.3949     2.3628
  505.5000     0.3967     2.2823
  506.0000     0.3985     2.1840
  506.5000     0.4004     2.0857
  507.0000     0.4022     1.9874
  507.5000     0.4044     1.8891
  508.0000     0.4062     1.7908
  508.5000     0.4079     1.7774
  509.0000     0.4097     1.7936
  509.5000     0.4115     1.8097
  510.0000     0.4133     1.8258
  510.5000     0.4151     1.8419
  511.0000     0.4169     1.8580
  511.5000     0.4187     1.8741
  512.0000     0.4205     1.8902
  512.5000     0.4223     1.9063
  513.0000     0.4242     1.9224
  513.5000     0.4263     1.9385
  514.0000     0.4281     1.9547
  514.5000     0.4299     1.9708
  515.0000     0.4317     1.9885
  515.5000     0.4335     1.9693
  516.0000     0.4353     1.9480
  516.5000     0.4371     1.9267
  517.0000     0.4389     1.9054
  517.5000     0.4407     1.8841
  518.0000     0.4425     1.8628
  518.5000     0.4443     1.8415
  519.0000     0.4461     1.8202
  519.5000     0.4483     1.7989
  520.0000     0.4501     1.7776
  520.5000     0.4485     1.7563
  521.0000     0.4467     1.7350
  521.5000     0.4449     1.7137
  522.0000     0.4430     1.6924
  522.5000     0.4412     1.6711
  523.0000     0.4393     1.6498
  523.5000     0.4375     1.6285
  524.0000     0.4356     1.6444
  524.5000     0.4338     1.6783
  525.0000     0.4319     1.7121
  525.5000     0.4301     1.7460
  526.0000     0.4283     1.7798
  526.5000     0.4264     1.8136
  527.0000     0.4246     1.8475
  527.5000     0.4227     1.8813
  528.0000     0.4209     1.9152
  528.5000     0.4190     1.9490
  529.0000     0.4172     1.9828
  529.5000     0.4153     2.0167
  530.0000     0.6329     2.0505
  530.5000     0.6336     2.0843
  531.0000     0.6344     2.1182
  531.5000     0.6352     2.1480
  532.0000     0.6360     2.1480
  532.5000     0.6368     2.1480
  533.0000     0.6376     2.1480
  533.5000     0.6383     2.1480
  534.0000     0.6391     2.1480
  534.5000     0.6399     2.1480
  535.0000     0.6407     2.1480
  535.5000     0.6415     2.1480
  536.0000     0.6423     2.1480
  536.5000     0.6430     2.1480
  537.0000     0.6438     2.1480
  537.5000     0.6446     2.1480
  538.0000     0.6454     2.1480
