~VERSION INFORMATION
 VERS.                2.0:   CWLS LOG ASCII STANDARD - VERSION 2.0
 WRAP.                 NO:   ONE LINE PER DEPTH STEP
~WELL INFORMATION
#MNEM.UNIT      DATA TYPE    INFORMATION
#----------   ------------   ------------------------------
 STRT.F          190.0000:   START DEPTH
 STOP.F         3246.0000:   STOP DEPTH
 STEP.F            0.5000:   STEP LENGTH
 NULL.          -999.2500:   NO VALUE
 COMP. BROWN JOHN E&C INC:   COMPANY
 WELL.      STX-15 #84-15:   WELL
 FLD .             TEAPOT:   FIELD
 LOC .      S15 T38N R78W:   LOCATION
 CNTY.            NATRONA:   COUNTY
 STAT.            WYOMING:   STATE
 CTRY. UNITED STATES OF AMERICA:   COUNTRY
 SRVC.           BIRDWELL:   SERVICE COMPANY
 DATE.        17-MAR-1978:   LOGDATE
 API .       490251111600:   API NUMBER
~CURVE INFORMATION
#MNEM.UNIT       API CODE    CURVE DESCRIPTION
#----------   ------------   ------------------------------
 DEPT.F                  :   
 ILD .OHMM   05 120 46 00:   INDUCTION LOG DEEP
 SN  .OHMM   05 040 16 00:   SHORT NORMAL 16"
 SPR .MV     05 010 01 00:   SPONTANEOUS POTENTIAL FROM RES.
 GRD .GAPI   45 310 01 00:   GAMMA RAY FROM DENSITY LOG
 CALD.IN     45 280 60 00:   CALIPER
 RHOB.G/C3   45 350 01 00:   BULK DENSITY
 CORR.G/C3   45 356 01 00:   DENSITY CORRECTION
 DPHI.DEC    45 890 12 00:   DENSITY POROSITY SANDSTONE
~PARAMETER INFORMATION
#MNEM.UNIT          VALUE    DESCRIPTION
#----------   ------------   ------------------------------
 PD  .                 GL:   PERMANENT DATUM
 EPD .F              5241:   ELEVATION PERMANENT DATUM
 LMF .                 KB:   LOG MEASURED FROM
 DAPD.F                10:   FEET ABOVE PERMANENT DATUM
 DMF .                 KB:   DRILLING MEASURED FROM
 EKB .F              5251:   KELLING BUSHING
 EGL .F              5241:   GROUND LEVEL
 DATE.            3-17-78:   RUN DATE
 RUN .                  1:   RUN NUMBER
 DD  .F              3250:   DEPTH DRILLER
 DL  .F              3250:   DEPTH LOGGER
 BLI .F              3244:   BOTTOM LOG INTERVAL
 TLI .F               224:   TOP LOG INTERVAL
 CS  .IN            8.625:   CASING SIZE
 CBL .F               224:   CASING BOTTOM LOGGER
 BS  .IN            7.875:   BIT SIZE
 BSD .F              3250:   BIT SIZE AT DEPTH
 DFD .                8.9:   DRILLING FLUID DENSITY
 DFV .                 31:   DRILLING FLUID VISCOSITY
 DFPH.               10.5:   DRILLING FLUID PH
 DFL .                  8:   DRILLING FLUID LOSS
 MSS .           FLOWLINE:   MUD SAMPLE SOURCE
 RMS .OHMM            1.3:   RESISTIVITY MUD SAMPLE
 MST .F                70:   MUD SAMPLE TEMPERATURE
 RMF .OHMM            1.1:   RESISTIVITY MUD FILTRATE SAMPLE
 MFST.F                70:   MUD FILTRATE SAMPLE TEMPERATURE
 RMC .OHMM            1.4:   RESISTIVITY MUD CAKE
 MCST.F                70:   MUD CAKE SAMPLE TEMPERATURE
 MFSS.               MEAS:   MUD FILTRATE SAMPLE SOURCE
 MCSS.               MEAS:   MUD CAKE SAMPLE SOURCE
 RMB .OHMM            .77:   RESISTIVITY MUD AT BHT
 BHT .F               118:   BOTTOM HOLE TEMPERATURE
 TCS .HRS               6:   TIME CURCULATED STOPPED
 MRT .F               118:   MAXIMUM RECORDED TEMPERATURE
 LUN .               2958:   LOGGING UNIT NUMBER
 LUL .               CASP:   LOGGING UNIT LOCATION
 ENGI.             MILLER:   RECORDING ENGINEER
 WITN.           MCGINLEY:   WITNESSED BY
 CLNT.            A2DTECH:   CLIENT CODE
 ORIG.     1", 2.5" PRINT:   ORIGIN OF DATA
 UWI .       490251111600:   UNIQUE WELL ID
 DICO. A2D Technologies, Inc.:   DIGITIZING COMPANY
~OTHER INFORMATION
~A   DEPT      ILD         SN        SPR         GRD      CALD       RHOB       CORR       DPHI   
# ...
 1810.0000     7.4077     7.6132   -31.4279    88.2078    10.5000     2.5590     0.0132     0.0650
 1810.5000     7.4077     7.6214   -31.2771    94.2601    10.5000     2.5541     0.0150     0.0677
 1811.0000     7.4077     7.6297   -31.1272    94.5245    10.5000     2.5484     0.0167     0.0640
 1811.5000     7.4077     7.6379   -30.9712    93.0929    10.5000     2.5524     0.0183     0.0591
 1812.0000     7.4077     7.6461   -30.8221    91.4444    10.5000     2.5642     0.0201     0.0542
 1812.5000     7.4077     7.6543   -30.6733    89.8339    10.5000     2.5640     0.0212     0.0562
 1813.0000     7.4077     7.6627   -30.4999    88.2462    10.5000     2.5627     0.0223     0.0560
 1813.5000     7.4077     7.6707   -30.5648    87.1645    10.5000     2.5669     0.0236     0.0527
 1814.0000     7.4077     7.6794   -30.8616    87.8816    10.5000     2.5751     0.0231     0.0494
 1814.5000     7.4077     7.6876   -31.1362    88.6852    10.5000     2.5790     0.0202     0.0535
 1815.0000     7.4077     7.7069   -31.4105    88.5120    10.5000     2.5718     0.0174     0.0575
 1815.5000     7.4077     7.7244   -31.6508    89.1818    10.5000     2.5644     0.0147     0.0596
 1816.0000     7.4077     7.7422   -31.7227    91.1609    10.5000     2.5605     0.0122     0.0607
 1816.5000     7.4077     7.7604   -31.7891    92.9702    10.5000     2.5609     0.0111     0.0602
 1817.0000     7.4077     7.7788   -31.8509    94.5113    10.5000     2.5642     0.0097     0.0559
 1817.5000     7.4077     7.7965   -31.9145    94.4453    10.5000     2.5692     0.0083     0.0603
 1818.0000     7.4077     7.8136   -31.9778    92.2082    10.5000     2.5649     0.0122     0.0652
 1818.5000     7.4077     7.8283   -32.0410    89.3297    10.5000     2.5529     0.0169     0.0614
 1819.0000     7.4077     7.7872   -32.1044    90.3128    10.5000     2.5591     0.0218     0.0559
 1819.5000     7.4078     7.7522   -32.1670    91.0160    10.5000     2.5673     0.0265     0.0540
 1820.0000     7.4077     7.7168   -32.2321    91.9784    10.5000     2.5650     0.0314     0.0518
 1820.5000     7.4076     7.6809   -32.2936    91.5153    10.5000     2.5758     0.0360     0.0499
 1821.0000     7.4083     7.6450   -32.3564    90.4253    10.5000     2.5927     0.0397     0.0481
 1821.5000     7.4014     7.6096   -32.4314    89.4630    10.5000     2.5929     0.0354     0.0474
 1822.0000     7.3884     7.5745   -32.3836    88.7520    10.5000     2.5796     0.0316     0.0484
 1822.5000     7.3762     7.5462   -32.1482    90.3850    10.5000     2.5796     0.0275     0.0541
 1823.0000     7.3641     7.5462   -31.9265    91.8261    10.5000     2.5758     0.0234     0.0613
 1823.5000     7.3518     7.5461   -31.7011    93.3838    10.5000     2.5648     0.0194     0.0611
 1824.0000     7.3397     7.5461   -31.4754    94.5789    10.5000     2.5562     0.0153     0.0587
 1824.5000     7.3275     7.5462   -31.2505    94.5880    10.5000     2.5478     0.0112     0.0661
 1825.0000     7.3155     7.5465   -31.0227    94.5652    10.5000     2.5434     0.0079     0.0628
 1825.5000     7.3036     7.5464   -30.8465    93.2796    10.5000     2.5513     0.0060     0.0574
 1826.0000     7.2912     7.5455   -30.8550    90.4363    10.5000     2.5619     0.0042     0.0627
 1826.5000     7.2733     7.5458   -30.8339    91.0447    10.5000     2.5554     0.0037     0.0677
 1827.0000     7.2778     7.5458   -30.8483    91.9845    10.5000     2.5463     0.0069     0.0612
 1827.5000     7.2939     7.6248   -30.9186    93.1127    10.5000     2.5561     0.0123     0.0549
 1828.0000     7.3091     7.7545   -31.3276    93.0264    10.5000     2.5772     0.0172     0.0527
 1828.5000     7.3245     7.8863   -31.3648    88.8584    10.5000     2.5754     0.0227     0.0563
 1829.0000     7.3400     8.0205   -31.4757    89.6964    10.5000     2.5674     0.0210     0.0599
 1829.5000     7.3557     8.1246   -31.5676    92.0166    10.5000     2.5595     0.0146     0.0635
 1830.0000     7.3712     8.2761   -31.6544    92.2979    10.5000     2.5516     0.0092     0.0656
 1830.5000     7.3862     8.2761   -31.7510    91.5500    10.5000     2.5494     0.0047     0.0636
 1831.0000     7.4054     8.2003   -31.8416    90.9998    10.5000     2.5472     0.0126     0.0616
 1831.5000     7.3927     8.0330   -31.9314    90.3784    10.5000     2.5470     0.0195     0.0595
 1832.0000     7.3666     7.8692   -32.0307    90.9417    10.5000     2.5613     0.0274     0.0575
 1832.5000     7.3406     7.6865   -32.0168    92.1036    10.5000     2.5669     0.0229     0.0583
 1833.0000     7.3155     7.6865   -31.9363    93.1910    10.5000     2.5611     0.0175     0.0605
 1833.5000     7.2904     7.5458   -31.8641    94.2972    10.5000     2.5561     0.0113     0.0587
 1834.0000     7.2651     7.5458   -31.7932    94.3022    10.5000     2.5588     0.0081     0.0566
 1834.5000     7.2408     7.5445   -31.7195    93.8138    10.5000     2.5646     0.0137     0.0546
 1835.0000     7.2176     7.4049   -31.6474    93.3723    10.5000     2.5704     0.0199     0.0544
 1835.5000     7.1879     7.4104   -31.5754    93.0563    10.5000     2.5725     0.0173     0.0572
 1836.0000     7.1596     7.3722   -31.5018    93.6134    10.5000     2.5656     0.0115     0.0601
 1836.5000     7.1302     7.3476   -31.4304    94.0713    10.5000     2.5591     0.0061     0.0630
 1837.0000     6.9856     7.3229   -31.3593    94.5884    10.5000     2.5528     0.0007     0.0658
 1837.5000     6.9584     7.2980   -31.2787    94.4678    10.5000     2.5454    -0.0053     0.0693
 1838.0000     6.9316     7.2728   -31.2889    94.2277    10.5000     2.5426    -0.0061     0.0697
 1838.5000     6.9032     7.2476   -31.3892    93.9915    10.5000     2.5396     0.0000     0.0702
 1839.0000     6.8734     7.2224   -31.4800    93.7615    10.5000     2.5371     0.0063     0.0707
 1839.5000     6.8427     7.1973   -31.5712    93.5197    10.5000     2.5390     0.0053     0.0704
 1840.0000     6.8131     7.1723   -31.6643    93.3992    10.5000     2.5410    -0.0004     0.0696
 1840.5000     6.7836     7.1474   -31.7559    94.2447    10.5000     2.5432    -0.0025     0.0688
 1841.0000     6.7542     7.1226   -31.8483    96.0107    10.5000     2.5453     0.0041     0.0680
 1841.5000     6.7249     7.0979   -31.9405    97.7522    10.5000     2.5462     0.0101     0.0680
 1842.0000     6.6958     7.0732   -32.0321    99.3609    10.5000     2.5439     0.0156     0.0692
 1842.5000     6.6667     7.0487   -32.1255    99.8818    10.5000     2.5417     0.0123     0.0703
 1843.0000     6.6378     7.0242   -32.2161   100.3548    10.5000     2.5394     0.0093     0.0717
 1843.5000     6.5924     6.9410   -32.3078   100.8129    10.5000     2.5369     0.0054     0.0702
 1844.0000     6.5416     6.7505   -32.4091   101.2677    10.5000     2.5386     0.0059     0.0687
 1844.5000     6.4911     6.6304   -32.4389   102.0748    10.5000     2.5422     0.0110     0.0673
 1845.0000     6.4410     6.6459   -32.3526   103.7804    10.5000     2.5461     0.0151     0.0658
 1845.5000     6.3912     6.6621   -32.2770   106.4239    10.5000     2.5496     0.0196     0.0644
 1846.0000     6.3417     6.6772   -32.1993   105.5544    10.5000     2.5518     0.0153     0.0645
 1846.5000     6.2926     6.6940   -32.1205   105.1399    10.5000     2.5424     0.0105     0.0661
 1847.0000     6.2729     6.7105   -32.0427   105.6973    10.5000     2.5361     0.0052     0.0661
 1847.5000     6.2729     6.7270   -31.9645   106.1773    10.5000     2.5467     0.0031     0.0644
 1848.0000     6.3043     6.7435   -31.8876   106.5208    10.5000     2.5547     0.0020     0.0637
 1848.5000     6.3587     6.7883   -31.8062   105.3550    10.5000     2.5524     0.0009     0.0669
 1849.0000     6.4135     6.8789   -31.7330   105.1067    10.5002     2.5463     0.0001     0.0696
 1849.5000     6.4688     6.9708   -31.6634   105.3160    10.4979     2.5404     0.0029     0.0722
 1850.0000     6.5246     7.0640   -31.7844   105.4988    10.4919     2.5339     0.0066     0.0723
