~VERSION INFORMATION
 VERS.                2.0:   CWLS LOG ASCII STANDARD - VERSION 2.0
 WRAP.                 NO:   ONE LINE PER DEPTH STEP
~WELL INFORMATION
#MNEM.UNIT      DATA TYPE    INFORMATION
#----------   ------------   ------------------------------
 STRT.F           66.0000:   START DEPTH
 STOP.F          892.0000:   STOP DEPTH
 STEP.F            0.5000:   STEP LENGTH
 NULL.          -999.2500:   NO VALUE
 COMP. LAWRENCE/ALLISON INC:   COMPANY
 WELL. NPR #3 #31-11 SX 2:   WELL
 FLD .             TEAPOT:   FIELD
 LOC .       S2 T38N R78W:   LOCATION
 CNTY.            NATRONA:   COUNTY
 STAT.            WYOMING:   STATE
 CTRY. UNITED STATES OF AMERICA:   COUNTRY
 SRVC.      Dresser Atlas:   SERVICE COMPANY
 DATE.        10-AUG-1985:   LOGDATE
 API .       490251103900:   API NUMBER
~CURVE INFORMATION
#MNEM.UNIT       API CODE    CURVE DESCRIPTION
#----------   ------------   ------------------------------
 DEPT.F                  :   
 PORD.DEC    45 890 12 00:   POROSITY DENSITY SANDSTONE
 CNC .DEC    42 890 03 00:   NEUTRON POROSITY SANDSTONE
 CORR.G/C3   45 356 01 00:   DENSITY CORRECTION
 DEN .G/C3   45 350 01 00:   COMPENSATED BULK DENSTIY
 CALD.IN     45 280 60 00:   CALIPER FROM DENSITY LOG
 SPR .MV     07 010 01 00:   SPONTANEOUS POTENTIAL
 RILD.OHMM   07 120 46 00:   INDUCTION LOG DEEP RESISTIVITY
 RILM.OHMM   07 120 44 00:   INDUCTION LOG MEDIUM RESISTIVITY
 RFOC.OHMM   07 220 04 00:   RESISTIVITY FOCUSED LOG
~PARAMETER INFORMATION
#MNEM.UNIT          VALUE    DESCRIPTION
#----------   ------------   ------------------------------
 PD  .                 GL:   PERMANENT DATUM
 EPD .F              5110:   ELEVATION PERMANENT DATUM
 LMF .                 GL:   LOG MEASURED FROM
 DMF .                 GL:   DRILLING MEASURED FROM
 EKB .F              5115:   KELLING BUSHING
 EGL .F              5110:   GROUND LEVEL
 DATE.        10-AUG-1985:   RUN DATE
 RUN .                  1:   RUN NUMBER
 DD  .F               899:   DEPTH DRILLER
 DL  .F               895:   DEPTH LOGGER
 BLI .F               892:   BOTTOM LOG INTERVAL
 CS  .IN            8.625:   CASING SIZE
 CBD .F                75:   CASING BOTTOM DRILLER
 CBL .F                78:   CASING BOTTOM LOGGER
 BS  .IN            7.875:   BIT SIZE
 BSD .F               899:   BIT SIZE AT DEPTH
 DFT .                KCL:   DRILLING FLUID TYPE
 MSS .           FLOWLINE:   MUD SAMPLE SOURCE
 RMS .OHMM            .21:   RESISTIVITY MUD SAMPLE
 MST .F                75:   MUD SAMPLE TEMPERATURE
 TCS .HRS            0200:   TIME CURCULATED STOPPED
 MRT .F               100:   MAXIMUM RECORDED TEMPERATURE
 LUN .               6274:   LOGGING UNIT NUMBER
 LUL .               GLTE:   LOGGING UNIT LOCATION
 ENGI.             RAUTIO:   RECORDING ENGINEER
 WITN.        LINDA FIVAS:   WITNESSED BY
 CLNT.            A2DTECH:   CLIENT CODE
 ORIG.           5" PRINT:   ORIGIN OF DATA
 UWI .       490251103900:   UNIQUE WELL ID
 DICO. A2D Technologies, Inc.:   DIGITIZING COMPANY
~OTHER INFORMATION
~A   DEPT     PORD        CNC       CORR        DEN       CALD        SPR       RILD       RILM       RFOC   
# ...
  869.0000     0.0846     0.2898     0.0562     2.5366     8.0271   -19.1768     6.9825     8.0024     8.9205
  869.5000     0.0855     0.3007     0.0531     2.5358     8.0256   -18.7273     6.8840     7.8362     8.9196
  870.0000     0.0867     0.3077     0.0621     2.5335     8.0242   -18.2778     6.9789     7.6734     8.7345
  870.5000     0.0952     0.3061     0.0906     2.5206     8.0224   -18.1304     7.1250     7.4619     8.3183
  871.0000     0.1097     0.2898     0.0905     2.4942     8.0211   -18.1350     7.3242     7.4613     8.1457
  871.5000     0.1166     0.2889     0.0844     2.4859     8.0195   -18.2898     7.4252     7.6182     8.0324
  872.0000     0.1139     0.2940     0.0738     2.4896     8.0180   -18.5956     7.5275     7.7785     7.9207
  872.5000     0.1109     0.2964     0.0617     2.4933     8.0166   -19.0524     7.7407     7.8961     8.1473
  873.0000     0.1125     0.2977     0.0511     2.4902     8.0150   -19.5093     8.0740     8.1657     8.8679
  873.5000     0.1140     0.2959     0.0435     2.4902     8.0133   -19.9662     8.2349     8.3957     9.4897
  874.0000     0.1091     0.2889     0.0479     2.4969     8.0119   -20.2720     8.3489     8.6926     9.8936
  874.5000     0.1034     0.2846     0.0599     2.5084     8.0104   -20.7289     8.4640     8.8140    10.0317
  875.0000     0.0965     0.2840     0.0673     2.5171     8.0090   -21.0536     8.6401     8.9369     9.8919
  875.5000     0.0968     0.2858     0.0582     2.5163     8.0227   -21.7945     8.8205     9.0615     9.7543
  876.0000     0.0992     0.2828     0.0296     2.5132     8.0058   -23.0067     8.9421     9.1877     9.7535
  876.5000     0.1011     0.2743     0.0175     2.5093     8.0043   -29.0527     9.0654     9.2512     9.8894
  877.0000     0.1020     0.2682     0.0067     2.5071     7.9727   -44.9174     9.1265     9.3150    10.2388
  877.5000     0.1005     0.2680     0.0098     2.5108     7.9561   -63.6522     9.2562     9.3142    10.2380
  878.0000     0.0975     0.2743     0.0293     2.5138     7.9396   -85.4081     9.3798     9.3133    10.0955
  878.5000     0.0966  -999.2500     0.0427     2.5167     7.9532   -90.2457     9.3116     9.3125    10.0245
  879.0000     0.0990  -999.2500     0.0532     2.5136     7.9665   -92.6663     9.2446     9.2470     9.9541
  879.5000     0.1005  -999.2500     0.0561     2.5121     7.9802   -92.5189     9.1780     9.1183     9.9532
  880.0000     0.1005  -999.2500     0.0561     2.5113     7.9787   -92.0694     9.0486     9.0542     9.8833
  880.5000     0.1017  -999.2500     0.0530     2.5090     7.9924   -91.5930     8.8591     8.9906     9.8825
  881.0000     0.1036  -999.2500     0.0423     2.5067     7.9909   -91.0203     9.1079     8.8654     9.8817
  881.5000     0.1051  -999.2500     0.0423     2.5036     7.9891   -90.7210     9.1050     9.0519     9.7442
  882.0000     0.1051  -999.2500     0.0527     2.5035     7.9877   -90.5736     8.9766     9.3764     9.6087
  882.5000     0.1036  -999.2500     0.0647     2.5042     7.9863   -90.4262     8.7885     9.5137     9.4750
  883.0000     0.1021  -999.2500     0.0601     2.5072     7.9848   -90.7329     8.6641     9.5683     9.6739
  883.5000     0.1003  -999.2500     0.0465     2.5086     7.9532   -90.7366     8.6619     9.7694     9.7409
  884.0000     0.0991  -999.2500     0.0494     2.5117     7.9366   -90.7403     8.6597     9.9056     9.8766
  884.5000     0.0979  -999.2500     0.0648     2.5145     7.9046   -90.7440     8.6575    10.0437    10.0141
  885.0000     0.0949  -999.2500     0.1004     2.5167     7.8125   -90.7477     8.6553    10.1133    10.0132
  885.5000     0.0907  -999.2500     0.1139     2.5212     7.7204   -90.7515     8.7142    10.2541    10.0124
  886.0000     0.0883  -999.2500     0.1018     2.5294     7.6586   -90.4539     8.6508     9.9715    10.0115
  886.5000     0.0874  -999.2500     0.1044     2.5331     7.5952   -90.4576     8.6486     9.9706     9.8722
  887.0000     0.0892  -999.2500     0.1633     2.5278     7.5043   -90.3093     8.6464    10.1097     9.4621
  887.5000     0.1055  -999.2500     0.1919     2.5157     7.3820   -90.3139     8.6442    10.2507     9.0611
  888.0000     0.1113  -999.2500     0.2008     2.4946     7.0030   -90.3176     8.5814    10.3936     8.4680
  888.5000  -999.2500  -999.2500  -999.2500  -999.2500  -999.2500   -90.3213     8.6398    10.3925     8.0086
  889.0000  -999.2500  -999.2500  -999.2500  -999.2500  -999.2500   -90.3250     8.6975    10.2478     7.7880
  889.5000  -999.2500  -999.2500  -999.2500  -999.2500  -999.2500   -90.3286     8.6953    10.1052     7.4688
  890.0000  -999.2500  -999.2500  -999.2500  -999.2500  -999.2500   -90.3323     8.7545    10.0342     6.7276
  890.5000  -999.2500  -999.2500  -999.2500  -999.2500  -999.2500   -90.3361     8.8135    10.0333     6.1023
  891.0000  -999.2500  -999.2500  -999.2500  -999.2500  -999.2500   -90.3406     8.8107    10.2443     5.8931
  891.5000  -999.2500  -999.2500  -999.2500  -999.2500  -999.2500   -90.3443     8.8084    10.3872     5.6910
  892.0000  -999.2500  -999.2500  -999.2500  -999.2500  -999.2500   -90.3474     8.8061    10.3863     5.8241
