~VERSION INFORMATION
 VERS.                2.0:   CWLS LOG ASCII STANDARD - VERSION 2.0
 WRAP.                 NO:   ONE LINE PER DEPTH STEP
~WELL INFORMATION
#MNEM.UNIT      DATA TYPE    INFORMATION
#----------   ------------   ------------------------------
 STRT.F           28.0000:   START DEPTH
 STOP.F          659.0000:   STOP DEPTH
 STEP.F            0.5000:   STEP LENGTH
 NULL.          -999.2500:   NO VALUE
 COMP. FENIX & SCISSON INC:   COMPANY
 WELL.    NPR 3 #46-SX-34:   WELL
 FLD .             TEAPOT:   FIELD
 LOC .      S34 T39N R78W:   LOCATION
 CNTY.            NATRONA:   COUNTY
 STAT.            WYOMING:   STATE
 CTRY. UNITED STATES OF AMERICA:   COUNTRY
 SRVC.              Welex:   SERVICE COMPANY
 DATE.        01-MAY-1977:   LOGDATE
 API .       490251035600:   API NUMBER
~CURVE INFORMATION
#MNEM.UNIT       API CODE    CURVE DESCRIPTION
#----------   ------------   ------------------------------
 DEPT.F                  :   
 CALD.IN     45 280 60 00:   CALIPER FROM DENSITY
 GRD .GAPI   45 310 01 00:   GAMMA RAY FROM DENSITY LOG
 CORR.G/C3   45 356 01 00:   DENSITY CORRECTION
 DPHI.DEC    45 890 12 00:   DENSITY POROSITY SANDSTONE
 RHOB.G/C3   45 350 01 00:   BULK DENSITY
 SPR .MV     07 010 01 00:   SPONTANEOUS POTENTIAL
 ILD .OHMM   07 120 46 00:   INDUCTION LOG DEEP
 ILM .OHMM   07 120 44 00:   INDUCTION LOG MEDIUM
 SGRD.OHMM   07 221 05 00:   SHALLOW SHORT GUARD RESISTIVITY
~PARAMETER INFORMATION
#MNEM.UNIT          VALUE    DESCRIPTION
#----------   ------------   ------------------------------
 PD  .                 GL:   PERMANENT DATUM
 EPD .F              5120:   ELEVATION PERMANENT DATUM
 LMF .                 GL:   LOG MEASURED FROM
 DMF .                 GL:   DRILLING MEASURED FROM
 EGL .F              5120:   GROUND LEVEL
 DATE.        01-MAY-1977:   RUN DATE
 RUN .                  1:   RUN NUMBER
 DD  .F               660:   DEPTH DRILLER
 DL  .F               663:   DEPTH LOGGER
 BLI .F               661:   BOTTOM LOG INTERVAL
 TLI .F                28:   TOP LOG INTERVAL
 CS  .IN            8.625:   CASING SIZE
 BS  .IN               12:   BIT SIZE
 BSD .F               660:   BIT SIZE AT DEPTH
 DFT .            KCL MUD:   DRILLING FLUID TYPE
 DFD .                8.7:   DRILLING FLUID DENSITY
 TCS .HRS            0100:   TIME CURCULATED STOPPED
 MRT .F                71:   MAXIMUM RECORDED TEMPERATURE
 ENGI.          T. JOYNER:   RECORDING ENGINEER
 WITN.            R. LYON:   WITNESSED BY
 CLNT.            A2DTECH:   CLIENT CODE
 ORIG.           5" PRINT:   ORIGIN OF DATA
 UWI .       490251035600:   UNIQUE WELL ID
 DICO. A2D Technologies, Inc.:   DIGITIZING COMPANY
~OTHER INFORMATION
~A   DEPT     CALD        GRD        CORR      DPHI       RHOB        SPR        ILD        ILM       SGRD   
# ...
  356.5000     7.7986   110.7198     0.0070     0.1340     2.4551   -42.8381     9.0282    12.2368    12.2479
  357.0000     7.7981   109.5220     0.0070     0.1297     2.4611   -42.8363     8.8385    12.2351    12.1629
  357.5000     7.7826   110.8791     0.0070     0.1273     2.4694   -42.8348     8.4891    12.1494    12.1621
  358.0000     7.7822   117.7905     0.0086     0.1241     2.4634   -42.9821     8.2004    12.0643    11.9947
  358.5000     7.7667   119.1453     0.0087     0.1292     2.4619   -42.9807     8.0870    11.8975    11.8296
  359.0000     7.7813   117.9498     0.0101     0.1316     2.4543   -43.1280     8.0303    11.7329    11.5867
  359.5000     7.7808   117.5027     0.0116     0.1328     2.4506   -43.2754     7.9193    11.4912    11.4273
  360.0000     7.7804   117.5376     0.0147     0.1289     2.4649   -43.4227     7.8098    11.2545    11.1926
  360.5000     7.7951   117.8363     0.0162     0.1313     2.4603   -43.5697     7.5963    11.0988    11.0386
  361.0000     7.7945   118.1351     0.0132     0.1334     2.4551   -43.7174     7.3272    10.7955    10.8119
  361.5000     7.8092   118.5841     0.0117     0.1364     2.4498   -44.0132     6.9435    10.5004    10.4448
  362.0000     7.7937   119.0331     0.0087     0.1404     2.4448   -44.1610     6.5555    10.1433    10.0209
  362.5000     7.7932   119.4820     0.0072     0.1446     2.4381   -44.4571     6.1105     9.7309     9.6807
  363.0000     7.7928   119.6367     0.0072     0.1494     2.4299   -44.7530     5.6048     9.2075     9.1607
  363.5000     7.7923   118.5902     0.0087     0.1557     2.4201   -45.1979     5.0188     8.5901     8.6685
  364.0000     7.7919   116.1923     0.0087     0.1642     2.4089   -45.6429     4.3718     7.8988     8.1465
  364.5000     7.7914   114.3951     0.0103     0.1717     2.3962   -46.1002     3.8082     7.3135     7.7088
  365.0000     7.7910   111.8471     0.0073     0.1783     2.3850   -46.5575     3.0963     6.7715     7.1948
  365.5000     7.7905   105.8456     0.0058     0.1901     2.3677   -47.1262     2.2701     6.2541     6.6222
  366.0000     7.8051   105.2484     0.0028     0.1976     2.3496   -47.4227     1.8585     5.9178     6.0901
  366.5000     7.8047   108.4073    -0.0003     0.2054     2.3376   -47.7189     1.6528     5.5228     5.5976
  367.0000     7.8042   111.5650    -0.0033     0.2151     2.3173   -48.0147     1.4497     5.0140     4.8524
  367.5000     7.8037   115.6236    -0.0063     0.2250     2.3007   -47.8644     1.2892     4.6152     3.8604
  368.0000     7.8033   111.2738    -0.0078     0.2358     2.2864   -47.5654     1.2283     4.3670     3.2102
  368.5000     7.8028   104.5216    -0.0093     0.2419     2.2774   -47.4151     1.2281     4.3066     3.1013
  369.0000     7.8024   103.3249    -0.0108     0.2386     2.2796   -46.8184     1.2536     4.4571     3.6089
  369.5000     7.8171   103.4796    -0.0123     0.2253     2.2947   -46.3705     1.3158     4.8408     4.0573
  370.0000     7.8165   106.0367    -0.0077     0.1925     2.3443   -45.7738     1.4851     5.2215     5.0237
  370.5000     7.8160   109.9452    -0.0016     0.1693     2.3917   -45.4623     1.8013     5.9105     5.8461
  371.0000     7.8156   112.8026     0.0044     0.1527     2.4203   -45.0020     2.2131     6.8303     6.9452
  371.5000     7.8151   116.1104     0.0059     0.1443     2.4391   -44.5786     2.7489     7.5214     7.9714
  372.0000     7.8147   117.9168     0.0060     0.1380     2.4421   -44.1307     3.4270     7.8922     8.7182
  372.5000     7.8142   118.2207     0.0075     0.1305     2.4594   -43.9804     3.8261     8.1678     9.0858
  373.0000     7.8289   118.6997     0.0075     0.1269     2.4692   -43.9790     4.4829     8.5116     9.3392
  373.5000     7.8434   119.4489     0.0060     0.1223     2.4737   -43.9775     5.0745     8.8099     9.6661
  374.0000     7.8429   120.3604     0.0060     0.1236     2.4714   -43.8273     5.6655     8.9959     9.7324
  374.5000     7.8425   121.4039     0.0076     0.1277     2.4669   -43.9750     5.9859     9.1784     9.7316
  375.0000     7.8420   122.8979     0.0091     0.1298     2.4639   -43.9732     6.1950     9.3046     9.7309
  375.5000     7.8416   124.4039     0.0091     0.1298     2.4646   -43.9717     6.2372     9.4325     9.7303
  376.0000     7.8411   125.7598     0.0091     0.1274     2.4646   -44.1190     6.1508     9.5618     9.7969
  376.5000     7.8256   123.6623     0.0091     0.1292     2.4616   -44.2788     5.9416     9.6270     9.8640
  377.0000     7.8102   119.9131     0.0076     0.1295     2.4601   -44.5626     5.7395     9.5592     9.9316
  377.5000     7.8098   120.2179     0.0092     0.1328     2.4600   -44.7095     5.6212     9.4270     9.7949
  378.0000     7.8093   124.2766     0.0107     0.1271     2.4624   -44.8573     5.3169     9.2967     9.7207
  378.5000     7.7938   126.2330     0.0137     0.1265     2.4654   -45.1531     4.9894     9.1051     9.4440
  379.0000     7.8084   128.4899     0.0153     0.1292     2.4652   -45.3008     4.6828     8.7350     8.9931
  379.5000     7.8080   130.7467     0.0122     0.1355     2.4547   -45.4481     4.3232     8.2652     8.0177
  380.0000     7.8075   134.3548     0.0092     0.1431     2.4450   -45.5955     4.0626     7.9840     6.9366
  380.5000     7.7920   133.1582     0.0062     0.1476     2.4352   -45.4448     3.8974     7.8195     6.2547
  381.0000     7.8066   131.9615     0.0062     0.1530     2.4209   -45.4434     3.7133     7.7648     6.0842
  381.5000     7.8062   129.8640     0.0063     0.1551     2.4179   -45.2931     3.5870     7.7637     6.4731
  382.0000     7.8057   124.9136     0.0063     0.1494     2.4239   -45.1429     3.5619     7.8704     6.9347
  382.5000     7.8052   124.1673     0.0063     0.1464     2.4323   -44.9926     3.6358     7.9786     7.5844
  383.0000     7.8048   123.5702     0.0063     0.1464     2.4322   -44.8423     3.7889     8.2006     8.2379
  383.5000     7.8043   124.0263     0.0063     0.1464     2.4352   -44.6917     3.9213     8.4890     8.7044
  384.0000     7.8039   124.4813     0.0063     0.1437     2.4397   -44.5414     4.0582     8.7916     9.1341
  384.5000     7.8034   124.9363     0.0048     0.1346     2.4479   -44.3912     4.4688     9.1532     9.5192
  385.0000     7.8030   125.2703     0.0048     0.1301     2.4570   -44.0921     4.8871     9.4186     9.9206
  385.5000     7.8025   125.7192     0.0033     0.1301     2.4630   -43.9418     5.2352     9.8034    10.1973
  386.0000     7.8021   126.3363     0.0034     0.1280     2.4645   -43.6427     5.7253    10.0761    10.5542
  386.5000     7.8016   127.3679     0.0034     0.1259     2.4645   -43.4925     6.3086    10.2150    10.8485
  387.0000     7.8011   128.1232     0.0034     0.1281     2.4637   -43.3422     6.6660    10.2843    11.0745
  387.5000     7.8007   129.1667     0.0034     0.1284     2.4614   -43.3407     6.9017    10.2825    11.1503
  388.0000     7.7852   130.2223     0.0049     0.1337     2.4584   -43.3393     6.9885    10.2811    10.9969
  388.5000     7.7847   130.3889     0.0065     0.1318     2.4592   -43.1890     7.0359    10.2797    10.9206
  389.0000     7.7994   127.3785     0.0080     0.1298     2.4629   -43.1875     6.9864    10.2077    10.8448
  389.5000     7.8140   118.6744     0.0095     0.1274     2.4682   -43.1857     6.8898    10.2063    10.7696
  390.0000     7.8286   117.9883     0.0126     0.1229     2.4719   -43.0355     6.5643    10.0652    10.6116
  390.5000     7.8280   119.7345     0.0186     0.1217     2.4727   -43.0340     6.2542     9.9260    10.4752
  391.0000     7.8276   119.8892     0.0202     0.1244     2.4719   -43.0326     5.8772     9.7887    10.2599
  391.5000     7.8271   120.3442     0.0202     0.1265     2.4681   -43.1803     5.5610     9.6534    10.1187
  392.0000     7.8238   124.2527     0.0187     0.1289     2.4633   -43.3276     5.2619     9.4545     9.9795
  392.5000     7.8113   126.5095     0.0172     0.1313     2.4582   -43.4746     4.9789     9.2597     9.7074
