~VERSION INFORMATION
 VERS.                2.0:   CWLS LOG ASCII STANDARD - VERSION 2.0
 WRAP.                 NO:   ONE LINE PER DEPTH STEP
~WELL INFORMATION
#MNEM.UNIT      DATA TYPE    INFORMATION
#----------   ------------   ------------------------------
 STRT.F           20.0000:   START DEPTH
 STOP.F          505.0000:   STOP DEPTH
 STEP.F            0.5000:   STEP LENGTH
 NULL.          -999.2500:   NO VALUE
 COMP.    FENIX & SCISSON:   COMPANY
 WELL.   NPR #3 #56-SX-10:   WELL
 FLD .             TEAPOT:   FIELD
 LOC .      S10 T38N R78W:   LOCATION
 CNTY.            NATRONA:   COUNTY
 STAT.            WYOMING:   STATE
 CTRY. UNITED STATES OF AMERICA:   COUNTRY
 SRVC.              Welex:   SERVICE COMPANY
 DATE.        01-MAY-1980:   LOGDATE
 API .       490251081300:   API NUMBER
~CURVE INFORMATION
#MNEM.UNIT       API CODE    CURVE DESCRIPTION
#----------   ------------   ------------------------------
 DEPT.F                  :   
 ILD .OHMM   07 120 46 00:   INDUCTION LOG DEEP
 ILM .OHMM   07 120 44 00:   INDUCTION LOG MEDIUM
 SGRD.OHMM   07 220 05 00:   SHALLOW GUARD RESISTIVITY
 SPR .MV     07 010 01 00:   SPONATANEOUS POTENTIAL FROM RES.
 CALD.IN     45 280 60 00:   CALIPER FROM DENSITY LOG
 DPHI.DEC    45 890 12 00:   DENSITY POROSITY SANDSTONE
 DRHO.G/C3   45 356 01 00:   DENSITY CORRECTION
 GRD .GAPI   45 310 01 00:   GAMMA RAY FROM DENSITY LOG
 RHOB.G/C3   45 350 01 00:   BULK DENSITY
~PARAMETER INFORMATION
#MNEM.UNIT          VALUE    DESCRIPTION
#----------   ------------   ------------------------------
 PD  .                 GL:   PERMANENT DATUM
 EPD .F              5180:   ELEVATION PERMANENT DATUM
 LMF .                 KB:   LOG MEASURED FROM
 DAPD.F                 4:   FEET ABOVE PERMANENT DATUM
 DMF .                 KB:   DRILLING MEASURED FROM
 EKB .F              5184:   KELLING BUSHING
 EGL .F              5180:   GROUND LEVEL
 DATE.        01-MAY-1980:   RUN DATE
 RUN .                  1:   RUN NUMBER
 DD  .F               489:   DEPTH DRILLER
 DL  .F               506:   DEPTH LOGGER
 BLI .F               504:   BOTTOM LOG INTERVAL
 TLI .F                30:   TOP LOG INTERVAL
 BS  .IN            7.875:   BIT SIZE
 BSD .F               489:   BIT SIZE AT DEPTH
 DFT .    WATER BASED MUD:   DRILLING FLUID TYPE
 DFD .                9.9:   DRILLING FLUID DENSITY
 DFV .                 46:   DRILLING FLUID VISCOSITY
 MSS .                PIT:   MUD SAMPLE SOURCE
 RMS .OHMM           0.99:   RESISTIVITY MUD SAMPLE
 MST .F                75:   MUD SAMPLE TEMPERATURE
 RMF .OHMM           0.78:   RESISTIVITY MUD FILTRATE SAMPLE
 MFST.F                75:   MUD FILTRATE SAMPLE TEMPERATURE
 RMC .OHMM           1.18:   RESISTIVITY MUD CAKE
 MCST.F                75:   MUD CAKE SAMPLE TEMPERATURE
 MFSS.               MEAS:   MUD FILTRATE SAMPLE SOURCE
 MCSS.               MEAS:   MUD CAKE SAMPLE SOURCE
 BHT .F               100:   BOTTOM HOLE TEMPERATURE
 TCS .HRS               1:   TIME CURCULATED STOPPED
 MRT .F               100:   MAXIMUM RECORDED TEMPERATURE
 LUN .               9685:   LOGGING UNIT NUMBER
 LUL .             CASPER:   LOGGING UNIT LOCATION
 ENGI.            TOTHILL:   RECORDING ENGINEER
 WITN.           DINSMORE:   WITNESSED BY
 CLNT.            A2DTECH:   CLIENT CODE
 ORIG.           5" PRINT:   ORIGIN OF DATA
 UWI .       490251081300:   UNIQUE WELL ID
 DICO. A2D Technologies, Inc.:   DIGITIZING COMPANY
~OTHER INFORMATION
~A   DEPT       ILD        ILM      SGRD        SPR       CALD       DPHI       DRHO        GRD       RHOB   
# ...
  202.5000     1.9108     3.2973     3.0136   -19.5587     8.1768     0.2283     0.0699   104.6835     2.2645
  203.0000     1.8849     3.2520     3.2520   -19.5544     8.1630     0.2232     0.0760   103.9955     2.2736
  203.5000     1.9382     3.9473     3.7867   -19.7001     8.1192     0.2220     0.0790   102.9162     2.2774
  204.0000     2.0068     4.7582     4.7253   -20.1654     8.0156     0.1978     0.0791   103.3857     2.3082
  204.5000     2.1810     5.5790     5.6178   -20.8856     7.9719     0.1804     0.0761   104.9848     2.3338
  205.0000     2.4369     5.5790     5.4644   -21.1803     8.0629     0.1660     0.0597   106.1320     2.3571
  205.5000     2.8039     5.9788     6.1679   -21.3265     8.0790     0.1492     0.0252   108.6347     2.3797
  206.0000     3.2829     6.8189     7.2434   -21.4705     7.9876     0.1267     0.0298   111.8151     2.4248
  206.5000     3.5678     7.5125     7.9953   -21.4662     7.8845     0.1126     0.0418   114.7696     2.4601
  207.0000     3.8775     7.9401     7.9953   -21.3114     7.8883     0.1096     0.0389   116.5945     2.4640
  207.5000     4.2434     7.7770     7.7234   -21.1584     7.9343     0.1207     0.0284   117.5159     2.4520
  208.0000     4.4858     7.4607     7.4093   -21.0045     7.9505     0.1288     0.0135   117.7595     2.4385
  208.5000     4.6769     7.2570     7.3074   -20.8499     7.9517     0.1273     0.0060   117.5512     2.4265
  209.0000     4.7430     7.3074     7.3582   -20.8456     7.9079     0.1201     0.0272   116.6655     2.4405
  209.5000     4.7440     7.5647     7.7770   -20.8413     7.9091     0.1242     0.0286   116.2314     2.4454
  210.0000     4.5838     7.9401     8.1067   -20.9865     7.8953     0.1290     0.0181   116.7054     2.4267
  210.5000     4.4903     7.7770     8.1630   -20.9821     7.8366     0.1335     0.0077   117.8526     2.4200
  211.0000     4.3387     7.3004     7.2247   -20.9776     7.8827     0.1371     0.0047   118.9999     2.4126
  211.5000     4.1920     6.3854     6.3630   -20.9723     7.9288     0.1380     0.0123   119.6953     2.4149
  212.0000     4.0503     5.3893     6.0203   -20.9686     7.9000     0.1409     0.0108   119.9345     2.4119
  212.5000     3.9678     5.6568     5.8966   -20.9637     7.8563     0.1419     0.0079   119.5004     2.4075
  213.0000     3.9141     6.1893     6.0203   -20.9596     7.9773     0.1392     0.0169   118.6190     2.4098
  213.5000     3.8611     6.4964     6.2322   -20.9552     8.0539     0.1329     0.0245   118.1849     2.4181
  214.0000     3.8352     6.7251     6.5415   -20.9507     8.0694     0.1263     0.0292   117.5249     2.4317
  214.5000     3.8095     6.8662     6.9139   -20.9462     8.0407     0.1230     0.0305   116.8649     2.4407
  215.0000     3.8105     7.0135     7.2070   -20.9409     8.0721     0.1265     0.0216   115.9791     2.4370
  215.5000     3.8377     7.2944     7.3582   -20.9366     8.1182     0.1187     0.0156   114.8577     2.4378
  216.0000     3.8920     7.5647     7.3657   -21.0822     8.1643     0.1139     0.0232   114.2073     2.4529
  216.5000     4.1144     7.7770     7.6172   -21.0774     8.1056     0.1143     0.0232   115.5849     2.4529
  217.0000     4.3194     8.0508     8.1630   -21.1385     8.0466     0.1145     0.0188   116.9580     2.4537
  217.5000     4.5411     8.3921     8.5090   -21.2689     8.0480     0.1166     0.0218   117.4276     2.4500
  218.0000     4.8273     8.6276     8.6875   -21.3634     8.0492     0.1178     0.0249   116.7676     2.4486
  218.5000     4.9983     8.9314     8.9314   -21.2085     8.0504     0.1142     0.0295   115.4299     2.4547
  219.0000     5.1753     9.1833     9.0558   -21.0547     8.0516     0.1175     0.0309   114.0922     2.4554
  219.5000     5.3586     9.4397     9.3100   -21.0504     8.0375     0.1202     0.0295   112.3027     2.4495
  220.0000     5.5868     9.4397     9.5053   -21.1955     8.0240     0.1160     0.0370   110.7391     2.4473
  220.5000     5.7448     9.1820     9.5032   -21.3408     8.0252     0.1193     0.0386   109.8488     2.4496
  221.0000     5.7460     9.0558     9.4313   -21.3363     8.0413     0.1204     0.0416   110.5487     2.4497
  221.5000     5.6681     8.8698     9.1820   -21.3318     8.0126     0.1191     0.0432   112.8255     2.4512
  222.0000     5.6302     8.7479     8.9314   -21.3266     7.9988     0.1174     0.0492   114.4247     2.4565
  222.5000     5.5925     8.6276     8.6875   -21.4723     7.9346     0.1261     0.0495   114.6950     2.4378
  223.0000     5.4789     8.4504     8.5681   -21.4674     7.7918     0.1291     0.0433   115.1421     2.4318
  223.5000     5.4420     8.3267     8.4504   -21.4634     7.8230     0.1309     0.0448   115.1599     2.4281
  224.0000     5.3312     8.1067     8.2197   -21.4589     7.9738     0.1417     0.0353   115.4035     2.4211
  224.5000     5.1870     7.9401     8.1630   -21.4544     7.9600     0.1476     0.0105   116.0989     2.4017
  225.0000     5.0116     7.7770     7.9953   -21.5579     8.0061     0.1524     0.0000   117.2462     2.3929
  225.5000     4.8046     7.5647     7.7762   -21.5949     8.0822     0.1479     0.0120   118.3934     2.3961
  226.0000     4.6144     7.3582     7.6172   -21.6243     8.0681     0.1380     0.0196   119.9925     2.4089
  226.5000     4.3971     6.9619     7.5125   -21.7357     8.2043     0.1340     0.0271   121.8175     2.4142
  227.0000     4.2484     6.5870     7.3074   -21.7307     8.1755     0.1263     0.0437   122.2870     2.4233
  227.5000     4.1332     6.2272     6.8662   -21.7265     8.1767     0.1224     0.0572   122.5306     2.4398
  228.0000     3.9659     5.8966     6.5415   -21.7220     8.1929     0.1233     0.0557   122.3225     2.4474
  228.5000     3.9667     5.8156     6.1893   -21.7175     8.0892     0.1257     0.0527   122.1143     2.4392
  229.0000     3.9955     6.1042     6.0621   -21.7123     8.0754     0.1296     0.0419   121.9061     2.4355
  229.5000     4.0276     7.0589     7.0102   -21.5585     8.0617     0.1251     0.0364   121.9283     2.4280
  230.0000     4.1663     7.8854     7.9401   -21.5546     8.0459     0.1227     0.0409   121.4942     2.4423
  230.5000     4.3740     8.3342     8.5090   -21.5498     7.9445     0.1164     0.0350   121.0601     2.4477
  231.0000     4.5289     8.6875     8.9373   -21.5455     7.8709     0.1082     0.0440   120.4002     2.4597
  231.5000     4.7218     8.9314     9.0558   -21.5411     7.8122     0.0969     0.0546   119.9661     2.4785
  232.0000     4.8890     8.8698     8.9314   -21.5357     7.8732     0.0987     0.0591   119.3017     2.4868
  232.5000     5.0622     8.6875     8.8086   -21.3819     7.9642     0.0936     0.0576   119.0935     2.4823
  233.0000     5.2073     8.6875     8.8698   -21.3776     7.9804     0.0975     0.0607   119.3416     2.4881
  233.5000     5.3954     8.8698     9.0558   -21.3733     8.0115     0.1139     0.0500   119.5852     2.4908
  234.0000     5.5041     8.9314     9.3100   -21.3692     8.0726     0.1262     0.0259   119.6029     2.4638
  234.5000     5.6207     9.0558     9.4397   -21.3646     8.1935     0.1307     0.0084   119.6207     2.4301
  235.0000     5.6608     9.1187     9.4397   -21.3602     8.2097     0.1379    -0.0081   119.4125     2.4249
  235.5000     5.6620     9.1820     9.4397   -21.3549     8.2108     0.1400    -0.0156   119.2043     2.4129
  236.0000     5.6631     9.1820     9.4397   -21.5011     8.2270     0.1320     0.0025   118.5488     2.4190
  236.5000     5.6643     9.1820     9.4397   -21.6462     8.2731     0.1256     0.0205   117.4370     2.4318
  237.0000     5.6654     9.1820     9.3100   -21.6408     8.3042     0.1285     0.0236   116.0993     2.4401
  237.5000     5.6666     9.1820     9.1820   -21.7860     8.2705     0.1201     0.0221   115.6608     2.4289
  238.0000     5.6680     9.1820     9.1820   -21.7818     8.0776     0.1150     0.0416   115.4526     2.4462
  238.5000     5.6297     9.1820     9.1187   -21.7773     8.0233     0.1234     0.0507   115.7007     2.4552
