~VERSION INFORMATION
 VERS.                2.0:   CWLS LOG ASCII STANDARD - VERSION 2.0
 WRAP.                 NO:   ONE LINE PER DEPTH STEP
~WELL INFORMATION
#MNEM.UNIT      DATA TYPE    INFORMATION
#----------   ------------   ------------------------------
 STRT.F           25.0000:   START DEPTH
 STOP.F          528.0000:   STOP DEPTH
 STEP.F            0.5000:   STEP LENGTH
 NULL.          -999.2500:   NO VALUE
 COMP. FENIX & SCISSON INC:   COMPANY
 WELL.       NPR #3 #11-3:   WELL
 FLD .             NPR #3:   FIELD
 LOC .       S3 T38N R78W:   LOCATION
 CNTY.            NATRONA:   COUNTY
 STAT.            WYOMING:   STATE
 CTRY. UNITED STATES OF AMERICA:   COUNTRY
 SRVC.       Schlumberger:   SERVICE COMPANY
 DATE.        01-MAR-1977:   LOGDATE
 API .       490251028300:   API NUMBER
~CURVE INFORMATION
#MNEM.UNIT       API CODE    CURVE DESCRIPTION
#----------   ------------   ------------------------------
 DEPT.F                  :   
 SPR .MV     07 010 01 00:   SPONTANEOUS POTENTIAL
 LL8 .OHMM   07 220 08 00:   LATEROLOG-8 RES.
 ILM .OHMM   07 120 44 00:   INDUCTION LOG MEDIUM
 ILD .OHMM   07 120 46 00:   INDUCTION LOG DEEP
 GRD .GAPI   45 310 01 00:   GAMMA RAY FROM DENSITY LOG
 CALD.IN     45 280 60 00:   CALIPER
 RHOB.G/C3   45 350 01 00:   BULK DENSITY
 CORR.G/C3   45 356 01 00:   DENSITY CORRECTION
 DPHI.DEC    45 890 12 00:   DENSITY POROSITY SANDSTONE
~PARAMETER INFORMATION
#MNEM.UNIT          VALUE    DESCRIPTION
#----------   ------------   ------------------------------
 PD  .                 GL:   PERMANENT DATUM
 EPD .F              5178:   ELEVATION PERMANENT DATUM
 LMF .                 GL:   LOG MEASURED FROM
 DMF .                 GL:   DRILLING MEASURED FROM
 EKB .F              5183:   KELLING BUSHING
 EGL .F              5178:   GROUND LEVEL
 DATE.           3-1-1977:   RUN DATE
 RUN .                  1:   RUN NUMBER
 DD  .F               535:   DEPTH DRILLER
 DL  .F               526:   DEPTH LOGGER
 BLI .F               520:   BOTTOM LOG INTERVAL
 TLI .F                30:   TOP LOG INTERVAL
 CS  .IN            8.625:   CASING SIZE
 CBD .F                40:   CASING BOTTOM DRILLER
 CBL .F                30:   CASING BOTTOM LOGGER
 BS  .IN            7.875:   BIT SIZE
 BSD .F               535:   BIT SIZE AT DEPTH
 DFT .                KCL:   DRILLING FLUID TYPE
 DFD .                8.7:   DRILLING FLUID DENSITY
 DFV .                 37:   DRILLING FLUID VISCOSITY
 DFPH.                  8:   DRILLING FLUID PH
 DFL .                7.2:   DRILLING FLUID LOSS
 MSS .                PIT:   MUD SAMPLE SOURCE
 RMS .OHMM           .495:   RESISTIVITY MUD SAMPLE
 MST .F                62:   MUD SAMPLE TEMPERATURE
 RMF .OHMM           .406:   RESISTIVITY MUD FILTRATE SAMPLE
 MFST.F                65:   MUD FILTRATE SAMPLE TEMPERATURE
 MFSS.                  M:   MUD FILTRATE SAMPLE SOURCE
 RMB .OHMM           .438:   RESISTIVITY MUD AT BHT
 BHT .F                70:   BOTTOM HOLE TEMPERATURE
 TCS .HRS            0800:   TIME CURCULATED STOPPED
 TLAB.HRS            1130:   TIME LOGGER AT BOTTOM
 MRT .F                70:   MAXIMUM RECORDED TEMPERATURE
 LUN .               5642:   LOGGING UNIT NUMBER
 LUL .               CSPR:   LOGGING UNIT LOCATION
 ENGI.             MARTIN:   RECORDING ENGINEER
 CLNT.            A2DTECH:   CLIENT CODE
 ORIG.       2", 5" PRINT:   ORIGIN OF DATA
 UWI .       490251028300:   UNIQUE WELL ID
 DICO. A2D Technologies, Inc.:   DIGITIZING COMPANY
~OTHER INFORMATION
~A   DEPT      SPR        LL8        ILM        ILD         GRD      CALD       RHOB       CORR       DPHI   
# ...
   98.0000   -59.7169     8.3466     8.2703     7.8460   111.4199     8.1003     2.4708     0.0161     0.1162
   98.5000   -61.5417     8.4990     8.3403     7.9154   111.0375     8.1004     2.4777     0.0211     0.1147
   99.0000   -59.3022     8.7950     8.4227     7.9858   113.3370     8.1006     2.4780     0.0172     0.1170
   99.5000   -54.3019     9.1014     8.5823     8.0569   115.5407     8.1007     2.4649     0.0194     0.1210
  100.0000   -56.7165     9.4185     8.8123     8.1291   116.8472     8.1009     2.4531     0.0280     0.1243
  100.5000   -61.5652     9.7466     9.0470     8.1950   115.6892     8.1011     2.4659     0.0344     0.1205
  101.0000   -59.9941    10.0861     9.2879     8.4802   114.4055     8.1012     2.4751     0.0319     0.1176
  101.5000   -57.6516    10.4207     9.6776     8.8228   112.4194     8.1014     2.4644     0.0219     0.1173
  102.0000   -55.2805    10.3673     9.6357     8.7841   110.4556     8.1015     2.4492     0.0122     0.1233
  102.5000   -52.9064    10.3165     9.5442     8.6959   108.5713     8.1017     2.4394     0.0030     0.1303
  103.0000   -50.5267    10.2660     9.4533     8.6086   107.9829     8.1018     2.4534     0.0072     0.1238
  103.5000   -48.1886    10.2158     9.3627     8.5222   108.3591     8.1020     2.4649     0.0126     0.1202
  104.0000   -48.4508    10.1657     9.2729     8.4367   106.2645     8.1021     2.4669     0.0173     0.1217
  104.5000   -49.0935    10.1160     9.1840     8.3466   103.5909     8.1023     2.4605     0.0147     0.1216
  105.0000   -49.9784    10.0664     9.0710     8.4217   102.4462     8.1024     2.4578     0.0109     0.1206
  105.5000   -51.6193    10.0344     9.1005     8.5026   103.8588     8.1026     2.4563     0.0072     0.1223
  106.0000   -53.2030    10.0190     9.1419     8.5843   105.4603     8.1027     2.4469     0.0035     0.1240
  106.5000   -53.4636    10.0036     9.1835     8.6667   107.1167     8.1029     2.4439     0.0010     0.1254
  107.0000   -53.0367     9.9882     9.2253     8.7501   107.3896     8.1031     2.4493     0.0018     0.1248
  107.5000   -55.6889     9.9728     9.2673     8.8344   107.0904     8.1032     2.4546     0.0047     0.1242
  108.0000   -56.7652     9.9575     9.3095     8.9196   105.0964     8.1034     2.4597     0.0058     0.1232
  108.5000   -52.3327     9.9422     9.3518     8.9870   103.5611     8.1035     2.4507     0.0019     0.1260
  109.0000   -51.3842     9.9269     9.3944     8.9313   103.0605     8.1037     2.4424    -0.0071     0.1315
  109.5000   -54.3437     9.9116     9.4372     8.8847   104.1046     8.1038     2.4492    -0.0028     0.1285
  110.0000   -56.1362     9.8964     9.4801     8.8382   106.8024     8.1040     2.4559     0.0019     0.1218
  110.5000   -54.7985     9.8811     9.5232     8.7921   109.3231     8.1041     2.4575     0.0024     0.1225
  111.0000   -59.0614     9.8659     9.5666     8.7416   108.1812     8.1043     2.4508     0.0064     0.1230
  111.5000   -64.5265     9.8508     9.5885     8.7579   106.7183     8.1045     2.4693     0.0135     0.1181
  112.0000   -62.6121     9.8356     9.5310     8.7760   105.2597     8.1046     2.4973     0.0171     0.1124
  112.5000   -56.1162     9.8205     9.4783     8.7941   103.7950     8.1048     2.4812     0.0104     0.1117
  113.0000   -49.1034     9.8054     9.4260     8.8224   104.6339     8.1049     2.4796     0.0037     0.1125
  113.5000   -50.0657     9.7903     9.3740     8.8153   105.8006     8.1051     2.4793     0.0005     0.1134
  114.0000   -51.6333     9.7753     9.3222     8.7983   105.3715     8.1052     2.4695     0.0071     0.1182
  114.5000   -52.2729     9.7602     9.2707     8.7808   104.6926     8.1054     2.4633     0.0134     0.1164
  115.0000   -51.0747     9.7452     9.2195     8.7634   104.0000     8.1055     2.4804     0.0185     0.1164
  115.5000   -57.8672     9.7302     9.1686     8.7462   103.2516     8.1057     2.4689     0.0109     0.1212
  116.0000   -58.4704     9.7152     9.1180     8.6906   104.9497     8.1058     2.4570     0.0031     0.1235
  116.5000   -59.9851     9.7002     9.0676     8.5959   107.1391     8.1060     2.4652     0.0045     0.1187
  117.0000   -62.8590     9.6852     9.0176     8.5022   105.4035     8.1061     2.4754     0.0114     0.1148
  117.5000   -60.9407     9.6291     8.9678     8.4095   103.1460     8.1063     2.4848     0.0175     0.1130
  118.0000   -57.6777     9.5288     8.9183     8.3178   101.7731     8.1065     2.4706     0.0071     0.1145
  118.5000   -56.9274     9.4294     8.8690     8.1937   102.5474     8.1066     2.4663     0.0112     0.1161
  119.0000   -54.0745     9.3310     8.8201     8.2305   103.1331     8.1068     2.4725     0.0148     0.1174
  119.5000   -49.9746     9.2338     8.7468     8.3182   102.2137     8.1069     2.4643     0.0071     0.1199
  120.0000   -48.6598     9.1540     8.8185     8.4068   101.4894     8.1071     2.4561    -0.0031     0.1233
  120.5000   -49.7331     9.4974     9.0211     8.4963   103.4296     8.1072     2.4510    -0.0118     0.1255
  121.0000   -49.3177     9.8606     9.2280     8.5868   104.5793     8.1074     2.4657     0.0026     0.1167
  121.5000   -51.1443    10.2386     9.4403     8.6783   102.4588     8.1075     2.4711     0.0125     0.1173
  122.0000   -49.9476    10.5143     9.6776     8.7416   100.3604     8.1077     2.4670     0.0058     0.1178
  122.5000   -50.6692    10.0931     9.4805     8.4242   100.6489     8.1079     2.4780     0.0082     0.1147
  123.0000   -51.5026     9.6797     9.2677     8.6005   105.6240     8.1080     2.4886     0.0185     0.1130
  123.5000   -51.1796     9.7733     9.0710     8.7416   104.4231     8.1082     2.4815     0.0144     0.1146
  124.0000   -51.1515     9.9246     9.0359     8.6652   101.1210     8.1083     2.4703     0.0064     0.1162
  124.5000   -52.2074    10.1385     9.0027     8.5762   102.2532     8.1085     2.4742     0.0069     0.1145
  125.0000   -50.7436    10.0452     8.9696     8.4882   104.5695     8.1086     2.4818     0.0113     0.1127
  125.5000   -48.6574     9.8411     8.9366     8.4010   105.8541     8.1088     2.4895     0.0142     0.1110
  126.0000   -50.4038     9.6402     8.9038     8.3370   106.3138     8.1089     2.4972     0.0111     0.1093
  126.5000   -53.2648     9.4452     8.8711     8.3109   107.8005     8.1091     2.4985     0.0062     0.1091
  127.0000   -53.4554     9.2403     8.8385     8.2849   109.2148     8.1092     2.4888     0.0013     0.1115
  127.5000   -53.4440     8.9305     8.7416     8.2590   109.9459     8.1094     2.4863    -0.0037     0.1112
  128.0000   -52.1180     9.1633     8.7625     8.2332   107.8184     8.1096     2.4993    -0.0084     0.1036
  128.5000   -49.2639     9.4021     8.7785     8.2074   105.8282     8.1097     2.5236    -0.0054     0.0807
  129.0000   -46.5383     9.6471     8.7944     8.1937   106.6032     8.1099     2.5435     0.0153     0.0561
  129.5000   -44.8689     9.8986     8.8104     8.4032   108.9024     8.1100     2.5224     0.0282     0.0735
  130.0000   -49.1052    10.1566     8.8228     8.5313   111.1673     8.1102     2.5016     0.0184     0.1074
  130.5000   -54.4691    10.4207     8.9775     8.6614   112.2571     8.1103     2.4813     0.0092     0.1146
  131.0000   -54.0569    10.1286     9.1316     8.7935   110.4716     8.1105     2.4692     0.0070     0.1164
  131.5000   -50.8584     9.8583     9.2884     8.9048   108.9565     8.1106     2.4840     0.0121     0.1154
  132.0000   -47.5834    10.0343     9.4479     8.9327   108.6846     8.1108     2.4957     0.0162     0.1086
  132.5000   -47.9607    10.1873     9.5885     8.9618   108.3911     8.1109     2.4994     0.0110     0.1084
  133.0000   -50.2792    10.4207     9.5885     8.9909   106.6069     8.1111     2.4906     0.0079     0.1080
  133.5000   -51.7256    10.4067     9.5250     9.0201   104.5917     8.1112     2.5082     0.0170     0.0994
  134.0000   -51.8407    10.3790     9.4771     9.0494   102.7672     8.1114     2.5264     0.0114     0.0685
