~VERSION INFORMATION
 VERS.                2.0:   CWLS LOG ASCII STANDARD - VERSION 2.0
 WRAP.                 NO:   ONE LINE PER DEPTH STEP
~WELL INFORMATION
#MNEM.UNIT      DATA TYPE    INFORMATION
#----------   ------------   ------------------------------
 STRT.F           32.0000:   START DEPTH
 STOP.F          662.0000:   STOP DEPTH
 STEP.F            0.5000:   STEP LENGTH
 NULL.          -999.2500:   NO VALUE
 COMP.    FENIX & SCISSON:   COMPANY
 WELL.   NPR 67SX34 #3-34:   WELL
 FLD .             TEAPOT:   FIELD
 LOC .      S34 T39N R78W:   LOCATION
 CNTY.            NATRONA:   COUNTY
 STAT.            WYOMING:   STATE
 CTRY. UNITED STATES OF AMERICA:   COUNTRY
 SRVC.            Unknown:   SERVICE COMPANY
 DATE.        03-SEP-1978:   LOGDATE
 API .       490251070500:   API NUMBER
~CURVE INFORMATION
#MNEM.UNIT       API CODE    CURVE DESCRIPTION
#----------   ------------   ------------------------------
 DEPT.F                  :   
 ILD .OHMM   05 120 46 00:   INDUCTION LOG DEEP
 SN  .OHMM   05 040 00 00:   SHORT NORMAL
 SPR .MV     05 010 01 00:   SPONTANEOUS POTENTIAL FROM RES.
 CALD.IN     45 280 60 00:   CALIPER FROM DENSITY LOG
 DEN .G/C3   45 350 01 00:   COMPENSATED BULK DENSTIY
 DPHI.DEC    45 890 12 00:   DENSITY POROSITY SANDSTONE
 DRHO.G/C3   45 356 01 00:   DENSITY CORRECTION
 GRD .GAPI   45 310 01 00:   GAMMA RAY FROM DENSITY LOG
~PARAMETER INFORMATION
#MNEM.UNIT          VALUE    DESCRIPTION
#----------   ------------   ------------------------------
 PD  .                 GL:   PERMANENT DATUM
 EPD .F              5076:   ELEVATION PERMANENT DATUM
 LMF .                 KB:   LOG MEASURED FROM
 DAPD.F                 4:   FEET ABOVE PERMANENT DATUM
 DMF .                 KB:   DRILLING MEASURED FROM
 EKB .F              5080:   KELLING BUSHING
 EGL .F              5076:   GROUND LEVEL
 DATE.        03-SEP-1978:   RUN DATE
 RUN .                  1:   RUN NUMBER
 DD  .F               660:   DEPTH DRILLER
 DL  .F               662:   DEPTH LOGGER
 BLI .F               662:   BOTTOM LOG INTERVAL
 TLI .F                40:   TOP LOG INTERVAL
 CS  .IN            8.625:   CASING SIZE
 CBD .F                40:   CASING BOTTOM DRILLER
 BS  .IN            7.875:   BIT SIZE
 BSD .F               660:   BIT SIZE AT DEPTH
 DFT .                KCL:   DRILLING FLUID TYPE
 DFD .                9.0:   DRILLING FLUID DENSITY
 DFV .                 34:   DRILLING FLUID VISCOSITY
 MSS .           FLOWLINE:   MUD SAMPLE SOURCE
 RMS .OHMM            1.4:   RESISTIVITY MUD SAMPLE
 MST .F                65:   MUD SAMPLE TEMPERATURE
 RMF .OHMM            3.2:   RESISTIVITY MUD FILTRATE SAMPLE
 MFST.F                77:   MUD FILTRATE SAMPLE TEMPERATURE
 RMC .OHMM            2.1:   RESISTIVITY MUD CAKE
 MCST.F                78:   MUD CAKE SAMPLE TEMPERATURE
 MFSS.               MEAS:   MUD FILTRATE SAMPLE SOURCE
 TCS .HRS               1:   TIME CURCULATED STOPPED
 LUN .               3006:   LOGGING UNIT NUMBER
 LUL .               CASP:   LOGGING UNIT LOCATION
 ENGI.             MILLER:   RECORDING ENGINEER
 WITN.           MCGINLEY:   WITNESSED BY
 CLNT.            A2DTECH:   CLIENT CODE
 ORIG.        2" 5" PRINT:   ORIGIN OF DATA
 UWI .       490251070500:   UNIQUE WELL ID
 DICO. A2D Technologies, Inc.:   DIGITIZING COMPANY
~OTHER INFORMATION
~A   DEPT      ILD         SN        SPR       CALD        DEN       DPHI       DRHO         GRD  
# ...
  234.5000     8.5663     8.4432   -16.0789     7.6130     2.5255     0.1035     0.0676    91.3398
  235.0000     8.4500     8.3856   -15.9242     7.6134     2.5278     0.1095     0.0571    90.5961
  235.5000     8.3929     8.3284   -15.7696     7.6140     2.5212     0.1176     0.0450    89.2166
  236.0000     8.3943     8.3291   -15.4645     7.6144     2.5008     0.1290     0.0190    89.5562
  236.5000     8.3954     8.3296   -15.2967     7.6148     2.4790     0.1416     0.0060    90.8989
  237.0000     8.3965     8.2728   -15.0038     7.6002     2.4722     0.1461     0.0075    92.8377
  237.5000     8.3397     8.2734   -14.9995     7.6008     2.4700     0.1419     0.0120    94.3295
  238.0000     8.3411     8.2740   -15.1466     7.5863     2.4625     0.1326     0.0165    92.5425
  238.5000     8.3422     8.2175   -15.1413     7.6016     2.4715     0.1269     0.0210    90.6066
  239.0000     8.2287     8.2182   -15.1368     7.6021     2.4783     0.1248     0.0240    88.3329
  239.5000     8.1730     8.2757   -15.1316     7.6026     2.4857     0.1185     0.0330    85.9899
  240.0000     8.1141     8.3402   -14.9769     7.6030     2.4925     0.1002     0.0480    85.8419
  240.5000     8.0629     8.4503   -15.1241     7.6184     2.5120     0.0791     0.0726    85.9927
  241.0000     8.1202     8.5094   -14.9684     7.6338     2.5405     0.0965     0.0841    85.6961
  241.5000     8.1776     8.5690   -14.9639     7.6193     2.5616     0.1092     0.0721    83.9092
  242.0000     8.1787     8.5695   -14.9587     7.6197     2.5188     0.1122     0.0556    84.3577
  242.5000     8.1234     8.6297   -14.9544     7.6201     2.5135     0.1107     0.0571    86.8927
  243.0000     8.1811     8.6901   -14.9501     7.6207     2.5135     0.1200     0.0586    90.0437
  243.5000     8.1822     8.6906   -14.9429     7.5614     2.5105     0.1266     0.0541    89.2804
  244.0000     8.1832     8.6912   -14.9405     7.5320     2.4865     0.1314     0.0435    85.2580
  244.5000     8.2411     8.6976   -14.9362     7.4875     2.4857     0.1287     0.0360    85.5575
  245.0000     8.2425     8.7528   -14.9319     7.4432     2.4865     0.1296     0.0268    87.4964
  245.5000     8.3007     8.8140   -14.9278     7.4139     2.4835     0.1410     0.0150    91.3723
  246.0000     8.3018     8.8146   -14.9233     7.3696     2.4722     0.1356     0.0075    89.5857
  246.5000     8.2454     8.8152   -14.9180     7.3388     2.4738     0.1389     0.0060    89.8852
  247.0000     8.2468     8.8158   -14.9137     7.2810     2.4722     0.1482     0.0045    90.3341
  247.5000     8.1910     8.8165   -14.9094     7.2516     2.4610     0.1491     0.0045    90.0375
  248.0000     8.3065     8.8171   -14.7547     7.2520     2.4542     0.1461     0.0090    86.6112
  248.5000     8.3075     8.8177   -14.6000     7.2374     2.4580     0.1491     0.0165    86.1652
  249.0000     8.3663     8.8182   -14.5947     7.2379     2.4610     0.1607     0.0134    86.7631
  249.5000     8.3674     8.8188   -14.5904     7.2533     2.4550     0.1674     0.0075    87.3607
  250.0000     8.2536     8.8401   -14.1350     7.2239     2.4317     0.1632     0.0090    86.7668
  250.5000     8.4260     8.9432   -14.2812     7.2391     2.4362     0.1657     0.0045    86.3229
  251.0000     8.4840     8.8216   -14.2758     7.2544     2.4354     0.1742     0.0015    86.0293
  251.5000     8.6015     8.8231   -14.5723     7.2845     2.4272     0.1773     0.0015    85.8846
  252.0000     8.6606     8.8245   -14.5681     7.3147     2.4144     0.1722     0.0045    85.7400
  252.5000     8.7201     8.8257   -14.5639     7.3746     2.4184     0.1650     0.0075    85.5964
  253.0000     8.8408     8.8880   -14.2578     7.4346     2.4271     0.1536     0.0135    85.1526
  253.5000     8.9017     8.8279   -13.8025     7.4797     2.4331     0.1446     0.0210    84.7110
  254.0000     8.9010     8.8906   -13.4975     7.4949     2.4586     0.1383     0.0345    84.4173
  254.5000     9.0868     8.9534   -13.1915     7.4952     2.4661     0.1299     0.0420    84.2727
  255.0000     9.1494     8.9546   -12.7361     7.4955     2.4706     0.1251     0.0526    84.1280
  255.5000     9.2123     9.0842   -12.7318     7.4959     2.4842     0.1173     0.0650    84.1335
  256.0000     9.4046     9.2082   -12.7276     7.4962     2.4992     0.1152     0.0691    80.4121
  256.5000     9.5350     9.2732   -12.7233     7.4815     2.5029     0.1173     0.0676    80.1173
  257.0000     9.6671     9.4687   -12.5677     7.4968     2.5021     0.1119     0.0691    82.8054
  257.5000     9.8011     9.6017   -12.2627     7.4970     2.5045     0.1074     0.0706    85.9394
  258.0000    10.0057     9.7369   -12.1081     7.4973     2.5115     0.1044     0.0781    90.5638
  258.5000    10.0745     9.8737   -11.9403     7.5126     2.5224     0.1010     0.0871    90.5681
  259.0000    10.2141    10.0124   -11.6474     7.5129     2.5284     0.0993     0.0961    89.6783
  259.5000    10.2843    10.0934   -11.7946     7.5281     2.5291     0.0978     0.1051    86.7021
  260.0000    10.3549    10.2251   -11.9398     7.5433     2.5314     0.0948     0.1126    83.4278
  260.5000    10.4260    10.2972   -12.5370     7.5585     2.5351     0.0915     0.1186    81.1947
  261.0000    10.4975    10.2986   -12.9839     7.5588     2.5434     0.0876     0.1276    80.7540
  261.5000    10.4968    10.3717   -13.2804     7.5591     2.5509     0.0846     0.1321    80.4603
  262.0000    10.4961    10.3731   -13.7262     7.5595     2.5524     0.0840     0.1306    79.2736
  262.5000    10.4953    10.3744   -13.8724     7.5622     2.5531     0.0882     0.1246    76.4463
  263.0000    10.4946    10.3758   -14.0185     7.5749     2.5546     0.0936     0.1201    78.0901
  263.5000    10.4939    10.3774   -14.0132     7.5753     2.5426     0.0951     0.1141    80.7770
  264.0000    10.4932    10.3070   -14.1594     7.5905     2.5403     0.0942     0.1111    81.5255
  264.5000    10.4924    10.3087   -14.3044     7.6057     2.5418     0.0962     0.1066    78.5503
  265.0000    10.4917    10.3100   -14.3358     7.6060     2.5381     0.1008     0.1006    77.2123
  265.5000    10.3469    10.3117   -14.4474     7.6063     2.5275     0.1077     0.0916    79.4533
  266.0000    10.2750    10.3130   -14.5925     7.6066     2.5185     0.1140     0.0856    81.6931
  266.5000    10.2033    10.2430   -14.5872     7.6069     2.5125     0.1186     0.0796    79.9091
  267.0000    10.2027    10.1741   -14.4326     7.5922     2.5050     0.1183     0.0766    79.0114
  267.5000    10.1317    10.0358   -14.4283     7.6075     2.5035     0.1210     0.0706    78.4079
  268.0000     9.9919     9.8997   -14.4241     7.6078     2.5012     0.1276     0.0601    77.5378
  268.5000     9.8539     9.8325   -14.5692     7.6081     2.4964     0.1375     0.0495    76.9471
  269.0000     9.8532     9.7663   -14.5649     7.5785     2.4779     0.1405     0.0390    76.3554
  269.5000     9.7847     9.6339   -14.5607     7.5489     2.4712     0.1409     0.0300    75.3165
  270.0000     9.7166     9.5688   -14.7068     7.5045     2.4644     0.1497     0.0221    74.4267
  270.5000     9.5164     9.5700   -14.7015     7.4600     2.4546     0.1603     0.0135    74.8782
  271.0000     9.3851     9.2463   -14.5469     7.4156     2.4351     0.1657     0.0090    75.4787
  271.5000     9.1918     9.0578   -14.5427     7.3711     2.4276     0.1711     0.0045    76.2283
  272.0000     9.1279     8.9966   -14.6888     7.3117     2.4216     0.1684     0.0000    76.9778
  272.5000     9.1271     9.0604   -14.8350     7.2672     2.4223     0.1735    -0.0030    77.2803
  273.0000     9.1265     9.1877   -14.9811     7.2226     2.4178     0.1765    -0.0045    77.7317
  273.5000     9.1894     9.2529   -14.9758     7.1633     2.4140     0.1789    -0.0045    77.7362
  274.0000     9.1887     9.3182   -15.1220     7.1039     2.4111     0.1783    -0.0030    77.8897
  274.5000     9.3159     9.3195   -14.9663     7.0594     2.4110     0.1756    -0.0030    78.0440
