~VERSION INFORMATION
 VERS.                2.0:   CWLS LOG ASCII STANDARD - VERSION 2.0
 WRAP.                 NO:   ONE LINE PER DEPTH STEP
~WELL INFORMATION
#MNEM.UNIT      DATA TYPE    INFORMATION
#----------   ------------   ------------------------------
 STRT.F           30.0000:   START DEPTH
 STOP.F          759.0000:   STOP DEPTH
 STEP.F            0.5000:   STEP LENGTH
 NULL.          -999.2500:   NO VALUE
 COMP. FENIX & SCISSON INC:   COMPANY
 WELL.    NPR ##3 15-S-14:   WELL
 FLD .             TEAPOT:   FIELD
 LOC .      S14 T38N R78W:   LOCATION
 CNTY.            NATRONA:   COUNTY
 STAT.            WYOMING:   STATE
 CTRY. UNITED STATES OF AMERICA:   COUNTRY
 SRVC.              Welex:   SERVICE COMPANY
 DATE.        23-FEB-1977:   LOGDATE
 API .       490251027600:   API NUMBER
~CURVE INFORMATION
#MNEM.UNIT       API CODE    CURVE DESCRIPTION
#----------   ------------   ------------------------------
 DEPT.F                  :   
 GURD.OHMM   07 220 05 00:   SHALLOW SHORT GUARD RESISTIVITY
 ILD .OHMM   07 120 46 00:   INDUCTION LOG DEEP
 ILM .OHMM   07 120 44 00:   INDUCTION LOG MEDIUM
 SPR .MV     07 010 01 00:   SPONTANEOUS POTENTIAL
 CALD.IN     45 280 60 00:   CALIPER FROM DENSITY LOG
 CORR.G/C3   45 356 01 00:   DENSITY CORRECTION
 DPHI.DEC    45 890 12 00:   DENSITY POROSITY SANDSTONE
 GRD .GAPI   45 310 01 00:   GAMMA RAY FROM DENSITY LOG
 RHOB.G/C3   45 350 01 00:   BULK DENSITY
~PARAMETER INFORMATION
#MNEM.UNIT          VALUE    DESCRIPTION
#----------   ------------   ------------------------------
 PD  .                 GL:   PERMANENT DATUM
 EPD .F            5229.2:   ELEVATION PERMANENT DATUM
 LMF .                 GL:   LOG MEASURED FROM
 DMF .                 GL:   DRILLING MEASURED FROM
 EGL .F            5229.2:   GROUND LEVEL
 DATE.        23-FEB-1977:   RUN DATE
 RUN .                  1:   RUN NUMBER
 DD  .F               764:   DEPTH DRILLER
 DL  .F               762:   DEPTH LOGGER
 BLI .F               760:   BOTTOM LOG INTERVAL
 TLI .F                40:   TOP LOG INTERVAL
 CS  .IN            8.625:   CASING SIZE
 CBD .F                40:   CASING BOTTOM DRILLER
 CBL .F                40:   CASING BOTTOM LOGGER
 BS  .IN            7.875:   BIT SIZE
 BSD .F               764:   BIT SIZE AT DEPTH
 DFT .           CHEM/GEL:   DRILLING FLUID TYPE
 DFD .                9.4:   DRILLING FLUID DENSITY
 DFV .                 50:   DRILLING FLUID VISCOSITY
 DFPH.               11.0:   DRILLING FLUID PH
 DFL .               12.2:   DRILLING FLUID LOSS
 MSS .           FLOWLINE:   MUD SAMPLE SOURCE
 RMS .OHMM           0.23:   RESISTIVITY MUD SAMPLE
 MST .F                38:   MUD SAMPLE TEMPERATURE
 RMF .OHMM           0.15:   RESISTIVITY MUD FILTRATE SAMPLE
 MFST.F                38:   MUD FILTRATE SAMPLE TEMPERATURE
 RMC .OHMM           0.54:   RESISTIVITY MUD CAKE
 MCST.F                38:   MUD CAKE SAMPLE TEMPERATURE
 MFSS.               MEAS:   MUD FILTRATE SAMPLE SOURCE
 MCSS.               MEAS:   MUD CAKE SAMPLE SOURCE
 RMB .OHMM           .148:   RESISTIVITY MUD AT BHT
 BHT .F                59:   BOTTOM HOLE TEMPERATURE
 TCS .HRS               2:   TIME CURCULATED STOPPED
 MRT .F                59:   MAXIMUM RECORDED TEMPERATURE
 LUN .               8611:   LOGGING UNIT NUMBER
 LUL .           GILLETTE:   LOGGING UNIT LOCATION
 ENGI.             C.DOAK:   RECORDING ENGINEER
 WITN.         STUEBINGER:   WITNESSED BY
 CLNT.            A2DTECH:   CLIENT CODE
 ORIG.           5" PRINT:   ORIGIN OF DATA
 UWI .       490251027600:   UNIQUE WELL ID
 DICO. A2D Technologies, Inc.:   DIGITIZING COMPANY
~OTHER INFORMATION
~A   DEPT     GURD        ILD        ILM        SPR         CALD      CORR      DPHI         GRD        RHOB 
# ...
  176.0000    16.4251    12.2527    14.0492   -38.2866     8.3130     0.0936     0.1426    93.6533     2.4122
  176.5000    17.7427    11.2784    13.2154   -39.8090     8.3111     0.0936     0.1336    93.0473     2.4217
  177.0000    18.2188    10.5258    12.5056   -41.4657     8.2945     0.0936     0.1270    95.3134     2.4299
  177.5000    12.2033     9.7559    11.9160   -43.0674     8.3083     0.0936     0.1240    98.8341     2.4389
  178.0000    11.3886     8.5568    11.3541   -44.1137     8.3063     0.0939     0.1201   103.0828     2.4486
  178.5000    11.0464     7.6093    10.8188   -44.7122     8.3047     0.0952     0.1156   104.8787     2.4583
  179.0000    10.7761     7.1943    10.4521   -45.0121     8.3031     0.0952     0.1126   100.9960     2.4658
  179.5000    10.6282     6.8541    10.1679   -45.3121     8.3015     0.0952     0.1120   100.8487     2.4680
  180.0000    10.5551     6.5815     9.6884   -45.4628     8.2995     0.0982     0.1138   108.3262     2.4650
  180.5000    10.4102     6.4463     9.3601   -45.6136     8.2983     0.0997     0.1108   113.8598     2.4762
  181.0000    10.2673     6.3138     9.1685   -45.7643     8.3005     0.1012     0.0997   115.6564     2.4882
  181.5000    10.2673     6.1840     8.9812   -45.9150     8.3024     0.1027     0.0970   116.2572     2.4919
  182.0000    10.2673     6.1411     8.9818   -45.9164     8.3044     0.1013     0.1072   114.7654     2.4903
  182.5000    10.2673     6.1407     8.9824   -46.0672     8.3063     0.1013     0.1090   115.6652     2.4852
  183.0000    10.2673     6.1403     9.0453   -46.2179     8.3083     0.0983     0.1102   117.6113     2.4762
  183.5000    10.2673     6.2252     9.1803   -46.3890     8.3103     0.0968     0.1126   115.9073     2.4664
  184.0000    10.3385     6.3989     9.3002   -46.5197     8.3122     0.0953     0.1153   112.6852     2.4582
  184.5000    10.3385     6.6231     9.4303   -46.6704     8.3142     0.0938     0.1171   110.1470     2.4514
  185.0000    10.3385     6.8079     9.5621   -46.8211     8.3284     0.0924     0.1174   110.4489     2.4499
  185.5000    10.1966     6.9498     9.6291   -46.9718     8.3418     0.0924     0.1153   108.0602     2.4589
  186.0000    10.0567     6.9016     9.6965   -47.1226     8.3548     0.0909     0.1171   105.2230     2.4618
  186.5000     9.9875     6.8485     9.6302   -47.4225     8.3532     0.0924     0.1198   103.7312     2.4513
  187.0000    10.0567     6.6666     9.4727   -47.5732     8.3517     0.0924     0.1210   104.1825     2.4461
  187.5000     9.9187     6.5295     9.3045   -47.2758     8.3500     0.0939     0.1210   107.6234     2.4453
  188.0000     9.8504     6.4396     9.1144   -47.2777     8.3484     0.0940     0.1199   110.9149     2.4508
  188.5000     9.7152     6.3509     8.9897   -47.2791     8.3315     0.0940     0.1181   113.9124     2.4616
  189.0000     9.6483     6.3505     8.9286   -47.2806     8.3149     0.0940     0.1163   116.1664     2.4692
  189.5000     9.5819     6.3501     8.9911   -47.2821     8.2983     0.0940     0.1148   116.4543     2.4670
  190.0000     9.5819     6.3937     9.1168   -47.4328     8.2817     0.0955     0.1118   116.0088     2.4670
  190.5000     9.5819     6.3932     9.2443   -47.4346     8.2801     0.0955     0.1079   117.5072     2.4714
  191.0000     9.7152     6.4371     9.3177   -47.4361     8.2785     0.0970     0.1058   119.4533     2.4789
  191.5000     9.8504     6.4812     9.3744   -47.4376     8.2769     0.0986     0.1043   121.8479     2.4812
  192.0000    10.1264     6.5707     9.4400   -47.5883     8.2753     0.1001     0.0995   119.6087     2.4856
  192.5000    10.3385     6.6616     9.4407   -47.5897     8.2733     0.1016     0.0965   117.3694     2.4886
  193.0000    10.3385     6.7537     9.5068   -47.7404     8.2720     0.1016     0.1004   114.8312     2.4901
  193.5000    10.1966     6.8470     9.5733   -47.7419     8.2701     0.0986     0.0989   112.4426     2.4886
  194.0000    10.0567     6.8940     9.5740   -47.7434     8.2685     0.0956     0.1031   113.3423     2.4840
  194.5000     9.9875     6.9892     9.7752   -47.7448     8.2669     0.0941     0.1082   117.8854     2.4755
  195.0000    10.1499     7.0371     9.9119   -47.7654     8.2804     0.0927     0.1106   120.3737     2.4623
  195.5000    10.8508     7.1344    10.0505   -47.8534     8.2637     0.0942     0.1127   116.0424     2.4638
  196.0000    11.3101     7.1834    10.1209   -47.9414     8.2618     0.0987     0.1043   114.5506     2.4743
  196.5000    11.0781     7.2326    10.1216   -48.0295     8.2602     0.1033     0.0956   112.7591     2.4900
  197.0000    10.8508     7.2822    10.2631   -48.1175     8.2436     0.1092     0.0887   116.4996     2.4997
  197.5000    10.7019     7.3829    10.4788   -48.2162     8.2420     0.1137     0.0840   117.8471     2.5102
  198.0000    10.8508     7.5368    10.6253   -48.0655     8.2404     0.1182     0.0798   114.7118     2.5184
  198.5000    11.1549     7.6939    10.6260   -48.2137     8.2388     0.1197     0.0770   111.5757     2.5214
  199.0000    11.3886     7.8001    10.4809   -48.2119     8.2222     0.1197     0.0768   109.1870     2.5176
  199.5000    11.5470     7.7996    10.3379   -48.2104     8.2202     0.1167     0.0888   106.9477     2.5064
  200.0000    11.3101     7.7990    10.2673   -48.5075     8.2228     0.1138     0.0972   105.3064     2.4981
  200.5000    10.9262     7.6879    10.1272   -48.8045     8.2281     0.1093     0.1026   105.5366     2.4900
  201.0000    10.5208     7.5263     9.9889   -48.9523     8.2334     0.1048     0.1044   108.1784     2.4801
  201.5000    10.2715     7.3279     9.8523   -49.0998     8.2387     0.1018     0.1044   106.9602     2.4756
  202.0000    10.1319     7.1773     9.5846   -49.2475     8.2440     0.1004     0.1053   106.0662     2.4711
  202.5000     9.9945     7.1591     9.3239   -49.3957     8.2493     0.0989     0.1068   107.7121     2.4674
  203.0000     9.9959     7.1369     9.2602   -49.5432     8.2546     0.1004     0.1065   110.0987     2.4659
  203.5000    10.0665     7.1148     9.1971   -49.5417     8.2599     0.1004     0.1068   110.3992     2.4674
  204.0000    10.0679     7.0927     9.1979   -49.6898     8.2627     0.1004     0.1074   110.2512     2.4704
  204.5000    10.1391     7.0705     9.3911   -49.6880     8.2625     0.1004     0.1086   108.7579     2.4718
  205.0000    10.0706     7.0484     9.5225   -49.6866     8.2474     0.1019     0.1098   107.5635     2.4688
  205.5000    10.0720     7.0376     9.4793   -49.8344     8.2472     0.1035     0.1110   108.8027     2.4658
  206.0000    10.0734     6.9897     9.4219   -49.8328     8.2471     0.1050     0.1116   109.5096     2.4636
  206.5000    10.0750     7.0387     9.3644   -49.8311     8.2319     0.1080     0.1098   108.4651     2.4628
  207.0000    10.0764     7.0392     9.3207   -49.8296     8.2168     0.1125     0.1062   106.9718     2.4673
  207.5000    10.0778     7.0287     9.3207   -49.8282     8.2166     0.1200     0.1020   105.3291     2.4778
  208.0000     9.9404     6.9916     9.3207   -49.8267     8.2015     0.1245     0.0984   105.0312     2.4898
  208.5000     9.8733     7.0406     9.3853   -49.8253     8.1987     0.1199     0.0975   106.8268     2.4868
  209.0000     9.8067     7.0231     9.3853   -49.8238     8.1862     0.1138     0.1041   108.1735     2.4792
  209.5000     9.7407     7.0415     9.3853   -49.8224     8.1860     0.1081     0.1106   107.8760     2.4693
  210.0000     9.6750     7.0420     9.3853   -49.6717     8.1859     0.1066     0.1134   106.6817     2.4650
  210.5000     9.6763     7.0410     9.3207   -49.6702     8.2008     0.1081     0.1148   105.4873     2.4732
  211.0000     9.6110     6.9945     9.3207   -49.5191     8.2006     0.1066     0.1088   104.2930     2.4807
  211.5000     9.5464     7.0436     9.3207   -49.3684     8.2004     0.1081     0.1040   103.2451     2.4822
  212.0000     9.5477     7.0440     9.3207   -49.3669     8.2003     0.1111     0.0971   102.8012     2.4830
