~VERSION INFORMATION
 VERS.                2.0:   CWLS LOG ASCII STANDARD - VERSION 2.0
 WRAP.                 NO:   ONE LINE PER DEPTH STEP
~WELL INFORMATION
#MNEM.UNIT      DATA TYPE    INFORMATION
#----------   ------------   ------------------------------
 STRT.F           84.0000:   START DEPTH
 STOP.F         1141.0000:   STOP DEPTH
 STEP.F            0.5000:   STEP LENGTH
 NULL.          -999.2500:   NO VALUE
 COMP.           U S NAVY:   COMPANY
 WELL.     NPR#3 #78-S-11:   WELL
 FLD .             TEAPOT:   FIELD
 LOC .      S11 T38N R78W:   LOCATION
 CNTY.            NATRONA:   COUNTY
 STAT.            WYOMING:   STATE
 CTRY. UNITED STATES OF AMERICA:   COUNTRY
 SRVC.       Schlumberger:   SERVICE COMPANY
 DATE.        28-AUG-1966:   LOGDATE
 API .       490250970700:   API NUMBER
~CURVE INFORMATION
#MNEM.UNIT       API CODE    CURVE DESCRIPTION
#----------   ------------   ------------------------------
 DEPT.F                  :   
 SPR .MV     05 010 01 00:   SPONTANEOUS POTENTIAL FROM RES.
 ASN .OHMM   05 041 16 00:   AMPLIFIED SHORT NORMAL 16"
 ILD .OHMM   05 120 46 00:   INDUCTION LOG DEEP
 CILD.MMHO   05 110 46 00:   CONDUCTIVITY INDUCTION LOG DEEP
 GRD .GAPI   45 310 01 00:   GAMMA RAY FROM DENSITY LOG
 CALD.IN     45 280 60 00:   CALIPER FROM DENSITY LOG
 DPHI.DEC    45 890 12 00:   DENSITY POROSITY SANDSTONE
 RHOB.G/C3   45 350 01 00:   BULK DENSITY
~PARAMETER INFORMATION
#MNEM.UNIT          VALUE    DESCRIPTION
#----------   ------------   ------------------------------
 PD  .                 GL:   PERMANENT DATUM
 EPD .F              5245:   ELEVATION PERMANENT DATUM
 LMF .                 KB:   LOG MEASURED FROM
 DAPD.F                 5:   FEET ABOVE PERMANENT DATUM
 DMF .                 KB:   DRILLING MEASURED FROM
 EKB .F              5250:   KELLING BUSHING
 EGL .F              5245:   GROUND LEVEL
 DATE.            8-28-66:   RUN DATE
 RUN .                  1:   RUN NUMBER
 DD  .F              1142:   DEPTH DRILLER
 DL  .F              1142:   DEPTH LOGGER
 BLI .F              1141:   BOTTOM LOG INTERVAL
 TLI .F                85:   TOP LOG INTERVAL
 CS  .IN            8.625:   CASING SIZE
 CBD .F                10:   CASING BOTTOM DRILLER
 BS  .IN             6.75:   BIT SIZE
 BSD .F              1142:   BIT SIZE AT DEPTH
 DFT .           CHEM GEL:   DRILLING FLUID TYPE
 DFD .               10.7:   DRILLING FLUID DENSITY
 DFV .                 40:   DRILLING FLUID VISCOSITY
 MSS .          FLOW LINE:   MUD SAMPLE SOURCE
 RMS .OHMM           1.58:   RESISTIVITY MUD SAMPLE
 MST .F                70:   MUD SAMPLE TEMPERATURE
 RMF .OHMM            .93:   RESISTIVITY MUD FILTRATE SAMPLE
 MFST.F                70:   MUD FILTRATE SAMPLE TEMPERATURE
 MFSS.                  M:   MUD FILTRATE SAMPLE SOURCE
 RMB .OHMM           1.19:   RESISTIVITY MUD AT BHT
 BHT .F                94:   BOTTOM HOLE TEMPERATURE
 TCS .HRS               1:   TIME CURCULATED STOPPED
 MRT .F                94:   MAXIMUM RECORDED TEMPERATURE
 LUN .               4507:   LOGGING UNIT NUMBER
 LUL .               CSPR:   LOGGING UNIT LOCATION
 ENGI.             KNOBEL:   RECORDING ENGINEER
 WITN.         MAY/TUTTLE:   WITNESSED BY
 CLNT.            A2DTECH:   CLIENT CODE
 ORIG.           5" PRINT:   ORIGIN OF DATA
 UWI .       490250970700:   UNIQUE WELL ID
 DICO. A2D Technologies, Inc.:   DIGITIZING COMPANY
~OTHER INFORMATION
~A   DEPT      SPR          ASN        ILD      CILD       GRD       CALD       DPHI       RHOB   
# ...
 1096.5000   -28.4861    11.5513     9.5451   107.5725    87.8700     7.3156     0.1129     2.4559
 1097.0000   -27.8851    11.4773     9.5435   106.8112    88.2249     7.3150     0.1114     2.4603
 1097.5000   -27.5864    11.4792     9.5420   106.8037    88.4018     7.3145     0.1093     2.4746
 1098.0000   -27.4385    11.4806     9.5402   106.7962    88.0428     7.3139     0.1021     2.5045
 1098.5000   -27.2914    11.4821     9.5388   106.7888    87.5053     7.3133     0.0916     2.5119
 1099.0000   -26.9920    11.4836     9.5373   106.7813    86.0750     7.3275     0.0853     2.4970
 1099.5000   -26.8449    11.4851     9.5358   106.7738    84.2875     7.3269     0.0964     2.4753
 1100.0000   -26.8204    11.5613     9.6140   106.9189    83.9286     7.3561     0.1046     2.4667
 1100.5000   -26.6578    11.5605     9.6665   107.8268    87.6682     7.3555     0.1114     2.4544
 1101.0000   -26.4952    11.5599     9.7190   108.7347    92.1236     7.3550     0.1198     2.4373
 1101.5000   -26.4221    11.5592     9.7448   109.6426    93.5433     7.3544     0.1046     2.4829
 1102.0000   -26.4313    11.5585     9.8109   110.5263    91.9272     7.3538     0.0946     2.5061
 1102.5000   -26.4404    11.4827     9.8048   110.5263    92.4541     7.3383     0.1103     2.4874
 1103.0000   -26.4512    11.4819     9.7988   110.5263    93.1595     7.3377     0.1198     2.4560
 1103.5000   -26.4602    11.4812     9.7928   109.7744    94.0434     7.3222     0.1200     2.4508
 1104.0000   -26.4692    11.4054     9.7867   109.7744    92.9631     7.3216     0.1114     2.4575
 1104.5000   -26.3251    11.4046     9.7718   109.7744    92.4185     7.3209     0.1083     2.4807
 1105.0000   -26.3363    11.4039     9.6997   110.5263    92.7667     7.3054     0.1061     2.4815
 1105.5000   -25.7419    11.4782     9.6937   110.5263    94.3650     7.3048     0.0984     2.5010
 1106.0000   -25.5978    11.5525     9.6877   111.2782    95.9632     7.3042     0.0662     2.5458
 1106.5000   -25.9107    11.4767     9.6816   112.0301    94.5258     7.3036     0.0598     2.5346
 1107.0000   -26.3721    11.4009     9.6757   112.7820    90.9455     7.3031     0.0905     2.4920
 1107.5000   -26.3811    11.3251     9.6685   112.7820    89.5080     7.3025     0.1023     2.4875
 1108.0000   -26.2370    11.3243     9.6625   113.5338    90.3942     7.3019     0.0868     2.5070
 1108.5000   -26.0951    11.3236     9.6565   115.0376    87.5259     7.3013     0.0829     2.5078
 1109.0000   -25.9533    11.3228     9.6505   115.0376    88.7670     7.3007     0.0874     2.5026
 1109.5000   -25.8114    11.3186     9.4944   115.0376    90.1867     7.3001     0.0996     2.4847
 1110.0000   -25.6718    11.1712     9.4133   115.0376    89.6421     7.2846     0.1080     2.4690
 1110.5000   -25.5277    11.1639     9.3323   115.7895    87.6689     7.2840     0.1146     2.4503
 1111.0000   -25.2372    11.0946     9.2512   115.7895    85.6958     7.2835     0.1023     2.4549
 1111.5000   -24.7937    11.0188     9.1701   116.5414    86.2226     7.2829     0.1107     2.4421
 1112.0000   -24.6516    11.0180     9.0891   117.2932    88.1780     7.2823     0.1170     2.4534
 1112.5000   -24.5098    10.9297     9.0831   118.0451    90.3119     7.2817     0.1020     2.4788
 1113.0000   -24.5190    10.8664     9.0771   118.0451    91.9102     7.2810     0.0936     2.5087
 1113.5000   -24.6788    10.7904     8.9960   118.7970    90.8299     7.2804     0.0948     2.4713
 1114.0000   -25.2911    10.7146     8.9150   119.5489    92.2496     7.2798     0.0900     2.4805
 1114.5000   -25.3001    10.5637     8.8339   121.0526    94.2049     7.2792     0.0837     2.5082
 1115.0000   -24.8565    10.2626     8.7529   122.5564    95.8032     7.2786     0.0792     2.5268
 1115.5000   -24.6944    10.0367     8.7469   124.0602    97.0443     7.2780     0.0816     2.5139
 1116.0000   -24.2711     9.7356     8.5157   124.8120    93.1068     7.2774     0.0747     2.5111
 1116.5000   -23.6790     9.5547     8.3595   127.0677    95.9551     7.2768     0.0792     2.5111
 1117.0000   -23.2355     9.3888     8.1283   127.8195   100.0533     7.2763     0.0894     2.5102
 1117.5000   -23.2444     9.2078     8.0472   131.5789   102.3659     7.2757     0.0912     2.5002
 1118.0000   -23.1003     8.9819     7.8160   133.8346   103.9641     7.2751     0.0924     2.4778
 1118.5000   -23.1115     8.7409     7.5098   136.8421   102.7052     7.2745     0.0957     2.4753
 1119.0000   -22.9674     8.4699     7.2035   150.4528   100.0178     7.2739     0.0987     2.4816
 1119.5000   -22.5262     8.1388     6.8221   170.7951    98.0446     7.2733     0.0972     2.4907
 1120.0000   -22.3821     7.5074     6.0654   190.6278   100.1786     7.2727     0.0960     2.5004
 1120.5000   -22.2402     7.0562     5.3837   209.5142   103.0476     7.2721     0.0969     2.5075
 1121.0000   -21.9498     6.4398     4.7771   230.7066   107.3453     7.2715     0.1025     2.4805
 1121.5000   -21.9587     5.6884     4.5459   235.3383   112.8750     7.2559     0.1112     2.4575
 1122.0000   -21.8146     5.2522     4.3898   232.0706   115.8810     7.2404     0.1151     2.4507
 1122.5000   -21.5242     5.2216     4.4604   226.3158   110.7738     7.2398     0.1184     2.4470
 1123.0000   -21.0784     5.3257     4.7532   221.0526    92.6429     7.2393     0.1259     2.4358
 1123.5000   -20.6349     5.7454     5.2727   214.2857    70.4702     7.2387     0.1184     2.4493
 1124.0000   -20.6461     7.2912     5.9424   203.0075    21.8810     7.2381     0.1019     2.4830
 1124.5000   -20.8059     8.3716     6.8373   178.1955  -999.2500     7.2673     0.0765     2.5308
 1125.0000   -20.8149     8.5510     7.8073   151.8797  -999.2500     7.2667     0.0684     2.5518
 1125.5000   -20.8238     8.8355     8.4770   137.5940  -999.2500     7.2812     0.0696     2.5234
 1126.0000   -21.1344     8.9849     8.6227   128.5714  -999.2500     7.2804     0.0776     2.5159
 1126.5000   -21.4451     9.1343     8.3900   125.5639  -999.2500     7.2799     0.0854     2.5092
 1127.0000   -21.7557     9.2387     8.2338   126.3158  -999.2500     7.2942     0.0920     2.4965
 1127.5000   -21.9155     9.3280     8.0026   126.3158  -999.2500     7.2936     0.0923     2.4779
 1128.0000   -21.9246     9.4624     8.0717   125.5639  -999.2500     7.3079     0.0899     2.4936
 1128.5000   -21.9336     9.6419     8.0657   124.0602  -999.2500     7.3073     0.0875     2.5026
 1129.0000   -21.9427    10.2416     8.2114   121.8045  -999.2500     7.3067     0.0860     2.5093
 1129.5000   -21.9518    10.4661     8.3540   120.3008  -999.2500     7.2911     0.0902     2.4802
 1130.0000   -22.1134    10.5406     8.5733   118.7970  -999.2500     7.2756     0.0962     2.4884
 1130.5000   -22.1224    10.6900     8.8679   118.7970  -999.2500     7.2750     0.0935     2.5019
 1131.0000   -22.4330    10.7644     9.1622   117.2932  -999.2500     7.2595     0.0854     2.5079
 1131.5000   -22.5928    10.9136     9.3811   115.0376  -999.2500     7.2142     0.0773     2.5146
 1132.0000   -22.9034    11.0632     9.4504   112.0301  -999.2500     7.1689     0.0791     2.5199
 1132.5000   -23.0632    11.1373     9.5195   109.0226  -999.2500     7.0938     0.0722     2.5266
 1133.0000   -23.0722    11.4369     9.6637   106.7669  -999.2500     6.8697     0.0674     2.5431
 1133.5000   -23.0812    11.7364     9.7328   106.0150  -999.2500     6.5561     0.0638     2.5536
 1134.0000   -23.0901    11.8860     9.9518   106.0150  -999.2500     6.2724     0.0791     2.5244
 1134.5000   -23.0991    12.1854    10.0210   106.7669  -999.2500     6.0930     0.0779     2.5215
 1135.0000   -23.1081    12.4849    10.0149   106.7669  -999.2500     6.0328     0.0617     2.5462
 1135.5000   -23.2679    12.7094    10.0089   107.5188  -999.2500     6.0173     0.0578     2.5574
 1136.0000   -23.2768    12.6336     9.9279   109.0226  -999.2500     6.0167     0.0506     2.5507
 1136.5000   -23.2858    12.0322     9.7717   109.0226  -999.2500     6.0161     0.0499     2.5679
