~VERSION INFORMATION
 VERS.                2.0:   CWLS LOG ASCII STANDARD - VERSION 2.0
 WRAP.                 NO:   ONE LINE PER DEPTH STEP
~WELL INFORMATION
#MNEM.UNIT      DATA TYPE    INFORMATION
#----------   ------------   ------------------------------
 STRT.F            0.0000:   START DEPTH
 STOP.F         2660.0000:   STOP DEPTH
 STEP.F            0.5000:   STEP LENGTH
 NULL.          -999.2500:   NO VALUE
 COMP. FENIX & SCISSON INC:   COMPANY
 WELL.     101-20 #101-20:   WELL
 FLD .        TEAPOT DOME:   FIELD
 LOC .      S20 T39N R78W:   LOCATION
 CNTY.            NATRONA:   COUNTY
 STAT.            WYOMING:   STATE
 CTRY. UNITED STATES OF AMERICA:   COUNTRY
 SRVC.      NL McCullough:   SERVICE COMPANY
 DATE.        19-SEP-1965:   LOGDATE
 API .       490251022100:   API NUMBER
~CURVE INFORMATION
#MNEM.UNIT       API CODE    CURVE DESCRIPTION
#----------   ------------   ------------------------------
 DEPT.F                  :   
 GR  .GAPI   30 310 01 00:   GAMMA RAY
 CALI.IN     30 280 01 00:   CALIPER
~PARAMETER INFORMATION
#MNEM.UNIT          VALUE    DESCRIPTION
#----------   ------------   ------------------------------
 PD  .                 GL:   PERMANENT DATUM
 LMF .                 GL:   LOG MEASURED FROM
 DMF .                 GL:   DRILLING MEASURED FROM
 DATE.          9-19-1965:   RUN DATE
 RUN .                  1:   RUN NUMBER
 DD  .F              2661:   DEPTH DRILLER
 DL  .F              2659:   DEPTH LOGGER
 BLI .F              2657:   BOTTOM LOG INTERVAL
 TLI .F              2000:   TOP LOG INTERVAL
 CS  .IN              6.5:   CASING SIZE
 CBD .F              2619:   CASING BOTTOM DRILLER
 BSD .F              2661:   BIT SIZE AT DEPTH
 DFT .              WATER:   DRILLING FLUID TYPE
 TCS .HRS               1:   TIME CURCULATED STOPPED
 ENGI.        FITZSIMMONS:   RECORDING ENGINEER
 WITN.          JORGENSEN:   WITNESSED BY
 CLNT.            A2DTECH:   CLIENT CODE
 ORIG.           5" PRINT:   ORIGIN OF DATA
 UWI .       490251022100:   UNIQUE WELL ID
 DICO. A2D Technologies, Inc.:   DIGITIZING COMPANY
~OTHER INFORMATION
~A    DEPT      GR         CALI 
# ...
  364.5000  -999.2500     6.5729
  365.0000  -999.2500     6.5753
  365.5000  -999.2500     6.5754
  366.0000  -999.2500     6.5736
  366.5000  -999.2500     6.5717
  367.0000  -999.2500     6.5698
  367.5000  -999.2500     6.5679
  368.0000  -999.2500     6.5660
  368.5000  -999.2500     6.5641
  369.0000  -999.2500     6.5622
  369.5000  -999.2500     6.5603
  370.0000  -999.2500     6.5584
  370.5000  -999.2500     6.5564
  371.0000  -999.2500     6.5503
  371.5000  -999.2500     6.5437
  372.0000  -999.2500     6.5366
  372.5000  -999.2500     6.5561
  373.0000  -999.2500     6.5564
  373.5000  -999.2500     6.5564
  374.0000  -999.2500     6.5564
  374.5000  -999.2500     6.5564
  375.0000  -999.2500     6.5560
  375.5000  -999.2500     6.5769
  376.0000  -999.2500     6.6053
  376.5000  -999.2500     6.5961
  377.0000  -999.2500     6.5464
  377.5000  -999.2500     6.5462
  378.0000  -999.2500     6.5463
  378.5000  -999.2500     6.5464
  379.0000  -999.2500     6.5464
  379.5000  -999.2500     6.5463
  380.0000  -999.2500     6.5485
  380.5000  -999.2500     6.5515
  381.0000  -999.2500     6.5546
  381.5000  -999.2500     6.5576
  382.0000  -999.2500     6.5607
  382.5000  -999.2500     6.5638
  383.0000  -999.2500     6.5665
  383.5000  -999.2500     6.5664
  384.0000  -999.2500     6.5664
  384.5000  -999.2500     6.5664
  385.0000  -999.2500     6.5664
  385.5000  -999.2500     6.5664
  386.0000  -999.2500     6.5664
  386.5000  -999.2500     6.5664
  387.0000  -999.2500     6.5664
  387.5000  -999.2500     6.5664
  388.0000  -999.2500     6.5664
  388.5000  -999.2500     6.5664
  389.0000  -999.2500     6.5664
  389.5000  -999.2500     6.5664
  390.0000  -999.2500     6.5664
  390.5000  -999.2500     6.5684
  391.0000  -999.2500     6.5707
  391.5000  -999.2500     6.5730
  392.0000  -999.2500     6.5753
  392.5000  -999.2500     6.5775
  393.0000  -999.2500     6.5798
  393.5000  -999.2500     6.5820
  394.0000  -999.2500     6.5842
  394.5000  -999.2500     6.5869
  395.0000  -999.2500     6.5987
  395.5000  -999.2500     6.6102
  396.0000  -999.2500     6.6222
  396.5000  -999.2500     6.5865
  397.0000  -999.2500     6.5725
  397.5000  -999.2500     6.5677
  398.0000  -999.2500     6.5630
  398.5000  -999.2500     6.5583
  399.0000  -999.2500     6.5585
  399.5000  -999.2500     6.5619
  400.0000  -999.2500     6.5654
  400.5000  -999.2500     6.5689
  401.0000  -999.2500     6.5724
  401.5000  -999.2500     6.5754
  402.0000  -999.2500     6.6037
  402.5000  -999.2500     6.5670
  403.0000  -999.2500     6.5569
  403.5000  -999.2500     6.5576
  404.0000  -999.2500     6.5587
  404.5000  -999.2500     6.5597
  405.0000  -999.2500     6.5607
  405.5000  -999.2500     6.5616
  406.0000  -999.2500     6.5626
  406.5000  -999.2500     6.5636
  407.0000  -999.2500     6.5646
  407.5000  -999.2500     6.5656
  408.0000  -999.2500     6.5664
  408.5000  -999.2500     6.5664
  409.0000  -999.2500     6.5664
  409.5000  -999.2500     6.5664
  410.0000  -999.2500     6.5664
  410.5000  -999.2500     6.5664
  411.0000  -999.2500     6.5664
  411.5000  -999.2500     6.5664
  412.0000  -999.2500     6.5664
  412.5000  -999.2500     6.5664
  413.0000  -999.2500     6.5670
  413.5000  -999.2500     6.5708
  414.0000  -999.2500     6.5746
  414.5000  -999.2500     6.5778
  415.0000  -999.2500     6.5806
  415.5000  -999.2500     6.5833
  416.0000  -999.2500     6.5855
  416.5000  -999.2500     6.6087
  417.0000  -999.2500     6.6342
  417.5000  -999.2500     6.6161
  418.0000  -999.2500     6.5445
  418.5000  -999.2500     6.5480
  419.0000  -999.2500     6.5501
  419.5000  -999.2500     6.5522
  420.0000  -999.2500     6.5543
  420.5000  -999.2500     6.5567
  421.0000  -999.2500     6.5662
  421.5000  -999.2500     6.5759
  422.0000  -999.2500     6.5704
  422.5000  -999.2500     6.5634
  423.0000  -999.2500     6.5566
  423.5000  -999.2500     6.5499
  424.0000  -999.2500     6.5501
  424.5000  -999.2500     6.5575
  425.0000  -999.2500     6.5650
  425.5000  -999.2500     6.5724
  426.0000  -999.2500     6.5765
  426.5000  -999.2500     6.5764
  427.0000  -999.2500     6.5765
  427.5000  -999.2500     6.5762
  428.0000  -999.2500     6.5689
  428.5000  -999.2500     6.5615
  429.0000  -999.2500     6.5567
  429.5000  -999.2500     6.5579
  430.0000  -999.2500     6.5591
  430.5000  -999.2500     6.5602
  431.0000  -999.2500     6.5614
  431.5000  -999.2500     6.5626
  432.0000  -999.2500     6.5637
  432.5000  -999.2500     6.5649
  433.0000  -999.2500     6.5660
  433.5000  -999.2500     6.5716
  434.0000  -999.2500     6.5790
  434.5000  -999.2500     6.5865
  435.0000  -999.2500     6.5940
  435.5000  -999.2500     6.5985
  436.0000  -999.2500     6.6016
  436.5000  -999.2500     6.6044
  437.0000  -999.2500     6.6085
  437.5000  -999.2500     6.6586
  438.0000  -999.2500     6.6185
  438.5000  -999.2500     6.5926
  439.0000  -999.2500     6.5861
  439.5000  -999.2500     6.5854
  440.0000  -999.2500     6.5846
  440.5000  -999.2500     6.5838
  441.0000  -999.2500     6.5831
  441.5000  -999.2500     6.5823
  442.0000  -999.2500     6.5815
  442.5000  -999.2500     6.5807
  443.0000  -999.2500     6.5799
  443.5000  -999.2500     6.5792
  444.0000  -999.2500     6.5784
  444.5000  -999.2500     6.5776
  445.0000  -999.2500     6.5768
  445.5000  -999.2500     6.5793
  446.0000  -999.2500     6.5852
  446.5000  -999.2500     6.5910
  447.0000  -999.2500     6.5964
  447.5000  -999.2500     6.5965
  448.0000  -999.2500     6.5965
  448.5000  -999.2500     6.5965
  449.0000  -999.2500     6.5965
  449.5000  -999.2500     6.5965
  450.0000  -999.2500     6.5965
  450.5000  -999.2500     6.5965
  451.0000  -999.2500     6.5965
  451.5000  -999.2500     6.5965
  452.0000  -999.2500     6.5965
  452.5000  -999.2500     6.5982
  453.0000  -999.2500     6.6052
  453.5000  -999.2500     6.6121
  454.0000  -999.2500     6.6189
  454.5000  -999.2500     6.6257
  455.0000  -999.2500     6.6249
  455.5000  -999.2500     6.6230
  456.0000  -999.2500     6.6210
  456.5000  -999.2500     6.6191
  457.0000  -999.2500     6.6172
  457.5000  -999.2500     6.6203
  458.0000  -999.2500     6.6281
  458.5000  -999.2500     6.6360
  459.0000  -999.2500     6.6437
  459.5000  -999.2500     6.6671
  460.0000  -999.2500     6.6889
  460.5000  -999.2500     6.6006
  461.0000  -999.2500     6.5915
  461.5000  -999.2500     6.5843
  462.0000  -999.2500     6.5773
  462.5000  -999.2500     6.5764
  463.0000  -999.2500     6.5764
  463.5000  -999.2500     6.5764
  464.0000  -999.2500     6.5764
  464.5000  -999.2500     6.5764
  465.0000  -999.2500     6.5764
  465.5000  -999.2500     6.5764
  466.0000  -999.2500     6.5764
  466.5000  -999.2500     6.5764
  467.0000  -999.2500     6.5764
  467.5000  -999.2500     6.5764
  468.0000  -999.2500     6.5764
  468.5000  -999.2500     6.5764
  469.0000  -999.2500     6.5764
  469.5000  -999.2500     6.5764
  470.0000  -999.2500     6.5764
  470.5000  -999.2500     6.5764
  471.0000  -999.2500     6.5764
  471.5000  -999.2500     6.5764
  472.0000  -999.2500     6.5764
  472.5000  -999.2500     6.5764
  473.0000  -999.2500     6.5764
  473.5000  -999.2500     6.5764
  474.0000  -999.2500     6.5764
  474.5000  -999.2500     6.5764
  475.0000  -999.2500     6.5764
  475.5000  -999.2500     6.5767
  476.0000  -999.2500     6.5783
  476.5000  -999.2500     6.5800
  477.0000  -999.2500     6.5817
  477.5000  -999.2500     6.5834
  478.0000  -999.2500     6.5851
  478.5000  -999.2500     6.5877
  479.0000  -999.2500     6.5951
  479.5000  -999.2500     6.6053
  480.0000  -999.2500     6.6159
  480.5000  -999.2500     6.5844
  481.0000  -999.2500     6.5658
  481.5000  -999.2500     6.5512
  482.0000  -999.2500     6.5577
  482.5000  -999.2500     6.5755
  483.0000  -999.2500     6.5766
  483.5000  -999.2500     6.5765
  484.0000  -999.2500     6.5765
  484.5000  -999.2500     6.5762
  485.0000  -999.2500     6.5700
  485.5000  -999.2500     6.5638
