~VERSION INFORMATION
 VERS.                2.0:   CWLS LOG ASCII STANDARD - VERSION 2.0
 WRAP.                 NO:   ONE LINE PER DEPTH STEP
~WELL INFORMATION
#MNEM.UNIT      DATA TYPE    INFORMATION
#----------   ------------   ------------------------------
 STRT.F         1179.0000:   START DEPTH
 STOP.F         2186.0000:   STOP DEPTH
 STEP.F            0.5000:   STEP LENGTH
 NULL.          -999.2500:   NO VALUE
 COMP. FENIX & SCISSON INC:   COMPANY
 WELL.  404 SH 33 #404-33:   WELL
 FLD .             TEAPOT:   FIELD
 LOC .      S33 T39N R78W:   LOCATION
 CNTY.            NATRONA:   COUNTY
 STAT.            WYOMING:   STATE
 CTRY. UNITED STATES OF AMERICA:   COUNTRY
 SRVC.            Unknown:   SERVICE COMPANY
 DATE.        19-NOV-1992:   LOGDATE
 API .       490251071100:   API NUMBER
~CURVE INFORMATION
#MNEM.UNIT       API CODE    CURVE DESCRIPTION
#----------   ------------   ------------------------------
 DEPT.F                  :   
 TGAS.UNITS  91 830 01 00:   TOTAL GAS FROM HOTWIRE
 ROP .MIN/FT 91 810 01 00:   RATE OF DRILLING PENETRATION
~PARAMETER INFORMATION
#MNEM.UNIT          VALUE    DESCRIPTION
#----------   ------------   ------------------------------
 EKB .F              5170:   KELLING BUSHING
 EGL .F              5160:   GROUND LEVEL
 DATE.        19-NOV-1992:   RUN DATE
 RUN .                  1:   RUN NUMBER
 DD  .F              2186:   DEPTH DRILLER
 TLI .F              1186:   TOP LOG INTERVAL
 CS  .IN             8.25:   CASING SIZE
 CBD .F              1080:   CASING BOTTOM DRILLER
 WITN.   C. TOWER/R. HUSK:   WITNESSED BY
 CLNT.            A2DTECH:   CLIENT CODE
 ORIG.           5" PRINT:   ORIGIN OF DATA
 UWI .       490251071100:   UNIQUE WELL ID
 DICO. A2D Technologies, Inc.:   DIGITIZING COMPANY
~OTHER INFORMATION
~A  DEPT       TGAS       ROP   
 1179.0000    46.7008  -999.2500
 1179.5000    46.7909  -999.2500
 1180.0000    46.8884  -999.2500
 1180.5000    46.9785  -999.2500
 1181.0000    47.0761  -999.2500
 1181.5000    47.1510  -999.2500
 1182.0000    47.2487  -999.2500
 1182.5000    47.3463  -999.2500
 1183.0000    47.4439  -999.2500
 1183.5000    47.5339  -999.2500
 1184.0000    47.6315     0.5408
 1184.5000    47.7291     0.5629
 1185.0000    46.7189     0.5740
 1185.5000    46.8165     0.5850
 1186.0000    45.7763     0.5850
 1186.5000    45.8963     0.5850
 1187.0000    45.9939     0.5740
 1187.5000    46.0765     0.5629
 1188.0000    45.0513     0.5408
 1188.5000    45.1714     0.5408
 1189.0000    45.2615     0.5629
 1189.5000    45.3590     0.5850
 1190.0000    45.4566     0.5850
 1190.5000    48.8474     0.5519
 1191.0000    50.0452     0.4967
 1191.5000    51.2355     0.4525
 1192.0000    51.3331     0.4305
 1192.5000    53.6237     0.4194
 1193.0000    54.8140     0.4084
 1193.5000    54.9116     0.4084
 1194.0000    55.0016     0.4084
 1194.5000    55.0992     0.4084
 1195.0000    55.1893     0.4084
 1195.5000    55.2718     0.4194
 1196.0000    55.3694     0.4194
 1196.5000    55.4745     0.4194
 1197.0000    55.5645     0.4194
 1197.5000    55.6621     0.4305
 1198.0000    55.7522     0.4305
 1198.5000    55.8348     0.4415
 1199.0000    55.9398     0.4857
 1199.5000    56.0374     0.5298
 1200.0000    56.1125     0.5408
 1200.5000    56.2176     0.5425
 1201.0000    56.3151     0.5583
 1201.5000    56.4052     0.5740
 1202.0000    56.5028     0.5677
 1202.5000    56.5928     0.5616
 1203.0000    56.6904     0.5554
 1203.5000    56.7805     0.5492
 1204.0000    56.8781     0.5430
 1204.5000    56.9681     0.5368
 1205.0000    57.0657     0.5746
 1205.5000    59.3562     0.5751
 1206.0000    61.6543     0.5644
 1206.5000    61.7444     0.5540
 1207.0000    62.9347     0.5434
 1207.5000    65.2253     0.5439
 1208.0000    66.4231     0.5444
 1208.5000    66.5206     0.5448
 1209.0000    66.6107     0.5342
 1209.5000    66.7083     0.4908
 1210.0000    66.7984     0.4583
 1210.5000    66.8959     0.4477
 1211.0000    66.9860     0.4153
 1211.5000    67.0836     0.4047
 1212.0000    67.1736     0.3942
 1212.5000    67.2637     0.3727
 1213.0000    67.3613     0.3733
 1213.5000    68.5516     0.3847
 1214.0000    71.9499     0.4071
 1214.5000    73.1402     0.4185
 1215.0000    76.5385     0.4518
 1215.5000    77.7288     0.4852
 1216.0000    77.8264     0.4966
 1216.5000    81.2172     0.5080
 1217.0000    81.3148     0.5303
 1217.5000    81.4048     0.5417
 1218.0000    81.5024     0.5422
 1218.5000    81.5925     0.5536
 1219.0000    82.7753     0.5869
 1219.5000    82.8654     0.5874
 1220.0000    85.1709     0.5878
 1220.5000    86.3688     0.5882
 1221.0000    86.4513     0.5887
 1221.5000    87.6491     0.5891
 1222.0000    87.7467     0.5895
 1222.5000    87.8443     0.5900
 1223.0000    87.9268     0.5793
 1223.5000    90.2324     0.5799
 1224.0000    90.3150     0.5583
 1224.5000    91.5203     0.5588
 1225.0000    91.6104     0.5593
 1225.5000    91.7004     0.5487
 1226.0000    91.7766     0.5492
 1226.5000    91.7911     0.5496
 1227.0000    91.8056     0.5501
 1227.5000    91.8201     0.5395
 1228.0000    91.8346     0.5180
 1228.5000    91.8491     0.5185
 1229.0000    91.8636     0.5189
 1229.5000    91.8781     0.5083
 1230.0000    91.8926     0.5089
 1230.5000    91.9071     0.5092
 1231.0000    91.9216     0.4986
 1231.5000    91.9361     0.4882
 1232.0000    91.9506     0.4666
 1232.5000    91.9651     0.4561
 1233.0000    91.9796     0.4676
 1233.5000    91.9941     0.4680
 1234.0000    92.0087     0.4685
 1234.5000    92.0232     0.4579
 1235.0000    92.0377     0.4364
 1235.5000    92.0522     0.4369
 1236.0000    92.0667     0.4263
 1236.5000    92.0812     0.4268
 1237.0000    92.0957     0.4273
 1237.5000    92.1102     0.4058
 1238.0000    92.1247     0.3951
 1238.5000    92.1392     0.3846
 1239.0000    92.1537     0.3851
 1239.5000    92.1682     0.3856
 1240.0000    92.1827     0.3860
 1240.5000    92.1972     0.3865
 1241.0000    92.2117     0.3979
 1241.5000    92.2262     0.3983
 1242.0000    92.2408     0.4097
 1242.5000    92.2553     0.4211
 1243.0000    92.2698     0.4216
 1243.5000    92.2843     0.4330
 1244.0000    92.2988     0.4334
 1244.5000    92.3133     0.4338
 1245.0000    92.3278     0.4452
 1245.5000    92.3423     0.4456
 1246.0000    92.3568     0.4571
 1246.5000    92.3713     0.4685
 1247.0000    92.3858     0.4799
 1247.5000    92.4003     0.4803
 1248.0000    92.4148     0.4808
 1248.5000    92.4293     0.4812
 1249.0000    92.4438     0.4816
 1249.5000    92.4584     0.4821
 1250.0000    92.4729     0.4825
 1250.5000    92.4874     0.4829
 1251.0000    92.5019     0.4834
 1251.5000    92.5164     0.4838
 1252.0000    92.5309     0.4843
 1252.5000    92.5454     0.4957
 1253.0000    92.5599     0.4961
 1253.5000    92.5744     0.4966
 1254.0000    89.3203     0.4970
 1254.5000    87.2098     0.4974
 1255.0000    83.9917     0.4979
 1255.5000    80.7810     0.4983
 1256.0000    79.7783     0.4987
 1256.5000    76.5676     0.4992
 1257.0000    75.5575     0.4996
 1257.5000    74.5623     0.5001
 1258.0000    71.3742     0.5005
 1258.5000    71.4717     0.5228
 1259.0000    70.4466     0.5233
 1259.5000    68.3286     0.5347
 1260.0000    68.4487     0.5241
 1260.5000    67.4160     0.4917
 1261.0000    67.5361     0.4812
 1261.5000    64.3330     0.4596
 1262.0000    64.4230     0.4711
 1262.5000    63.3903     0.4605
 1263.0000    61.3099     0.4610
 1263.5000    60.2697     0.4615
 1264.0000    59.2746     0.4619
 1264.5000    58.2569     0.4513
 1265.0000    56.1540     0.4518
 1265.5000    55.1513     0.4523
 1266.0000    55.2714     0.4527
 1266.5000    55.3615     0.4531
 1267.0000    54.3288     0.4535
 1267.5000    54.4489     0.4540
 1268.0000    54.5464     0.4544
 1268.5000    54.6365     0.4549
 1269.0000    54.7266     0.4553
 1269.5000    54.8241     0.4557
 1270.0000    54.9142     0.4562
 1270.5000    54.9968     0.4566
 1271.0000    56.1946     0.4571
 1271.5000    56.2997     0.4575
 1272.0000    56.3897     0.4579
 1272.5000    56.4873     0.4584
 1273.0000    56.5774     0.4698
 1273.5000    56.6750     0.4812
 1274.0000    56.7650     0.5036
 1274.5000    56.7985     0.5040
 1275.0000    56.8255     0.5374
 1275.5000    56.8525     0.5488
 1276.0000    56.8794     0.5492
 1276.5000    56.9064     0.5606
 1277.0000    56.9334     0.5610
 1277.5000    56.9604     0.5615
 1278.0000    56.9873     0.5619
 1278.5000    57.0143     0.5623
 1279.0000    57.0413     0.5627
 1279.5000    57.0682     0.5521
 1280.0000    57.0952     0.5526
 1280.5000    57.1222     0.5641
 1281.0000    57.1492     0.5645
 1281.5000    57.1761     0.5650
 1282.0000    57.2031     0.5654
 1282.5000    57.2301     0.5659
 1283.0000    57.2570     0.5663
 1283.5000    57.2840     0.5667
 1284.0000    57.3110     0.5671
 1284.5000    57.3380     0.5676
 1285.0000    57.3649     0.5680
 1285.5000    57.3919     0.5794
 1286.0000    57.4189     0.5799
 1286.5000    57.4459     0.5803
 1287.0000    57.4728     0.5807
 1287.5000    57.4998     0.5701
 1288.0000    57.5268     0.5707
 1288.5000    57.5537     0.5600
 1289.0000    57.5807     0.5606
 1289.5000    57.6077     0.5720
 1290.0000    57.6347     0.5724
 1290.5000    57.6616     0.5729
 1291.0000    57.6886     0.5622
 1291.5000    57.7156     0.5628
 1292.0000    57.7425     0.5632
 1292.5000    57.7695     0.5637
 1293.0000    57.7965     0.5531
 1293.5000    57.8235     0.5316
 1294.0000    57.8504     0.5321
 1294.5000    57.8774     0.5214
 1295.0000    57.9044     0.5220
 1295.5000    57.9313     0.5115
 1296.0000    57.9583     0.5119
 1296.5000    57.9853     0.4903
 1297.0000    58.0123     0.4798
 1297.5000    58.0392     0.4803
 1298.0000    58.0662     0.4808
 1298.5000    58.0932     0.4812
 1299.0000    58.1202     0.4817
 1299.5000    58.1471     0.4821
 1300.0000    58.1741     0.4825
