~VERSION INFORMATION
 VERS.                2.0:   CWLS LOG ASCII STANDARD - VERSION 2.0
 WRAP.                 NO:   ONE LINE PER DEPTH STEP
~WELL INFORMATION
#MNEM.UNIT      DATA TYPE    INFORMATION
#----------   ------------   ------------------------------
 STRT.F           24.5000:   START DEPTH
 STOP.F          576.0000:   STOP DEPTH
 STEP.F            0.5000:   STEP LENGTH
 NULL.          -999.2500:   NO VALUE
 COMP. FENIX & SCISSON INC:   COMPANY
 WELL.    NPR-3 SX #61-15:   WELL
 FLD .             TEAPOT:   FIELD
 LOC .      S15 T38N R78W:   LOCATION
 CNTY.            NATRONA:   COUNTY
 STAT.            WYOMING:   STATE
 CTRY. UNITED STATES OF AMERICA:   COUNTRY
 SRVC.            Unknown:   SERVICE COMPANY
 DATE.        29-MAY-1978:   LOGDATE
 API .       490251062300:   API NUMBER
~CURVE INFORMATION
#MNEM.UNIT       API CODE    CURVE DESCRIPTION
#----------   ------------   ------------------------------
 DEPT.F                  :   
 GRD .GAPI   45 310 01 00:   GAMMA RAY FROM DENSITY LOG
 CALD.IN     45 280 60 00:   CALIPER FROM DENSITY LOG
 SN  .OHMM   05 040 16 00:   SHORT NORMAL 16'
 SPR .MV     05 010 01 00:   SPONTANEOUS POTENTIAL
 ILD .OHMM   05 120 46 00:   INDUCTION LOG DEEP
 RHOB.G/C3   45 350 01 00:   BULK DENSITY
 DPHI.DEC    45 890 12 00:   DENSITY POROSITY SANDSTONE
 CORR.G/C3   45 356 01 00:   DENSITY CORRECTION
~PARAMETER INFORMATION
#MNEM.UNIT          VALUE    DESCRIPTION
#----------   ------------   ------------------------------
 PD  .                 GL:   PERMANENT DATUM
 EPD .F              5221:   ELEVATION PERMANENT DATUM
 LMF .                 KB:   LOG MEASURED FROM
 DAPD.F                 4:   FEET ABOVE PERMANENT DATUM
 DMF .                 KB:   DRILLING MEASURED FROM
 EKB .F              5225:   KELLING BUSHING
 EGL .F              5221:   GROUND LEVEL
 DATE.          5-29-1978:   RUN DATE
 RUN .                  1:   RUN NUMBER
 DD  .F               565:   DEPTH DRILLER
 DL  .F               578:   DEPTH LOGGER
 BLI .F               570:   BOTTOM LOG INTERVAL
 TLI .F                40:   TOP LOG INTERVAL
 CS  .IN            8.625:   CASING SIZE
 CBD .F                40:   CASING BOTTOM DRILLER
 CBL .F                40:   CASING BOTTOM LOGGER
 BS  .IN            7.875:   BIT SIZE
 BSD .F               565:   BIT SIZE AT DEPTH
 DFT .                KCL:   DRILLING FLUID TYPE
 DFD .                8.7:   DRILLING FLUID DENSITY
 DFV .                 34:   DRILLING FLUID VISCOSITY
 DFPH.                9.5:   DRILLING FLUID PH
 DFL .               10.4:   DRILLING FLUID LOSS
 BHT .F                76:   BOTTOM HOLE TEMPERATURE
 TCS .HRS               3:   TIME CURCULATED STOPPED
 MRT .F                76:   MAXIMUM RECORDED TEMPERATURE
 LUN .               2958:   LOGGING UNIT NUMBER
 LUL .              CASP.:   LOGGING UNIT LOCATION
 ENGI.             MILLER:   RECORDING ENGINEER
 WITN.           MCGINLEY:   WITNESSED BY
 CLNT.            A2DTECH:   CLIENT CODE
 ORIG.      2" , 5" PRINT:   ORIGIN OF DATA
 UWI .       490251062300:   UNIQUE WELL ID
 DICO. A2D Technologies, Inc.:   DIGITIZING COMPANY
~OTHER INFORMATION
~A   DEPT       GRD      CALD         SN        SPR        ILD       RHOB       DPHI       CORR   
# ...
  267.5000    82.9796     8.0413     7.9695   -38.8205     7.7525     2.5063     0.0993     0.2270
  268.0000    82.3411     7.9342     7.9695   -39.1451     7.6039     2.4987     0.1063     0.1911
  268.5000    82.7631     7.8272     7.9695   -39.1154     7.4818     2.4899     0.1128     0.1556
  269.0000    83.5226     7.7200     7.9695   -39.0759     7.3618     2.4812     0.1112     0.1328
  269.5000    81.4284     7.6129     8.0443   -39.0345     7.2436     2.4756     0.1093     0.1120
  270.0000    80.7648     7.5062     8.1319   -38.9975     7.1273     2.4781     0.1164     0.0913
  270.5000    80.1971     7.4160     8.1925   -38.9666     7.0062     2.4736     0.1296     0.0708
  271.0000    79.7270     7.3548     8.0732   -38.7748     6.8991     2.4620     0.1262     0.0508
  271.5000    79.7610     7.2929     7.9836   -38.8094     6.8186     2.4505     0.1224     0.0484
  272.0000    80.1919     7.2299     7.8948   -38.8483     6.7391     2.4529     0.1233     0.0475
  272.5000    80.1270     7.2518     7.8070   -38.8892     6.6605     2.4562     0.1244     0.0456
  273.0000    78.0461     7.2887     7.7203   -38.9297     6.5689     2.4590     0.1233     0.0438
  273.5000    76.6195     7.3253     7.6345   -38.9702     6.5687     2.4590     0.1203     0.0425
  274.0000    75.9302     7.3664     7.5497   -39.0107     6.5712     2.4579     0.1210     0.0425
  274.5000    75.3499     7.5042     7.4717   -39.0512     6.4424     2.4563     0.1354     0.0427
  275.0000    75.3574     7.6422     7.2880   -39.0916     6.2526     2.4507     0.1417     0.0437
  275.5000    74.0384     7.8213     7.0542   -39.1321     6.0700     2.4411     0.1429     0.0464
  276.0000    71.4034     7.8908     6.8285   -39.1726     5.8825     2.4312     0.1483     0.0520
  276.5000    70.7390     7.8071     6.6103   -39.2131     5.8825     2.4213     0.1569     0.0771
  277.0000    71.3906     7.7190     6.3990   -39.2536     5.8825     2.4114     0.1569     0.1055
  277.5000    71.8141     7.6792     6.2164   -39.2948     5.8825     2.4035     0.1432     0.1466
  278.0000    72.2311     7.6580     6.1594   -39.3389     5.9716     2.4200     0.1169     0.2193
  278.5000    72.5830     7.6599     6.3453   -39.3270     6.1935     2.4457     0.1004     0.2864
  279.0000    72.2165     7.6244     6.5785   -38.8340     6.4238     2.4715     0.1013     0.2890
  279.5000    71.5398     7.5652     6.8203   -38.3234     6.6626     2.4904     0.1031     0.2789
  280.0000    70.5449     7.5019     7.0710   -37.8159     6.9102     2.4900     0.1050     0.2437
  280.5000    68.2964     7.5822     7.3309   -37.7475     7.1364     2.4894     0.1098     0.2087
  281.0000    67.7860     7.6599     7.5978   -37.7480     7.1364     2.4838     0.1171     0.1739
  281.5000    72.4814     7.6080     7.7453   -37.7492     7.1250     2.4733     0.1248     0.1390
  282.0000    77.2482     7.4922     7.8477   -37.7396     7.1099     2.4629     0.1305     0.1041
  282.5000    79.9940     7.3750     7.9565   -37.6620     7.0947     2.4523     0.1356     0.0702
  283.0000    80.4841     7.3271     8.0671   -37.5839     7.0795     2.4441     0.1285     0.0654
  283.5000    80.9636     7.2877     8.1792   -37.5059     7.0706     2.4489     0.1222     0.0598
  284.0000    79.1967     7.2861     8.2931   -37.4276     7.0717     2.4596     0.1204     0.0541
  284.5000    77.9190     7.2928     8.4085   -37.3525     7.0710     2.4639     0.1214     0.0483
  285.0000    79.0266     7.3012     8.4219   -37.3511     7.1364     2.4643     0.1193     0.0427
  285.5000    79.5161     7.3545     8.4480   -37.3816     7.4000     2.4659     0.1163     0.0432
  286.0000    79.7569     7.4426     8.4770   -37.4125     7.7903     2.4674     0.1144     0.0410
  286.5000    79.6886     7.5543     8.5061   -37.4432     8.2011     2.4689     0.1148     0.0444
  287.0000    79.5925     7.7368     8.5354   -37.4737     8.6337     2.4691     0.1169     0.0544
  287.5000    79.1761     7.9126     8.5648   -37.5044     8.8183     2.4695     0.1188     0.0707
  288.0000    78.2277     7.9677     8.5942   -37.5346     8.8998     2.4699     0.1160     0.0912
  288.5000    77.2832     8.0255     8.6238   -37.6715     8.8998     2.4702     0.1116     0.1147
  289.0000    76.4033     8.1011     8.6534   -37.9286     8.8998     2.4706     0.1072     0.1382
  289.5000    76.1535     8.2032     8.6832   -38.4249     8.8998     2.4708     0.1032     0.1609
  290.0000    77.4768     8.2555     8.7131   -43.5610     8.8998     2.4737     0.1003     0.2223
  290.5000    78.5016     8.2562     8.7430   -44.2242     8.8998     2.4973     0.0595     0.2994
  291.0000    78.9950     8.1607     8.7731   -44.1331     8.6976     2.5234     0.0662     0.3093
  291.5000    79.5388     8.0774     8.8033   -44.1235     8.5340     2.5501     0.0729     0.2952
  292.0000    80.3095     8.0461     8.8336   -44.1235     8.3734     2.5529     0.0796     0.2509
  292.5000    82.4775     7.9466     8.8640   -44.1235     8.2159     2.5509     0.0863     0.2072
  293.0000    85.2459     7.8316     8.8948   -44.1235     8.0613     2.5436     0.0930     0.1635
  293.5000    88.7097     7.6463     8.8995   -44.1235     7.9096     2.5261     0.0997     0.1201
  294.0000    91.7537     7.5597     8.9014   -44.1235     7.7608     2.5073     0.1116     0.0865
  294.5000    90.0505     7.4771     8.7364   -44.1235     7.6148     2.4885     0.1253     0.0615
  295.0000    89.7346     7.3938     8.5832   -44.1235     7.4715     2.4698     0.1284     0.0438
  295.5000    87.4786     7.3101     8.4334   -44.1235     7.3310     2.4528     0.1311     0.0405
  296.0000    80.6736     7.2268     8.2863   -44.1235     7.1930     2.4442     0.1332     0.0429
  296.5000    75.4343     7.1602     8.1925   -44.1235     7.0577     2.4427     0.1261     0.0452
  297.0000    78.1119     7.1758     8.1175   -44.1235     6.9249     2.4507     0.1256     0.0466
  297.5000    81.5429     7.1847     8.0431   -44.1235     6.7946     2.4572     0.1256     0.0465
  298.0000    82.8183     7.2275     7.8965   -44.1234     6.6668     2.4601     0.1234     0.0465
  298.5000    83.0143     7.2843     7.7201   -44.1230     6.5414     2.4632     0.1178     0.0464
  299.0000    83.5417     7.3883     7.5572   -44.1262     6.4494     2.4662     0.1144     0.0509
  299.5000    85.7707     7.4906     7.3314   -44.1867     6.3031     2.4690     0.1152     0.0573
  300.0000    84.0330     7.6345     7.3423   -44.2469     6.1996     2.4683     0.1198     0.0636
  300.5000    81.5141     7.8301     6.8760   -44.3092     6.0977     2.4638     0.1298     0.0698
  301.0000    81.7442     7.9053     6.5315   -44.3058     5.9917     2.4544     0.1398     0.0764
  301.5000    83.6179     7.9761     6.2066   -44.2830     5.8825     2.4439     0.1498     0.0867
  302.0000    85.4782     8.0479     5.8979   -44.2596     5.3384     2.4287     0.1605     0.1190
  302.5000    86.8461     8.1216     5.5362   -44.2365     4.6489     2.4095     0.1743     0.1540
  303.0000    87.0475     8.1564     5.1524   -44.2133     4.0484     2.3903     0.1813     0.1892
  303.5000    84.6352     8.1816     4.7951   -44.1902     3.5255     2.3709     0.1825     0.2241
  304.0000    82.0094     8.2074     4.4627   -44.1679     3.3199     2.3602     0.1901     0.2537
  304.5000    81.1456     8.1640     4.1532   -44.1493     3.1826     2.3524     0.1999     0.2506
  305.0000    81.6433     8.0747     3.8653   -44.1129     3.0609     2.3400     0.2098     0.2209
  305.5000    81.9573     7.9846     3.6793   -43.1201     3.0328     2.3276     0.2121     0.1904
  306.0000    78.9389     7.8945     3.7198   -42.0275     3.0328     2.3174     0.1993     0.1601
  306.5000    75.0276     7.8045     3.7808   -41.1114     3.2346     2.3185     0.1791     0.1325
  307.0000    71.1494     7.7145     4.0496   -41.1326     3.5134     2.3385     0.1728     0.1161
  307.5000    70.7731     7.6240     4.3481   -41.1351     3.8678     2.3589     0.1673     0.1000
