~VERSION INFORMATION
 VERS.                2.0:   CWLS LOG ASCII STANDARD - VERSION 2.0
 WRAP.                 NO:   ONE LINE PER DEPTH STEP
~WELL INFORMATION
#MNEM.UNIT      DATA TYPE    INFORMATION
#----------   ------------   ------------------------------
 STRT.F           46.0000:   START DEPTH
 STOP.F         2100.0000:   STOP DEPTH
 STEP.F            0.5000:   STEP LENGTH
 NULL.          -999.2500:   NO VALUE
 COMP. LAWRENCE/ALLISON INC:   COMPANY
 WELL.    58-21 SX #10-10:   WELL
 FLD .             TEAPOT:   FIELD
 LOC .      S10 T38N R78W:   LOCATION
 CNTY.            NATRONA:   COUNTY
 STAT.            WYOMING:   STATE
 CTRY. UNITED STATES OF AMERICA:   COUNTRY
 SRVC.           Gearhart:   SERVICE COMPANY
 DATE.        06-JUL-1987:   LOGDATE
 API .       490251114400:   API NUMBER
~CURVE INFORMATION
#MNEM.UNIT       API CODE    CURVE DESCRIPTION
#----------   ------------   ------------------------------
 DEPT.F                  :   
 GR  .GAPI   81 310 01 00:   GAMMA RAY
 TGAS.UNITS  91 830 01 00:   TOTAL GAS FROM HOTWIRE
 ROP .MIN/FT 91 810 01 00:   RAT OF DRILLING PENETRATION
~PARAMETER INFORMATION
#MNEM.UNIT          VALUE    DESCRIPTION
#----------   ------------   ------------------------------
 PD  .                 GL:   PERMANENT DATUM
 EPD .F              5219:   ELEVATION PERMANENT DATUM
 LMF .                 KB:   LOG MEASURED FROM
 DAPD.F                 8:   FEET ABOVE PERMANENT DATUM
 DMF .                 KB:   DRILLING MEASURED FROM
 EKB .F              5227:   KELLING BUSHING
 EDF .F              5225:   DRILLING FLOOR
 EGL .F              5219:   GROUND LEVEL
 DATE.             7-6-87:   RUN DATE
 RUN .                  1:   RUN NUMBER
 DD  .F               610:   DEPTH DRILLER
 DL  .F             531.5:   DEPTH LOGGER
 BLI .F               526:   BOTTOM LOG INTERVAL
 TLI .F                50:   TOP LOG INTERVAL
 BS  .IN            7.875:   BIT SIZE
 BSD .F               610:   BIT SIZE AT DEPTH
 DFT .              WATER:   DRILLING FLUID TYPE
 LUN .               6084:   LOGGING UNIT NUMBER
 LUL .           GILLETTE:   LOGGING UNIT LOCATION
 ENGI.                COX:   RECORDING ENGINEER
 WITN.               LOWE:   WITNESSED BY
 CLNT.            A2DTECH:   CLIENT CODE
 ORIG.           5" PRINT:   ORIGIN OF DATA
 UWI .       490251114400:   UNIQUE WELL ID
 DICO. A2D Technologies, Inc.:   DIGITIZING COMPANY
~OTHER INFORMATION
~A   DEPT        GR      TGAS        ROP   
# ...
 1593.0000  -999.2500    51.8602     1.2658
 1593.5000  -999.2500    51.8864     1.3893
 1594.0000  -999.2500    51.8941     1.5127
 1594.5000  -999.2500    51.8942     1.6360
 1595.0000  -999.2500    51.8937     1.7597
 1595.5000  -999.2500    51.8669     1.8833
 1596.0000  -999.2500    51.8109     2.0031
 1596.5000  -999.2500    51.7553     2.0201
 1597.0000  -999.2500    51.6995     2.0209
 1597.5000  -999.2500    51.6437     2.0226
 1598.0000  -999.2500    51.5880     2.0245
 1598.5000  -999.2500    51.5322     2.0263
 1599.0000  -999.2500    51.4775     2.0282
 1599.5000  -999.2500    51.4243     2.0306
 1600.0000  -999.2500    51.3908     2.0442
 1600.5000  -999.2500    50.8171     1.9904
 1601.0000  -999.2500    48.2446     1.9303
 1601.5000  -999.2500    44.0076     1.8704
 1602.0000  -999.2500    35.5802     1.8112
 1602.5000  -999.2500    27.2373     1.7682
 1603.0000  -999.2500    18.6315     1.7796
 1603.5000  -999.2500    15.2272     1.8729
 1604.0000  -999.2500    13.6643     1.9664
 1604.5000  -999.2500    13.1707     2.0430
 1605.0000  -999.2500    12.6084     2.0444
 1605.5000  -999.2500    12.0482     2.0327
 1606.0000  -999.2500    11.8061     1.9933
 1606.5000  -999.2500    11.8619     1.8853
 1607.0000  -999.2500    11.9212     1.6530
 1607.5000  -999.2500    11.9815     1.4244
 1608.0000  -999.2500    12.0413     1.1982
 1608.5000  -999.2500    12.1011     1.0421
 1609.0000  -999.2500    12.1591     1.1115
 1609.5000  -999.2500    12.2108     1.1835
 1610.0000  -999.2500    12.3081     1.2562
 1610.5000  -999.2500    14.1097     1.3537
 1611.0000  -999.2500    16.3456     1.5968
 1611.5000  -999.2500    20.0110     1.8415
 1612.0000  -999.2500    23.7106     2.0836
 1612.5000  -999.2500    27.5163     2.2571
 1613.0000  -999.2500    29.6867     2.2066
 1613.5000  -999.2500    30.3425     2.1225
 1614.0000  -999.2500    30.3345     2.0390
 1614.5000  -999.2500    30.3351     1.9668
 1615.0000  -999.2500    30.3343     1.9777
 1615.5000  -999.2500    30.3349     1.9928
 1616.0000  -999.2500    30.3350     1.9756
 1616.5000  -999.2500    30.2937     1.8297
 1617.0000  -999.2500    30.9958     1.6842
 1617.5000  -999.2500    31.9048     1.4749
 1618.0000  -999.2500    34.1578     1.1442
 1618.5000  -999.2500    36.5481     1.0134
 1619.0000  -999.2500    38.9453     1.2374
 1619.5000  -999.2500    41.3661     1.5652
 1620.0000  -999.2500    43.1695     1.7562
 1620.5000  -999.2500    44.8474     2.1130
 1621.0000  -999.2500    46.5191     2.4695
 1621.5000  -999.2500    48.1875     2.8260
 1622.0000  -999.2500    49.7817     3.2244
 1622.5000  -999.2500    49.7520     3.7151
 1623.0000  -999.2500    49.6040     4.1562
 1623.5000  -999.2500    49.4556     6.9938
 1624.0000  -999.2500    49.3106     8.0113
 1624.5000  -999.2500    49.1657     7.7437
 1625.0000  -999.2500    49.0208     7.2383
 1625.5000  -999.2500    48.8759     6.7422
 1626.0000  -999.2500    48.7313     6.5350
 1626.5000  -999.2500    48.5851     4.9720
 1627.0000  -999.2500    48.4471     5.0301
 1627.5000  -999.2500    47.8126     1.9615
 1628.0000  -999.2500    46.8882     1.3000
 1628.5000  -999.2500    45.9575     1.0868
 1629.0000  -999.2500    45.0249     0.9787
 1629.5000  -999.2500    44.0974     0.8745
 1630.0000  -999.2500    43.3513     0.7962
 1630.5000  -999.2500    43.3253     0.9236
 1631.0000  -999.2500    43.2843     1.0531
 1631.5000  -999.2500    43.2419     1.1823
 1632.0000  -999.2500    43.1993     1.3045
 1632.5000  -999.2500    43.1567     1.2802
 1633.0000  -999.2500    43.1142     1.1707
 1633.5000  -999.2500    43.0716     1.0634
 1634.0000  -999.2500    43.0290     0.9363
 1634.5000  -999.2500    42.9864     0.8075
 1635.0000  -999.2500    42.9438     0.6787
 1635.5000  -999.2500    42.9013     0.5696
 1636.0000  -999.2500    42.8666     0.5677
 1636.5000  -999.2500    42.8587     0.5674
 1637.0000  -999.2500    42.8504     0.5669
 1637.5000  -999.2500    42.8421     0.5663
 1638.0000  -999.2500    42.8338     0.5657
 1638.5000  -999.2500    42.8255     0.5651
 1639.0000  -999.2500    42.8172     0.5645
 1639.5000  -999.2500    42.8088     0.5639
 1640.0000  -999.2500    42.8005     0.5633
 1640.5000  -999.2500    42.7922     0.5627
 1641.0000  -999.2500    42.7839     0.5621
 1641.5000  -999.2500    42.7756     0.5615
 1642.0000  -999.2500    42.7672     0.5609
 1642.5000  -999.2500    42.7589     0.5603
 1643.0000  -999.2500    42.7506     0.5597
 1643.5000  -999.2500    42.7423     0.5591
 1644.0000  -999.2500    42.7340     0.5585
 1644.5000  -999.2500    42.7257     0.5579
 1645.0000  -999.2500    42.7173     0.5572
 1645.5000  -999.2500    42.7090     0.5562
 1646.0000  -999.2500    42.7007     0.5577
 1646.5000  -999.2500    42.6924     0.6236
 1647.0000  -999.2500    42.6841     0.6867
 1647.5000  -999.2500    42.6758     0.7496
 1648.0000  -999.2500    42.6674     0.8040
 1648.5000  -999.2500    42.6591     0.8066
 1649.0000  -999.2500    42.6508     0.8064
 1649.5000  -999.2500    42.6425     0.8062
 1650.0000  -999.2500    42.6342     0.8010
 1650.5000  -999.2500    42.6258     0.7445
 1651.0000  -999.2500    42.6175     0.6745
 1651.5000  -999.2500    42.6092     0.6052
 1652.0000  -999.2500    42.6009     0.5420
 1652.5000  -999.2500    42.5926     0.5447
 1653.0000  -999.2500    42.5843     0.5539
 1653.5000  -999.2500    42.5759     0.5631
 1654.0000  -999.2500    42.5676     0.5723
 1654.5000  -999.2500    42.5593     0.5814
 1655.0000  -999.2500    42.5510     0.5906
 1655.5000  -999.2500    42.5427     0.5997
 1656.0000  -999.2500    42.5343     0.6090
 1656.5000  -999.2500    42.5260     0.6183
 1657.0000  -999.2500    42.5177     0.6192
 1657.5000  -999.2500    42.5094     0.6196
 1658.0000  -999.2500    42.5011     0.6201
 1658.5000  -999.2500    42.4927     0.6205
 1659.0000  -999.2500    42.4844     0.6209
 1659.5000  -999.2500    42.4761     0.6214
 1660.0000  -999.2500    42.4678     0.6219
 1660.5000  -999.2500    42.4595     0.6223
 1661.0000  -999.2500    42.4512     0.6227
 1661.5000  -999.2500    42.4428     0.6232
 1662.0000  -999.2500    42.4345     0.6236
 1662.5000  -999.2500    42.4262     0.6241
 1663.0000  -999.2500    42.4179     0.6245
 1663.5000  -999.2500    42.4096     0.6250
 1664.0000  -999.2500    42.4013     0.6254
 1664.5000  -999.2500    42.3929     0.6259
 1665.0000  -999.2500    42.3838     0.6263
 1665.5000  -999.2500    42.3703     0.6268
 1666.0000  -999.2500    42.3751     0.6272
 1666.5000  -999.2500    42.8648     0.6277
 1667.0000  -999.2500    43.8585     0.6281
 1667.5000  -999.2500    44.7329     0.6286
 1668.0000  -999.2500    45.5942     0.6290
 1668.5000  -999.2500    46.4602     0.6295
 1669.0000  -999.2500    47.3253     0.6299
 1669.5000  -999.2500    48.2046     0.6304
 1670.0000  -999.2500    48.5088     0.6309
 1670.5000  -999.2500    48.9419     0.6308
 1671.0000  -999.2500    49.3824     0.6124
 1671.5000  -999.2500    49.7993     0.5931
 1672.0000  -999.2500    50.2160     0.5738
 1672.5000  -999.2500    50.6401     0.5545
 1673.0000  -999.2500    51.4723     0.5348
 1673.5000  -999.2500    51.8672     0.5312
 1674.0000  -999.2500    51.8528     0.5317
 1674.5000  -999.2500    51.8242     0.5323
 1675.0000  -999.2500    51.7979     0.5329
 1675.5000  -999.2500    51.7725     0.5335
 1676.0000  -999.2500    51.7472     0.5341
 1676.5000  -999.2500    51.7218     0.5347
 1677.0000  -999.2500    51.6964     0.5353
 1677.5000  -999.2500    51.6711     0.5359
 1678.0000  -999.2500    51.6457     0.5365
 1678.5000  -999.2500    51.6203     0.5372
 1679.0000  -999.2500    51.5949     0.5378
 1679.5000  -999.2500    51.5696     0.5383
 1680.0000  -999.2500    51.5442     0.5390
 1680.5000  -999.2500    51.5188     0.5396
 1681.0000  -999.2500    51.4934     0.5402
 1681.5000  -999.2500    51.4681     0.5408
 1682.0000  -999.2500    51.4399     0.5414
 1682.5000  -999.2500    51.4085     0.5420
 1683.0000  -999.2500    51.5093     0.5425
 1683.5000  -999.2500    51.8469     0.5430
