~VERSION INFORMATION
 VERS.                2.0:   CWLS LOG ASCII STANDARD - VERSION 2.0
 WRAP.                 NO:   ONE LINE PER DEPTH STEP
~WELL INFORMATION
#MNEM.UNIT      DATA TYPE    INFORMATION
#----------   ------------   ------------------------------
 STRT.F           22.0000:   START DEPTH
 STOP.F          500.0000:   STOP DEPTH
 STEP.F            0.5000:   STEP LENGTH
 NULL.          -999.2500:   NO VALUE
 COMP.    FENIX & SCISSON:   COMPANY
 WELL.      NPR-3 #65S3-3:   WELL
 FLD .             teapot:   FIELD
 LOC .       S3 T38N R78W:   LOCATION
 CNTY.            NATRONA:   COUNTY
 STAT.            WYOMING:   STATE
 CTRY. UNITED STATES OF AMERICA:   COUNTRY
 SRVC.           BIRDWELL:   SERVICE COMPANY
 DATE.        07-JAN-1978:   LOGDATE
 API .       490251055200:   API NUMBER
~CURVE INFORMATION
#MNEM.UNIT       API CODE    CURVE DESCRIPTION
#----------   ------------   ------------------------------
 DEPT.F                  :   
 ILD .OHMM   05 120 46 00:   INDUCTION LOG DEEP
 SN  .OHMM   05 040 16 00:   SHORT NORMAL 16"
 SPR .MV     05 010 01 00:   SPONTANEOUS POTENTIAL FROM RES.
 CALD.IN     45 280 60 00:   CALIPER FROM DENSITY LOG
 DPHI.DEC    45 890 12 00:   DENSITY POROSITY SANDSTONE
 DRHO.G/C3   45 356 01 00:   DENSITY CORRECTION
 GRD .GAPI   45 310 01 00:   GAMMA RAY FROM DENSITY LOG
 RHOB.G/C3   45 350 01 00:   BULK DENSITY
~PARAMETER INFORMATION
#MNEM.UNIT          VALUE    DESCRIPTION
#----------   ------------   ------------------------------
 PD  .                 GL:   PERMANENT DATUM
 EPD .F              5156:   ELEVATION PERMANENT DATUM
 LMF .                 KB:   LOG MEASURED FROM
 DAPD.F                 4:   FEET ABOVE PERMANENT DATUM
 DMF .                 KB:   DRILLING MEASURED FROM
 EKB .F              5160:   KELLING BUSHING
 EGL .F              5156:   GROUND LEVEL
 DATE.        07-JAN-1978:   RUN DATE
 RUN .                  1:   RUN NUMBER
 DD  .F               500:   DEPTH DRILLER
 DL  .F               502:   DEPTH LOGGER
 BLI .F               500:   BOTTOM LOG INTERVAL
 TLI .F                30:   TOP LOG INTERVAL
 CS  .IN            8.625:   CASING SIZE
 CBD .F                40:   CASING BOTTOM DRILLER
 CBL .F                40:   CASING BOTTOM LOGGER
 BS  .IN            7.875:   BIT SIZE
 BSD .F               500:   BIT SIZE AT DEPTH
 DFT .                KCL:   DRILLING FLUID TYPE
 DFD .                8.6:   DRILLING FLUID DENSITY
 DFV .                 33:   DRILLING FLUID VISCOSITY
 DFPH.                9.0:   DRILLING FLUID PH
 DFL .                7.6:   DRILLING FLUID LOSS
 MSS .           FLOWLINE:   MUD SAMPLE SOURCE
 RMS .OHMM           0.23:   RESISTIVITY MUD SAMPLE
 MST .F                60:   MUD SAMPLE TEMPERATURE
 RMF .OHMM            2.2:   RESISTIVITY MUD FILTRATE SAMPLE
 MFST.F                60:   MUD FILTRATE SAMPLE TEMPERATURE
 RMC .OHMM            3.4:   RESISTIVITY MUD CAKE
 MCST.F                60:   MUD CAKE SAMPLE TEMPERATURE
 MFSS.               MEAS:   MUD FILTRATE SAMPLE SOURCE
 MCSS.               MEAS:   MUD CAKE SAMPLE SOURCE
 RMB .OHMM            1.9:   RESISTIVITY MUD AT BHT
 BHT .F                71:   BOTTOM HOLE TEMPERATURE
 TCS .HRS               8:   TIME CURCULATED STOPPED
 MRT .F                71:   MAXIMUM RECORDED TEMPERATURE
 LUN .               2958:   LOGGING UNIT NUMBER
 LUL .             CASPER:   LOGGING UNIT LOCATION
 ENGI.            POINTER:   RECORDING ENGINEER
 WITN.      DAVE MCGINLEY:   WITNESSED BY
 CLNT.            A2DTECH:   CLIENT CODE
 ORIG.           5" PRINT:   ORIGIN OF DATA
 UWI .       490251055200:   UNIQUE WELL ID
 DICO. A2D Technologies, Inc.:   DIGITIZING COMPANY
~OTHER INFORMATION
~A   DEPT      ILD         SN        SPR       CALD       DPHI       DRHO         GRD      RHOB   
# ...
  143.5000     8.4848    12.0620   -35.3523     8.0501     0.1105     0.0113    98.0862     2.4528
  144.0000     8.5328    12.1335   -35.5229     8.0504     0.1113     0.0113    98.7049     2.4521
  144.5000     8.5233    12.1171   -35.8449     8.0507     0.1107     0.0106    98.7283     2.4566
  145.0000     8.4528    12.1041   -36.0155     8.0510     0.1104     0.0084    98.1507     2.4596
  145.5000     8.3850    12.0910   -36.0348     8.0513     0.1110     0.0054    97.2871     2.4604
  146.0000     8.3177    12.0780   -36.0583     8.0666     0.1125     0.0084    96.4177     2.4499
  146.5000     8.3088    12.0650   -36.0773     8.0669     0.1148     0.0130    94.6554     2.4515
  147.0000     8.2421    12.0516   -36.3994     8.0672     0.1100     0.0160    93.7857     2.4575
  147.5000     8.2332    11.9520   -36.7214     8.0524     0.1127     0.0123    94.4097     2.4612
  148.0000     8.2188    12.0261   -36.1344     8.0528     0.1202     0.0085    96.5595     2.4538
  148.5000     8.0995    12.0099   -35.3959     8.0531     0.1172     0.0116    97.7688     2.4463
  149.0000     8.0345    11.9969   -35.4151     8.0684     0.1162     0.0154    98.0464     2.4433
  149.5000     7.9700    11.9840   -35.4387     8.0687     0.1184     0.0139    95.6948     2.4433
  150.0000     7.9061    11.9699   -35.4577     8.0088     0.1147     0.0147    96.3115     2.4434
  150.5000     8.0094    11.8730   -35.4767     8.0100     0.1126     0.0163    96.0313     2.4472
  151.0000     7.9979    11.8593   -35.4958     8.0108     0.1123     0.0163    96.3581     2.4547
  151.5000     7.9888    11.9287   -35.5148     7.9817     0.1150     0.0111    97.5719     2.4563
  152.0000     7.9796    11.9144   -35.5338     7.9526     0.1180     0.0058    96.7024     2.4533
  152.5000     7.9704    11.9847   -35.3817     7.9535     0.1134     0.0066    95.5352     2.4473
  153.0000     7.9610    11.9674   -35.5715     7.9544     0.1101     0.0104    95.2609     2.4490
  153.5000     7.9498    11.8705   -36.6532     7.9555     0.1089     0.0135    97.9687     2.4550
  154.0000     7.8855    11.8569   -37.2861     7.9714     0.1089     0.0112   100.0695     2.4580
  154.5000     7.8764    11.8432   -37.3083     7.9723     0.1092     0.0173    98.3129     2.4596
  155.0000     7.8674    11.8296   -37.3305     7.9731     0.1083     0.0189    94.4614     2.4626
  155.5000     7.8583    11.8988   -37.5053     7.9740     0.1088     0.0151    95.9786     2.4642
  156.0000     7.8493    11.7990   -37.5275     7.9749     0.1178     0.0090    97.7877     2.4613
  156.5000     7.7857    11.6220   -37.5497     7.9758     0.1169     0.0107    98.1086     2.4485
  157.0000     7.7168    11.4476   -37.5725     7.9767     0.1133     0.0145    97.8343     2.4403
  157.5000     7.6048    11.3549   -37.7523     7.9776     0.1112     0.0168    96.0719     2.4457
  158.0000     7.4387    11.1067   -38.3852     7.9934     0.1131     0.0153    96.3929     2.4540
  158.5000     7.2762    11.0168   -39.1708     7.9943     0.1178     0.0131    97.3095     2.4578
  159.0000     7.0187    10.7760   -39.3457     8.0102     0.1139     0.0177    95.4484     2.4480
  159.5000     6.8654    10.6830   -39.3679     8.0111     0.1129     0.0162    94.9747     2.4490
  160.0000     6.6687    10.4520   -39.3901     8.0122     0.1192     0.0124    96.7896     2.4564
  160.5000     6.5688    10.3674   -39.1069     8.0131     0.1132     0.0200    95.3248     2.4400
  161.0000     6.4701    10.2118   -39.2824     8.0139     0.1117     0.0246    94.4495     2.4483
  161.5000     6.4610    10.2001   -39.6149     8.0148     0.1147     0.0239    94.1810     2.4528
  162.0000     6.4536    10.1884   -39.6371     8.0157     0.1186     0.0186    94.5019     2.4506
  162.5000     6.4932    10.2480   -39.6593     8.0166     0.1218     0.0141    94.5253     2.4447
  163.0000     6.4838    10.3801   -38.7654     8.0175     0.1119     0.0119    94.8462     2.4380
  163.5000     6.5674    10.6681   -38.4823     8.0183     0.1110     0.0127    95.7624     2.4395
  164.0000     6.7455    10.7994   -38.6572     8.0192     0.1131     0.0112    97.5714     2.4568
  164.5000     6.9776    10.8626   -38.8331     8.0201     0.1176     0.0037    98.1905     2.4616
  165.0000     7.1164    10.9230   -39.1807     8.0210     0.1140     0.0060    97.5694     2.4487
  165.5000     7.0567    10.9104   -39.3400     8.0219     0.1109     0.0098    95.8615     2.4405
  166.0000     7.0486    10.9774   -39.3622     8.0228     0.1112     0.0091    95.2838     2.4460
  166.5000     7.0405    10.9616   -39.5371     8.0239     0.1073     0.0129    95.3129     2.4541
  167.0000     7.0324    10.9490   -39.7119     8.0247     0.1115     0.0175    95.9315     2.4602
  167.5000     7.0735    10.9361   -40.1921     8.0256     0.1145     0.0160    96.8477     2.4557
  168.0000     7.0163    10.8447   -40.3670     8.0265     0.1115     0.0176    97.1686     2.4573
  168.5000     7.0082    10.6820   -40.3893     8.0122     0.1157     0.0116    97.1919     2.4581
  169.0000     7.0002    10.4485   -40.5649     8.0133     0.1180     0.0071    96.9176     2.4506
  169.5000     7.0411    10.3639   -40.5918     7.9842     0.1186     0.0094    96.0481     2.4424
  170.0000     7.0310    10.2799   -40.6140     7.9851     0.1174     0.0102    94.8810     2.4432
  170.5000     6.9741    10.2681   -40.6362     8.0009     0.1165     0.0102    93.6895     2.4485
  171.0000     6.8695    10.1141   -40.2004     8.0018     0.1162     0.0110    93.0932     2.4531
  171.5000     6.7195     9.9620   -39.9173     8.0027     0.1201     0.0020    93.1710     2.4531
  172.0000     6.5727     9.8100   -40.0921     8.0036     0.1288     0.0028    94.3848     2.4439
  172.5000     6.2058     9.5956   -41.3359     8.0045     0.1342     0.0066    95.0034     2.4135
  173.0000     5.8581     9.4517   -41.3832     8.0056     0.1299     0.0112    93.2410     2.4218
  173.5000     5.6953     9.3751   -41.8437     8.0065     0.1272     0.0165    93.2643     2.4256
  174.0000     5.6888     9.2992   -41.5605     8.0223     0.1284     0.0195    94.4781     2.4271
  174.5000     5.6822     9.2238   -41.4245     8.0232     0.1308     0.0181    96.2872     2.4257
  175.0000     5.6757     9.2778   -41.1469     8.0241     0.1344     0.0128    97.5010     2.4167
  175.5000     5.7105     9.3483   -41.1691     8.0250     0.1368    -0.0022    96.3338     2.4115
  176.0000     5.7824     9.7854   -41.0382     8.0107     0.1450    -0.0173    96.3571     2.3681
  176.5000     5.9411    10.2638   -41.0608     7.9965     0.1482    -0.0021    97.0010     2.4019
  177.0000     6.2957    10.8410   -40.9303     7.9976     0.1199     0.0024    98.2401     2.4199
  177.5000     7.0038    11.2133   -40.9581     7.9985     0.1247     0.0040   100.0044     2.4380
  178.0000     7.2949    11.3579   -40.9803     7.9844     0.1076     0.0139   100.6229     2.4553
  178.5000     7.3910    11.4247   -41.1552     7.9853     0.1042     0.0154   100.6463     2.4651
  179.0000     7.4342    11.4112   -41.1773     7.9862     0.1021     0.0161   100.0743     2.4704
  179.5000     7.4236    11.4888   -41.1995     7.9873     0.1015     0.0169    98.6096     2.4720
  180.0000     7.4150    11.5451   -41.2217     7.9882     0.1015     0.0207    97.1448     2.4720
  180.5000     7.4064    11.6093   -41.2443     8.0040     0.0979     0.0246    95.6800     2.4766
  181.0000     7.4477    11.7590   -41.2717     8.0049     0.0910     0.0253    94.5129     2.4850
  181.5000     7.5965    11.9976   -41.4466     8.0058     0.0927     0.0224    93.3457     2.4909
  182.0000     7.7505    12.1523   -41.3105     8.0067     0.0978     0.0081    94.5595     2.4865
  182.5000     7.6321    12.3059   -40.8803     8.0226     0.1128     0.0134    96.9891     2.4685
  183.0000     7.7304    12.2913   -39.9864     8.0234     0.1023     0.0172    97.5824     2.4663
  183.5000     7.7779    12.1913   -39.8560     8.0243     0.1005     0.0202    96.7187     2.4686
