~VERSION INFORMATION
 VERS.                2.0:   CWLS LOG ASCII STANDARD - VERSION 2.0
 WRAP.                 NO:   ONE LINE PER DEPTH STEP
~WELL INFORMATION
#MNEM.UNIT      DATA TYPE    INFORMATION
#----------   ------------   ------------------------------
 STRT.F          660.0000:   START DEPTH
 STOP.F         2899.5000:   STOP DEPTH
 STEP.F            0.5000:   STEP LENGTH
 NULL.          -999.2500:   NO VALUE
 COMP. LAWRENCE/ALLISON INC:   COMPANY
 WELL. NPR #3 22 X 10 #22-10:   WELL
 FLD .             TEAPOT:   FIELD
 LOC .      S10 T38N R78W:   LOCATION
 CNTY.            NATRONA:   COUNTY
 STAT.            WYOMING:   STATE
 CTRY. UNITED STATES OF AMERICA:   COUNTRY
 SRVC.            Unknown:   SERVICE COMPANY
 DATE.        11-SEP-1986:   LOGDATE
 API .       490251106200:   API NUMBER
~CURVE INFORMATION
#MNEM.UNIT       API CODE    CURVE DESCRIPTION
#----------   ------------   ------------------------------
 DEPT.F                  :   
 ROP .MIN/FT 91 810 01 00:   RATE OF DRILLING PENETRATION
 TGAS.UNITS  91 830 01 00:   TOTAL GAS FROM HOTWIRE
~PARAMETER INFORMATION
#MNEM.UNIT          VALUE    DESCRIPTION
#----------   ------------   ------------------------------
 DATE.          9-11-1986:   RUN DATE
 DD  .F              2900:   DEPTH DRILLER
 TLI .F              1380:   TOP LOG INTERVAL
 WITN. R. HUSK/K. FREDERICK:   WITNESSED BY
 CLNT.            A2DTECH:   CLIENT CODE
 ORIG.           5" PRINT:   ORIGIN OF DATA
 UWI .       490251106200:   UNIQUE WELL ID
 DICO. A2D Technologies, Inc.:   DIGITIZING COMPANY
~OTHER INFORMATION
~A   DEPT      ROP         TGAS 
# ...
  781.5000     0.8035     6.0434
  782.0000     0.8021     6.0264
  782.5000     0.8007     6.0095
  783.0000     0.7993     5.9925
  783.5000     0.7979     5.9755
  784.0000     0.7965     5.9586
  784.5000     0.7951     5.9416
  785.0000     0.7938     5.9246
  785.5000     0.7924     5.9077
  786.0000     0.7910     5.8907
  786.5000     0.7896     5.8737
  787.0000     0.7882     5.8568
  787.5000     0.7868     5.8398
  788.0000     0.7854     5.8228
  788.5000     0.7840     5.8059
  789.0000     0.7827     5.7889
  789.5000     0.7813     5.7719
  790.0000     0.7799     5.7550
  790.5000     0.7785     5.7380
  791.0000     0.7771     5.7210
  791.5000     0.7757     5.7041
  792.0000     0.7743     5.6871
  792.5000     0.7730     5.6701
  793.0000     0.7716     5.6531
  793.5000     0.7902     5.6362
  794.0000     0.8393     5.6192
  794.5000     0.8945     5.6022
  795.0000     0.9440     5.5853
  795.5000     0.9818     5.5683
  796.0000     1.0081     5.5513
  796.5000     1.0294     5.5344
  797.0000     1.0438     5.5174
  797.5000     1.0327     5.5004
  798.0000     1.0087     5.4835
  798.5000     0.9771     5.4665
  799.0000     0.9184     5.4495
  799.5000     0.8572     5.4326
  800.0000     0.8075     5.4156
  800.5000     0.7865     5.3986
  801.0000     0.7834     5.3817
  801.5000     0.7831     5.3647
  802.0000     0.7827     5.3477
  802.5000     0.7823     5.3308
  803.0000     0.7820     5.3138
  803.5000     0.7816     5.2968
  804.0000     0.7812     5.2799
  804.5000     0.7809     5.2629
  805.0000     0.7805     5.2459
  805.5000     0.7802     5.2290
  806.0000     0.7798     4.6572
  806.5000     0.7794    10.2373
  807.0000     0.7791    15.6870
  807.5000     0.7787    11.2567
  808.0000     0.7783     8.0173
  808.5000     0.7780     6.1792
  809.0000     0.7776     6.1515
  809.5000     0.7772     6.1238
  810.0000     0.7769     6.0961
  810.5000     0.7765     6.0683
  811.0000     0.7761     6.0406
  811.5000     0.7758     6.0129
  812.0000     0.7754     5.9852
  812.5000     0.7751     5.9575
  813.0000     0.7747     5.9298
  813.5000     0.7743     5.9021
  814.0000     0.7740     5.8744
  814.5000     0.7736     5.8467
  815.0000     0.7732     5.8190
  815.5000     0.7729     5.7913
  816.0000     0.8075     5.7635
  816.5000     0.8808     5.7358
  817.0000     0.9397     5.7081
  817.5000     0.9705     5.6804
  818.0000     0.9708     5.6527
  818.5000     0.9361     5.6250
  819.0000     0.9050     5.5973
  819.5000     0.8731     5.5696
  820.0000     0.8296     5.5419
  820.5000     0.8175     5.5817
  821.0000     0.8157     5.6215
  821.5000     0.8138     5.6614
  822.0000     0.8119     5.7012
  822.5000     0.8100     5.7410
  823.0000     0.8081     5.7808
  823.5000     0.8062     5.8207
  824.0000     0.8043     5.8605
  824.5000     0.8024     5.9003
  825.0000     0.8005     5.9402
  825.5000     0.7986     5.9800
  826.0000     0.7967     6.0198
  826.5000     0.7948     6.0596
  827.0000     0.7929     6.0995
  827.5000     0.7910     6.1393
  828.0000     0.7891     6.1791
  828.5000     0.7872     6.2189
  829.0000     0.7853     6.2588
  829.5000     0.7834     6.2986
  830.0000     0.7815     6.3384
  830.5000     0.7796     6.3783
  831.0000     0.7777     6.4181
  831.5000     0.7756     6.4579
  832.0000     0.8185     6.4977
  832.5000     0.8614     6.5376
  833.0000     0.9063     6.5774
  833.5000     0.9483     6.6172
  834.0000     0.9571     6.6571
  834.5000     0.9017     6.6969
  835.0000     0.8566     6.7367
  835.5000     0.8129     6.7765
  836.0000     0.7701     6.8164
  836.5000     0.7619     6.9458
  837.0000     0.7605     7.9712
  837.5000     0.7591    11.7767
  838.0000     0.7577    15.9512
  838.5000     0.7564    12.5340
  839.0000     0.7550     8.7007
  839.5000     0.7536     7.2321
  840.0000     0.7522     7.2044
  840.5000     0.7525     7.1654
  841.0000     0.7527     7.1210
  841.5000     0.7530     7.0765
  842.0000     0.7533     7.0321
  842.5000     0.7535     6.9877
  843.0000     0.7538     6.9432
  843.5000     0.7540     6.8988
  844.0000     0.7543     6.8544
  844.5000     0.7546     6.8100
  845.0000     0.7548     6.7655
  845.5000     0.7551     6.7211
  846.0000     0.7553     6.6767
  846.5000     0.7556     6.6322
  847.0000     0.7559     6.5878
  847.5000     0.7561     6.5434
  848.0000     0.7564     6.4990
  848.5000     0.7566     6.4545
  849.0000     0.7569     6.4101
  849.5000     0.7572     6.3657
  850.0000     0.7574     6.3212
  850.5000     0.7577     6.2768
  851.0000     0.7579     6.2324
  851.5000     0.7582     6.1879
  852.0000     0.7584     6.1435
  852.5000     0.7587     6.0991
  853.0000     0.7590     6.0547
  853.5000     0.7620     6.0102
  854.0000     0.8071     5.9658
  854.5000     0.8638     5.9214
  855.0000     0.9274     5.8769
  855.5000     0.9676     5.8325
  856.0000     0.9848     5.7881
  856.5000     0.9178     5.7436
  857.0000     0.8681     5.6992
  857.5000     0.8131     5.6548
  858.0000     0.7662     5.6104
  858.5000     0.7342     5.5659
  859.0000     0.7329     5.5215
  859.5000     0.7315     5.4771
  860.0000     0.7301     5.4326
  860.5000     0.7287     5.3882
  861.0000     0.7273     5.3438
  861.5000     0.7276     5.2993
  862.0000     0.7268     5.2549
  862.5000     0.7259     5.2105
  863.0000     0.7251     5.1661
  863.5000     0.7243     5.1216
  864.0000     0.7235     5.0772
  864.5000     0.7267     5.0328
  865.0000     0.7329     4.9883
  865.5000     0.7320     4.9439
  866.0000     0.7507     4.8995
  866.5000     0.8054     4.8551
  867.0000     0.8725     4.8106
  867.5000     0.9339     4.7786
  868.0000     0.9602     9.1986
  868.5000     0.9286    13.6186
  869.0000     0.8840    11.3884
  869.5000     0.8359     8.5715
  870.0000     0.7854     6.3501
  870.5000     0.7680     5.8051
  871.0000     0.7597     5.7925
  871.5000     0.7553     5.8110
  872.0000     0.7624     5.8280
  872.5000     0.7647     5.8449
  873.0000     0.7638     5.8618
  873.5000     0.7630     5.8787
  874.0000     0.7731     5.8956
  874.5000     0.7723     5.9125
  875.0000     0.7715     5.9294
  875.5000     0.7706     5.9463
  876.0000     0.7698     5.9633
  876.5000     0.7690     5.9802
  877.0000     0.7682     5.9971
  877.5000     0.7785     6.0140
  878.0000     0.8108     6.0309
  878.5000     0.8552     6.0478
  879.0000     0.9219     6.0647
  879.5000     0.9763     6.0816
  880.0000     1.0177     6.1006
  880.5000     1.0277     6.1421
  881.0000     1.0265     6.1836
  881.5000     1.0232     6.2252
  882.0000     1.0074     6.2667
  882.5000     0.9790     6.3082
  883.0000     0.9248     6.3498
  883.5000     0.8566     6.3913
  884.0000     0.8083     6.4328
  884.5000     0.7732     6.4744
  885.0000     0.7559     6.5159
  885.5000     0.7511     6.5574
  886.0000     0.7387     6.5990
  886.5000     0.7377     6.6405
  887.0000     0.7367     6.6820
  887.5000     0.7356     6.7236
  888.0000     0.7345     6.7651
  888.5000     0.7335     6.8067
  889.0000     0.7436     6.8482
  889.5000     0.7482     6.8897
  890.0000     0.7670     6.9313
  890.5000     0.7732     6.9728
  891.0000     0.7721     7.0143
  891.5000     0.7769     7.0559
  892.0000     0.7942     7.0974
  892.5000     0.8462     7.1389
  893.0000     0.9159     7.1805
  893.5000     0.9766     7.2220
  894.0000     0.9866     7.2635
  894.5000     0.9302     7.3051
  895.0000     0.8628     7.3466
  895.5000     0.8042     7.3881
  896.0000     0.7721     7.4297
  896.5000     0.7710     7.4712
  897.0000     0.7699     7.5128
  897.5000     0.7688     7.5543
  898.0000     0.7677     7.5958
  898.5000     0.7666     7.6374
  899.0000     0.7714     7.6789
  899.5000     0.7688     7.7204
  900.0000     0.7640     6.9253
  900.5000     0.7641     6.2898
  901.0000     0.7641    11.5640
  901.5000     0.7642     8.9317
  902.0000     0.7642     5.4035
  902.5000     0.7643     3.6022
