~VERSION INFORMATION
 VERS.                2.0:   CWLS LOG ASCII STANDARD - VERSION 2.0
 WRAP.                 NO:   ONE LINE PER DEPTH STEP
~WELL INFORMATION
#MNEM.UNIT      DATA TYPE    INFORMATION
#----------   ------------   ------------------------------
 STRT.F           30.0000:   START DEPTH
 STOP.F          677.0000:   STOP DEPTH
 STEP.F            0.5000:   STEP LENGTH
 NULL.          -999.2500:   NO VALUE
 COMP. FENIX & SCISSON INC:   COMPANY
 WELL. TEAPOT DOME #27 SX -2:   WELL
 FLD .             TEAPOT:   FIELD
 LOC .       S2 T38N R78W:   LOCATION
 CNTY.            NATRONA:   COUNTY
 STAT.            WYOMING:   STATE
 CTRY. UNITED STATES OF AMERICA:   COUNTRY
 SRVC.            Unknown:   SERVICE COMPANY
 DATE.        28-JAN-1978:   LOGDATE
 API .       490251056500:   API NUMBER
~CURVE INFORMATION
#MNEM.UNIT       API CODE    CURVE DESCRIPTION
#----------   ------------   ------------------------------
 DEPT.F                  :   
 ILD .OHMM   05 120 46 00:   INDUCTION LOG DEEP
 SN  .OHMM   05 040 16 00:   SHORT NORMAL 16"
 SPR .MV     05 010 01 00:   SPONTANEOUS POTENSIAL
 CALD.IN     45 280 60 00:   CALIPER FROM DENSITY LOG
 CORR.G/C3   45 356 01 00:   DENSITY CORRECTION
 DPHI.DEC    45 890 12 00:   DENSITY POROSITY SANDSTONE
 GRD .GAPI   45 310 01 00:   GAMMA RAY FROM DENSITY LOG
 RHOB.G/C3   45 350 01 00:   BULK DENSITY
~PARAMETER INFORMATION
#MNEM.UNIT          VALUE    DESCRIPTION
#----------   ------------   ------------------------------
 PD  .                 GL:   PERMANENT DATUM
 EPD .F              5147:   ELEVATION PERMANENT DATUM
 LMF .                 KB:   LOG MEASURED FROM
 DAPD.F                 4:   FEET ABOVE PERMANENT DATUM
 DMF .                 KB:   DRILLING MEASURED FROM
 EKB .F              5151:   KELLING BUSHING
 EGL .F              5147:   GROUND LEVEL
 DATE.        28-JAN-1978:   RUN DATE
 RUN .                  1:   RUN NUMBER
 DD  .F               675:   DEPTH DRILLER
 DL  .F               678:   DEPTH LOGGER
 BLI .F               677:   BOTTOM LOG INTERVAL
 TLI .F                40:   TOP LOG INTERVAL
 CS  .IN            8.625:   CASING SIZE
 CBD .F                40:   CASING BOTTOM DRILLER
 CBL .F                40:   CASING BOTTOM LOGGER
 BS  .IN            7.875:   BIT SIZE
 BSD .F               675:   BIT SIZE AT DEPTH
 DFT .                KCL:   DRILLING FLUID TYPE
 DFD .                8.6:   DRILLING FLUID DENSITY
 DFV .                .34:   DRILLING FLUID VISCOSITY
 DFPH.                9.5:   DRILLING FLUID PH
 MSS .           FLOWLINE:   MUD SAMPLE SOURCE
 RMS .OHMM           0.38:   RESISTIVITY MUD SAMPLE
 MST .F                60:   MUD SAMPLE TEMPERATURE
 RMF .OHMM           0.36:   RESISTIVITY MUD FILTRATE SAMPLE
 MFST.F                62:   MUD FILTRATE SAMPLE TEMPERATURE
 RMC .OHMM            0.7:   RESISTIVITY MUD CAKE
 MCST.F                63:   MUD CAKE SAMPLE TEMPERATURE
 MFSS.               MEAS:   MUD FILTRATE SAMPLE SOURCE
 MCSS.               MEAS:   MUD CAKE SAMPLE SOURCE
 RMB .OHMM           0.31:   RESISTIVITY MUD AT BHT
 BHT .F                76:   BOTTOM HOLE TEMPERATURE
 TCS .HRS               3:   TIME CURCULATED STOPPED
 MRT .F                76:   MAXIMUM RECORDED TEMPERATURE
 LUN .               2958:   LOGGING UNIT NUMBER
 LUL .             CASPER:   LOGGING UNIT LOCATION
 ENGI.           REYNOLDS:   RECORDING ENGINEER
 WITN.     MR. HARRINGTON:   WITNESSED BY
 CLNT.            A2DTECH:   CLIENT CODE
 ORIG.           5" PRINT:   ORIGIN OF DATA
 UWI .       490251056500:   UNIQUE WELL ID
 DICO. A2D Technologies, Inc.:   DIGITIZING COMPANY
~OTHER INFORMATION
~A   DEPT      ILD         SN        SPR       CALD       CORR       DPHI        GRD       RHOB   
# ...
  151.5000     7.3200     6.9484   -69.8472     8.6661     0.0790     0.1328   100.9595     2.4483
  152.0000     7.1763     6.9565   -69.9277     8.6683     0.0792     0.1336   103.3491     2.4424
  152.5000     7.0838     6.9629   -70.0081     8.6705     0.0778     0.1339   101.3065     2.4417
  153.0000     7.0407     6.9694   -70.0127     8.6727     0.0780     0.1338   100.8798     2.4418
  153.5000     6.9982     6.9264   -69.9541     8.6749     0.0782     0.1323   100.7382     2.4434
  154.0000     6.9558     6.8394   -69.8954     8.6771     0.0783     0.1321   100.6185     2.4465
  154.5000     6.9136     6.8460   -69.8368     8.6796     0.0815     0.1323   100.4918     2.4488
  155.0000     6.8730     6.8526   -69.7781     8.6669     0.0922     0.1334   101.2579     2.4467
  155.5000     6.8313     6.8133   -69.7194     8.6690     0.1028     0.1311   101.8846     2.4468
  156.0000     6.8368     6.7703   -69.6608     8.6711     0.1060     0.1229   102.0399     2.4469
  156.5000     6.8995     6.7620   -69.5976     8.6733     0.1076     0.1207   103.9895     2.4529
  157.0000     6.9519     6.7536   -69.6796     8.6759     0.1093     0.1189   103.4137     2.4575
  157.5000     7.0042     6.7453   -69.6609     8.6780     0.1097     0.1264   105.5111     2.4569
  158.0000     7.1412     6.7369   -69.4927     8.6802     0.1099     0.1269   105.8402     2.4547
  158.5000     7.1957     6.7272   -69.3246     8.6674     0.1101     0.1239   107.3340     2.4543
  159.0000     7.2507     6.7782   -69.3059     8.6696     0.1118     0.1223   109.1303     2.4553
  159.5000     7.4072     6.8767   -69.4367     8.6569     0.1134     0.1184   107.3763     2.4594
  160.0000     7.4638     6.9766   -69.5675     8.6442     0.1091     0.1115   108.5809     2.4715
  160.5000     7.6264     7.1761   -69.5441     8.6468     0.1033     0.1091   110.0814     2.4806
  161.0000     7.6846     7.2863   -69.6796     8.6341     0.1155     0.1037   109.8120     2.4964
  161.5000     7.6902     7.4899   -69.8104     8.6363     0.1307     0.0994   108.9456     2.5077
  162.0000     7.5892     7.4949   -69.7870     8.6389     0.1308     0.0994   106.8958     2.5040
  162.5000     7.4396     7.4843   -69.7683     8.6411     0.1325     0.1021   100.8519     2.4907
  163.0000     7.2930     7.4521   -69.7489     8.6432     0.1328     0.1122   100.7248     2.4818
  163.5000     7.2496     7.4070   -69.7263     8.6453     0.1062     0.1134   103.1776     2.4639
  164.0000     7.2051     7.3106   -69.7076     8.6467     0.0896     0.1060   105.8024     2.4932
  164.5000     7.2117     7.2665   -69.6889     8.6461     0.0822     0.1037   105.9715     2.4985
  165.0000     7.2162     7.2614   -69.6702     8.6454     0.0719     0.1139   106.1406     2.4780
  165.5000     7.2222     7.1767   -69.6515     8.6448     0.0676     0.1279   106.4577     2.4695
  166.0000     7.2275     7.1310   -69.4828     8.6442     0.0663     0.1326   106.7870     2.4472
  166.5000     7.2326     7.1369   -69.6142     8.6435     0.0665     0.1329   107.2397     2.4428
  167.0000     7.2381     7.1416   -69.4413     8.6429     0.0696     0.1326   105.7869     2.4428
  167.5000     7.2436     7.1465   -69.4226     8.6422     0.0728     0.1373   107.1394     2.4437
  168.0000     7.2498     7.1523   -69.5581     8.6416     0.0775     0.1358   109.3795     2.4371
  168.5000     7.2551     7.2064   -69.5348     8.6409     0.0747     0.1304   108.4911     2.4386
  169.0000     7.3105     7.2112   -69.5157     8.6402     0.0749     0.1312   108.9834     2.4447
  169.5000     7.3663     7.2658   -69.4927     8.6572     0.0765     0.1324   109.4484     2.4493
  170.0000     7.4261     7.3714   -69.4740     8.6444     0.0902     0.1371   107.8424     2.4478
  170.5000     7.5842     7.5824   -69.3059     8.6615     0.0979     0.1425   104.9423     2.4353
  171.0000     7.7480     7.8004   -69.2872     8.6487     0.1086     0.1442   101.9711     2.4256
  171.5000     7.9153     7.9137   -69.2685     8.6514     0.1267     0.1451   100.0692     2.4227
  172.0000     8.0308     7.9190   -69.1002     8.6535     0.1512     0.1492    99.0496     2.4169
  172.5000     8.1479     7.9242   -69.0770     8.6407     0.2216     0.1501   100.2595     2.4109
  173.0000     8.2669     7.9295   -68.9088     8.6112     0.2233     0.1441    99.4656     2.4185
  173.5000     8.3315     7.8263   -69.0443     8.5715     0.2190     0.1366    96.8995     2.4232
  174.0000     8.3375     7.8327   -69.0209     8.5292     0.2161     0.1315    96.6301     2.4292
  174.5000     8.2849     7.8379   -68.9402     8.4869     0.2073     0.1283    98.5744     2.4375
  175.0000     8.1791     7.7880   -68.8341     8.4445     0.1340     0.1224   102.4417     2.4503
  175.5000     7.9629     7.6879   -68.9649     8.4170     0.1117     0.1128   103.7978     2.4705
  176.0000     7.7525     7.6390   -68.9415     8.4197     0.1119     0.1549   103.3769     2.4667
  176.5000     7.5402     7.4890   -68.9228     8.4366     0.1105     0.1576   100.7354     2.4019
  177.0000     7.3494     7.3346   -69.0583     8.4684     0.1107     0.1635   100.4554     2.4027
  177.5000     7.2530     7.1955   -69.1844     8.5001     0.1109     0.1671   100.4819     2.3909
  178.0000     7.1604     7.1030   -69.1657     8.5319     0.0991     0.1653   101.0948     2.3850
  178.5000     7.1656     7.0106   -69.1465     8.5345     0.0993     0.1643   101.8609     2.3881
  179.0000     7.1708     6.9659   -69.1237     8.5515     0.0979     0.1640   102.3259     2.3882
  179.5000     7.2257     6.9717   -68.9555     8.5832     0.0921     0.1616   102.6377     2.3883
  180.0000     7.3323     6.9796   -68.9369     8.6150     0.0817     0.1541   101.6286     2.4070
  180.5000     7.4906     7.0294   -68.9182     8.6319     0.0760     0.1394    98.2475     2.4243
  181.0000     7.7052     7.0350   -68.8995     8.6637     0.0702     0.1363    96.6414     2.4282
  181.5000     7.8716     7.0391   -68.8804     8.6811     0.0584     0.1255    97.7034     2.4425
  182.0000     8.0364     7.0930   -68.8574     8.6832     0.0390     0.1180    98.1631     2.4613
  182.5000     8.1590     7.0977   -68.8388     8.6854     0.0347     0.1183    97.0061     2.4628
  183.0000     8.1663     7.2008   -68.8201     8.6875     0.0424     0.1221    98.6545     2.4607
  183.5000     8.1722     7.2058   -68.8014     8.6896     0.0486     0.1275    99.5636     2.4563
  184.0000     8.1782     7.3115   -68.6332     8.6922     0.0533     0.1278    99.8856     2.4465
  184.5000     8.1841     7.4178   -68.6143     8.6790     0.0594     0.1259   101.8299     2.4475
  185.0000     8.1656     7.4740   -68.4417     8.6817     0.0611     0.1265   101.9990     2.4491
  185.5000     8.1384     7.5306   -68.5772     8.6690     0.0663     0.1276   102.6119     2.4492
  186.0000     8.0899     7.4838   -68.5538     8.6711     0.0795     0.1261   103.5247     2.4492
  186.5000     8.0973     7.4890   -68.5351     8.6738     0.0977     0.1288   105.1743     2.4463
  187.0000     8.1025     7.4951   -68.6667     8.6605     0.1053     0.1180   106.6748     2.4532
  187.5000     8.1301     7.4473   -68.7967     8.6478     0.1070     0.1161   107.2877     2.4645
  188.0000     8.1710     7.4535   -68.7773     8.6505     0.1088     0.1140   105.6817     2.4713
  188.5000     8.1777     7.4061   -68.7547     8.6526     0.1103     0.1113   104.0756     2.4654
  189.0000     8.0160     7.3612   -68.7360     8.6399     0.1076     0.1115   107.1016     2.4663
  189.5000     7.9666     7.3663   -68.8668     8.6426     0.1047     0.1142   107.9695     2.4731
  190.0000     7.9739     7.3218   -68.8481     8.6595     0.1049     0.1142   108.1386     2.4657
  190.5000     7.9235     7.3266   -68.6799     8.6616     0.1036     0.1117   107.2722     2.4680
  191.0000     7.9307     7.3315   -68.8107     8.6637     0.1022     0.1099   106.9970     2.4718
  191.5000     7.8280     7.3363   -68.6395     8.6659     0.0980     0.1111   107.4783     2.4742
