~VERSION INFORMATION
 VERS.                2.0:   CWLS LOG ASCII STANDARD - VERSION 2.0
 WRAP.                 NO:   ONE LINE PER DEPTH STEP
~WELL INFORMATION
#MNEM.UNIT      DATA TYPE    INFORMATION
#----------   ------------   ------------------------------
 STRT.F           36.0000:   START DEPTH
 STOP.F          442.0000:   STOP DEPTH
 STEP.F            0.5000:   STEP LENGTH
 NULL.          -999.2500:   NO VALUE
 COMP.    FENIX & SCISSON:   COMPANY
 WELL.      NPR #66-SX-10:   WELL
 FLD .             TEAPOT:   FIELD
 LOC .      S10 T38N R78W:   LOCATION
 CNTY.            NATRONA:   COUNTY
 STAT.            WYOMING:   STATE
 CTRY. UNITED STATES OF AMERICA:   COUNTRY
 SRVC.              Welex:   SERVICE COMPANY
 DATE.        19-APR-1977:   LOGDATE
 API .       490251036100:   API NUMBER
~CURVE INFORMATION
#MNEM.UNIT       API CODE    CURVE DESCRIPTION
#----------   ------------   ------------------------------
 DEPT.F                  :   
 CALD.IN     45 280 60 00:   CALIPER FROM DENSITY LOG
 DPHI.DEC    45 890 12 00:   DENSITY POROSITY SANDSTONE
 DRHO.G/C3   45 356 01 00:   DENSITY CORRECTION
 GRD .GAPI   45 310 01 00:   GAMMA RAY FROM DENSITY LOG
 RHOB.G/C3   45 350 01 00:   BULK DENSITY
 ILD .OHMM   07 120 46 00:   INDUCTION LOG DEEP
 ILM .OHMM   07 120 44 00:   INDUCTION LOG MEDIUM
 SGRD.OHMM   07 221 05 00:   SHALLOW SHORT GUARD RESISTIVITY
 SPR .MV     07 010 01 00:   SPONTANEOUS POTENTIAL
~PARAMETER INFORMATION
#MNEM.UNIT          VALUE    DESCRIPTION
#----------   ------------   ------------------------------
 PD  .                 GL:   PERMANENT DATUM
 EPD .F              5200:   ELEVATION PERMANENT DATUM
 LMF .                 GL:   LOG MEASURED FROM
 DMF .                 GL:   DRILLING MEASURED FROM
 EGL .F              5200:   GROUND LEVEL
 DATE.        19-APR-1977:   RUN DATE
 RUN .                  1:   RUN NUMBER
 DD  .F               476:   DEPTH DRILLER
 DL  .F               447:   DEPTH LOGGER
 BLI .F               445:   BOTTOM LOG INTERVAL
 TLI .F                35:   TOP LOG INTERVAL
 CS  .IN            8.625:   CASING SIZE
 CBD .F                42:   CASING BOTTOM DRILLER
 CBL .F                42:   CASING BOTTOM LOGGER
 BS  .IN            7.875:   BIT SIZE
 BSD .F               476:   BIT SIZE AT DEPTH
 DFT .            KCL MUD:   DRILLING FLUID TYPE
 DFD .                8.8:   DRILLING FLUID DENSITY
 DFV .                 37:   DRILLING FLUID VISCOSITY
 MSS .           FLOWLINE:   MUD SAMPLE SOURCE
 RMS .OHMM           1.06:   RESISTIVITY MUD SAMPLE
 MST .F                48:   MUD SAMPLE TEMPERATURE
 RMF .OHMM           1.03:   RESISTIVITY MUD FILTRATE SAMPLE
 MFST.F                48:   MUD FILTRATE SAMPLE TEMPERATURE
 RMC .OHMM           1.18:   RESISTIVITY MUD CAKE
 MCST.F                48:   MUD CAKE SAMPLE TEMPERATURE
 MFSS.               MEAS:   MUD FILTRATE SAMPLE SOURCE
 MCSS.               MEAS:   MUD CAKE SAMPLE SOURCE
 RMB .OHMM           0.86:   RESISTIVITY MUD AT BHT
 BHT .F                59:   BOTTOM HOLE TEMPERATURE
 TCS .HRS               5:   TIME CURCULATED STOPPED
 MRT .F                59:   MAXIMUM RECORDED TEMPERATURE
 LUN .               8611:   LOGGING UNIT NUMBER
 LUL .             CASPER:   LOGGING UNIT LOCATION
 ENGI.               DOAK:   RECORDING ENGINEER
 WITN.        MR. R. LYON:   WITNESSED BY
 CLNT.            A2DTECH:   CLIENT CODE
 ORIG.      2.5" 5" PRINT:   ORIGIN OF DATA
 UWI .       490251036100:   UNIQUE WELL ID
 DICO. A2D Technologies, Inc.:   DIGITIZING COMPANY
~OTHER INFORMATION
~A   DEPT     CALD       DPHI       DRHO         GRD      RHOB        ILD        ILM       SGRD        SPR   
# ...
  291.5000     7.6892     0.1704     0.0492    72.3825     2.3334    23.8704    28.6502    44.7403   -36.9926
  292.0000     7.6906     0.2118     0.0331    75.7986     2.2880    32.4403    30.2372    45.4631   -37.0044
  292.5000     7.7361     0.2124     0.0151    75.2181     2.2962    35.2896    31.4795    37.9523   -36.7183
  293.0000     7.8111     0.2034     0.0137    73.1573     2.3127    28.8158    31.8931    42.8940   -36.7296
  293.5000     7.7384     0.2052     0.0199    65.6196     2.3016    23.6729    31.8694    48.4791   -36.4440
  294.0000     7.6657     0.2162     0.0080    66.5193     2.2904    23.8066    31.4164    45.2637   -36.4549
  294.5000     7.6225     0.2021    -0.0084    70.2419     2.3007    23.1876    30.5502    37.8912   -36.4650
  295.0000     7.6241     0.1827    -0.0053    73.8701     2.3482    19.5839    30.3375    37.8759   -36.4752
  295.5000     7.6711     0.1615     0.0024    72.7741     2.3839    21.2570    29.6881    36.8082   -36.4853
  296.0000     7.7149     0.1573     0.0101    69.3810     2.3854    23.1549    28.4729    35.2857   -36.4956
  296.5000     7.7604     0.1536     0.0149    67.1722     2.3884    23.7905    27.2976    34.8564   -36.5059
  297.0000     7.7615     0.1479     0.0212    72.6608     2.3982    23.9635    26.5301    35.8064   -36.8112
  297.5000     7.7775     0.1425     0.0287    77.7053     2.4064    23.9488    25.7844    33.9777   -36.8215
  298.0000     7.7786     0.1470     0.0334    80.0853     2.4013    23.9342    25.0595    32.0777   -36.8850
  298.5000     7.7798     0.1446     0.0335    78.3205     2.4013    23.7377    24.3550    35.2785   -37.1372
  299.0000     7.7809     0.1430     0.0306    76.4078     2.4014    23.2594    23.6703    34.4126   -37.1475
  299.5000     7.7887     0.1454     0.0217    72.7187     2.4037    22.6205    23.0048    32.0370   -37.1578
  300.0000     7.8128     0.1481     0.0113    72.7303     2.4037    21.7015    22.3581    34.2873   -37.4631
  300.5000     7.8140     0.1519     0.0039    76.0387     2.3916    21.1054    21.7295    31.3582   -37.4735
  301.0000     7.8152     0.1561     0.0026    77.5707     2.3865    20.5257    21.5293    29.0852   -37.6047
  301.5000     7.8166     0.1572     0.0072    80.9093     2.3830    20.2357    21.8102    31.2576   -37.9213
  302.0000     7.8177     0.1554     0.0134    82.6944     2.4181    20.2235    21.7953    32.6483   -38.0944
  302.5000     7.8187     0.1518     0.0119    79.7566     2.4241    20.2113    21.6231    29.6540   -38.3997
  303.0000     7.8200     0.1494     0.0047    78.7243     2.4041    20.1992    21.3038    29.2480   -38.7050
  303.5000     7.8458     0.1469     0.0018    78.6163     2.3922    20.1870    20.5928    29.4221   -38.7174
  304.0000     7.8519     0.1460     0.0060    79.3763     2.4056    20.1748    20.5790    29.4077   -39.0225
  304.5000     7.8665     0.1463     0.0076    80.5765     2.4049    20.1627    21.1342    29.3781   -38.7769
  305.0000     7.8675     0.1475     0.0092    81.0365     2.3990    20.1504    21.7044    29.3460   -38.4963
  305.5000     7.8833     0.1444     0.0017    80.0163     2.3939    20.1381    22.2899    29.7329   -38.5106
  306.0000     7.8843     0.1432     0.0020    78.8480     2.4089    20.1021    21.9731    29.7135   -38.5290
  306.5000     7.8854     0.1438     0.0065    79.3081     2.4104    19.5727    20.7921    29.6977   -38.8348
  307.0000     7.8864     0.1447     0.0081    80.9523     2.3881    19.2551    20.2188    29.6819   -39.1445
  307.5000     7.8874     0.1461     0.0097    83.3367     2.3889    18.9253    20.4829    29.6661   -39.2134
  308.0000     7.8887     0.1469     0.0098    85.4250     2.4016    18.1942    21.3245    29.6503   -39.4690
  308.5000     7.8897     0.1489     0.0098    86.1814     2.4024    17.6858    22.5096    29.6345   -39.4838
  309.0000     7.8905     0.1513     0.0069    85.5562     2.3980    16.9849    23.1128    29.2173   -39.4985
  309.5000     7.8917     0.1539     0.0025    83.4045     2.3877    16.7428    22.3366    29.2018   -39.8083
  310.0000     7.8927     0.1623    -0.0095    81.3481     2.3721    16.5041    19.8649    29.1862   -40.1180
  310.5000     7.8936     0.1733    -0.0366    79.2916     2.3579    16.2688    20.7790    29.1703   -40.1327
  311.0000     7.8947     0.1837    -0.0712    80.3438     2.3474    16.2427    21.5924    28.7593   -40.1475
  311.5000     7.8958     0.1786    -0.0635    84.9485     2.3432    16.0004    22.1117    28.7436   -39.8673
  312.0000     7.8968     0.1637    -0.0137    85.4046     2.3828    15.5822    21.4999    28.7279   -39.5870
  312.5000     7.8978     0.1619    -0.0045    84.0923     2.3627    15.5266    21.1941    28.7122   -39.6036
  313.0000     7.8908     0.1690    -0.0091    83.8115     2.3575    15.2950    20.6095    28.6966   -39.6179
  313.5000     7.8850     0.1705    -0.0181    84.8643     2.3718    15.1292    20.2025    28.2922   -39.6323
  314.0000     7.8873     0.1609    -0.0073    86.3605     2.3868    14.9133    20.0273    28.1235   -39.6466
  314.5000     7.9021     0.1540    -0.0027    88.0297     2.3801    14.7005    19.8799    27.8783   -39.9559
  315.0000     7.8961     0.1556    -0.0357    89.2303     2.3630    14.6895    19.4616    27.4855   -39.9705
  315.5000     7.8891     0.1657    -0.0537    89.6689     2.3698    14.8798    19.4483    27.0982   -39.9852
  316.0000     7.8904     0.1635    -0.0220    89.2408     2.4034    15.0727    19.1692    26.7136   -40.0000
  316.5000     7.8914     0.1432     0.0007    86.4443     2.4095    15.4751    19.1564    26.3375   -39.9548
  317.0000     7.8923     0.1441     0.0083    83.4997     2.4020    15.6759    19.1436    26.3235   -39.7327
  317.5000     7.8934     0.1464     0.0054    78.7788     2.4013    15.8794    19.1308    26.3095   -39.7493
  318.0000     7.8944     0.1488     0.0176    76.8664     2.4148    16.0870    19.3806    26.6567   -39.7640
  318.5000     7.8954     0.1512     0.0071    79.2548     2.3992    16.2942    19.3689    27.3796   -39.7788
  319.0000     7.8965     0.1523     0.0057    82.3793     2.3896    16.2822    19.6206    27.7410   -39.6499
  319.5000     7.8827     0.1490     0.0058    85.3558     2.3926    16.2703    19.8776    27.3505   -39.5133
  320.0000     7.8689     0.1448     0.0059    86.8520     2.4009    16.0384    19.8636    26.6000   -39.2330
  320.5000     7.8702     0.1487     0.0029    87.4604     2.3942    15.8098    19.8503    26.2256   -39.2502
  321.0000     7.8710     0.1511    -0.0015    87.3039     2.3920    15.7981    19.2994    26.2469   -39.2646
  321.5000     7.8722     0.1492     0.0016    81.4268     2.3973    16.0032    19.0010    26.5576   -39.2789
  322.0000     7.8732     0.1422     0.0078    83.5152     2.4138    16.2383    18.2068    25.7575   -39.2933
  322.5000     7.8741     0.1363     0.0094    85.6035     2.4184    16.6465    17.4770    25.0334   -39.6026
  323.0000     7.8753     0.1378     0.0095    87.3957     2.4154    16.8626    17.0257    24.7665   -39.6169
  323.5000     7.8910     0.1462     0.0080    90.0762     2.4004    16.9113    17.0141    25.0934   -39.9263
  324.0000     7.8920     0.1521    -0.0024    82.9869     2.3910    17.0689    17.2375    23.8124   -39.9410
  324.5000     7.8931     0.1593    -0.0159    84.4831     2.3805    16.9691    17.2937    23.8791   -39.9558
  325.0000     7.8941     0.1557    -0.0083    86.7194     2.3821    16.7160    18.0138    24.8802   -39.9705
  325.5000     7.8951     0.1530     0.0009    88.2156     2.3904    16.1254    18.8611    24.7734   -39.9853
  326.0000     7.8962     0.1419     0.0055    88.6757     2.4098    16.1133    19.5454    24.0165   -40.0000
  326.5000     7.8984     0.1452     0.0040    88.6919     2.4069    16.3221    19.8112    23.3575   -40.0148
  327.0000     7.9130     0.1481    -0.0034    87.5733     2.3973    16.5336    20.0807    22.7166   -40.0295
  327.5000     7.9140     0.1499    -0.0094    84.8788     2.3928    16.5191    19.7878    23.0180   -40.0443
