~VERSION INFORMATION
 VERS.                2.0:   CWLS LOG ASCII STANDARD - VERSION 2.0
 WRAP.                 NO:   ONE LINE PER DEPTH STEP
~WELL INFORMATION
#MNEM.UNIT      DATA TYPE    INFORMATION
#----------   ------------   ------------------------------
 STRT.F           82.0000:   START DEPTH
 STOP.F          750.0000:   STOP DEPTH
 STEP.F            0.5000:   STEP LENGTH
 NULL.          -999.2500:   NO VALUE
 COMP. U S NAVY/INTEX OIL CO:   COMPANY
 WELL.      GOVT #18-S-35:   WELL
 FLD .             TEAPOT:   FIELD
 LOC .      S35 T39N R78W:   LOCATION
 CNTY.            NATRONA:   COUNTY
 STAT.            WYOMING:   STATE
 CTRY. UNITED STATES OF AMERICA:   COUNTRY
 SRVC. Schlumberger Well Surveying Corp:   SERVICE COMPANY
 DATE.        19-JUL-1962:   LOGDATE
 API .       490250649300:   API NUMBER
~CURVE INFORMATION
#MNEM.UNIT       API CODE    CURVE DESCRIPTION
#----------   ------------   ------------------------------
 DEPT.F                  :   
 SPR .MV     05 010 01 00:   SPONTANEOUS POTENTIAL
 ILD .OHMM   05 120 46 00:   INDUCTION LOG DEEP
 CILD.MMHO   05 110 46 00:   CONDUCTIVITY INDUCTION LOG DEEP
 ASN .OHMM   05 041 16 00:   AMPLIFIED SHORT NORMAL 16"
 NEUT.NAPI   35 330 01 00:   NEUTRON GAMMA RAY
~PARAMETER INFORMATION
#MNEM.UNIT          VALUE    DESCRIPTION
#----------   ------------   ------------------------------
 PD  .                 GL:   PERMANENT DATUM
 EPD .F              5107:   ELEVATION PERMANENT DATUM
 LMF .                 KB:   LOG MEASURED FROM
 DAPD.F                 5:   FEET ABOVE PERMANENT DATUM
 DMF .                 KB:   DRILLING MEASURED FROM
 EKB .F              5112:   KELLING BUSHING
 EGL .F              5107:   GROUND LEVEL
 DATE.            7-19-62:   RUN DATE
 RUN .                  1:   RUN NUMBER
 DD  .F               745:   DEPTH DRILLER
 DL  .F               745:   DEPTH LOGGER
 BLI .F               744:   BOTTOM LOG INTERVAL
 TLI .F                80:   TOP LOG INTERVAL
 BS  .IN             6.75:   BIT SIZE
 BSD .F               745:   BIT SIZE AT DEPTH
 DFT .       OIL EMULSION:   DRILLING FLUID TYPE
 DFD .                 10:   DRILLING FLUID DENSITY
 DFV .                 46:   DRILLING FLUID VISCOSITY
 DFL .                2.9:   DRILLING FLUID LOSS
 RMS .OHMM           3.75:   RESISTIVITY MUD SAMPLE
 MST .F                87:   MUD SAMPLE TEMPERATURE
 RMF .OHMM           2.65:   RESISTIVITY MUD FILTRATE SAMPLE
 MFST.F                87:   MUD FILTRATE SAMPLE TEMPERATURE
 RMC .OHMM           3.54:   RESISTIVITY MUD CAKE
 MCST.F                87:   MUD CAKE SAMPLE TEMPERATURE
 TCS .HRS              .5:   TIME CURCULATED STOPPED
 LUN .               2503:   LOGGING UNIT NUMBER
 LUL .             CASPER:   LOGGING UNIT LOCATION
 ENGI.             DANNER:   RECORDING ENGINEER
 WITN.          JORGENSEN:   WITNESSED BY
 CLNT.            A2DTECH:   CLIENT CODE
 ORIG.       2", 5" PRINT:   ORIGIN OF DATA
 UWI .       490250649300:   UNIQUE WELL ID
 DICO. A2D Technologies, Inc.:   DIGITIZING COMPANY
~OTHER INFORMATION
~A   DEPT      SPR          ILD      CILD         ASN     NEUT   
# ...
  692.0000   -81.8166    26.1309    29.7212    27.1079  -246.2042
  692.5000   -81.3147    26.1249    29.7348    27.9542  -241.3218
  693.0000   -80.1719    25.4397    30.0427    27.1123  -203.0383
  693.5000   -79.0948    24.4862    31.9262    26.2244  -229.7704
  694.0000   -79.7148    23.5329    33.8097    25.3367  -215.6037
  694.5000   -81.0464    22.5928    35.6931    24.3705  -291.8620
  695.0000   -81.7247    21.8066    37.5766    24.4701  -319.5930
  695.5000   -80.2559    21.4489    38.9235    24.5399  -290.7449
  696.0000   -79.8354    21.1036    39.2564    23.6349  -283.0948
  696.5000   -80.3469    20.8197    39.5803    23.2683  -286.8246
  697.0000   -79.4504    20.7324    39.9068    23.4482  -281.1418
  697.5000   -77.3469    20.6530    40.2345    23.4524  -292.7460
  698.0000   -76.5111    20.5117    40.5623    23.2818  -254.2245
  698.5000   -76.1671    20.3152    40.8900    22.8402  -255.2380
  699.0000   -76.5161    20.1190    41.2178    22.2922  -250.4058
  699.5000   -77.4464    19.9229    41.5455    21.7270  -238.3557
  700.0000   -77.5648    19.7264    41.8733    21.2522  -235.5452
  700.5000   -77.2119    19.4989    42.2010    21.5659  -237.5697
  701.0000   -76.0795    19.2680    42.5288    21.7962  -249.8079
  701.5000   -74.9667    19.0453    42.8427    21.0070  -264.5357
  702.0000   -74.3382    18.6221    44.2188    20.2846  -272.8588
  702.5000   -74.1166    18.1776    45.5393    20.1105  -172.2903
  703.0000   -73.6270    17.8096    46.8599    20.1105  -192.7061
  703.5000   -73.9758    17.5897    47.8447    19.8937  -215.8598
  704.0000   -74.5558    17.3971    47.6743    19.5485  -231.6797
  704.5000   -74.4396    17.5373    47.5039    19.3036  -211.9868
  705.0000   -73.9606    17.6785    47.3335    19.4696  -215.1427
  705.5000   -73.2583    17.8162    47.1631    19.6420  -182.6790
  706.0000   -71.8107    17.8407    46.9927    19.6901  -160.0231
  706.5000   -69.8824    17.7245    47.2618    19.0156  -201.9880
  707.0000   -68.0727    17.3964    48.5128    18.8447  -189.3637
  707.5000   -66.9364    16.9962    49.7639    18.8837  -234.6078
  708.0000   -66.3266    16.5949    51.0150    18.4113  -247.6394
  708.5000   -66.9007    16.1935    52.2660    17.9191  -185.2378
  709.0000   -67.4370    15.7955    53.5171    17.7296  -213.5109
  709.5000   -67.8849    15.4465    54.7682    17.5152  -225.5921
  710.0000   -67.4722    15.1854    55.9476    17.2967  -227.3785
  710.5000   -67.0598    14.9514    57.3438    17.0775  -199.0159
  711.0000   -66.9032    14.7153    58.6643    16.8587  -163.4127
  711.5000   -67.0081    14.7279    58.3386    16.6755  -112.2102
  712.0000   -67.5078    14.8895    57.5132    16.8060  -171.4399
  712.5000   -68.0094    15.0508    56.6879    16.9587  -211.8864
  713.0000   -67.8648    15.2127    55.8625    17.0849  -192.6904
  713.5000   -67.9675    15.3686    55.0372    16.8093  -209.2677
  714.0000   -68.3892    15.3742    54.2118    16.6077  -206.7781
  714.5000   -68.2034    15.3760    54.3674    16.7622  -999.2500
  715.0000   -67.7775    15.2329    55.0277    16.8842  -999.2500
  715.5000   -67.4414    15.0234    55.6880    16.5711  -999.2500
  716.0000   -67.2796    14.7593    57.0572    16.2477  -999.2500
  716.5000   -67.1039    14.4951    58.8857    15.5060  -999.2500
  717.0000   -67.6425    14.2112    60.7142    14.7099  -999.2500
  717.5000   -68.2605    13.8441    62.5426    14.5846  -999.2500
  718.0000   -68.3832    13.4700    64.3711    14.8313  -999.2500
  718.5000   -68.1775    13.0962    66.7238    14.9483  -999.2500
  719.0000   -68.1102    12.7226    69.3649    14.2510  -999.2500
  719.5000   -68.1090    12.3488    71.9123    13.6736  -999.2500
  720.0000   -68.1256    11.9746    74.2893    13.3350  -999.2500
  720.5000   -67.4034    11.6023    76.6663    13.0509  -999.2500
  721.0000   -66.8435    11.3273    79.0434    12.8139  -999.2500
  721.5000   -66.7045    11.3024    80.1411    12.6941  -999.2500
  722.0000   -66.3263    11.2728    80.1411    12.5721  -999.2500
  722.5000   -65.9156    11.2428    80.1411    12.4502  -999.2500
  723.0000   -65.5040    11.2704    80.1411    12.3293  -999.2500
  723.5000   -65.0929    11.3069    80.1411    12.2237  -999.2500
  724.0000   -64.6818    11.3327    80.1411    12.1538  -999.2500
  724.5000   -64.2707    11.1440    80.1785    12.0831  -999.2500
  725.0000   -63.8596    11.1382    80.3338    12.0127  -999.2500
  725.5000   -63.4477    11.1390    80.4892    11.9424  -999.2500
  726.0000   -63.0358    11.1391    80.6446    11.8714  -999.2500
  726.5000   -62.6422    11.1391    80.7999    11.8511  -999.2500
  727.0000   -62.4832    11.1391    80.9553    11.8601  -999.2500
  727.5000   -62.6089    11.1480    81.1144    11.8698  -999.2500
  728.0000   -62.7537    11.1580    80.7986    11.8795  -999.2500
  728.5000   -62.8578    11.1680    80.3334    11.8891  -999.2500
  729.0000   -62.4717    11.1779    79.8668    11.8987  -999.2500
  729.5000   -62.0990    11.1879    79.4004    11.9083  -999.2500
  730.0000   -61.9903    11.1979    78.9344    11.9179  -999.2500
  730.5000   -62.2761    11.2079    78.4683    11.9275  -999.2500
  731.0000   -62.0802    11.2178    78.1250    11.9372  -999.2500
  731.5000   -61.8545    11.2279    78.1247  -999.2500  -999.2500
  732.0000   -61.6643    11.2378    78.1240  -999.2500  -999.2500
  732.5000   -61.6402    11.2245    78.1223  -999.2500  -999.2500
  733.0000   -61.6104    11.1851    78.1250  -999.2500  -999.2500
  733.5000   -61.5805    11.1460    78.6864  -999.2500  -999.2500
  734.0000   -61.5505    11.1070    79.5081  -999.2500  -999.2500
  734.5000   -61.5209    11.0678    80.3298  -999.2500  -999.2500
  735.0000   -61.4933    11.0186    81.1514  -999.2500  -999.2500
  735.5000   -61.4542    10.9284    81.9731  -999.2500  -999.2500
  736.0000   -61.1388    10.8403    82.7948  -999.2500  -999.2500
  736.5000   -60.8280    10.7523    83.6165  -999.2500  -999.2500
  737.0000   -60.5196    10.6634    84.4382    11.3969  -999.2500
  737.5000   -60.2111    10.6295    85.1814    11.4630  -999.2500
  738.0000   -59.9035    10.6205    85.1832    11.5125  -999.2500
  738.5000   -59.5961    10.6119  -999.2500    11.5604  -999.2500
  739.0000   -59.3738    10.6033  -999.2500    11.6085  -999.2500
  739.5000   -59.0870    10.5947  -999.2500    11.6565  -999.2500
  740.0000   -58.6592    10.5860  -999.2500    11.7045  -999.2500
  740.5000   -58.2699    10.5773  -999.2500    11.7527  -999.2500
  741.0000   -58.5315    10.5687  -999.2500    11.8013  -999.2500
  741.5000   -58.8425    10.5600  -999.2500    11.8416  -999.2500
  742.0000   -58.7640    10.5514  -999.2500    11.7806  -999.2500
  742.5000   -58.7006    10.5431  -999.2500    11.7199  -999.2500
  743.0000   -58.9347    10.5322  -999.2500    11.6599  -999.2500
  743.5000   -59.1618    10.4640  -999.2500    11.5998  -999.2500
  744.0000   -59.2496    10.3946  -999.2500    11.5398  -999.2500
  744.5000   -59.1029    10.3258  -999.2500    11.4798  -999.2500
  745.0000  -999.2500    10.2563  -999.2500    11.4198  -999.2500
  745.5000  -999.2500  -999.2500  -999.2500    11.3590  -999.2500
  746.0000   -59.0543  -999.2500  -999.2500  -999.2500  -999.2500
  746.5000   -59.0543  -999.2500  -999.2500  -999.2500  -999.2500
  747.0000   -59.0543  -999.2500  -999.2500  -999.2500  -999.2500
  747.5000   -59.0543  -999.2500  -999.2500  -999.2500  -999.2500
  748.0000   -59.0543  -999.2500  -999.2500  -999.2500  -999.2500
  748.5000   -59.0543  -999.2500  -999.2500  -999.2500  -999.2500
  749.0000   -59.0543  -999.2500  -999.2500  -999.2500  -999.2500
  749.5000   -59.0543  -999.2500  -999.2500  -999.2500  -999.2500
  750.0000   -59.0543  -999.2500  -999.2500  -999.2500  -999.2500
