~VERSION INFORMATION
 VERS.                2.0:   CWLS LOG ASCII STANDARD - VERSION 2.0
 WRAP.                 NO:   ONE LINE PER DEPTH STEP
~WELL INFORMATION
#MNEM.UNIT      DATA TYPE    INFORMATION
#----------   ------------   ------------------------------
 STRT.F           80.0000:   START DEPTH
 STOP.F          480.0000:   STOP DEPTH
 STEP.F            0.5000:   STEP LENGTH
 NULL.          -999.2500:   NO VALUE
 COMP. BROWN JOHN E&C INC:   COMPANY
 WELL.         SX 57 #2-3:   WELL
 FLD .        TEAPOT DOME:   FIELD
 LOC .       S3 T38N R78W:   LOCATION
 CNTY.            NATRONA:   COUNTY
 STAT.            WYOMING:   STATE
 CTRY. UNITED STATES OF AMERICA:   COUNTRY
 SRVC.       Schlumberger:   SERVICE COMPANY
 DATE.        05-OCT-1990:   LOGDATE
 API .       490251132700:   API NUMBER
~CURVE INFORMATION
#MNEM.UNIT       API CODE    CURVE DESCRIPTION
#----------   ------------   ------------------------------
 DEPT.F                  :   
 GRR .GAPI   07 310 01 00:   GAMMA RAY FROM RES. LOG.
 SFLU.OHMM   07 220 01 00:   SPHERICALLY FOCUSED LOG UNAVERAGED RESISTIVITY
 ILD .OHMM   07 120 46 00:   INDUCTION LOG DEEP
 ILM .OHMM   07 120 44 00:   INDUCTION LOG MEDIUM
 CNC .DEC    42 890 01 00:   NEUTRON POROSITY LIMESTONE
~PARAMETER INFORMATION
#MNEM.UNIT          VALUE    DESCRIPTION
#----------   ------------   ------------------------------
 PD  .                 GL:   PERMANENT DATUM
 EPD .F              5148:   ELEVATION PERMANENT DATUM
 LMF .                 KB:   LOG MEASURED FROM
 DAPD.F                10:   FEET ABOVE PERMANENT DATUM
 DMF .                 KB:   DRILLING MEASURED FROM
 EKB .F              5158:   KELLING BUSHING
 EDF .F              5157:   DRILLING FLOOR
 EGL .F              5148:   GROUND LEVEL
 DATE.            10-5-90:   RUN DATE
 RUN .                  1:   RUN NUMBER
 DD  .F               485:   DEPTH DRILLER
 DL  .F               484:   DEPTH LOGGER
 BLI .F               481:   BOTTOM LOG INTERVAL
 TLI .F                48:   TOP LOG INTERVAL
 CS  .IN            8.625:   CASING SIZE
 CBD .F                53:   CASING BOTTOM DRILLER
 CBL .F                53:   CASING BOTTOM LOGGER
 BS  .IN            7.875:   BIT SIZE
 BSD .F               485:   BIT SIZE AT DEPTH
 DFT .           WTD DISP:   DRILLING FLUID TYPE
 DFD .               14.3:   DRILLING FLUID DENSITY
 DFV .                 67:   DRILLING FLUID VISCOSITY
 DFPH.                9.5:   DRILLING FLUID PH
 DFL .               12.8:   DRILLING FLUID LOSS
 MSS .           FLOWLINE:   MUD SAMPLE SOURCE
 RMS .OHMM            9.3:   RESISTIVITY MUD SAMPLE
 MST .F                74:   MUD SAMPLE TEMPERATURE
 RMF .OHMM            6.9:   RESISTIVITY MUD FILTRATE SAMPLE
 MFST.F                74:   MUD FILTRATE SAMPLE TEMPERATURE
 RMC .OHMM           13.9:   RESISTIVITY MUD CAKE
 MCST.F                74:   MUD CAKE SAMPLE TEMPERATURE
 MFSS.               CALC:   MUD FILTRATE SAMPLE SOURCE
 MCSS.               CALC:   MUD CAKE SAMPLE SOURCE
 RMB .OHMM          6.438:   RESISTIVITY MUD AT BHT
 BHT .F               110:   BOTTOM HOLE TEMPERATURE
 TCS .HRS            1600:   TIME CURCULATED STOPPED
 MRT .F               110:   MAXIMUM RECORDED TEMPERATURE
 LUN .               5887:   LOGGING UNIT NUMBER
 LUL .               CODY:   LOGGING UNIT LOCATION
 ENGI.        MIKE FISHER:   RECORDING ENGINEER
 WITN.        GARY STRONG:   WITNESSED BY
 CLNT.            A2DTECH:   CLIENT CODE
 ORIG.        2" 5" PRINT:   ORIGIN OF DATA
 UWI .       490251132700:   UNIQUE WELL ID
 DICO. A2D Technologies, Inc.:   DIGITIZING COMPANY
~OTHER INFORMATION
~A   DEPT       GRR        SFLU      ILD        ILM        CNC   
   80.0000    54.3271     0.0130   850.9195  1963.9633  -999.2500
   80.5000    53.0883     0.0130   850.9195  1963.9633  -999.2500
   81.0000    52.2429     0.0130   850.9195  1963.9633  -999.2500
   81.5000    53.4648     0.0129   862.6713  1993.6130  -999.2500
   82.0000    55.0296     0.0130   849.8882  1963.9633  -999.2500
   82.5000    56.6069     0.0129   846.5897  1963.9633  -999.2500
   83.0000    56.4484     0.0129   834.2955  1965.4795  -999.2500
   83.5000    58.4062     0.0132  1893.8262  1963.9633  -999.2500
   84.0000    64.6179     0.0126  1007.0951  1963.9633  -999.2500
   84.5000    72.6561     0.2352  1893.8262  1180.3961  -999.2500
   85.0000    80.0310     0.5821  1402.2531  1131.7926  -999.2500
   85.5000    82.3263     1.2668   178.5794   853.9225  -999.2500
   86.0000    82.5988     1.3781     0.1674   292.8328  -999.2500
   86.5000    82.2264     1.5201     0.0001     4.0577  -999.2500
   87.0000    81.7507     1.6394   338.6824     4.8082  -999.2500
   87.5000    81.1134     1.9432  1381.8638     3.9039  -999.2500
   88.0000    80.4936     2.4668  2074.6282     3.4562  -999.2500
   88.5000    79.3734     2.9969  1091.3031   368.6749  -999.2500
   89.0000    78.1686     3.1079   340.8507   861.2969  -999.2500
   89.5000    77.3663     2.7324     2.1086   272.2909  -999.2500
   90.0000    77.0217     2.5600     2.8206     2.2954  -999.2500
   90.5000    76.6674     2.6150     2.0088     3.5084  -999.2500
   91.0000    76.3550     2.6548     2.0049   154.2882  -999.2500
   91.5000    77.9227     2.6988     2.8296   785.9209  -999.2500
   92.0000    79.6675     2.7531     3.9757   121.0190  -999.2500
   92.5000    80.3977     2.9094     4.7503     4.4692  -999.2500
   93.0000    78.7087     3.0712     3.3849     2.6797  -999.2500
   93.5000    76.6462     3.2421     2.5912     2.5912  -999.2500
   94.0000    74.5508     3.3423     2.4176     2.5679  -999.2500
   94.5000    73.9632     3.1499     2.2677     2.5457  -999.2500
   95.0000    74.0546     3.0027     2.3881     2.5236  -999.2500
   95.5000    74.1607     2.9212     2.5092     2.5018  -999.2500
   96.0000    74.2687     2.9057     2.6548     2.4762  -999.2500
   96.5000    74.2914     2.8904     2.6138     2.4423  -999.2500
   97.0000    74.2906     2.8751     2.5673     2.4090  -999.2500
   97.5000    74.2911     2.8550     2.5212     2.3761  -999.2500
   98.0000    74.3745     2.9025     2.4760     2.3436  -999.2500
   98.5000    74.8184     2.9251     2.4318     2.3116  -999.2500
   99.0000    75.2470     2.7647     2.4033     2.2941  -999.2500
   99.5000    75.6923     2.6245     2.3823     2.2897  -999.2500
  100.0000    76.4822     2.4915     2.3615     2.2853  -999.2500
  100.5000    78.8449     2.3517     2.3409     2.2808  -999.2500
  101.0000    81.1445     2.3517     2.3234     2.2765  -999.2500
  101.5000    81.1239     2.3517     2.3688     2.2721  -999.2500
  102.0000    79.7906     2.4803     2.4094     2.2679  -999.2500
  102.5000    77.0920     2.7241     2.4988     2.3313  -999.2500
  103.0000    73.7321     3.1595     2.6228     2.3969  -999.2500
  103.5000    70.3592     3.6646     2.5969     2.4640  -999.2500
  104.0000    67.0585     3.7276     2.5584     2.4986  -999.2500
  104.5000    67.7670     3.3632     2.5205     2.3719  -999.2500
  105.0000    71.0309     2.9127     2.4832     2.2908  -999.2500
  105.5000    73.3867     2.5226     2.4464     2.2123  -999.2500
  106.0000    74.3062     2.3804     2.4037     2.1363  -999.2500
  106.5000    76.6134     2.3804     2.3601     2.0581  -999.2500
  107.0000    79.0525     2.3471     2.3173     2.0581  -999.2500
  107.5000    79.9466     2.2954     2.2953     2.0581  -999.2500
  108.0000    79.8135     2.3253     2.3194     2.0581  -999.2500
  108.5000    79.1033     2.3683     2.3383     2.0581  -999.2500
  109.0000    78.8719     2.4089     2.3573     2.0385  -999.2500
  109.5000    79.4147     2.3916     2.3765     1.9850  -999.2500
  110.0000    79.9317     2.3804     2.3804     1.9327  -999.2500
  110.5000    80.2817     2.3277     2.2943     1.8818  -999.2500
  111.0000    79.6315     2.2772     2.2258     1.8405  -999.2500
  111.5000    78.9815     2.2277     2.1592     1.8219  -999.2500
  112.0000    79.2168     2.0640     2.0947     1.8036  -999.2500
  112.5000    79.9494     1.9383     2.0321     1.7854  -999.2500
  113.0000    80.0072     1.9230     1.9713     1.7674  -999.2500
  113.5000    79.2416     1.8978     1.9125     1.7496  -999.2500
  114.0000    78.7668     1.8732     1.8682     1.7320  -999.2500
  114.5000    78.3265     1.8454     1.8716     1.7146  -999.2500
  115.0000    77.4925     1.8689     1.8747     1.6953  -999.2500
  115.5000    74.5956     1.8724     1.8778     1.7209  -999.2500
  116.0000    72.1768     1.8760     1.8809     1.7581  -999.2500
  116.5000    72.3138     1.8795     1.8839     1.7454  -999.2500
  117.0000    73.3985     1.8830     1.8870     1.7283  -999.2500
  117.5000    74.4847     1.8866     1.8901     1.7114  -999.2500
  118.0000    75.5581     1.8901     1.9044     1.6953  -999.2500
  118.5000    76.2150     1.9714     1.9143     1.7456  -999.2500
  119.0000    75.1121     2.0719     1.8460     1.7956  -999.2500
  119.5000    72.9261     2.1776     1.7795     1.8196  -999.2500
  120.0000    71.4972     2.2954     1.7884     1.8454  -999.2500
  120.5000    73.8551     2.2279     1.8012     1.7674  -999.2500
  121.0000    76.3292     2.1406     1.7527     1.6681  -999.2500
  121.5000    78.8238     2.0581     1.7038     1.5741  -999.2500
  122.0000    78.3457     1.8896     1.6563     1.4855  -999.2500
  122.5000    77.4038     1.7375     1.6102     1.4019  -999.2500
  123.0000    76.7550     1.5976     1.5653     1.3302  -999.2500
  123.5000    76.9268     1.4837     1.5217     1.2828  -999.2500
  124.0000    77.0550     1.5393     1.5017     1.3043  -999.2500
  124.5000    78.9025     1.6191     1.4996     1.3465  -999.2500
  125.0000    80.8553     1.7030     1.4957     1.3508  -999.2500
  125.5000    81.0334     1.7444     1.4918     1.3553  -999.2500
  126.0000    80.2630     1.7581     1.4879     1.3597  -999.2500
  126.5000    79.6772     1.6347     1.4837     1.3630  -999.2500
  127.0000    79.8410     1.6347     1.5191     1.3921  -999.2500
  127.5000    79.7918     1.6766     1.5597     1.4197  -999.2500
  128.0000    78.2722     1.7372     1.5969     1.4478  -999.2500
  128.5000    76.8267     1.8012     1.6056     1.4678  -999.2500
  129.0000    79.2213     1.7924     1.6143     1.4732  -999.2500
  129.5000    81.9036     1.7774     1.6230     1.4785  -999.2500
  130.0000    82.4115     1.7584     1.6319     1.4837     0.0139
  130.5000    80.2752     1.7945     1.6492     1.5083     0.2764
  131.0000    78.3784     1.8518     1.6715     1.5319     0.2711
  131.5000    78.7664     1.9102     1.6939     1.5558     0.2670
  132.0000    79.9784     1.9504     1.7166     1.5770     0.2666
  132.5000    82.4009     1.9748     1.7397     1.5797     0.2687
  133.0000    83.1467     1.9995     1.7581     1.5826     0.2668
  133.5000    81.6999     2.0245     1.7518     1.5855     0.2660
  134.0000    81.6614     2.0333     1.7466     1.5884     0.2715
  134.5000    83.8627     2.0333     1.7415     1.5913     0.2717
  135.0000    87.5071     2.0333     1.7330     1.5956     0.2699
  135.5000    90.8584     2.0139     1.6996     1.5358     0.2706
  136.0000    89.9282     1.8827     1.6669     1.4841     0.2727
  136.5000    88.4509     1.7601     1.6347     1.4799     0.2717
  137.0000    86.4885     1.7369     1.6270     1.4750     0.2724
  137.5000    84.2946     1.8006     1.6150     1.4702     0.2740
  138.0000    82.0869     1.8485     1.6426     1.4658     0.2735
  138.5000    80.8239     1.9116     1.6597     1.4882     0.2729
  139.0000    80.1904     1.9444     1.6770     1.5141     0.2741
  139.5000    79.5212     1.9587     1.6953     1.5405     0.2770
  140.0000    78.8200     1.9731     1.7417     1.5574     0.2798
  140.5000    79.2763     1.9847     1.8047     1.5426     0.2802
