~VERSION INFORMATION
 VERS.                2.0:   CWLS LOG ASCII STANDARD - VERSION 2.0
 WRAP.                 NO:   ONE LINE PER DEPTH STEP
~WELL INFORMATION
#MNEM.UNIT      DATA TYPE    INFORMATION
#----------   ------------   ------------------------------
 STRT.F            0.0000:   START DEPTH
 STOP.F          962.0000:   STOP DEPTH
 STEP.F            0.5000:   STEP LENGTH
 NULL.          -999.2500:   NO VALUE
 COMP. FENIX & SCISSON INC:   COMPANY
 WELL.      NPR #3 #51-14:   WELL
 FLD .             TEAPOT:   FIELD
 LOC .      S14 T38N R78W:   LOCATION
 CNTY.            NATRONA:   COUNTY
 STAT.            WYOMING:   STATE
 CTRY. UNITED STATES OF AMERICA:   COUNTRY
 SRVC.              Welex:   SERVICE COMPANY
 DATE.        03-MAR-1977:   LOGDATE
 API .       490251029700:   API NUMBER
~CURVE INFORMATION
#MNEM.UNIT       API CODE    CURVE DESCRIPTION
#----------   ------------   ------------------------------
 DEPT.F                  :   
 SGRD.OHMM   07 220 05 00:   SHALLOW RESISTIVITY
 ILM .OHMM   07 120 44 00:   INDUCTION LOG MEDIUM
 ILD .OHMM   07 120 46 00:   INDUCTION LOG DEEP
 SPR .MV     07 010 01 00:   SPONTANEOUS POTENTIAL
 DPHI.DEC    45 890 12 00:   DENSITY POROSITY SANDSTONE
 RHOB.G/C3   45 350 01 00:   BULK DENSITY
 CORR.G/C3   45 356 01 00:   DENSITY CORRECTION
 CALD.IN     45 280 60 00:   CALIPER
 GRD .GAPI   45 310 01 00:   GAMMA RAY FROM DENSITY LOG
~PARAMETER INFORMATION
#MNEM.UNIT          VALUE    DESCRIPTION
#----------   ------------   ------------------------------
 PD  .                 GL:   PERMANENT DATUM
 EPD .F            5221.8:   ELEVATION PERMANENT DATUM
 LMF .                 GL:   LOG MEASURED FROM
 DMF .                 GL:   DRILLING MEASURED FROM
 EGL .F            5221.8:   GROUND LEVEL
 DATE.             3-3-77:   RUN DATE
 RUN .                  1:   RUN NUMBER
 DD  .F               967:   DEPTH DRILLER
 DL  .F               964:   DEPTH LOGGER
 BLI .F               962:   BOTTOM LOG INTERVAL
 TLI .F                42:   TOP LOG INTERVAL
 CS  .IN            8.625:   CASING SIZE
 CBD .F                42:   CASING BOTTOM DRILLER
 CBL .F                42:   CASING BOTTOM LOGGER
 BS  .IN            7.875:   BIT SIZE
 BSD .F               967:   BIT SIZE AT DEPTH
 DFT .           CHEM-GEL:   DRILLING FLUID TYPE
 DFD .                8.7:   DRILLING FLUID DENSITY
 DFV .                 33:   DRILLING FLUID VISCOSITY
 DFPH.                7.2:   DRILLING FLUID PH
 DFL .                 10:   DRILLING FLUID LOSS
 MSS .          FLOW LINE:   MUD SAMPLE SOURCE
 RMS .OHMM           .422:   RESISTIVITY MUD SAMPLE
 MST .F                56:   MUD SAMPLE TEMPERATURE
 RMF .OHMM           .372:   RESISTIVITY MUD FILTRATE SAMPLE
 MFST.F                56:   MUD FILTRATE SAMPLE TEMPERATURE
 RMC .OHMM           .484:   RESISTIVITY MUD CAKE
 MCST.F                56:   MUD CAKE SAMPLE TEMPERATURE
 MFSS.           MEASURED:   MUD FILTRATE SAMPLE SOURCE
 MCSS.           MEASURED:   MUD CAKE SAMPLE SOURCE
 RMB .OHMM           .284:   RESISTIVITY MUD AT BHT
 BHT .F                83:   BOTTOM HOLE TEMPERATURE
 TCS .HRS               2:   TIME CURCULATED STOPPED
 MRT .F                83:   MAXIMUM RECORDED TEMPERATURE
 LUN .               8611:   LOGGING UNIT NUMBER
 LUL .           GILLETTE:   LOGGING UNIT LOCATION
 ENGI.          D. LAWSON:   RECORDING ENGINEER
 WITN.         STUEBINGER:   WITNESSED BY
 CLNT.            A2DTECH:   CLIENT CODE
 ORIG.        2" 5" PRINT:   ORIGIN OF DATA
 UWI .       490251029700:   UNIQUE WELL ID
 DICO. A2D Technologies, Inc.:   DIGITIZING COMPANY
~OTHER INFORMATION
~A    DEPT    SGRD        ILM        ILD        SPR       DPHI       RHOB       CORR       CALD        GRD   
# ...
  912.5000    12.8708    10.7341     8.0103   -35.6562     0.1082     2.4707     0.0782     7.9936   116.5102
  913.0000    13.2241    10.8114     8.1256   -35.4994     0.1067     2.4729     0.0767     7.9924   113.7268
  913.5000    13.5872    10.8892     8.2424   -35.3426     0.1053     2.4752     0.0753     7.9913   111.0298
  914.0000    13.9797    11.2683     8.3610   -35.1857     0.1067     2.4720     0.0738     7.9901   108.3444
  914.5000    14.0832    11.7740     8.4812   -35.0289     0.1122     2.4659     0.0724     7.9890   106.3124
  915.0000    14.1931    12.3025     8.6032   -34.8720     0.1111     2.4664     0.0709     7.9878   105.2730
  915.5000    14.3602    12.6365     8.7269   -34.7151     0.1119     2.4663     0.0694     7.9867   104.2480
  916.0000    14.5696    11.9075     8.8175   -34.5582     0.1149     2.4568     0.0680     7.9855   104.4365
  916.5000    14.7821    11.3181     8.9001   -34.4013     0.1181     2.4540     0.0665     7.9844   106.6580
  917.0000    14.9976    11.7244     8.9836   -34.2444     0.1161     2.4557     0.0650     7.9833   105.9061
  917.5000    15.2163    12.2170     9.0678   -34.0875     0.1144     2.4566     0.0636     7.9821   104.9793
  918.0000    15.4655    12.7304     9.1528   -33.9306     0.1163     2.4543     0.0621     7.9810   105.3931
  918.5000    15.3304    13.1093     9.2386   -33.7738     0.1181     2.4521     0.0607     7.9798   106.8579
  919.0000    15.1779    12.6671     9.3252   -33.6169     0.1188     2.4499     0.0604     7.9787   108.1913
  919.5000    15.0396    12.1808     9.4132   -33.4600     0.1195     2.4497     0.0628     7.9703   108.1491
  920.0000    14.9929    12.3022     9.5060   -33.3031     0.1161     2.4565     0.0652     7.9552   107.2624
  920.5000    14.9463    12.5339     9.4682   -33.1462     0.1110     2.4696     0.0676     7.9401   106.5106
  921.0000    14.9078    12.8708     9.4281   -32.9892     0.1084     2.4643     0.0696     7.9249   106.3646
  921.5000    15.6082    12.8274     9.3882   -32.8319     0.1173     2.4569     0.0685     7.9098   106.2045
  922.0000    15.5894    12.7528     9.3485   -32.6772     0.1194     2.4494     0.0673     7.8946   106.2989
  922.5000    15.5578    12.6787     9.3089   -32.5823     0.1214     2.4420     0.0661     7.8795   107.5487
  923.0000    15.5263    12.6365     9.2695   -32.6299     0.1197     2.4475     0.0670     7.8643   108.9495
  923.5000    15.4948    13.1276     9.2323   -32.6747     0.1178     2.4539     0.0690     7.8492   108.6308
  924.0000    15.4655    13.5976     9.1980   -32.7201     0.1164     2.4555     0.0710     7.8340   107.8871
  924.5000    15.1518    13.3749     9.1637   -32.7653     0.1136     2.4609     0.0729     7.8196   106.5907
  925.0000    14.8640    13.0401     9.1296   -32.8106     0.1108     2.4666     0.0749     7.8228   105.7563
  925.5000    14.5044    12.7531     9.0956   -32.8558     0.1125     2.4644     0.0769     7.8267   106.9110
  926.0000    14.7080    13.2028     9.0617   -32.9010     0.1119     2.4625     0.0789     7.8305   106.8503
  926.5000    14.9986    13.7253     9.0280   -32.9462     0.1106     2.4735     0.0780     7.8343   107.1203
  927.0000    15.1819    13.3599     8.9943   -32.9914     0.1142     2.4646     0.0751     7.8380   108.1095
  927.5000    14.7541    12.8890     8.9607   -33.0367     0.1178     2.4537     0.0722     7.8418   109.1005
  928.0000    14.5027    12.5210     8.9275   -33.0820     0.1214     2.4431     0.0689     7.8456   108.9986
  928.5000    14.7063    12.9377     8.9142   -33.1273     0.1240     2.4386     0.0630     7.8494   108.0181
  929.0000    14.9078    13.2976     8.8327   -33.1685     0.1199     2.4479     0.0629     7.8532   108.1717
  929.5000    14.6613    13.7253     8.8327   -33.2074     0.1176     2.4561     0.0652     7.8570   109.3079
  930.0000    14.4253    12.8995     8.6418   -33.2840     0.1200     2.4525     0.0675     7.8592   110.4139
  930.5000    14.1931    11.9877     8.4033   -33.3608     0.1224     2.4488     0.0698     7.8599   110.8408
  931.0000    13.9646    11.2146     8.2435   -33.4377     0.1224     2.4483     0.0721     7.8606   111.3075
  931.5000    13.7223    11.4293     8.1630   -33.5146     0.1197     2.4533     0.0744     7.8613   112.4316
  932.0000    13.3541    11.7446     8.0832   -33.5914     0.1171     2.4606     0.0768     7.8619   114.3417
  932.5000    13.3891    12.0695     8.0042   -33.6683     0.1144     2.4681     0.0790     7.8626   116.2401
  933.0000    13.4755    12.0695     7.9260   -33.7451     0.1132     2.4742     0.0815     7.8633   117.7359
  933.5000    13.2601    11.6709     7.8485   -33.8219     0.1164     2.4656     0.0796     7.8640   118.4076
  934.0000    12.8708    11.1664     7.7718   -33.8988     0.1150     2.4670     0.0797     7.8647   118.6974
  934.5000    12.9358    10.6836     7.6959   -33.9756     0.1160     2.4646     0.0780     7.8654   116.7454
  935.0000    13.0460    10.2306     7.6207   -34.0525     0.1191     2.4564     0.0763     7.8661   115.1015
  935.5000    13.1093    10.4832     7.5462   -34.1293     0.1198     2.4536     0.0746     7.8668   114.5991
  936.0000    12.7857    10.9122     7.4724   -34.2062     0.1205     2.4518     0.0729     7.8675   115.0749
  936.5000    12.5639    10.7870     7.4108   -34.2830     0.1226     2.4473     0.0712     7.8681   114.8840
  937.0000    12.3465    10.5256     7.3814   -34.3599     0.1248     2.4426     0.0696     7.8688   115.4136
  937.5000    12.0670    10.2703     7.3522   -34.4368     0.1270     2.4379     0.0679     7.8695   117.4011
  938.0000    12.0707    10.0212     7.3231   -34.5132     0.1289     2.4358     0.0662     7.8702   119.1003
  938.5000    12.0696     9.9527     7.2941   -34.5771     0.1286     2.4350     0.0645     7.8709   118.8353
  939.0000    12.0695     9.9527     7.2652   -34.6171     0.1312     2.4309     0.0650     7.8716   118.5965
  939.5000    12.1829     9.9527     7.2364   -34.6576     0.1293     2.4348     0.0675     7.8723   119.4289
  940.0000    12.3354     9.9393     7.2077   -34.6980     0.1271     2.4384     0.0700     7.8730   121.2489
  940.5000    12.5206     9.9037     7.1790   -34.7384     0.1272     2.4388     0.0724     7.8737   123.0725
  941.0000    12.4695     9.8682     7.1516   -34.7788     0.1276     2.4388     0.0749     7.8743   123.0194
  941.5000    12.4064     9.8329     7.0953   -34.8192     0.1280     2.4388     0.0774     7.8750   122.3366
  942.0000    12.2490     9.7991     7.0279   -34.8596     0.1268     2.4405     0.0799     7.8757   121.6752
  942.5000    12.0976     9.7698     6.9610   -34.9000     0.1248     2.4430     0.0823     7.8764   120.9215
  943.0000    11.9591     9.4869     6.8947   -34.9404     0.1259     2.4408     0.0826     7.8771   107.6342
  943.5000    11.5384     9.2243     6.8291   -34.9808     0.1281     2.4365     0.0799     7.8778    71.8787
  944.0000    11.4029     8.9964     6.7640   -35.0212     0.1303     2.4320     0.0773     7.8785  -999.2500
  944.5000    11.3750     9.3113     6.6996   -35.0616     0.1325     2.4275     0.0751     7.8774  -999.2500
  945.0000    11.3474     9.6822     6.6225   -35.1019     0.1330     2.4279     0.0735     7.8753  -999.2500
  945.5000    11.3181     9.2773     6.4645   -35.1427     0.1344     2.4263     0.0720     7.8733  -999.2500
  946.0000    11.1430     8.7597     6.3098   -35.1427     0.1372     2.4199     0.0704     7.8712  -999.2500
  946.5000    10.9622     8.3592     6.1590   -35.1152     0.1401     2.4167     0.0707     7.8691  -999.2500
  947.0000    10.7840     8.8343     6.0118   -35.0870     0.1393     2.4196     0.0725     7.8670  -999.2500
  947.5000    10.6123     9.1632     5.8682   -35.0589     0.1397     2.4187     0.0742     7.8649  -999.2500
  948.0000    10.6137     8.7062     5.7280   -35.0308     0.1411     2.4152     0.0760     7.8628  -999.2500
  948.5000    10.6132     8.3477     5.5911   -35.0036     0.1413     2.4134     0.0777     7.8607  -999.2500
