~VERSION INFORMATION
 VERS.                2.0:   CWLS LOG ASCII STANDARD - VERSION 2.0
 WRAP.                 NO:   ONE LINE PER DEPTH STEP
~WELL INFORMATION
#MNEM.UNIT      DATA TYPE    INFORMATION
#----------   ------------   ------------------------------
 STRT.F           30.0000:   START DEPTH
 STOP.F          677.0000:   STOP DEPTH
 STEP.F            0.5000:   STEP LENGTH
 NULL.          -999.2500:   NO VALUE
 COMP. FENIX & SCISSON INC:   COMPANY
 WELL. TEAPOT DOME #27 SX -2:   WELL
 FLD .             TEAPOT:   FIELD
 LOC .       S2 T38N R78W:   LOCATION
 CNTY.            NATRONA:   COUNTY
 STAT.            WYOMING:   STATE
 CTRY. UNITED STATES OF AMERICA:   COUNTRY
 SRVC.            Unknown:   SERVICE COMPANY
 DATE.        28-JAN-1978:   LOGDATE
 API .       490251056500:   API NUMBER
~CURVE INFORMATION
#MNEM.UNIT       API CODE    CURVE DESCRIPTION
#----------   ------------   ------------------------------
 DEPT.F                  :   
 ILD .OHMM   05 120 46 00:   INDUCTION LOG DEEP
 SN  .OHMM   05 040 16 00:   SHORT NORMAL 16"
 SPR .MV     05 010 01 00:   SPONTANEOUS POTENSIAL
 CALD.IN     45 280 60 00:   CALIPER FROM DENSITY LOG
 CORR.G/C3   45 356 01 00:   DENSITY CORRECTION
 DPHI.DEC    45 890 12 00:   DENSITY POROSITY SANDSTONE
 GRD .GAPI   45 310 01 00:   GAMMA RAY FROM DENSITY LOG
 RHOB.G/C3   45 350 01 00:   BULK DENSITY
~PARAMETER INFORMATION
#MNEM.UNIT          VALUE    DESCRIPTION
#----------   ------------   ------------------------------
 PD  .                 GL:   PERMANENT DATUM
 EPD .F              5147:   ELEVATION PERMANENT DATUM
 LMF .                 KB:   LOG MEASURED FROM
 DAPD.F                 4:   FEET ABOVE PERMANENT DATUM
 DMF .                 KB:   DRILLING MEASURED FROM
 EKB .F              5151:   KELLING BUSHING
 EGL .F              5147:   GROUND LEVEL
 DATE.        28-JAN-1978:   RUN DATE
 RUN .                  1:   RUN NUMBER
 DD  .F               675:   DEPTH DRILLER
 DL  .F               678:   DEPTH LOGGER
 BLI .F               677:   BOTTOM LOG INTERVAL
 TLI .F                40:   TOP LOG INTERVAL
 CS  .IN            8.625:   CASING SIZE
 CBD .F                40:   CASING BOTTOM DRILLER
 CBL .F                40:   CASING BOTTOM LOGGER
 BS  .IN            7.875:   BIT SIZE
 BSD .F               675:   BIT SIZE AT DEPTH
 DFT .                KCL:   DRILLING FLUID TYPE
 DFD .                8.6:   DRILLING FLUID DENSITY
 DFV .                .34:   DRILLING FLUID VISCOSITY
 DFPH.                9.5:   DRILLING FLUID PH
 MSS .           FLOWLINE:   MUD SAMPLE SOURCE
 RMS .OHMM           0.38:   RESISTIVITY MUD SAMPLE
 MST .F                60:   MUD SAMPLE TEMPERATURE
 RMF .OHMM           0.36:   RESISTIVITY MUD FILTRATE SAMPLE
 MFST.F                62:   MUD FILTRATE SAMPLE TEMPERATURE
 RMC .OHMM            0.7:   RESISTIVITY MUD CAKE
 MCST.F                63:   MUD CAKE SAMPLE TEMPERATURE
 MFSS.               MEAS:   MUD FILTRATE SAMPLE SOURCE
 MCSS.               MEAS:   MUD CAKE SAMPLE SOURCE
 RMB .OHMM           0.31:   RESISTIVITY MUD AT BHT
 BHT .F                76:   BOTTOM HOLE TEMPERATURE
 TCS .HRS               3:   TIME CURCULATED STOPPED
 MRT .F                76:   MAXIMUM RECORDED TEMPERATURE
 LUN .               2958:   LOGGING UNIT NUMBER
 LUL .             CASPER:   LOGGING UNIT LOCATION
 ENGI.           REYNOLDS:   RECORDING ENGINEER
 WITN.     MR. HARRINGTON:   WITNESSED BY
 CLNT.            A2DTECH:   CLIENT CODE
 ORIG.           5" PRINT:   ORIGIN OF DATA
 UWI .       490251056500:   UNIQUE WELL ID
 DICO. A2D Technologies, Inc.:   DIGITIZING COMPANY
~OTHER INFORMATION
~A   DEPT      ILD         SN        SPR       CALD       CORR       DPHI        GRD       RHOB   
# ...
  516.0000    18.0829    15.0664   -55.3338     8.5988     0.0381     0.1789    81.5312     2.3681
  516.5000    18.0971    15.0783   -55.3124     8.5981     0.0364     0.1902    81.7017     2.3614
  517.0000    18.2365    15.0903   -55.2910     8.5974     0.0366     0.1934    81.8722     2.3511
  517.5000    18.2543    14.8956   -55.2691     8.5967     0.0383     0.1964    81.8948     2.3362
  518.0000    18.2666    14.8050   -55.2429     8.5961     0.0385     0.1987    81.9174     2.3296
  518.5000    18.1577    14.8196   -55.5258     8.5841     0.0371     0.1993    81.7929     2.3297
  519.0000    18.1720    14.8313   -55.8033     8.5864     0.0374     0.1945    81.8203     2.3306
  519.5000    18.1863    14.8431   -55.7766     8.5887     0.0405     0.1897    81.8428     2.3374
  520.0000    18.0759    14.8577   -55.9143     8.5915     0.0473     0.1947    81.8654     2.3397
  520.5000    18.0937    14.7674   -56.0328     8.5938     0.0589     0.1933    81.8880     2.3361
  521.0000    18.2341    14.6776   -56.1609     8.5960     0.0696     0.1907    82.0592     2.3377
  521.5000    18.2465    14.4855   -56.1341     8.5983     0.0713     0.1907    82.2346     2.3430
  522.0000    18.2616    14.3014   -56.1127     8.6006     0.0744     0.1904    81.5176     2.3461
  522.5000    18.1543    14.2151   -56.0912     8.6034     0.0776     0.1852    80.8005     2.3492
  523.0000    17.9168    14.2286   -56.0646     8.6053     0.0778     0.1831    80.8231     2.3523
  523.5000    17.6894    14.1422   -56.0432     8.6077     0.0750     0.1813    81.3028     2.3561
  524.0000    17.4580    14.1526   -56.0219     8.6102     0.0736     0.1800    82.3532     2.3570
  524.5000    17.4752    14.0671   -56.0005     8.6124     0.0738     0.1776    82.9675     2.3623
  525.0000    17.6131    13.9818   -55.9791     8.6153     0.0755     0.1767    82.0968     2.3639
  525.5000    17.6270    13.8043   -55.9523     8.6176     0.0787     0.1799    83.1606     2.3580
  526.0000    17.3998    13.7204   -55.9310     8.6190     0.0789     0.1838    85.2702     2.3536
  526.5000    16.8248    13.7312   -55.9096     8.6204     0.0806     0.1840    87.0575     2.3529
  527.0000    16.6078    13.6474   -56.0377     8.6219     0.0837     0.1795    87.3703     2.3553
  527.5000    16.3940    13.5588   -56.0163     8.6233     0.0839     0.1744    85.4754     2.3644
  528.0000    16.2976    13.4824   -55.9940     8.6248     0.0858     0.1723    85.6460     2.3675
  528.5000    16.2786    13.4005   -55.9681     8.6262     0.0888     0.1710    85.6686     2.3705
  529.0000    16.2082    13.4137   -55.9468     8.6277     0.0920     0.1707    85.2530     2.3729
  529.5000    16.1129    13.3322   -55.9254     8.6291     0.0936     0.1736    84.3880     2.3707
  530.0000    16.0151    13.3427   -56.0538     8.6306     0.0968     0.1727    83.6653     2.3708
  530.5000    16.1415    13.3558   -56.1815     8.6320     0.0985     0.1724    83.3920     2.3709
  531.0000    16.2657    13.3664   -56.1548     8.6335     0.1017     0.1717    82.6805     2.3718
  531.5000    16.5040    13.2825   -56.1334     8.6349     0.1154     0.1720    82.0580     2.3719
  532.0000    16.5692    13.2018   -56.4163     8.6364     0.1185     0.1750    80.8163     2.3708
  532.5000    16.6444    13.2445   -56.3896     8.6378     0.1217     0.1719    79.5014     2.3653
  533.0000    16.7754    13.3171   -56.3677     8.6393     0.1219     0.1671    79.2224     2.3759
  533.5000    16.7886    13.3297   -56.3415     8.6407     0.1221     0.1664    79.2507     2.3820
  534.0000    16.8018    13.3403   -56.4749     8.6427     0.1238     0.1664    79.5691     2.3783
  534.5000    16.6998    13.3501   -56.6030     8.6300     0.1269     0.1679    80.0365     2.3785
  535.0000    16.7129    13.2695   -57.0247     8.6329     0.1301     0.1699    80.8033     2.3793
  535.5000    16.4976    13.2804   -57.1528     8.6351     0.1333     0.1720    81.2697     2.3719
  536.0000    16.3974    13.1994   -57.1261     8.6331     0.1350     0.1672    81.2923     2.3728
  536.5000    16.2978    13.1192   -57.1047     8.6310     0.1352     0.1647    81.1613     2.3788
  537.0000    16.0909    12.9526   -56.9338     8.6288     0.1353     0.1635    81.1895     2.3842
  537.5000    15.9341    12.7853   -56.9124     8.6266     0.1235     0.1602    81.2130     2.3947
  538.0000    15.5714    12.6140   -56.8909     8.6245     0.1087     0.1515    81.3882     2.4053
  538.5000    15.1637    12.2900   -57.0138     8.6223     0.0997     0.1550    81.4108     2.4032
  539.0000    14.9683    12.2153   -56.9924     8.6202     0.0866     0.1574    81.4334     2.4018
  539.5000    14.7754    12.1387   -56.9710     8.6180     0.0822     0.1591    81.1601     2.3951
  540.0000    14.7332    12.0670   -57.1044     8.6158     0.0839     0.1627    80.2762     2.3877
  540.5000    14.5965    11.9940   -57.2272     8.6139     0.0901     0.1632    79.2878     2.3848
  541.0000    14.4112    12.0058   -57.2004     8.6168     0.0903     0.1599    77.0915     2.3879
  541.5000    14.4226    11.9305   -57.1790     8.6190     0.0919     0.1554    79.3330     2.3940
  542.0000    14.2367    11.8580   -57.1577     8.6213     0.0891     0.1482    79.7993     2.3994
  542.5000    14.0533    11.7051   -57.1363     8.6237     0.0848     0.1454    79.9698     2.4062
  543.0000    13.8722    11.6363   -57.2646     8.6261     0.0850     0.1451    79.9981     2.4123
  543.5000    13.6022    11.4862   -57.3924     8.6284     0.0837     0.1480    80.0207     2.4184
  544.0000    13.4269    11.4164   -57.5152     8.6308     0.0886     0.1582    80.1912     2.4125
  544.5000    13.2539    11.2692   -57.6486     8.6332     0.0976     0.1581    80.5096     2.3961
  545.0000    13.0802    11.1261   -57.6219     8.6356     0.1037     0.1581    81.1441     2.3954
  545.5000    13.0036    11.1349   -57.6005     8.6379     0.1099     0.1569    83.9628     2.3955
  546.0000    13.0150    11.1439   -57.5785     8.6404     0.1086     0.1490    85.3167     2.3965
  546.5000    12.9348    11.1546   -57.5524     8.6427     0.0982     0.1370    85.7831     2.4070
  547.0000    12.8563    11.0847   -57.5336     8.6455     0.0880     0.1364    85.9536     2.4250
  547.5000    12.6931    11.0956   -57.3617     8.6324     0.0761     0.1367    86.5680     2.4348
  548.0000    12.6185    11.0280   -57.3387     8.6352     0.0733     0.1423    87.4837     2.4349
  548.5000    12.5394    11.1133   -57.4668     8.6375     0.0735     0.1419    88.2459     2.4279
  549.0000    12.5517    11.1241   -57.5949     8.6397     0.0721     0.1410    87.3809     2.4216
  549.5000    12.3875    11.0543   -57.7230     8.6421     0.0691     0.1398    85.4804     2.4247
  550.0000    12.3147    10.9117   -57.6963     8.6294     0.0650     0.1386    83.1361     2.4256
  550.5000    12.1584    10.9225   -57.6749     8.6323     0.0637     0.1379    83.1643     2.4272
  551.0000    12.0822    10.9312   -57.6532     8.6345     0.0608     0.1373    83.1869     2.4288
  551.5000    12.0088    10.8647   -57.4773     8.6219     0.0610     0.1363    83.2095     2.4311
  552.0000    11.9359    10.8732   -57.6107     8.6243     0.0627     0.1360    84.8536     2.4320
  552.5000    11.9476    10.8810   -57.4345     8.6271     0.0629     0.1360    83.8463     2.4321
  553.0000    11.9311    10.8122   -57.4216     8.6140     0.0646     0.1362    83.5731     2.4322
  553.5000    12.0501    10.8968   -57.4074     8.6168     0.0648     0.1347    83.6013     2.4345
  554.0000    12.0599    10.9047   -57.3935     8.6192     0.0649     0.1296    83.5710     2.4383
  554.5000    11.9864    10.9126   -57.8233     8.6221     0.0636     0.1233    83.5352     2.4437
  555.0000    11.9983    10.9207   -57.8001     8.6250     0.0656     0.1202    83.6567     2.4497
  555.5000    12.0906    10.9290   -57.7814     8.6279     0.0658     0.1175    84.5655     2.4618
  556.0000    12.1837    10.9372   -57.7628     8.6303     0.0661     0.1169    85.6222     2.4612
