~VERSION INFORMATION
 VERS.                2.0:   CWLS LOG ASCII STANDARD - VERSION 2.0
 WRAP.                 NO:   ONE LINE PER DEPTH STEP
~WELL INFORMATION
#MNEM.UNIT      DATA TYPE    INFORMATION
#----------   ------------   ------------------------------
 STRT.F           78.5000:   START DEPTH
 STOP.F         1021.0000:   STOP DEPTH
 STEP.F            0.5000:   STEP LENGTH
 NULL.          -999.2500:   NO VALUE
 COMP. U S NAVY/INTEX OIL CO:   COMPANY
 WELL.     NRR 3 ##65S-11:   WELL
 FLD .             TEAPOT:   FIELD
 LOC .      S11 T38N R78W:   LOCATION
 CNTY.            NATRONA:   COUNTY
 STAT.            WYOMING:   STATE
 CTRY. UNITED STATES OF AMERICA:   COUNTRY
 SRVC.       Schlumberger:   SERVICE COMPANY
 DATE.        09-MAR-1960:   LOGDATE
 API .       490250634100:   API NUMBER
~CURVE INFORMATION
#MNEM.UNIT       API CODE    CURVE DESCRIPTION
#----------   ------------   ------------------------------
 DEPT.F                  :   
 SPR .MV     05 010 01 00:   SPONTANEOUS POTENTIAL FROM RES.
 ILD .OHMM   05 120 46 00:   INDUCTION LOG DEEP
 CILD.MMHO   05 110 00 00:   CONDUCTIVITY INDUCTION LOG
 ASN .OHMM   05 041 16 00:   AMPLIFIED SHORT NORMAL 16"
~PARAMETER INFORMATION
#MNEM.UNIT          VALUE    DESCRIPTION
#----------   ------------   ------------------------------
 PD  .                 GL:   PERMANENT DATUM
 EPD .F              5227:   ELEVATION PERMANENT DATUM
 LMF .                 KB:   LOG MEASURED FROM
 DAPD.F                 5:   FEET ABOVE PERMANENT DATUM
 DMF .                 KB:   DRILLING MEASURED FROM
 EKB .F              5232:   KELLING BUSHING
 EGL .F              5227:   GROUND LEVEL
 DATE.             3-9-60:   RUN DATE
 RUN .                  1:   RUN NUMBER
 DD  .F              1025:   DEPTH DRILLER
 DL  .F              1026:   DEPTH LOGGER
 BLI .F              1021:   BOTTOM LOG INTERVAL
 TLI .F                80:   TOP LOG INTERVAL
 CBD .F                12:   CASING BOTTOM DRILLER
 BS  .IN            7.875:   BIT SIZE
 BSD .F              1025:   BIT SIZE AT DEPTH
 DFT .          OIL EMULS:   DRILLING FLUID TYPE
 DFD .               10.2:   DRILLING FLUID DENSITY
 DFV .                 36:   DRILLING FLUID VISCOSITY
 DFPH.                7.5:   DRILLING FLUID PH
 DFL .                  4:   DRILLING FLUID LOSS
 MSS .          FLOW LINE:   MUD SAMPLE SOURCE
 RMS .OHMM           2.18:   RESISTIVITY MUD SAMPLE
 MST .F                64:   MUD SAMPLE TEMPERATURE
 RMF .OHMM           1.17:   RESISTIVITY MUD FILTRATE SAMPLE
 MFST.F                63:   MUD FILTRATE SAMPLE TEMPERATURE
 RMC .OHMM           2.02:   RESISTIVITY MUD CAKE
 MCST.F                64:   MUD CAKE SAMPLE TEMPERATURE
 MFSS.                  M:   MUD FILTRATE SAMPLE SOURCE
 MCSS.                  M:   MUD CAKE SAMPLE SOURCE
 TCS .HRS             .75:   TIME CURCULATED STOPPED
 LUN .               2795:   LOGGING UNIT NUMBER
 LUL .               CSPR:   LOGGING UNIT LOCATION
 ENGI.              SCOTT:   RECORDING ENGINEER
 WITN.          JORGENSEN:   WITNESSED BY
 CLNT.            A2DTECH:   CLIENT CODE
 ORIG.           2" PRINT:   ORIGIN OF DATA
 UWI .       490250634100:   UNIQUE WELL ID
 DICO. A2D Technologies, Inc.:   DIGITIZING COMPANY
~OTHER INFORMATION
~A   DEPT      SPR        ILD       CILD        ASN   
# ...
  735.5000   -49.0254     7.4055   134.6166     9.5539
  736.0000   -49.1104     7.4333   133.9791     9.6260
  736.5000   -49.1971     7.4657   133.3393     9.6989
  737.0000   -49.2803     7.4953   132.6954     9.6790
  737.5000   -49.3700     7.5269   132.0477     9.6301
  738.0000   -49.4478     7.5564   131.3976     9.6145
  738.5000   -49.5515     7.5890   130.7689     9.6343
  739.0000   -49.5519     7.6164   130.1266     9.6518
  739.5000   -49.3787     7.6538   130.1331     9.6623
  740.0000   -49.2193     7.6382   131.0049     9.5967
  740.5000   -49.0506     7.5613   131.8766     9.5074
  741.0000   -48.8872     7.4930   132.7655     9.4633
  741.5000   -48.7213     7.4202   133.4302     9.4598
  742.0000   -48.5552     7.3497   134.4179     9.4544
  742.5000   -48.3969     7.2787   135.6974     9.4228
  743.0000   -48.3681     7.2064   137.0047     9.3627
  743.5000   -48.3577     7.1375   138.3175     9.3032
  744.0000   -48.3436     7.0620   139.6330     9.1865
  744.5000   -48.3309     7.0005   140.8363     9.0692
  745.0000   -48.3175     6.8756   144.1531     8.9534
  745.5000   -48.3045     6.6994   146.8543     8.8375
  746.0000   -48.2913     6.5394   151.1047     8.6812
  746.5000   -48.2781     6.3718   154.9231     8.5295
  747.0000   -48.2646     6.2081   158.7422     8.2221
  747.5000   -48.2513     6.0420   162.5645     7.9535
  748.0000   -48.2377     5.8777   166.3844     7.6772
  748.5000   -48.2247     5.7116   170.1967     7.4828
  749.0000   -48.2106     5.5483   174.0029     7.3058
  749.5000   -48.1982     5.3790   177.8095     7.0853
  750.0000   -48.1849     5.2650   178.7958     7.1360
  750.5000   -48.2559     5.4222   173.1538     7.5350
  751.0000   -48.3637     5.6532   168.5771     7.8694
  751.5000   -48.4647     5.8755   164.0005     8.2461
  752.0000   -48.5693     6.1006   159.4238     8.3445
  752.5000   -48.6720     6.3370   154.8472     8.4037
  753.0000   -48.7774     6.3958   151.5992     8.4720
  753.5000   -48.7904     6.4242   150.9890     8.5379
  754.0000   -48.7885     6.4612   150.3788     8.6020
  754.5000   -48.7885     6.4641   149.7685     8.6733
  755.0000   -48.7900     6.4639   149.1583     8.7151
  755.5000   -48.7866     6.4634   148.7976     8.7190
  756.0000   -48.7939     6.4644   148.7976     8.7249
  756.5000   -48.7370     6.4563   148.7976     8.6767
  757.0000   -48.6157     6.4368   149.7595     8.6176
  757.5000   -48.5055     6.4195   150.7766     8.5537
  758.0000   -48.3897     6.3997   151.7936     8.4339
  758.5000   -48.2770     6.3849   152.8106     8.2707
  759.0000   -48.1627     6.3464   153.8076     8.1138
  759.5000   -48.0492     6.1304   158.3016     7.9522
  760.0000   -47.9350     5.8965   162.7088     7.7956
  760.5000   -47.8215     5.6660   166.8337     7.6333
  761.0000   -47.7068     5.4340   176.8683     7.4803
  761.5000   -47.5946     5.2028   186.2990     7.1892
  762.0000   -47.4778     4.9701   195.7296     6.8147
  762.5000   -47.3697     4.7393   205.1603     6.4572
  763.0000   -47.2410     4.5047   214.5910     6.1083
  763.5000   -47.1648     4.2780   222.6613     5.7403
  764.0000   -47.2011     4.0355   229.9840     5.5943
  764.5000   -47.2329     3.8657   235.9719     5.6419
  765.0000   -47.2705     3.8426   235.9719     5.7399
  765.5000   -47.3048     3.9174   231.9639     6.1180
  766.0000   -47.3409     4.4570   225.9519     6.6928
  766.5000   -47.3761     4.9455   208.4870     7.1786
  767.0000   -47.4117     5.5001   194.2485     7.7658
  767.5000   -47.4470     5.7989   180.0100     7.9595
  768.0000   -47.4824     6.0986   167.8056     8.1388
  768.5000   -47.5177     6.4293   160.6864     8.2965
  769.0000   -47.5530     6.5341   155.2690     8.4029
  769.5000   -47.5883     6.6069   153.5479     8.5246
  770.0000   -47.6237     6.6888   151.8267     8.6591
  770.5000   -47.6590     6.7666   150.1056     8.7348
  771.0000   -47.6943     6.8466   148.3845     8.8198
  771.5000   -47.7296     6.9256   146.6633     8.8984
  772.0000   -47.7650     7.0054   144.9422     8.9812
  772.5000   -47.8003     7.0843   143.2211     9.0693
  773.0000   -47.8356     7.1648   141.4999     9.2098
  773.5000   -47.8709     7.2428   139.7788     9.3635
  774.0000   -47.9063     7.3261   138.0576     9.5192
  774.5000   -47.9416     7.3837   136.3365     9.6684
  775.0000   -47.9769     7.4144   134.6154     9.8692
  775.5000   -48.0122     7.4496   133.4235    10.1320
  776.0000   -48.0476     7.4833   132.7455    10.3534
  776.5000   -48.0829     7.5165   132.0675    10.3751
  777.0000   -48.1182     7.5527   131.5765    10.3723
  777.5000   -48.1538     7.5635   131.2375    10.3719
  778.0000   -48.1890     7.5261   130.8985    10.3748
  778.5000   -48.2251     7.4887   130.7615    10.3682
  779.0000   -48.2592     7.4533   130.7615    10.3836
  779.5000   -48.2971     7.4128   130.7615    10.3165
  780.0000   -48.3282     7.3841   132.3748     9.9290
  780.5000   -48.3728     7.3007   133.7986     9.7039
  781.0000   -48.3399     7.1789   135.2224     9.5196
  781.5000   -48.2255     7.0724   136.6463     9.3517
  782.0000   -48.1240     6.9593   137.7755     9.1874
  782.5000   -48.0158     6.8506   140.6768     9.0355
  783.0000   -47.9113     6.7492   143.0807     8.8812
  783.5000   -47.8048     6.6092   145.4846     8.7081
  784.0000   -47.6993     6.4795   147.8885     8.5948
  784.5000   -47.5934     6.3564   150.8016     8.3446
  785.0000   -47.4877     6.1189   157.4902     7.9566
  785.5000   -47.3820     5.6681   166.0797     7.5057
  786.0000   -47.2763     5.2079   176.3438     6.9440
  786.5000   -47.1707     4.7459   190.0807     6.3820
  787.0000   -47.0648     4.2854   210.0117     5.8197
  787.5000   -46.9593     3.8238   241.2069     5.2573
  788.0000   -46.8527     3.3624   272.4026     4.6951
  788.5000   -46.7485     2.9011   303.5681     4.1342
  789.0000   -46.6398     2.4371   334.7021     3.7263
  789.5000   -46.5393     1.9858   365.7930     3.5972
  790.0000   -46.4209     1.8473   396.8690     3.4265
  790.5000   -46.3655     1.7571   429.0406     3.3064
  791.0000   -46.3988     1.7582   429.9442     3.2612
  791.5000   -46.4186     1.9703   428.9271     3.3150
  792.0000   -46.4455     2.4462   404.6624     3.6672
  792.5000   -46.4685     2.9532   380.9174     4.0352
  793.0000   -46.4936     3.4563   335.4108     4.6600
  793.5000   -46.5176     3.9582   290.6613     5.2740
  794.0000   -46.5421     4.4644   245.9118     5.8946
  794.5000   -46.5664     4.9621   216.4028     6.4603
  795.0000   -46.5906     5.4695   199.8998     6.7764
  795.5000   -46.6149     5.7142   182.0240     6.8673
  796.0000   -46.6391     5.7368   174.8497     6.9504
  796.5000   -46.6635     5.4793   173.8477     7.0332
  797.0000   -46.6876     5.2243   177.7973     7.1172
  797.5000   -46.7121     4.9652   182.9098     7.2425
  798.0000   -46.7360     4.7525   188.0366     7.1904
  798.5000   -46.7604     4.6042   193.1769     6.8592
  799.0000   -46.7686     4.4717   198.3337     6.5498
  799.5000   -46.7675     4.3411   203.4756     6.2553
  800.0000   -46.7680     4.2081   207.3119     6.0194
  800.5000   -46.7677     4.0801   221.5219     5.7521
  801.0000   -46.7678     3.9386   233.9679     5.6058
  801.5000   -46.7677     3.8375   233.9679     5.6984
  802.0000   -46.7677     3.9516   233.9679     5.8657
  802.5000   -46.7676     4.2444   225.3524     6.0505
  803.0000   -46.7676     4.5392   214.8851     6.2246
  803.5000   -46.7675     4.8369   204.4178     6.5027
  804.0000   -46.7675     5.1317   193.9506     6.9296
  804.5000   -46.7673     5.4304   183.4308     7.3597
  805.0000   -46.7693     5.7228   172.9085     7.7913
  805.5000   -46.7977     6.0263   162.4081     8.2236
  806.0000   -46.8327     6.3095   154.6373     8.6449
  806.5000   -46.8666     6.6319   150.1710     8.8497
  807.0000   -46.9009     6.7723   145.6827     9.0245
  807.5000   -46.9352     6.8364   143.6677     9.0912
  808.0000   -46.9696     6.8743   141.6300     9.0885
