~VERSION INFORMATION
 VERS.                2.0:   CWLS LOG ASCII STANDARD - VERSION 2.0
 WRAP.                 NO:   ONE LINE PER DEPTH STEP
~WELL INFORMATION
#MNEM.UNIT      DATA TYPE    INFORMATION
#----------   ------------   ------------------------------
 STRT.F           70.0000:   START DEPTH
 STOP.F         1088.0000:   STOP DEPTH
 STEP.F            0.5000:   STEP LENGTH
 NULL.          -999.2500:   NO VALUE
 COMP. U S NAVY/INTEX OIL CO:   COMPANY
 WELL. RES 3 TEAPOT DOME #66S-11:   WELL
 FLD .             TEAPOT:   FIELD
 LOC .      S11 T38N R78W:   LOCATION
 CNTY.            NATRONA:   COUNTY
 STAT.            WYOMING:   STATE
 CTRY. UNITED STATES OF AMERICA:   COUNTRY
 SRVC.         Lane Wells:   SERVICE COMPANY
 DATE.        06-MAR-1960:   LOGDATE
 API .       490250633400:   API NUMBER
~CURVE INFORMATION
#MNEM.UNIT       API CODE    CURVE DESCRIPTION
#----------   ------------   ------------------------------
 DEPT.F                  :   
 SPR .MV     05 010 01 00:   SPONTANEOUS POTENTIAL FROM RES.
 ILD .OHMM   05 120 46 00:   INDUCTION LOG DEEP
 CILD.MMHO   05 110 00 00:   CONDUCTIVITY INDUCTION LOG
 ASN .OHMM   05 041 16 00:   AMPLIFIED SHORT NORMAL 16"
~PARAMETER INFORMATION
#MNEM.UNIT          VALUE    DESCRIPTION
#----------   ------------   ------------------------------
 PD  .                 GL:   PERMANENT DATUM
 EPD .F              5238:   ELEVATION PERMANENT DATUM
 LMF .                 KB:   LOG MEASURED FROM
 DAPD.F                 5:   FEET ABOVE PERMANENT DATUM
 DMF .                 KB:   DRILLING MEASURED FROM
 EKB .F              5243:   KELLING BUSHING
 EGL .F              5238:   GROUND LEVEL
 DATE.             3-6-60:   RUN DATE
 RUN .                  1:   RUN NUMBER
 DD  .F              1085:   DEPTH DRILLER
 DL  .F              1087:   DEPTH LOGGER
 BLI .F              1085:   BOTTOM LOG INTERVAL
 TLI .F                70:   TOP LOG INTERVAL
 CS  .IN            8.625:   CASING SIZE
 CBD .F                12:   CASING BOTTOM DRILLER
 BS  .IN            7.875:   BIT SIZE
 BSD .F              1085:   BIT SIZE AT DEPTH
 DFT .   GEL/OIL EMULSION:   DRILLING FLUID TYPE
 DFD .               10.3:   DRILLING FLUID DENSITY
 DFV .                 37:   DRILLING FLUID VISCOSITY
 DFPH.                8.5:   DRILLING FLUID PH
 DFL .                7.2:   DRILLING FLUID LOSS
 MSS .          FLOW LINE:   MUD SAMPLE SOURCE
 RMS .OHMM           1.65:   RESISTIVITY MUD SAMPLE
 MST .F                70:   MUD SAMPLE TEMPERATURE
 RMF .OHMM            1.2:   RESISTIVITY MUD FILTRATE SAMPLE
 MFST.F                68:   MUD FILTRATE SAMPLE TEMPERATURE
 RMC .OHMM            1.8:   RESISTIVITY MUD CAKE
 MCST.F                68:   MUD CAKE SAMPLE TEMPERATURE
 MFSS.              PRESS:   MUD FILTRATE SAMPLE SOURCE
 MCSS.              PRESS:   MUD CAKE SAMPLE SOURCE
 RMB .OHMM            1.5:   RESISTIVITY MUD AT BHT
 BHT .F                74:   BOTTOM HOLE TEMPERATURE
 MRT .F                74:   MAXIMUM RECORDED TEMPERATURE
 LUN .               4474:   LOGGING UNIT NUMBER
 LUL .             CASPER:   LOGGING UNIT LOCATION
 ENGI.      NELSON/GRIGGS:   RECORDING ENGINEER
 WITN.   JORGENSEN/HUDSON:   WITNESSED BY
 CLNT.            A2DTECH:   CLIENT CODE
 ORIG.       2", 5" PRINT:   ORIGIN OF DATA
 UWI .       490250633400:   UNIQUE WELL ID
 DICO. A2D Technologies, Inc.:   DIGITIZING COMPANY
~OTHER INFORMATION
~A   DEPT      SPR          ILD      CILD         ASN 
# ...
  362.0000   -41.7089     4.8375   229.1927     5.1571
  362.5000   -41.5905     4.9909   218.0701     5.4086
  363.0000   -41.3650     5.0953   206.9475     5.6596
  363.5000   -41.1937     5.1981   197.0917     5.8965
  364.0000   -41.5082     5.3008   198.0186     5.9504
  364.5000   -41.8208     5.4187   198.8073     6.0098
  365.0000   -42.1519     5.5029   196.3597     6.0701
  365.5000   -42.1310     5.5407   192.6522     6.1403
  366.0000   -41.9484     5.5777   188.9447     6.2577
  366.5000   -41.7548     5.6148   185.2371     6.3745
  367.0000   -41.7114     5.6538   183.3426     6.4935
  367.5000   -41.8212     5.6126   184.3034     6.5369
  368.0000   -41.9615     5.5511   186.0656     6.5407
  368.5000   -42.1025     5.4892   188.2902     6.3650
  369.0000   -42.2446     5.4274   190.1714     6.1550
  369.5000   -42.1982     5.3658   191.4073     5.9492
  370.0000   -42.1235     5.3041   192.6431     5.7584
  370.5000   -42.0483     5.2412   196.9429     5.5756
  371.0000   -41.9736     5.1315   205.5938     5.3925
  371.5000   -41.8989     4.9553   214.2448     5.2097
  372.0000   -41.8244     4.7802   222.8957     5.0268
  372.5000   -41.7496     4.6046   231.4408     4.8441
  373.0000   -41.6867     4.4292   243.1164     4.6615
  373.5000   -41.6326     4.2537   254.6510     4.4022
  374.0000   -41.5792     4.0782   266.1855     4.0776
  374.5000   -41.5316     3.9019   277.7201     3.7540
  375.0000   -41.5312     3.7264   285.2258     3.4635
  375.5000   -41.5314     3.5932   289.4561     3.4740
  376.0000   -41.5314     3.7457   289.4561     3.6285
  376.5000   -41.5314     3.8948   287.9332     3.8355
  377.0000   -41.5314     4.0431   279.8440     4.0448
  377.5000   -41.5314     4.1912   271.7549     4.2538
  378.0000   -41.5314     4.3395   263.6657     4.4628
  378.5000   -41.5314     4.4880   255.5766     4.6549
  379.0000   -41.5314     4.6383   247.4338     4.7278
  379.5000   -41.5314     4.6499   245.9597     4.7792
  380.0000   -41.5315     4.6033   245.3101     4.8128
  380.5000   -41.5323     4.5567   243.4563     4.8277
  381.0000   -41.5377     4.5096   242.3187     4.8174
  381.5000   -41.3315     4.4246   244.1317     4.7253
  382.0000   -41.1072     4.2799   246.6844     4.6269
  382.5000   -40.8821     4.1361   252.6164     4.5227
  383.0000   -40.6566     3.9925   258.6355     4.2953
  383.5000   -40.4437     3.8459   270.5082     4.0473
  384.0000   -40.4921     3.6199   282.2042     3.7814
  384.5000   -40.5511     3.3914   309.6123     3.5169
  385.0000   -40.6088     3.1634   336.2392     3.2515
  385.5000   -40.6663     2.9354   362.8660     2.9856
  386.0000   -40.7236     2.7063   389.4929     2.7202
  386.5000   -40.7822     2.4782   416.1198     2.4799
  387.0000   -40.7702     2.3299   425.4294     2.4763
  387.5000   -40.7243     2.5068   422.4833     2.5508
  388.0000   -40.6773     2.6787   406.4173     2.9035
  388.5000   -40.6258     2.8498   383.7998     3.2531
  389.0000   -40.7692     3.0207   358.5886     3.9496
  389.5000   -40.9720     3.1913   333.3629     4.7611
  390.0000   -41.1765     3.3592   308.1534     5.3240
  390.5000   -41.3806     3.6646   282.8337     4.9607
  391.0000   -41.5810     3.9945   275.5143     4.4853
  391.5000   -41.6456     4.2149   271.8068     4.3560
  392.0000   -41.4405     4.1879   269.9433     4.2873
  392.5000   -41.2400     4.1620   268.3543     4.2187
  393.0000   -41.0387     4.1348   266.7654     4.2402
  393.5000   -40.8373     4.0906   265.8874     4.2685
  394.0000   -40.6353     4.0230   265.8874     4.2503
  394.5000   -40.4415     3.9558   265.8874     4.1430
  395.0000   -40.4812     3.8886   269.5134     4.0324
  395.5000   -40.5726     3.8224   279.6418     3.9075
  396.0000   -40.6631     3.7502   289.5286     3.8131
  396.5000   -40.7535     3.5466   299.4154     3.7353
  397.0000   -40.8439     3.3459   309.3022     3.5530
  397.5000   -40.9342     3.1463   319.1889     3.3757
  398.0000   -41.0246     2.9469   329.0762     3.1995
  398.5000   -41.1149     2.7473   338.9688     3.0230
  399.0000   -41.2053     2.5388   348.8519     2.8472
  399.5000   -41.2956     2.4907   358.2818     2.7060
  400.0000   -41.3860     2.5411   360.1238     2.7250
  400.5000   -41.4763     2.7900   357.2524     2.8955
  401.0000   -41.5667     3.0315   343.1188     3.1160
  401.5000   -41.6573     3.2725   328.0774     3.3353
  402.0000   -41.7481     3.5137   313.0360     3.6610
  402.5000   -41.8357     3.7551   297.9945     4.0044
  403.0000   -41.7897     3.9945   282.9531     4.2659
  403.5000   -41.4668     4.1252   267.9117     4.3491
  404.0000   -41.1465     4.2377   257.2214     4.4356
  404.5000   -40.8165     4.3827   255.0095     4.5094
  405.0000   -40.6864     4.3950   255.0095     4.5424
  405.5000   -40.5643     4.3897   255.0095     4.5221
  406.0000   -40.4408     4.2049   260.4150     4.3298
  406.5000   -40.3181     4.0046   268.3614     4.1234
  407.0000   -40.3075     3.8046   276.3078     3.9170
  407.5000   -40.4194     3.6046   284.2543     3.7109
  408.0000   -40.5307     3.4041   292.2007     3.5046
  408.5000   -40.6419     3.2175   300.1471     3.3075
  409.0000   -40.7548     3.2183   307.5859     3.1989
  409.5000   -40.7141     3.3217   311.2118     3.1812
  410.0000   -40.5667     3.4241   313.0248     3.1841
  410.5000   -40.4484     3.5255   308.4189     3.3923
  411.0000   -40.5905     3.6269   299.9333     3.6788
  411.5000   -40.7318     3.7283   291.4477     3.8554
  412.0000   -40.8709     3.8296   282.9620     3.9741
  412.5000   -40.9402     3.9309   274.4764     4.0920
  413.0000   -40.6548     4.0321   267.2048     4.2101
  413.5000   -40.3746     4.1339   264.7452     4.3321
  414.0000   -40.0961     4.2574   262.2856     4.3790
  414.5000   -39.8838     4.3017   259.5148     4.3704
  415.0000   -39.9311     4.3026   259.6326     4.3344
  415.5000   -40.1241     4.3014   265.1180     4.1976
  416.0000   -40.3103     4.2563   271.1049     4.0355
  416.5000   -40.4963     4.0984   277.1216     3.8729
  417.0000   -40.6813     3.9424   283.0311     3.7105
  417.5000   -40.8125     3.7864   293.1714     3.5481
  418.0000   -40.4805     3.6304   303.8912     3.3858
  418.5000   -40.1046     3.4735   314.6572     3.2238
  419.0000   -39.7275     3.3125   325.4267     3.0856
  419.5000   -40.0423     3.2278   336.2298     2.9845
  420.0000   -40.4121     3.1449   347.4151     2.8830
  420.5000   -40.3991     3.0612   350.9795     2.7819
  421.0000   -39.9130     2.9776   354.7233     2.7372
  421.5000   -39.4308     2.8937   363.7882     2.7558
  422.0000   -38.9487     2.8400   371.1851     2.7744
  422.5000   -38.4621     2.8130   378.5639     2.7193
  423.0000   -38.4817     2.7872   385.5439     2.5998
  423.5000   -38.9025     2.7582   399.6035     2.4799
  424.0000   -39.3280     2.6641   412.9422     2.3600
  424.5000   -39.6975     2.5710   426.2808     2.2176
  425.0000   -39.5020     2.4788   439.6286     2.0599
  425.5000   -39.3140     2.3973   452.9863     1.9846
  426.0000   -39.1772     2.3994   466.3346     1.9839
  426.5000   -39.3416     2.4190   470.7799     2.0546
  427.0000   -39.5022     2.5402   466.9930     2.2476
  427.5000   -39.6751     2.6603   446.4316     2.4410
  428.0000   -39.2817     2.7802   426.0120     2.6341
  428.5000   -39.2844     2.9000   405.5972     2.8271
  429.0000   -39.4493     3.0198   385.1825     3.0205
  429.5000   -39.6199     3.1395   364.7678     3.2168
  430.0000   -39.7894     3.2593   344.3531     3.2942
  430.5000   -39.9557     3.3793   323.9383     3.3726
  431.0000   -40.0370     3.4994   321.2859     3.3230
  431.5000   -39.9205     3.6411   322.4945     3.2571
  432.0000   -39.8078     3.6159   323.6904     3.1942
  432.5000   -39.6946     3.4671   327.9543     3.0404
  433.0000   -39.5815     3.3194   332.9038     2.8787
  433.5000   -39.4684     3.1719   341.3460     2.7626
  434.0000   -39.3554     3.0244   351.0360     2.7159
  434.5000   -39.2423     2.8769   367.1546     2.6686
