~VERSION INFORMATION
 VERS.                2.0:   CWLS LOG ASCII STANDARD - VERSION 2.0
 WRAP.                 NO:   ONE LINE PER DEPTH STEP
~WELL INFORMATION
#MNEM.UNIT      DATA TYPE    INFORMATION
#----------   ------------   ------------------------------
 STRT.F           34.0000:   START DEPTH
 STOP.F          604.0000:   STOP DEPTH
 STEP.F            0.5000:   STEP LENGTH
 NULL.          -999.2500:   NO VALUE
 COMP. FENIX & SCISSON INC:   COMPANY
 WELL.       NPR #17 SX-2:   WELL
 FLD .             TEAPOT:   FIELD
 LOC .       S2 T38N R78W:   LOCATION
 CNTY.            NATRONA:   COUNTY
 STAT.            WYOMING:   STATE
 CTRY. UNITED STATES OF AMERICA:   COUNTRY
 SRVC.       Schlumberger:   SERVICE COMPANY
 DATE.        18-MAR-1977:   LOGDATE
 API .       490251032700:   API NUMBER
~CURVE INFORMATION
#MNEM.UNIT       API CODE    CURVE DESCRIPTION
#----------   ------------   ------------------------------
 DEPT.F                  :   
 SPR .MV     07 010 01 00:   SPONTANEOUS POTENTIAL
 ILD .OHMM   07 120 46 00:   INDUCTION LOG DEEP
 ILM .OHMM   07 120 44 00:   INDUCTION LOG MEDIUM
 LL8 .OHMM   07 220 08 00:   LATEROLOG-8 RES.
 CALD.IN     45 280 60 00:   CALIPER FROM DENSITY LOG
 GRD .GAPI   45 310 01 00:   GAMMA RAY FROM DENSITY LOG
 CORR.G/C3   45 356 01 00:   DENSITY CORRECTION
 DPHI.DEC    45 890 12 00:   DENSITY POROSITY SANDSTONE
 RHOB.G/C3   45 350 01 00:   BULK DENSITY
~PARAMETER INFORMATION
#MNEM.UNIT          VALUE    DESCRIPTION
#----------   ------------   ------------------------------
 PD  .                 GL:   PERMANENT DATUM
 EPD .F              5122:   ELEVATION PERMANENT DATUM
 LMF .                 KB:   LOG MEASURED FROM
 DAPD.F                 4:   FEET ABOVE PERMANENT DATUM
 DMF .                 KB:   DRILLING MEASURED FROM
 EKB .F              5126:   KELLING BUSHING
 EGL .F              5122:   GROUND LEVEL
 DATE.        18-MAR-1977:   RUN DATE
 RUN .                  1:   RUN NUMBER
 DD  .F               600:   DEPTH DRILLER
 DL  .F               605:   DEPTH LOGGER
 BLI .F               604:   BOTTOM LOG INTERVAL
 TLI .F                44:   TOP LOG INTERVAL
 CS  .IN            8.625:   CASING SIZE
 CBD .F                40:   CASING BOTTOM DRILLER
 CBL .F                44:   CASING BOTTOM LOGGER
 BS  .IN            7.875:   BIT SIZE
 BSD .F               600:   BIT SIZE AT DEPTH
 DFT .            KCL MUD:   DRILLING FLUID TYPE
 DFD .                8.9:   DRILLING FLUID DENSITY
 DFV .                 39:   DRILLING FLUID VISCOSITY
 DFPH.                8.5:   DRILLING FLUID PH
 DFL .                6.1:   DRILLING FLUID LOSS
 MSS .                PIT:   MUD SAMPLE SOURCE
 RMS .OHMM           0.26:   RESISTIVITY MUD SAMPLE
 MST .F                52:   MUD SAMPLE TEMPERATURE
 RMF .OHMM           0.24:   RESISTIVITY MUD FILTRATE SAMPLE
 MFST.F                52:   MUD FILTRATE SAMPLE TEMPERATURE
 MFSS.               MEAS:   MUD FILTRATE SAMPLE SOURCE
 TCS .HRS            0230:   TIME CURCULATED STOPPED
 LUN .               7711:   LOGGING UNIT NUMBER
 LUL .               CSPR:   LOGGING UNIT LOCATION
 ENGI.             SAYLER:   RECORDING ENGINEER
 WITN.         STUEBINGER:   WITNESSED BY
 CLNT.            A2DTECH:   CLIENT CODE
 ORIG.           5" PRINT:   ORIGIN OF DATA
 UWI .       490251032700:   UNIQUE WELL ID
 DICO. A2D Technologies, Inc.:   DIGITIZING COMPANY
~OTHER INFORMATION
~A   DEPT      SPR        ILD        ILM        LL8       CALD        GRD       CORR       DPHI       RHOB   
# ...
  472.0000   -37.3592    16.9738    17.2951    16.7753     8.0998    91.0312     0.0132     0.1555     2.3948
  472.5000   -37.8017    17.1023    17.3035    16.2102     8.1010    91.4889     0.0124     0.1579     2.3896
  473.0000   -38.2444    17.3104    17.1920    15.7716     8.1022    91.1852     0.0095     0.1600     2.3889
  473.5000   -38.6870    17.1978    17.0723    15.5623     8.1034    90.1709     0.0096     0.1596     2.3890
  474.0000   -38.9806    16.9701    16.9712    15.3527     8.1194    89.4074     0.0104     0.1525     2.4039
  474.5000   -39.4232    16.6319    16.8618    14.9403     8.1206    88.2424     0.0096     0.1438     2.4159
  475.0000   -39.7168    16.2959    16.7342    14.9465     8.1218    86.9383     0.0058     0.1418     2.4167
  475.5000   -39.8614    16.1921    16.4156    14.9526     8.1229    87.5715     0.0031     0.1458     2.4137
  476.0000   -39.8569    16.2033    16.1970    14.9588     8.1241    89.5107     0.0024     0.1497     2.4018
  476.5000   -39.8525    16.3251    16.0926    14.9650     8.1102    91.3017     0.0024     0.1536     2.3960
  477.0000   -39.8480    16.3342    15.9890    14.9711     8.1116    91.7561     0.0010     0.1539     2.3945
  477.5000   -39.8435    15.8957    15.7779    15.0815     8.1128    91.3282    -0.0012     0.1535     2.3960
  478.0000   -39.8391    15.7923    15.6744    15.0878     8.1139    90.1562    -0.0034     0.1577     2.3886
  478.5000   -39.8346    15.6917    15.6838    14.9896     8.1151    88.5398    -0.0026     0.1601     2.3872
  479.0000   -39.6811    15.7025    15.5809    15.1002     8.1166    88.4016     0.0020     0.1534     2.3984
  479.5000   -39.6766    15.4925    15.4805    15.1065     8.1177    88.4182     0.0021     0.1526     2.4000
  480.0000   -39.6920    15.2873    15.1704    15.0082     8.1189    88.7277     0.0006     0.1531     2.3993
  480.5000   -39.9876    15.0849    15.0709    15.0145     8.1201    89.6298     0.0052     0.1525     2.3941
  481.0000   -40.2595    14.9889    14.9738    14.7988     8.1213    89.4949     0.0135     0.1470     2.4083
  481.5000   -40.4041    14.9992    14.8773    14.3960     8.1224    89.2085     0.0158     0.1379     2.4225
  482.0000   -40.3994    14.8006    14.9900    13.8339     8.1085    89.0736     0.0159     0.1340     2.4271
  482.5000   -40.5442    14.5033    15.2071    13.4609     8.1100    89.5346     0.0182     0.1309     2.4346
  483.0000   -40.3896    14.5116    15.2144    13.1878     8.1111    91.6219     0.0205     0.1276     2.4399
  483.5000   -40.0871    14.5196    15.0118    13.1946     8.1123    93.7092     0.0236     0.1216     2.4489
  484.0000   -39.7845    14.5276    14.8118    13.6658     8.1135    94.7595     0.0251     0.1192     2.4505
  484.5000   -39.6311    14.3353    14.5134    14.1539     8.0405    94.1801     0.0267     0.1228     2.4460
  485.0000   -39.6266    14.3432    14.3200    13.8681     7.9972    93.8938     0.0275     0.1234     2.4438
  485.5000   -39.6222    14.2518    14.1276    13.2164     7.9387    94.0585     0.0223     0.1252     2.4438
  486.0000   -39.7678    14.1611    13.9408    12.7699     8.0440    94.9606     0.0156     0.1293     2.4237
  486.5000   -39.9124    14.0709    13.8510    12.7764     8.0452    94.9946     0.0089     0.1392     2.4252
  487.0000   -40.0570    14.0788    13.9546    12.8707     8.0313    95.4315     0.0150     0.1353     2.4312
  487.5000   -40.2016    14.0866    14.1566    12.8760     8.0476    96.0373     0.0210     0.1293     2.4365
  488.0000   -40.4952    14.0944    14.4617    12.9709     8.0636    95.9024     0.0151     0.1281     2.4358
  488.5000   -40.7888    13.9063    14.5695    13.0666     8.0796    96.3601     0.0121     0.1343     2.4237
  489.0000   -41.0813    14.0129    14.5765    13.2545     8.0808    98.3002     0.0039     0.1415     2.4149
  489.5000   -41.0768    14.1183    14.5836    13.5388     8.0968    98.6089     0.0010     0.1441     2.4135
  490.0000   -41.2225    14.2244    14.4896    13.7336     8.0980    98.1679     0.0033     0.1405     2.4228
  490.5000   -41.2169    14.4312    14.2872    13.9311     8.0843    96.9773     0.0079     0.1372     2.4241
  491.0000   -41.2125    14.5398    14.1062    14.0339     8.0855    96.1300     0.0132     0.1384     2.4171
  491.5000   -41.0590    14.7511    13.9183    14.0396     8.0422    96.4632     0.0155     0.1423     2.4130
  492.0000   -41.0545    14.9656    13.8286    13.9458     8.0136    95.5467     0.0186     0.1455     2.4108
  492.5000   -41.0501    14.9756    13.7395    13.7619     8.0000    92.3211     0.0216     0.1459     2.4138
  493.0000   -40.8966    14.9821    13.4643    13.5680     8.0012    91.1459     0.0262     0.1431     2.4176
  493.5000   -40.8921    14.6785    13.0110    13.3038     8.0321    91.3105     0.0180     0.1404     2.4333
  494.0000   -41.0367    14.1782    12.6606    13.0186     8.0334    91.4719     0.0189     0.1305     2.4461
  494.5000   -41.0323    13.6103    12.4055    12.5974     8.0493    91.7814     0.0187     0.1225     2.4499
  495.0000   -41.0278    13.4279    12.2402    12.4290     8.0950    92.3873     0.0106     0.1206     2.4544
  495.5000   -41.0233    12.9750    12.1599    12.2616     8.0962    92.2524     0.0100     0.1188     2.4589
  496.0000   -41.0189    12.7127    11.9980    12.1819     8.0974    90.4878     0.0145     0.1152     2.4545
  496.5000   -41.0144    12.6443    11.7576    12.1026     8.0986    90.3496     0.0114     0.1221     2.4478
  497.0000   -41.0100    12.5638    11.7633    12.1089     8.0998    91.8476     0.0011     0.1227     2.4575
  497.5000   -41.1557    12.5724    11.7690    12.1139     8.1009    95.1201     0.0140     0.1183     2.4703
  498.0000   -41.3002    12.5794    11.6932    12.1189     8.1169    99.7259     0.0223     0.1062     2.4778
  498.5000   -41.2947    12.5863    11.7803    12.1239     8.1181   101.9614     0.0261     0.1050     2.4778
  499.0000   -41.2902    12.5933    11.8682    12.2133     8.1045   101.5302     0.0187     0.1050     2.4749
  499.5000   -41.1367    12.6880    12.0400    12.3890     8.1056    99.6175     0.0150     0.1052     2.4600
  500.0000   -40.8353    12.7816    12.2650    12.4798     8.1068    94.9979     0.0117     0.1215     2.4474
  500.5000   -40.8211    12.6444    12.7387    12.5746     8.1080    91.4990     0.0077     0.1282     2.4377
  501.0000   -40.3605    12.9820    13.4713    13.1171     8.1094    89.2930     0.0017     0.1311     2.4236
  501.5000   -39.7509    14.3326    14.8522    13.5828     8.1106    89.0130    -0.0005     0.1371     2.4057
  502.0000   -39.1414    15.8450    16.3747    13.9795     8.1117    87.8440     0.0093     0.1514     2.3923
  502.5000   -38.5318    18.0629    17.8042    15.0248     8.1129    85.3417     0.0146     0.1645     2.3782
  503.0000   -37.4751    19.6347    21.3356    18.8658     8.0844    81.3579     0.0260     0.1908     2.3416
  503.5000   -36.2694    21.3856    25.0401    27.6111     8.0559    76.6334     0.0373     0.2051     2.3028
  504.0000   -35.3617    25.7128    31.5016    34.3647     7.9829    73.2422     0.0336     0.2379     2.2618
  504.5000   -34.6031    32.7703    37.4885    37.2393     7.9393    73.4065     0.0299     0.2444     2.2529
  505.0000   -34.1425    37.6683    39.6443    37.7246     7.9408    73.8672     0.0293     0.2372     2.2627
  505.5000   -33.9800    44.5174    41.0595    35.9524     7.9419    74.6242     0.0234     0.2205     2.2881
  506.0000   -34.2653    47.7400    41.3599    35.2212     7.9580    75.0848     0.0152     0.2040     2.3270
  506.5000   -34.8473    46.1339    41.3742    39.6457     7.9888    75.8418     0.0265     0.1795     2.3719
  507.0000   -35.1352    45.4864    41.1020    48.8323     8.0048    74.2284     0.0288     0.1269     2.4205
  507.5000   -35.4198    41.6046    39.9896    50.2190     8.0505    73.5038     0.0199     0.1122     2.4676
  508.0000   -35.5554    40.1986    37.3191    43.7335     8.0665    76.9275     0.0275     0.1104     2.4609
