~VERSION INFORMATION
 VERS.                2.0:   CWLS LOG ASCII STANDARD - VERSION 2.0
 WRAP.                 NO:   ONE LINE PER DEPTH STEP
~WELL INFORMATION
#MNEM.UNIT      DATA TYPE    INFORMATION
#----------   ------------   ------------------------------
 STRT.F          131.0000:   START DEPTH
 STOP.F         1085.0000:   STOP DEPTH
 STEP.F            0.5000:   STEP LENGTH
 NULL.          -999.2500:   NO VALUE
 COMP. U S NAVY-INTEX OIL:   COMPANY
 WELL.     UPR #3 #66-S-2:   WELL
 FLD .             TEAPOT:   FIELD
 LOC .       S2 T38N R78W:   LOCATION
 CNTY.            NATRONA:   COUNTY
 STAT.            WYOMING:   STATE
 CTRY. UNITED STATES OF AMERICA:   COUNTRY
 SRVC.       Schlumberger:   SERVICE COMPANY
 DATE.        18-JUL-1964:   LOGDATE
 API .       490250641300:   API NUMBER
~CURVE INFORMATION
#MNEM.UNIT       API CODE    CURVE DESCRIPTION
#----------   ------------   ------------------------------
 DEPT.F                  :   
 ASN .OHMM   05 041 16 00:   AMPLIFIED SHORT NORMAL 16"
 CILD.MMHO   05 110 46 00:   CONDUCTIVITY INDUCTION LOG DEEP
 ILD .OHMM   05 120 46 00:   INDUCTION LOG DEEP
 SPR .MV     05 010 01 00:   SPONTANEOUS POTENTIAL FROM RES.
 GR  .GAPI   30 310 01 00:   GAMMA RAY
 CALS.IN     60 280 50 00:   CALIPER FROM SONIC LOG
 DT  .US/F   60 520 33 00:   INTERVAL TRANSIT TIME
~PARAMETER INFORMATION
#MNEM.UNIT          VALUE    DESCRIPTION
#----------   ------------   ------------------------------
 PD  .                 GL:   PERMANENT DATUM
 EPD .F              5204:   ELEVATION PERMANENT DATUM
 LMF .                 KB:   LOG MEASURED FROM
 DAPD.F                 5:   FEET ABOVE PERMANENT DATUM
 DMF .                 KB:   DRILLING MEASURED FROM
 EKB .F              5209:   KELLING BUSHING
 EGL .F              5204:   GROUND LEVEL
 DATE.          7-18-1964:   RUN DATE
 RUN .                  1:   RUN NUMBER
 DD  .F              1085:   DEPTH DRILLER
 DL  .F              1086:   DEPTH LOGGER
 BLI .F              1085:   BOTTOM LOG INTERVAL
 TLI .F               131:   TOP LOG INTERVAL
 CS  .IN            8.625:   CASING SIZE
 CBD .F                10:   CASING BOTTOM DRILLER
 BS  .IN             6.75:   BIT SIZE
 BSD .F              5204:   BIT SIZE AT DEPTH
 DFT .                GEL:   DRILLING FLUID TYPE
 DFD .                9.5:   DRILLING FLUID DENSITY
 DFV .                 47:   DRILLING FLUID VISCOSITY
 DFL .                 10:   DRILLING FLUID LOSS
 MSS .           FLOWLINE:   MUD SAMPLE SOURCE
 RMS .OHMM           2.58:   RESISTIVITY MUD SAMPLE
 MST .F                93:   MUD SAMPLE TEMPERATURE
 RMF .OHMM           2.27:   RESISTIVITY MUD FILTRATE SAMPLE
 MFST.F                93:   MUD FILTRATE SAMPLE TEMPERATURE
 MFSS.                 FP:   MUD FILTRATE SAMPLE SOURCE
 TCS .HRS             1.5:   TIME CURCULATED STOPPED
 LUN .               3527:   LOGGING UNIT NUMBER
 LUL .              CSPR.:   LOGGING UNIT LOCATION
 ENGI.            WINKLER:   RECORDING ENGINEER
 WITN.          JORGENSEN:   WITNESSED BY
 CLNT.            A2DTECH:   CLIENT CODE
 ORIG.    1" , 2.5" PRINT:   ORIGIN OF DATA
 UWI .       490250641300:   UNIQUE WELL ID
 DICO. A2D Technologies, Inc.:   DIGITIZING COMPANY
~OTHER INFORMATION
~A   DEPT      ASN       CILD        ILD        SPR         GR       CALS         DT   
# ...
 1041.0000    14.9852    70.1493    13.6771   -35.4704    43.0581     6.3404    94.2897
 1041.5000    14.9107    70.1493    13.5166   -33.5028    39.4403     6.3419    94.3583
 1042.0000    14.5163    73.1343    13.3562   -31.7739    38.2424     6.3438    94.6527
 1042.5000    13.9466    74.8261    13.1957   -31.5926    39.6216     6.3604    95.0222
 1043.0000    13.9466    76.4378    12.9464   -31.9762    42.3637     6.3923    95.4671
 1043.5000    13.6499    79.1045    12.7976   -31.8839    43.2950     6.4242    95.9871
 1044.0000    13.0564    79.6616    12.6488   -30.9887    42.7938     6.4557    96.9676
 1044.5000    12.9080    82.0896    12.3512   -32.7410    40.8969     6.4420    97.4788
 1045.0000    12.7522    84.3780    12.2024   -33.3631    39.6997     6.4591    97.3200
 1045.5000    12.4629    86.5672    12.0536   -32.8988    39.1085     6.5062    96.1847
 1046.0000    12.4629    88.0597    11.7560   -31.8685    39.2749     6.5533    94.9741
 1046.5000    12.4629    88.0597    11.6071   -30.6751    39.5928     6.6156    93.9140
 1047.0000    12.4629    88.0597    11.4583   -30.0769    40.3653     6.6778    92.7787
 1047.5000    12.2490    89.5522    11.4422   -30.0740    35.5317     6.6948    92.0197
 1048.0000    11.9406    89.5522    11.2817   -30.3690    33.8799     6.6656    91.7873
 1048.5000    11.5727    89.5522    11.1607   -30.6637    34.5008     6.5704    92.1569
 1049.0000    11.7211    89.5522    11.1607   -30.6606    36.3339     6.4559    92.9027
 1049.5000    11.8694    89.5522    11.1607   -30.0624    38.4700     6.4577    93.3475
 1050.0000    11.8694    89.5522    11.1607   -30.0595    40.0000     6.5960    93.7923
 1050.5000    11.8825    89.5522    11.0119   -30.3691    40.6212     6.7325    94.1685
 1051.0000    11.8694    89.5522    10.8631   -30.6490    41.6119     6.7781    94.6953
 1051.5000    11.5727    91.0448    10.8631   -30.6458    42.4726     6.6413    94.3943
 1052.0000    11.5727    91.0448    10.7143   -30.5833    41.5784     6.5350    93.1904
 1052.5000    11.5727    91.0448    10.5655   -30.3423    39.7751     6.5653    92.2122
 1053.0000    11.5727    92.5373    10.5655   -30.3393    41.4566     6.5957    91.6855
 1053.5000    11.3677    92.5373    10.4167   -30.0387    42.6836     6.4590    91.5350
 1054.0000    11.1276    92.5373    10.3978   -30.1547    42.8500     6.2462    91.5350
 1054.5000    11.1276    94.0299    10.2679   -30.4643    43.1679     6.1094    91.1484
 1055.0000    11.2760    94.0299    10.2679   -30.7738    45.4555     6.0486    90.6321
 1055.5000    11.2760    94.0299    10.0652   -30.1607    46.2280     6.0486    92.1369
 1056.0000    11.2760    94.4678     9.9702   -30.3208    46.2429     6.0790    92.3627
 1056.5000    11.1276    97.0149     9.8931   -30.6161    46.5608     6.1550    92.2874
 1057.0000    10.9792    97.6915     9.8214   -30.6127    47.8001     6.2918    91.9112
 1057.5000    10.8309    99.3034     9.8214   -29.7169    50.6216     6.4286    91.4597
 1058.0000    10.8437   100.0000     9.8214   -28.8211    44.0039     6.5070    90.9330
 1058.5000    10.9792   100.0000     9.9702   -27.6278    43.4385     6.6161    90.5568
 1059.0000    10.9792   100.0000     9.9702   -27.3272    43.4545     6.7173    90.3311
 1059.5000    10.9315   100.0000     9.9702   -27.3243  -999.2500     6.7477    90.3311
 1060.0000    10.7715   100.0000    10.1190   -27.0238  -999.2500     6.7477    90.5568
 1060.5000    10.7535   100.0000    10.2679   -26.1131  -999.2500     6.7477    90.9367
 1061.0000    10.9134    99.8605    10.2679   -25.8274  -999.2500     6.7477    91.0933
 1061.5000    10.6825    98.5075    10.2679   -25.8244  -999.2500     6.7629    91.0835
 1062.0000    10.6825    98.1292    10.2679   -25.8214  -999.2500     6.7933    90.7825
 1062.5000    10.6825    97.0149    10.2679   -25.8185  -999.2500     6.8237    90.3311
 1063.0000    10.8309    97.0149    10.2679   -25.8155  -999.2500     6.8389    90.1053
 1063.5000    10.8309    97.7510    10.1190   -25.8125  -999.2500     6.8541    89.8044
 1064.0000    10.8269    98.5075     9.9702   -25.8095  -999.2500     6.8237    89.4281
 1064.5000    10.6825   100.0000     9.9702   -25.8065  -999.2500     6.7933    88.9767
 1065.0000    10.6553   100.0000     9.9702   -25.8036  -999.2500     6.7781    88.5252
 1065.5000    10.5341   100.0000     9.8214   -25.6369  -999.2500     6.8085    88.1490
 1066.0000    10.5846   101.4925     9.8214   -25.4994  -999.2500     6.8085    87.7728
 1066.5000    10.6825   100.0000     9.8214   -25.4965  -999.2500     6.7933    87.5470
 1067.0000    10.7562   100.0000     9.8214   -25.4936  -999.2500     6.7629    87.5553
 1067.5000    10.8309   101.6918     9.8214   -25.1931  -999.2500     6.7173    87.9232
 1068.0000    10.9792   102.9851     9.8691   -25.1902  -999.2500     6.6869    88.5252
 1068.5000    10.8309   102.9851     9.9702   -24.5920  -999.2500     6.6859    88.7509
 1069.0000    10.6825   102.9851     9.9702   -24.5891  -999.2500     6.7329    88.4500
 1069.5000    10.5341   102.9851     9.9702   -24.2886  -999.2500     6.7950    87.9985
 1070.0000    10.3858   102.9851    10.1190   -23.9881  -999.2500     6.8237    88.8262
 1070.5000    10.2374   102.9851    10.1190   -23.0923  -999.2500     6.7781    90.3311
 1071.0000    10.2374   102.9851    10.1190   -22.7918  -999.2500     6.7325    90.7825
 1071.5000    10.2673   102.9851    10.1386   -23.7707  -999.2500     6.7021    90.6321
 1072.0000    10.3858   102.9851    10.1190   -25.3453  -999.2500     6.7021    90.4063
 1072.5000    10.3858   102.9851    10.1190   -27.2472  -999.2500     6.7173    90.1806
 1073.0000    10.3858   102.9851    10.1036   -29.3278  -999.2500     6.7629    89.9414
 1073.5000    10.3858   102.9851     9.9702   -25.5300  -999.2500     6.8541    88.9874
 1074.0000    10.3858   102.9851     9.9702   -24.1429  -999.2500     6.8389    87.6975
 1074.5000    10.2374   102.9851     9.9702   -23.8274  -999.2500     6.7173    87.8480
 1075.0000    10.2374   104.4776     9.9702   -23.6607  -999.2500     6.6401    88.4500
 1075.5000    10.2374   105.0946     9.9702   -23.6577  -999.2500     6.6109    89.1272
 1076.0000    10.2374   105.9701     9.9702   -23.3566  -999.2500     6.6261    89.6539
 1076.5000    10.2374   105.9701     9.9702   -23.3537  -999.2500     6.6565    89.8796
 1077.0000    10.3858   105.9701     9.9702   -23.3508  -999.2500     6.7021    90.0301
 1077.5000    10.2374   105.9701     9.8214   -23.3479  -999.2500     6.7325    89.7291
 1078.0000    10.0890   105.9701     9.8214   -23.0473  -999.2500     6.7325    89.3529
 1078.5000     9.8964   105.9701     9.8214   -23.0444  -999.2500     6.7173    89.2776
 1079.0000     9.7923   105.9701     9.6726   -23.0415  -999.2500     6.7021    89.3581
 1079.5000     9.7923   105.9701     9.6545   -23.0386  -999.2500     6.6565    89.7519
 1080.0000     9.7923   105.9701     9.5238   -23.0357  -999.2500     6.4438    90.1806
 1080.5000     9.7923   105.9701     9.3750   -22.7351  -999.2500     5.6208    90.2558
 1081.0000     9.7923   105.9701     9.3750   -22.4345  -999.2500     5.0205    90.1053
 1081.5000     9.6986   105.9701     9.3103   -22.1339  -999.2500     5.0205    89.8044
 1082.0000     9.8466   107.4627     9.1498   -22.1310  -999.2500     5.0205    89.6539
 1082.5000     9.6736   107.4627     8.9286   -22.1280  -999.2500     5.0205    89.2776
 1083.0000     9.4362   107.4627     8.7798   -22.1250  -999.2500     5.0205    88.9014
 1083.5000     9.2878   108.9552     8.7798   -22.0178  -999.2500     5.0340    88.8262
 1084.0000     9.1691   108.9552     8.6310   -21.4048  -999.2500     5.0488    89.3358
 1084.5000     9.1395   108.9552     8.4821   -20.7917  -999.2500  -999.2500  -999.2500
 1085.0000     9.1098   108.9552     8.4821   -20.1786  -999.2500  -999.2500  -999.2500
