~VERSION INFORMATION
 VERS.                2.0:   CWLS LOG ASCII STANDARD - VERSION 2.0
 WRAP.                 NO:   ONE LINE PER DEPTH STEP
~WELL INFORMATION
#MNEM.UNIT      DATA TYPE    INFORMATION
#----------   ------------   ------------------------------
 STRT.F           33.0000:   START DEPTH
 STOP.F         1374.0000:   STOP DEPTH
 STEP.F            0.5000:   STEP LENGTH
 NULL.          -999.2500:   NO VALUE
 COMP. FENIX & SCISSON INC:   COMPANY
 WELL.   NPR-3 "S" #84-14:   WELL
 FLD .             TEAPOT:   FIELD
 LOC .      S14 T38N R78W:   LOCATION
 CNTY.            NATRONA:   COUNTY
 STAT.            WYOMING:   STATE
 CTRY. UNITED STATES OF AMERICA:   COUNTRY
 SRVC.            Unknown:   SERVICE COMPANY
 DATE.        18-MAR-1978:   LOGDATE
 API .       490251060400:   API NUMBER
~CURVE INFORMATION
#MNEM.UNIT       API CODE    CURVE DESCRIPTION
#----------   ------------   ------------------------------
 DEPT.F                  :   
 SPR .MV     05 010 01 00:   SPONTANEOUS POTENTIAL FROM RES.
 SN  .OHMM   05 040 16 00:   SHORT NORMAL 16"
 ILD .OHMM   05 120 46 00:   INDUCTION LOG DEEP
 CALD.IN     45 280 60 00:   CALIPER
 GRD .GAPI   45 310 01 00:   GAMMA RAY FROM DENSITY LOG
 CORR.G/C3   45 356 01 00:   DENSITY CORRECTION
 RHOB.G/C3   45 350 01 00:   BULK DENSITY
 DPHI.DEC    45 890 00 00:   DENSITY POROSITY
~PARAMETER INFORMATION
#MNEM.UNIT          VALUE    DESCRIPTION
#----------   ------------   ------------------------------
 PD  .                 GL:   PERMANENT DATUM
 EPD .F              5314:   ELEVATION PERMANENT DATUM
 LMF .                 KB:   LOG MEASURED FROM
 DMF .                 KB:   DRILLING MEASURED FROM
 EKB .F              5318:   KELLING BUSHING
 EGL .F              5314:   GROUND LEVEL
 DATE.          3-18-1978:   RUN DATE
 RUN .                  1:   RUN NUMBER
 DD  .F              1375:   DEPTH DRILLER
 DL  .F              1380:   DEPTH LOGGER
 BLI .F              1374:   BOTTOM LOG INTERVAL
 TLI .F                50:   TOP LOG INTERVAL
 CS  .IN            8.625:   CASING SIZE
 CBD .F                40:   CASING BOTTOM DRILLER
 CBL .F                50:   CASING BOTTOM LOGGER
 BS  .IN            7.875:   BIT SIZE
 BSD .F              1375:   BIT SIZE AT DEPTH
 DFT .                KCL:   DRILLING FLUID TYPE
 DFD .                8.1:   DRILLING FLUID DENSITY
 DFV .                 31:   DRILLING FLUID VISCOSITY
 DFPH.                 10:   DRILLING FLUID PH
 DFL .                8.4:   DRILLING FLUID LOSS
 MSS .           FLOWLINE:   MUD SAMPLE SOURCE
 RMS .OHMM            .28:   RESISTIVITY MUD SAMPLE
 MST .F                62:   MUD SAMPLE TEMPERATURE
 RMF .OHMM            .26:   RESISTIVITY MUD FILTRATE SAMPLE
 MFST.F                67:   MUD FILTRATE SAMPLE TEMPERATURE
 RMC .OHMM            .36:   RESISTIVITY MUD CAKE
 MCST.F                70:   MUD CAKE SAMPLE TEMPERATURE
 MFSS.               MEAS:   MUD FILTRATE SAMPLE SOURCE
 RMB .OHMM            .22:   RESISTIVITY MUD AT BHT
 BHT .F                80:   BOTTOM HOLE TEMPERATURE
 TCS .HRS               4:   TIME CURCULATED STOPPED
 MRT .F                80:   MAXIMUM RECORDED TEMPERATURE
 LUN .               2958:   LOGGING UNIT NUMBER
 LUL .               CASP:   LOGGING UNIT LOCATION
 ENGI.             MILLER:   RECORDING ENGINEER
 WITN.           MCGINLEY:   WITNESSED BY
 CLNT.            A2DTECH:   CLIENT CODE
 ORIG.      2" & 5" PRINT:   ORIGIN OF DATA
 UWI .       490251060400:   UNIQUE WELL ID
 DICO. A2D Technologies, Inc.:   DIGITIZING COMPANY
~OTHER INFORMATION
~A   DEPT      SPR         SN        ILD       CALD         GRD      CORR       RHOB       DPHI   
   33.0000  -999.2500  -999.2500  -999.2500  -999.2500    75.7391  -999.2500  -999.2500  -999.2500
   33.5000  -999.2500  -999.2500  -999.2500  -999.2500    75.6162  -999.2500  -999.2500  -999.2500
   34.0000  -999.2500  -999.2500  -999.2500  -999.2500    75.4933  -999.2500  -999.2500  -999.2500
   34.5000  -999.2500  -999.2500  -999.2500  -999.2500    75.3705  -999.2500  -999.2500  -999.2500
   35.0000  -999.2500  -999.2500  -999.2500  -999.2500    75.2790  -999.2500  -999.2500  -999.2500
   35.5000  -999.2500  -999.2500  -999.2500  -999.2500    75.1715  -999.2500  -999.2500  -999.2500
   36.0000  -999.2500  -999.2500  -999.2500  -999.2500    76.1295  -999.2500  -999.2500  -999.2500
   36.5000  -999.2500  -999.2500  -999.2500  -999.2500    77.4682  -999.2500  -999.2500  -999.2500
   37.0000  -999.2500  -999.2500  -999.2500  -999.2500    80.0229  -999.2500  -999.2500  -999.2500
   37.5000  -999.2500  -999.2500  -999.2500  -999.2500    82.7091  -999.2500  -999.2500  -999.2500
   38.0000  -999.2500  -999.2500  -999.2500  -999.2500    83.7326  -999.2500  -999.2500  -999.2500
   38.5000  -999.2500  -999.2500  -999.2500  -999.2500    83.5859  -999.2500  -999.2500  -999.2500
   39.0000  -999.2500  -999.2500  -999.2500  -999.2500    83.4247  -999.2500  -999.2500  -999.2500
   39.5000  -999.2500  -999.2500  -999.2500  -999.2500    83.4967  -999.2500  -999.2500  -999.2500
   40.0000  -999.2500  -999.2500  -999.2500  -999.2500    84.3910  -999.2500  -999.2500  -999.2500
   40.5000  -999.2500  -999.2500  -999.2500  -999.2500    85.2914  -999.2500  -999.2500  -999.2500
   41.0000  -999.2500  -999.2500  -999.2500  -999.2500    84.5996  -999.2500  -999.2500  -999.2500
   41.5000  -999.2500  -999.2500  -999.2500  -999.2500    82.7240  -999.2500  -999.2500  -999.2500
   42.0000  -999.2500  -999.2500  -999.2500  -999.2500    80.8706  -999.2500  -999.2500  -999.2500
   42.5000  -999.2500  -999.2500  -999.2500  -999.2500    80.4460  -999.2500  -999.2500  -999.2500
   43.0000  -999.2500  -999.2500  -999.2500  -999.2500    83.1317  -999.2500  -999.2500  -999.2500
   43.5000  -999.2500  -999.2500  -999.2500  -999.2500    85.1403  -999.2500  -999.2500  -999.2500
   44.0000  -999.2500  -999.2500  -999.2500  -999.2500    85.5841  -999.2500  -999.2500  -999.2500
   44.5000  -999.2500  -999.2500  -999.2500  -999.2500    85.0576  -999.2500  -999.2500  -999.2500
   45.0000  -999.2500  -999.2500  -999.2500  -999.2500    81.3292  -999.2500  -999.2500  -999.2500
   45.5000  -999.2500  -999.2500  -999.2500     7.6589    77.5989    -0.3211  -999.2500  -999.2500
   46.0000  -999.2500  -999.2500  -999.2500     7.6740    73.8797    -0.1933  -999.2500  -999.2500
   46.5000  -999.2500  -999.2500  -999.2500     7.6741    72.4588     0.1250     2.1124     0.2601
   47.0000  -999.2500  -999.2500  -999.2500     7.6599    76.2529     0.1032     2.3075     0.1998
   47.5000  -999.2500  -999.2500  -999.2500     7.6408    86.0623     0.0764     2.3465     0.1978
   48.0000  -999.2500  -999.2500  -999.2500     7.6218    95.8406     0.0398     2.3017     0.1956
   48.5000  -999.2500  -999.2500  -999.2500     7.6027   100.5766     0.0369     2.3043     0.1938
   49.0000  -999.2500  -999.2500  -999.2500     7.5834   100.4286     0.0299     2.3049     0.1922
   49.5000  -999.2500  -999.2500  -999.2500     7.5643    98.5740     0.0229     2.3115     0.1891
   50.0000   -85.0633     6.5414     6.1094     7.6016    97.2620     0.0248     2.3192     0.1805
   50.5000   -76.5601     6.5889     6.0857     7.6444    97.2893     0.0270     2.3290     0.1710
   51.0000   -79.0607     6.5655     5.7629     7.6822    97.2567     0.0244     2.3470     0.1706
   51.5000   -81.0463     6.5695     5.4187     7.6573    94.9577     0.0206     2.3391     0.1841
   52.0000   -96.7135     6.5552     5.3533     7.6643    91.1488     0.0169     2.3221     0.1945
   52.5000   -86.6353     6.5469     5.2707     7.7056    87.3587     0.0151     2.3050     0.2018
   53.0000   -96.8849     6.5387     5.2081     7.7413    84.5218     0.0171     2.2957     0.2016
   53.5000   -80.5850     6.5304     5.1755     7.7355    86.8970     0.0190     2.2956     0.2001
   54.0000   -88.8880     6.5221     5.1431     7.7291    94.8021     0.0209     2.2977     0.1974
   54.5000   -79.2003     6.5171     5.1108     7.7228    95.0341     0.0229     2.3024     0.1902
   55.0000   -86.2137     6.5171     5.0786     7.7166    93.8118     0.0231     2.3104     0.1837
   55.5000   -82.8863     6.5171     5.0465     7.7104    93.5204     0.0186     2.3287     0.1772
   56.0000   -84.3343     6.5171     4.9902     7.7034    93.4851     0.0124     2.3467     0.1706
   56.5000   -86.2644     6.5172     4.9149     7.7232    92.0241     0.0062     2.3561     0.1787
   57.0000   -87.8028     6.5172     4.8408     7.7517    90.4150     0.0075     2.3319     0.1853
   57.5000   -88.3712     6.5169     4.7678     7.7810    88.8164     0.0166     2.3251     0.1891
   58.0000   -88.6015     6.5177     4.6697     7.7852    87.7039     0.0189     2.3118     0.1936
   58.5000   -89.2791     6.4731     4.5174     7.7956    87.9722     0.0190     2.3049     0.1989
   59.0000   -89.9635     6.3871     4.3701     7.8104    89.3055     0.0192     2.2987     0.2030
   59.5000   -90.6703     6.3021     4.2275     7.8390    90.7808     0.0238     2.2965     0.2014
   60.0000   -91.0009     6.2232     4.0897     7.8667    92.2585     0.0282     2.2964     0.1990
   60.5000   -91.3262     6.2178     4.0231     7.8948    93.7299     0.0327     2.2968     0.1966
   61.0000   -91.6439     6.2094     4.0078     7.9093    94.7362     0.0371     2.3026     0.1939
   61.5000   -92.0659     6.2011     3.9926     7.9199    94.8342     0.0409     2.3082     0.1901
   62.0000   -92.6108     6.1929     3.9775     7.9305    93.9256     0.0396     2.3147     0.1818
   62.5000   -93.1579     6.1845     3.9593     7.9409    90.5638     0.0382     2.3394     0.1726
   63.0000   -93.6854     6.1711     3.9646     7.9341    89.3566     0.0371     2.3417     0.1695
   63.5000   -94.0459     6.1666     3.9712     7.9261    89.5865     0.0379     2.3524     0.1658
   64.0000   -94.3934     6.0267     3.9778     7.9183    90.0271     0.0388     2.3596     0.1621
   64.5000   -94.7436     5.7931     3.9843     7.9105    90.4815     0.0384     2.3691     0.1606
   65.0000   -94.8652     5.5685     3.9910     7.9026    90.9302     0.0372     2.3703     0.1608
   65.5000   -94.8039     5.3521     3.9976     7.8948    91.3672     0.0360     2.3627     0.1610
   66.0000   -94.7405     5.1268     4.0042     7.8870    91.4900     0.0351     2.3664     0.1594
   66.5000   -94.6879     5.0388     4.0109     7.8791    92.1443     0.0363     2.3695     0.1582
   67.0000   -94.9958     4.9595     4.0175     7.8714    92.3067     0.0359     2.3696     0.1558
   67.5000   -95.3261     4.8815     4.0241     7.8650    92.2593     0.0338     2.3733     0.1576
   68.0000   -95.6536     4.8047     4.0332     7.8074    92.2034     0.0315     2.3709     0.1596
   68.5000   -95.8820     4.7291     4.0327     7.7376    92.1498     0.0334     2.3686     0.1614
   69.0000   -95.8913     4.6439     4.0330     7.6672    92.3226     0.0366     2.3660     0.1585
   69.5000   -95.9045     4.5585     4.0169     7.5970    92.9098     0.0378     2.3695     0.1566
   70.0000   -95.9178     4.4745     3.9488     7.5271    93.5523     0.0329     2.3702     0.1630
   70.5000   -95.9308     4.3916     3.8925     7.4819    95.1024     0.0283     2.3615     0.1684
   71.0000   -95.9440     4.3100     3.8198     7.4801    97.2656     0.0255     2.3554     0.1678
   71.5000   -95.9571     4.2236     3.7484     7.4776    97.5688     0.0266     2.3555     0.1670
   72.0000   -95.9703     4.2007     3.6783     7.4752    98.0401     0.0176     2.3557     0.1716
   72.5000   -95.9834     4.1775     3.6096     7.4728    99.5059     0.0088     2.3472     0.1766
   73.0000   -95.9966     4.1545     3.5422     7.4703   100.0866     0.0011     2.3355     0.1818
