~VERSION INFORMATION
 VERS.                2.0:   CWLS LOG ASCII STANDARD - VERSION 2.0
 WRAP.                 NO:   ONE LINE PER DEPTH STEP
~WELL INFORMATION
#MNEM.UNIT      DATA TYPE    INFORMATION
#----------   ------------   ------------------------------
 STRT.F           64.0000:   START DEPTH
 STOP.F          795.0000:   STOP DEPTH
 STEP.F            0.5000:   STEP LENGTH
 NULL.          -999.2500:   NO VALUE
 COMP. LAWRENCE/ALLISON INC:   COMPANY
 WELL.      23-61 SX #2-2:   WELL
 FLD .             TEAPOT:   FIELD
 LOC .       S2 T38N R78W:   LOCATION
 CNTY.            NATRONA:   COUNTY
 STAT.            WYOMING:   STATE
 CTRY. UNITED STATES OF AMERICA:   COUNTRY
 SRVC.              Welex:   SERVICE COMPANY
 DATE.        14-AUG-1985:   LOGDATE
 API .       490251103800:   API NUMBER
~CURVE INFORMATION
#MNEM.UNIT       API CODE    CURVE DESCRIPTION
#----------   ------------   ------------------------------
 DEPT.F                  :   
 SPR .MV     07 010 01 00:   SPONTANEOUS POTENTIAL
 ILD .OHMM   07 120 46 00:   INDUCTION LOG DEEP
 ILM .OHMM   07 120 44 00:   INDUCTION LOG MEDIUM
 SGRD.OHMM   07 221 05 00:   SHALLOW SHORT GUARD RESISTIVITY
 DPHI.DEC    45 890 12 00:   DENSITY POROSITY SANDSTONE
 NPHI.DEC    42 890 03 00:   NEUTRON POROSITY SANDSTONE
 GRD .GAPI   45 310 01 00:   GAMMA RAY FROM DENSITY LOG
 CALD.IN     45 280 60 00:   CALIPER FROM DENSITY
 CORR.G/C3   45 356 01 00:   DENSITY CORRECTION
 RHOB.G/C3   45 350 01 00:   BULK DENSITY
~PARAMETER INFORMATION
#MNEM.UNIT          VALUE    DESCRIPTION
#----------   ------------   ------------------------------
 PD  .                 GL:   PERMANENT DATUM
 EPD .F              5112:   ELEVATION PERMANENT DATUM
 LMF .                 GL:   LOG MEASURED FROM
 DMF .                 GL:   DRILLING MEASURED FROM
 EGL .F              5112:   GROUND LEVEL
 DATE.        14-AUG-1985:   RUN DATE
 RUN .                  1:   RUN NUMBER
 DD  .F               800:   DEPTH DRILLER
 DL  .F               797:   DEPTH LOGGER
 BLI .F               795:   BOTTOM LOG INTERVAL
 TLI .F                76:   TOP LOG INTERVAL
 CS  .IN            8.625:   CASING SIZE
 CBD .F                76:   CASING BOTTOM DRILLER
 CBL .F                76:   CASING BOTTOM LOGGER
 BS  .IN            7.875:   BIT SIZE
 BSD .F               800:   BIT SIZE AT DEPTH
 DFT .                KCL:   DRILLING FLUID TYPE
 MSS .               TANK:   MUD SAMPLE SOURCE
 RMS .OHMM           0.22:   RESISTIVITY MUD SAMPLE
 MST .F                64:   MUD SAMPLE TEMPERATURE
 MFSS.               MEAS:   MUD FILTRATE SAMPLE SOURCE
 TCS .HRS            2230:   TIME CURCULATED STOPPED
 TLAB.HRS            0200:   TIME LOGGER AT BOTTOM
 LUN .               1892:   LOGGING UNIT NUMBER
 LUL .             CASPER:   LOGGING UNIT LOCATION
 ENGI.         T. QUINLAN:   RECORDING ENGINEER
 WITN.        N. JENNINGS:   WITNESSED BY
 CLNT.            A2DTECH:   CLIENT CODE
 ORIG.        2" 5" PRINT:   ORIGIN OF DATA
 UWI .       490251103800:   UNIQUE WELL ID
 DICO. A2D Technologies, Inc.:   DIGITIZING COMPANY
 R1  . POROSITY WITH SANDSTONE:   REMARKS 1
~OTHER INFORMATION
~A   DEPT      SPR        ILD        ILM       SGRD       DPHI       NPHI         GRD      CALD       CORR       RHOB   
# ...
  332.0000   -45.9433     7.9764     8.1078    10.0855     0.1300     0.3163   108.2497     8.0303     0.0275     2.4583
  332.5000   -46.0913     8.0822     8.1590    10.2943     0.1292     0.3172   108.5417     8.0000     0.0282     2.4613
  333.0000   -46.6874     8.1340     8.2718    10.7438     0.1274     0.3148   108.5355     7.9547     0.0266     2.4642
  333.5000   -48.4796     8.1858     8.3784    11.5170     0.1271     0.3148   108.5296     7.9393     0.0257     2.4694
  334.0000   -50.2719     8.1806     8.3712    11.8978     0.1298     0.3149   107.3333     7.9387     0.0256     2.4663
  334.5000   -52.0641     8.1755     8.3655    11.2441     0.1335     0.3140   105.8393     7.9679     0.0286     2.4579
  335.0000   -52.9595     8.1704     8.3016    11.0051     0.1344     0.3116   106.1703     7.9837     0.0309     2.4563
  335.5000   -53.4069     8.1652     8.2959    10.9991     0.1367     0.3101   109.1240     7.9965     0.0315     2.4516
  336.0000   -53.5765     8.1601     8.2326    10.6904     0.1387     0.3092   109.6907     7.9957     0.0313     2.4448
  336.5000   -53.2541     8.1540     8.1697    10.3905     0.1332     0.3113   107.2550     7.9951     0.0312     2.4538
  337.0000   -52.5033     8.1490     8.1074    10.2408     0.1312     0.3122   106.4036     7.9945     0.0334     2.4582
  337.5000   -51.8810     8.0873     7.9340    10.0934     0.1330     0.3129   106.6968     7.9940     0.0371     2.4604
  338.0000   -52.1255     8.0823     7.9285    10.3012     0.1367     0.3132   106.6894     7.9934     0.0332     2.4528
  338.5000   -53.2482     8.0211     7.9231    10.5133     0.1376     0.3135   106.0883     7.9779     0.0301     2.4512
  339.0000   -52.7980     7.9051     7.8626    10.7298     0.1392     0.3132   104.5943     7.9476     0.0270     2.4458
  339.5000   -52.4975     7.9002     7.8026    10.9507     0.1437     0.3126   103.1003     7.9322     0.0239     2.4411
  340.0000   -52.4961     7.8404     7.7972    10.8686     0.1468     0.3107   102.2016     7.9763     0.0185     2.4365
  340.5000   -52.6444     7.8355     7.7918    10.4902     0.1477     0.3077   102.4933     7.9906     0.0146     2.4326
  341.0000   -52.1942     7.8307     7.7863    10.3391     0.1456     0.3057   103.6779     8.0196     0.0122     2.4365
  341.5000   -49.9506     7.8258     7.7798    10.3333     0.1444     0.3067   104.8625     8.0190     0.0114     2.4394
  342.0000   -48.0059     7.8210     7.8303    10.3276     0.1417     0.3079   106.3447     8.0185     0.0113     2.4437
  342.5000   -46.6591     7.8161     7.8236    10.3219     0.1381     0.3082   108.4222     8.0179     0.0120     2.4490
  343.0000   -48.1524     7.8113     7.8729    10.5332     0.1348     0.3091   110.7972     8.0024     0.0142     2.4534
  343.5000   -49.1973     7.8064     7.9226    10.7500     0.1330     0.3092   112.8747     7.9992     0.0178     2.4586
  344.0000   -49.5067     7.8016     8.0298    10.8966     0.1321     0.3089   109.5950     7.9862     0.0208     2.4593
  344.5000   -49.6428     7.6886     8.0229    10.8134     0.1334     0.3098   106.0176     7.9856     0.0207     2.4570
  345.0000   -49.6410     7.6303     8.0174    10.6577     0.1340     0.3119   106.6070     7.9999     0.0206     2.4561
  345.5000   -50.2374     7.6256     8.0119    10.5042     0.1346     0.3132   109.5773     8.0143     0.0205     2.4538
  346.0000   -50.8342     7.6199     7.8955    10.2809     0.1356     0.3129   112.5476     7.9987     0.0204     2.4522
  346.5000   -49.1881     7.6152     7.8352    10.2753     0.1374     0.3126   114.0298     7.9833     0.0226     2.4529
  347.0000   -49.0376     7.6104     7.8298    10.2696     0.1347     0.3135   114.3215     7.9827     0.0263     2.4558
  347.5000   -50.2315     7.7126     7.8245    10.2640     0.1338     0.3181   113.9485     7.9821     0.0292     2.4588
  348.0000   -52.0238     7.7630     7.8190    10.3316     0.1319     0.3211   112.8217     7.9815     0.0329     2.4617
  348.5000   -52.6206     7.8125     7.8135    10.3970     0.1302     0.3211   116.0881     7.9809     0.0351     2.4631
  349.0000   -52.7683     7.8065     7.8070    10.5371     0.1300     0.3181   119.6537     7.9952     0.0343     2.4639
  349.5000   -52.9163     7.7474     7.7474    10.5313     0.1321     0.3151   121.4350     7.9946     0.0334     2.4607
  350.0000   -53.2138     7.5828     7.5830    10.4257     0.1343     0.3124   119.2880     7.9940     0.0318     2.4576
  350.5000   -51.4233     7.5789     7.6644    10.2303     0.1352     0.3118   114.2788     7.9935     0.0287     2.4522
  351.0000   -49.6326     7.5752     7.5214     9.9438     0.1361     0.3143   111.5943     7.9929     0.0286     2.4498
  351.5000   -48.7387     7.5188     7.5172     9.9389     0.1331     0.3176   110.6955     7.9962     0.0308     2.4574
  352.0000   -49.4891     7.3594     7.5130     9.9340     0.1290     0.3168   113.6658     8.0091     0.0352     2.4657
  352.5000   -50.2395     7.4073     7.5087     9.9292     0.1249     0.3135   115.1479     8.0221     0.0367     2.4702
  353.0000   -50.9899     7.5078     7.5571    10.0650     0.1208     0.3117   115.1420     8.0369     0.0373     2.4771
  353.5000   -50.2448     7.6628     7.7128    10.1305     0.1163     0.3108   114.8385     8.0366     0.0418     2.4821
  354.0000   -51.7434     7.9310     7.9264    10.3384     0.1199     0.3096   113.9397     8.0363     0.0455     2.4806
  354.5000   -52.6425     8.0948     8.0896    10.6258     0.1245     0.3090   111.8504     8.0360     0.0340     2.4720
  355.0000   -50.2546     8.2047     8.1428    11.0746     0.1245     0.3084   109.4635     8.0357     0.0279     2.4704
  355.5000   -48.9123     8.2005     8.2526    11.1466     0.1227     0.3085   107.0767     8.0354     0.0278     2.4726
  356.0000   -49.6627     8.1964     8.2468    11.3782     0.1249     0.3088   108.2612     8.0351     0.0277     2.4747
  356.5000   -49.6657     8.1924     8.2421    10.9813     0.1222     0.3094   110.0410     8.0348     0.0276     2.4754
  357.0000   -49.8176     8.1884     8.2375    10.5123     0.1213     0.3101   110.3342     8.0345     0.0298     2.4761
  357.5000   -49.8206     8.1844     8.1756    10.3762     0.1222     0.3110   109.4354     8.0342     0.0274     2.4707
  358.0000   -50.1625     8.1804     8.1710    10.7592     0.1289     0.3116   112.4042     8.0339     0.0213     2.4623
  358.5000   -51.2018     8.1195     8.1097    11.0378     0.1332     0.3120   115.3744     8.0336     0.0174     2.4554
  359.0000   -52.3707     8.0031     8.0487    11.0323     0.1369     0.3111   118.3447     8.0333     0.0143     2.4530
  359.5000   -52.0647     7.9435     7.8776    10.9477     0.1369     0.3090   115.3626     8.0330     0.0104     2.4522
  360.0000   -50.8819     7.9396     7.7101    10.7182     0.1357     0.3075   112.9757     8.0327     0.0133     2.4536
  360.5000   -49.5396     7.8806     7.5989    10.6384     0.1342     0.3084   112.9698     8.0324     0.0208     2.4558
  361.0000   -47.5995     7.7135     7.4374    10.4858     0.1333     0.3103   112.9638     8.0172     0.0298     2.4565
  361.5000   -46.1077     7.6561     7.3302    10.4078     0.1337     0.3127   112.9579     7.9723     0.0358     2.4503
  362.0000   -45.2139     7.4939     7.2245    10.3303     0.1397     0.3134   112.6544     7.8678     0.0410     2.4442
  362.5000   -45.3663     7.3864     7.2205    10.3252     0.1410     0.3101   111.7556     7.8973     0.0424     2.4426
  363.0000   -45.5188     7.2805     7.4726    10.2484     0.1419     0.3068   109.9639     7.9863     0.0416     2.4410
  363.5000   -44.9239     7.2263     7.8422    10.1721     0.1432     0.3050   107.8747     8.0009     0.0369     2.4371
  364.0000   -44.3291     7.2227     8.1729    10.0262     0.1465     0.3035   108.1679     7.9708     0.0293     2.4318
  364.5000   -44.6310     7.1690     8.2267     9.8137     0.1481     0.3081   108.7560     7.9259     0.0261     2.4309
  365.0000   -45.3814     7.2165     8.1079     9.6057     0.1469     0.3114   108.7498     7.9256     0.0261     2.4346
