~VERSION INFORMATION
 VERS.                2.0:   CWLS LOG ASCII STANDARD - VERSION 2.0
 WRAP.                 NO:   ONE LINE PER DEPTH STEP
~WELL INFORMATION
#MNEM.UNIT      DATA TYPE    INFORMATION
#----------   ------------   ------------------------------
 STRT.F           32.0000:   START DEPTH
 STOP.F          501.0000:   STOP DEPTH
 STEP.F            0.5000:   STEP LENGTH
 NULL.          -999.2500:   NO VALUE
 COMP.    FENIX & SCISSON:   COMPANY
 WELL.    NPR "SX" #75-10:   WELL
 FLD .             TEAPOT:   FIELD
 LOC .      S10 T38N R78W:   LOCATION
 CNTY.            NATRONA:   COUNTY
 STAT.            WYOMING:   STATE
 CTRY. UNITED STATES OF AMERICA:   COUNTRY
 SRVC.              Welex:   SERVICE COMPANY
 DATE.        08-MAR-1977:   LOGDATE
 API .       490251029200:   API NUMBER
~CURVE INFORMATION
#MNEM.UNIT       API CODE    CURVE DESCRIPTION
#----------   ------------   ------------------------------
 DEPT.F                  :   
 SPR .MV     07 010 01 00:   SPONTANEOUS POTENTIAL
 ILD .OHMM   07 120 46 00:   INDUCTION LOG DEEP
 ILM .OHMM   07 120 44 00:   INDUCTION LOG MEDIUM
 SGRD.OHMM   07 221 05 00:   SHALLOW SHORT GUARD RESISTIVITY
 GRD .GAPI   45 310 01 00:   GAMMA RAY FROM DENSITY LOG
 CALD.IN     45 280 60 00:   CALIPER FROM DENSITY LOG
 CORR.G/C3   45 356 01 00:   DENSITY CORRECTION
 RHOB.G/C3   45 350 01 00:   BULK DENSITY
 DPHI.DEC    45 890 12 00:   DENSITY POROSITY SANDSTONE
~PARAMETER INFORMATION
#MNEM.UNIT          VALUE    DESCRIPTION
#----------   ------------   ------------------------------
 PD  .                 GL:   PERMANENT DATUM
 EPD .F              5184:   ELEVATION PERMANENT DATUM
 LMF .                 GL:   LOG MEASURED FROM
 DAPD.F                GL:   FEET ABOVE PERMANENT DATUM
 EGL .F              5184:   GROUND LEVEL
 DATE.          03-8-1977:   RUN DATE
 RUN .                  1:   RUN NUMBER
 DD  .F               510:   DEPTH DRILLER
 DL  .F               505:   DEPTH LOGGER
 BLI .F               503:   BOTTOM LOG INTERVAL
 TLI .F                35:   TOP LOG INTERVAL
 CS  .IN            8.625:   CASING SIZE
 CBD .F                42:   CASING BOTTOM DRILLER
 CBL .F                43:   CASING BOTTOM LOGGER
 BS  .IN            7.875:   BIT SIZE
 BSD .F               510:   BIT SIZE AT DEPTH
 DFT .            KCL MUD:   DRILLING FLUID TYPE
 DFD .                8.6:   DRILLING FLUID DENSITY
 DFV .                 36:   DRILLING FLUID VISCOSITY
 DFPH.                9.5:   DRILLING FLUID PH
 DFL .                  2:   DRILLING FLUID LOSS
 MSS .           FLOWLINE:   MUD SAMPLE SOURCE
 RMS .OHMM            .49:   RESISTIVITY MUD SAMPLE
 MST .F                56:   MUD SAMPLE TEMPERATURE
 RMF .OHMM            .42:   RESISTIVITY MUD FILTRATE SAMPLE
 MFST.F                56:   MUD FILTRATE SAMPLE TEMPERATURE
 RMC .OHMM            .62:   RESISTIVITY MUD CAKE
 MCST.F                56:   MUD CAKE SAMPLE TEMPERATURE
 MFSS.               MEAS:   MUD FILTRATE SAMPLE SOURCE
 MCSS.               MEAS:   MUD CAKE SAMPLE SOURCE
 RMB .OHMM            .44:   RESISTIVITY MUD AT BHT
 BHT .F                62:   BOTTOM HOLE TEMPERATURE
 TCS .HRS               2:   TIME CURCULATED STOPPED
 MRT .F                62:   MAXIMUM RECORDED TEMPERATURE
 LUN .               8611:   LOGGING UNIT NUMBER
 LUL .           GILLETTE:   LOGGING UNIT LOCATION
 ENGI.            C. DOAK:   RECORDING ENGINEER
 WITN.           S. BURNE:   WITNESSED BY
 CLNT.            A2DTECH:   CLIENT CODE
 ORIG.        2" 5" PRINT:   ORIGIN OF DATA
 UWI .       490251029200:   UNIQUE WELL ID
 DICO. A2D Technologies, Inc.:   DIGITIZING COMPANY
~OTHER INFORMATION
~A   DEPT      SPR        ILD        ILM       SGRD         GRD        CALD      CORR        RHOB     DPHI   
# ...
  397.0000   -32.3187    15.6316    22.9259    23.3288   102.9665     7.8366     0.0519     2.3988     0.1435
  397.5000   -32.3301    15.6252    21.0974    23.0012   101.1929     7.8534     0.0505     2.4033     0.1483
  398.0000   -32.3415    15.8373    19.1486    23.1530    98.0780     7.8404     0.0476     2.4022     0.1480
  398.5000   -32.3529    15.9417    18.3661    23.4652    96.8852     7.8126     0.0418     2.3854     0.1521
  399.0000   -32.3643    15.9351    18.7440    23.7856    99.0017     7.7847     0.0374     2.3757     0.1593
  399.5000   -32.3761    15.9298    20.2543    24.4416    97.0791     7.7419     0.0375     2.3660     0.1668
  400.0000   -32.4141    15.9247    21.3867    24.4335    95.3055     7.7438     0.0361     2.3631     0.1657
  400.5000   -32.7534    15.9173    21.7817    23.9116    95.9162     7.7607     0.0393     2.3774     0.1624
  401.0000   -32.7106    15.6901    22.0860    22.9487    96.0753     7.7775     0.0394     2.3843     0.1565
  401.5000   -32.7224    15.5749    22.0768    22.3175    93.4096     7.7943     0.0394     2.3851     0.1547
  402.0000   -32.7366    15.5676    21.3177    22.4662    89.9953     7.8008     0.0425     2.3874     0.1517
  402.5000   -32.8973    15.2414    19.4811    22.4587    91.2010     7.8136     0.0456     2.3972     0.1462
  403.0000   -32.9089    15.1295    17.3183    21.8411    92.2577     7.8263     0.0518     2.4176     0.1333
  403.5000   -33.2189    15.0180    19.7360    20.8051    94.2086     7.8273     0.0549     2.4230     0.1317
  404.0000   -33.5299    14.7034    20.5618    19.9555    94.0730     7.8286     0.0549     2.4252     0.1299
  404.5000   -33.6898    14.5939    20.5772    20.0884    92.8909     7.8301     0.0550     2.4316     0.1268
  405.0000   -34.0000    14.2881    19.1757    20.5033    93.2057     7.8169     0.0569     2.4400     0.1225
  405.5000   -34.1635    14.2814    17.4889    20.7828    94.4115     7.8186     0.0614     2.4570     0.1150
  406.0000   -34.3243    14.1765    16.3473    20.6329    95.7662     7.8203     0.0658     2.4729     0.1104
  406.5000   -34.3358    14.0724    16.4539    20.0655    97.7171     7.8218     0.0676     2.4725     0.1107
  407.0000   -34.3473    13.9684    16.9075    19.3795    98.3233     7.8235     0.0641     2.4525     0.1171
  407.5000   -34.3589    13.8663    17.4939    18.9771    95.2104     7.8251     0.0540     2.4376     0.1248
  408.0000   -34.3704    13.7631    18.1006    18.8415    94.1807     7.8268     0.0480     2.4221     0.1307
  408.5000   -34.3821    13.7566    18.4717    18.9671    93.8927     7.8433     0.0484     2.4326     0.1255
  409.0000   -34.3964    13.7502    18.7209    19.4929    95.2508     7.8449     0.0558     2.4425     0.1216
  409.5000   -34.4079    13.7438    18.9734    19.6227    97.7978     7.8615     0.0589     2.4621     0.1135
  410.0000   -34.2673    13.7374    18.5754    19.4811    98.1060     7.8631     0.0605     2.4696     0.1134
  410.5000   -34.2817    13.7310    18.0625    18.9454    96.3310     7.8647     0.0591     2.4660     0.1140
  411.0000   -34.2933    13.8197    17.5639    18.5521    99.0304     7.8664     0.0547     2.4518     0.1119
  411.5000   -34.1552    14.1007    17.3162    18.4195   100.8323     7.8680     0.0488     2.4503     0.1146
  412.0000   -34.0178    14.2901    17.1903    18.4146   101.2928     7.8548     0.0428     2.4463     0.1221
  412.5000   -34.0299    14.5841    17.6642    18.7949    99.9616     7.8564     0.0444     2.4355     0.1260
  413.0000   -34.0438    14.7782    18.4034    19.0573   100.8726     7.8432     0.0460     2.4435     0.1238
  413.5000   -34.0537    14.8739    18.6516    19.3109   101.1842     7.8448     0.0461     2.4546     0.1187
  414.0000   -34.2161    14.9697    18.7732    19.4395    99.1112     7.8315     0.0477     2.4591     0.1178
  414.5000   -34.2277    14.9625    18.5066    19.4330    97.4853     7.8332     0.0508     2.4605     0.1130
  415.0000   -34.3884    14.9540    17.9957    19.0295    96.7536     7.8349     0.0554     2.4623     0.1093
  415.5000   -34.4000    14.8442    16.6738    18.5062    99.0025     7.8216     0.0570     2.4713     0.1081
  416.0000   -34.5612    14.5331    15.1326    17.8735    99.9102     7.8233     0.0571     2.4758     0.1012
  416.5000   -34.8737    14.2285    13.9247    17.3820   101.1159     7.8101     0.0572     2.4758     0.1021
  417.0000   -35.0345    13.8345    13.2628    17.0109   103.9609     7.8117     0.0573     2.4647     0.1101
  417.5000   -35.1953    13.3573    15.1129    16.8983   103.2563     7.7981     0.0604     2.4670     0.1050
  418.0000   -35.6546    12.7084    15.9657    16.8938   101.6940     7.8001     0.0635     2.4783     0.1005
  418.5000   -35.8154    12.1153    14.9970    15.9817   100.8431     7.8018     0.0651     2.4829     0.0966
  419.0000   -36.1254    11.6182    14.4827    15.2236   100.1366     7.8034     0.0652     2.4852     0.0956
  419.5000   -36.4358    11.1416    14.3773    14.6019   100.9832     7.8050     0.0668     2.4823     0.0983
  420.0000   -36.7484    10.6845    14.3715    14.2988   105.1613     7.8068     0.0669     2.4755     0.0998
  420.5000   -36.9092    10.3886    14.6662    14.4937   107.3308     7.8083     0.0640     2.4787     0.1034
  421.0000   -37.0700    10.1009    14.7618    14.7171   105.6254     7.8100     0.0565     2.4683     0.1159
  421.5000   -37.2308     9.9575    14.6530    15.3076   103.4551     7.8116     0.0491     2.4473     0.1207
  422.0000   -37.3915     9.8834    14.3471    15.4105   102.5902     7.8133     0.0431     2.4459     0.1225
  422.5000   -37.5523     9.8109    13.9510    15.0896   102.6155     7.8149     0.0417     2.4430     0.1213
  423.0000   -37.5642     9.8754    13.9454    14.6746   102.6448     7.8017     0.0418     2.4423     0.1221
  423.5000   -37.7275    10.0068    14.3298    14.5698   104.0491     7.8033     0.0434     2.4446     0.1200
  424.0000   -37.7391    10.0716    14.6237    14.8707   107.1266     7.8050     0.0450     2.4605     0.1170
  424.5000   -37.7506    10.2084    14.9235    15.2869   105.7988     7.8066     0.0451     2.4598     0.1146
  425.0000   -37.7622    10.2843    15.0208    15.6166   105.3651     7.8082     0.0437     2.4614     0.1139
  425.5000   -37.7737    10.3390    14.9100    15.8114   104.4844     7.8099     0.0438     2.4727     0.1085
  426.0000   -37.7852    10.3330    14.1038    15.5893   103.1404     7.8115     0.0439     2.4683     0.1052
  426.5000   -37.7970    10.3282    14.5929    15.2657   105.2565     7.8132     0.0440     2.4593     0.1121
  427.0000   -37.8112    10.2523    14.0924    15.0523   106.3131     7.8148     0.0440     2.4587     0.1109
  427.5000   -37.9720     9.8998    13.1477    14.9447   107.5189     7.8165     0.0441     2.4550     0.1093
  428.0000   -37.9835     9.4232    12.7847    15.0443   107.8539     7.8181     0.0442     2.4596     0.1162
  428.5000   -38.2936     8.7243    12.9639    15.0401   105.0122     7.8045     0.0443     2.4672     0.1093
  429.0000   -38.3051     8.4918    13.2215    14.9317   103.0883     7.8065     0.0444     2.4650     0.1084
  429.5000   -38.3166     8.7255    13.4939    14.5211   103.5488     7.8082     0.0430     2.4590     0.1104
  430.0000   -38.4776     9.1533    13.4872    14.1218   106.6920     7.8098     0.0431     2.4554     0.1098
  430.5000   -38.4918     9.3405    13.4818    13.7335   110.2822     7.8114     0.0432     2.4644     0.1155
  431.0000   -38.5034     9.4084    13.3837    13.4483   111.6369     7.8131     0.0448     2.4540     0.1173
  431.5000   -38.6642     9.1367    13.1043    13.5379   111.6504     7.8147     0.0479     2.4488     0.1175
  432.0000   -38.8250     8.9479    12.3104    13.8175   111.5142     7.8164     0.0495     2.4527     0.1148
  432.5000   -38.9857     9.0068    12.0533    13.6025   110.6341     7.8180     0.0496     2.4603     0.1127
  433.0000   -39.1465     9.1277    12.2160    13.0671   108.7101     7.8044     0.0497     2.4618     0.1091
