~VERSION INFORMATION
 VERS.                2.0:   CWLS LOG ASCII STANDARD - VERSION 2.0
 WRAP.                 NO:   ONE LINE PER DEPTH STEP
~WELL INFORMATION
#MNEM.UNIT      DATA TYPE    INFORMATION
#----------   ------------   ------------------------------
 STRT.F          149.5000:   START DEPTH
 STOP.F          864.5000:   STOP DEPTH
 STEP.F            0.5000:   STEP LENGTH
 NULL.          -999.2500:   NO VALUE
 COMP. U S NAVY/INTEX OIL CO:   COMPANY
 WELL.    NPR #3 #78-S-27:   WELL
 FLD .             TEAPOT:   FIELD
 LOC .      S27 T39N R78W:   LOCATION
 CNTY.            NATRONA:   COUNTY
 STAT.            WYOMING:   STATE
 CTRY. UNITED STATES OF AMERICA:   COUNTRY
 SRVC. Schlumberger Well Surveying Corp:   SERVICE COMPANY
 DATE.        25-FEB-1961:   LOGDATE
 API .       490250657800:   API NUMBER
~CURVE INFORMATION
#MNEM.UNIT       API CODE    CURVE DESCRIPTION
#----------   ------------   ------------------------------
 DEPT.F                  :   
 SPR .MV     05 010 01 00:   SPONTANEOUS POTENTIAL FROM RES.
 CILD.MMHO   05 110 46 00:   CONDUCTIVITY INDUCTION LOG DEEP
 ASN .OHMM   05 041 16 00:   AMPLIFIED SHORT NORMAL 16"
 ILD .OHMM   05 120 46 00:   INDUCTION LOG DEEP
 GR  .GAPI   81 310 01 00:   GAMMA RAY
~PARAMETER INFORMATION
#MNEM.UNIT          VALUE    DESCRIPTION
#----------   ------------   ------------------------------
 PD  .                 GL:   PERMANENT DATUM
 EPD .F              5038:   ELEVATION PERMANENT DATUM
 LMF .                 KB:   LOG MEASURED FROM
 DAPD.F                 4:   FEET ABOVE PERMANENT DATUM
 DMF .                 KB:   DRILLING MEASURED FROM
 EKB .F              5042:   KELLING BUSHING
 EGL .F              5038:   GROUND LEVEL
 DATE.            2-25-61:   RUN DATE
 RUN .                  1:   RUN NUMBER
 DD  .F               865:   DEPTH DRILLER
 DL  .F               869:   DEPTH LOGGER
 BLI .F               864:   BOTTOM LOG INTERVAL
 TLI .F               150:   TOP LOG INTERVAL
 CBD .F                12:   CASING BOTTOM DRILLER
 BS  .IN            7.875:   BIT SIZE
 BSD .F               865:   BIT SIZE AT DEPTH
 DFT .       OIL EMULSION:   DRILLING FLUID TYPE
 DFD .               10.2:   DRILLING FLUID DENSITY
 DFV .                 48:   DRILLING FLUID VISCOSITY
 DFPH.                8.5:   DRILLING FLUID PH
 DFL .               10.2:   DRILLING FLUID LOSS
 RMS .OHMM            1.7:   RESISTIVITY MUD SAMPLE
 MST .F                57:   MUD SAMPLE TEMPERATURE
 MFSS.                  C:   MUD FILTRATE SAMPLE SOURCE
 MCSS.                  C:   MUD CAKE SAMPLE SOURCE
 RMB .OHMM            1.3:   RESISTIVITY MUD AT BHT
 BHT .F                75:   BOTTOM HOLE TEMPERATURE
 TCS .HRS               1:   TIME CURCULATED STOPPED
 MRT .F                75:   MAXIMUM RECORDED TEMPERATURE
 LUN .               2572:   LOGGING UNIT NUMBER
 LUL .                 NC:   LOGGING UNIT LOCATION
 ENGI.             ROUSER:   RECORDING ENGINEER
 WITN.          JORGENSEN:   WITNESSED BY
 CLNT.            A2DTECH:   CLIENT CODE
 ORIG.       2", 5" PRINT:   ORIGIN OF DATA
 UWI .       490250657800:   UNIQUE WELL ID
 DICO. A2D Technologies, Inc.:   DIGITIZING COMPANY
~OTHER INFORMATION
~A   DEPT      SPR       CILD        ASN        ILD         GR   
# ...
  698.5000   -44.6061   146.7256     9.3680     6.9882    66.2972
  699.0000   -44.3605   135.7715     9.6264     7.4553    63.0528
  699.5000   -43.7173   126.7535     9.8462     7.9166    61.0813
  700.0000   -43.3453   124.2940    10.0407     8.1545    62.4315
  700.5000   -43.5995   121.5394    10.2697     8.2704    61.4187
  701.0000   -43.9707   120.7415    10.3892     8.3911    63.3924
  701.5000   -43.9737   120.7415    10.3984     8.5155    60.1514
  702.0000   -44.0283   120.7415    10.4225     8.5745    59.0713
  702.5000   -43.5498   120.7415    10.4381     8.5658    59.1898
  703.0000   -42.7390   120.0108    10.4610     8.5693    60.8555
  703.5000   -42.0822   119.2338    10.4722     8.5669    61.6911
  704.0000   -41.3511   118.7375    10.4708     8.5673    56.6344
  704.5000   -41.2126   118.7375    10.4712     8.5675    59.4787
  705.0000   -41.6786   118.7375    10.4706     8.5664    62.5133
  705.5000   -42.0969   118.7375    10.4709     8.5690    66.0844
  706.0000   -42.5331   118.7375    10.4705     8.5644    64.0042
  706.5000   -42.9571   118.6998    10.4719     8.6077    67.7701
  707.0000   -43.3919   118.6994    10.4734     8.6979    69.6392
  707.5000   -43.8124   117.0820    10.5372     8.7693    62.4648
  708.0000   -44.0440   115.7613    10.6014     8.8678    60.2616
  708.5000   -43.6448   114.7614    10.6793     8.7913    62.9069
  709.0000   -42.9503   116.8792    10.7347     8.5525    54.3613
  709.5000   -42.3217   118.7989    10.8047     8.2040    57.8287
  710.0000   -41.6717   125.4754    10.4578     7.8337    60.0726
  710.5000   -41.0205   131.7843     9.8871     7.4680    54.9830
  711.0000   -40.3936   138.1437     9.1852     7.1034    52.5120
  711.5000   -39.6999   144.5031     8.5054     6.7299    55.8046
  712.0000   -39.3372   150.8625     7.9352     6.4452    53.3655
  712.5000   -39.4496   155.9938     7.7325     6.3184    47.7619
  713.0000   -39.5455   160.5848     8.0516     6.1857    47.9067
  713.5000   -39.6609   162.8257     8.8160     6.2472    50.8166
  714.0000   -39.7640   157.0220     9.9933     6.6807    48.7432
  714.5000   -39.7824   143.1971    10.8783     7.6341    51.7824
  715.0000   -39.7583   126.0837    11.9025     8.8422    54.5435
  715.5000   -39.7198   108.0234    12.5015     9.8443    55.1161
  716.0000   -39.6924   100.6315    12.7670    10.5977    52.6363
  716.5000   -39.6469    94.7401    12.8818    11.0851    50.6163
  717.0000   -39.6323    92.5885    13.0304    11.0610    49.4358
  717.5000   -39.5597    92.9761    13.1714    11.0859    53.0302
  718.0000   -39.8423    94.0322    13.2766    11.0546    55.8513
  718.5000   -40.3289    94.7102    13.7365    11.1389    43.6733
  719.0000   -40.7466    92.6636    14.1784    11.2017    45.3888
  719.5000   -41.1726    90.5954    15.0474    11.6475    47.4774
  720.0000   -41.7179    86.2526    16.6308    12.3497    43.9145
  720.5000   -42.4356    80.4761    18.7728    12.9498    42.5784
  721.0000   -42.9736    74.6879    20.9148    13.9553    43.1595
  721.5000   -43.2053    68.9007    23.0569    14.8561    41.8333
  722.0000   -43.3652    63.1207    25.6530    16.4776    36.3414
  722.5000   -43.3992    57.3659    26.4506    18.6870    34.8063
  723.0000   -43.3660    51.6111    27.4961    20.7744    38.1160
  723.5000   -43.5873    45.8564    28.5399    22.5797    40.4429
  724.0000   -44.2353    40.5812    29.5760    23.9408    42.2885
  724.5000   -44.8829    40.5812    30.5945    24.4777    38.4226
  725.0000   -45.5487    40.5812    31.5940    24.5887    34.6020
  725.5000   -46.1522    38.4995    33.2133    25.4028    30.8200
  726.0000   -46.0698    37.5751    35.2781    26.5485    26.8575
  726.5000   -45.6476    34.7595    37.3152    29.1216    24.2297
  727.0000   -45.4663    32.2345    39.3522    31.0975    27.6469
  727.5000   -45.9552    29.7094    41.7335    33.5628    32.1111
  728.0000   -46.3679    28.5571    42.4569    34.3622    36.0468
  728.5000   -46.3509    28.5571    43.3275    35.2734    34.2401
  729.0000   -45.9218    27.3497    44.0547    36.0742    40.2713
  729.5000   -45.6498    26.0872    44.5391    36.8956    44.0056
  730.0000   -45.9678    25.5511    43.7833    37.5780    41.8502
  730.5000   -46.3475    25.5511    42.5002    36.9253    44.7179
  731.0000   -46.7073    26.1483    40.8525    35.4012    37.9771
  731.5000   -47.0838    27.1583    39.2048    33.9541    39.3880
  732.0000   -47.4354    28.1683    37.5570    32.4219    40.7590
  732.5000   -47.8323    29.7726    35.9093    30.9379    41.4528
  733.0000   -48.0094    31.7487    34.4188    29.4248    38.2696
  733.5000   -48.0035    33.7248    32.2104    27.9322    35.7517
  734.0000   -47.9483    35.7010    30.4108    26.4200    41.1287
  734.5000   -47.5337    37.6771    28.9078    25.0744    46.8223
  735.0000   -47.0453    39.6532    27.4208    23.8369    53.3141
  735.5000   -46.7972    41.6293    26.4580    22.7400    51.3348
  736.0000   -46.9212    43.6055    26.0100    21.6120    50.2069
  736.5000   -46.9915    45.5816    25.5680    21.1392    54.4726
  737.0000   -47.0868    46.5932    25.1312    20.9775    51.1284
  737.5000   -47.1826    46.5932    24.6963    20.9762    49.7131
  738.0000   -47.1935    47.2873    24.2098    20.7745    52.0303
  738.5000   -47.2034    48.6646    23.6792    20.5110    49.7645
  739.0000   -47.0971    50.0419    23.1479    20.1141    46.8527
  739.5000   -46.8081    51.4192    22.6171    19.5994    43.9119
  740.0000   -46.5347    52.7965    22.0887    19.1405    40.7438
  740.5000   -46.2278    54.1738    21.5629    18.5313    44.4582
  741.0000   -46.1850    55.5511    21.0377    17.9830    50.0465
  741.5000   -46.1943    56.9361    20.5201    17.4152    47.7225
  742.0000   -46.1898    58.3184    19.9942    16.9641    43.8975
  742.5000   -46.1922    59.7018    19.7008    16.6760    37.7359
  743.0000   -46.1909    61.0854    19.5849    16.4112    39.7657
  743.5000   -46.1918    61.6521    19.5826    16.3688    43.9057
  744.0000   -46.1936    61.6527    19.5819    16.3955    41.9020
  744.5000   -46.2317    61.6514    19.7077    16.4989    40.2088
  745.0000   -46.2826    61.1804    20.0004    16.7383    44.5411
  745.5000   -46.3311    60.0334    20.2791    17.1168    46.2670
  746.0000   -46.3809    58.9112    20.6042    17.4799    41.2243
  746.5000   -46.4297    57.7889    20.8831    17.8590    39.9139
  747.0000   -46.4795    56.6667    20.8995    18.2169    40.4592
  747.5000   -46.5281    55.5444    20.9666    18.6126    34.3536
  748.0000   -46.5778    54.4222    21.0646    18.8107    37.0555
  748.5000   -46.5954    53.6072    20.9850    18.7463    39.5498
  749.0000   -46.5929    52.6052    20.7624    18.6718    33.7012
  749.5000   -46.5944    52.6052    20.5866    18.5855    29.2760
  750.0000   -46.5904    52.6052    20.3774    18.5059    25.4902
  750.5000   -46.5449    52.6052    20.2674    18.4227    28.6895
  751.0000   -46.4879    53.2756    20.2384    18.3417    31.9633
  751.5000   -46.4330    54.0241    20.2032    18.2587    32.4764
  752.0000   -46.3776    54.7725    20.1544    18.1784    31.1404
  752.5000   -46.3217    55.6112    20.0879    18.0934    35.0791
  753.0000   -46.2676    55.6112    20.0317    18.0890    33.5245
  753.5000   -46.2105    55.6112    19.9707    18.0438    36.0709
  754.0000   -46.1916    55.6112    19.9126    17.9366    38.5601
  754.5000   -46.1913    55.8259    19.8521    17.8408    43.0294
  755.0000   -46.1964    56.1478    19.7944    17.7196    41.7665
  755.5000   -46.1480    56.4697    19.7301    17.5756    40.7056
  756.0000   -46.0597    56.7916    19.6624    17.4357    42.8930
  756.5000   -45.9828    57.1136    19.5815    17.2870    45.0206
  757.0000   -45.9025    57.4355    19.4922    17.1860    44.2311
  757.5000   -45.8217    57.6152    19.4061    17.1880    46.0730
  758.0000   -45.7875    57.5470    19.3179    17.2612    43.7129
  758.5000   -45.7973    57.3910    19.2316    17.3605    46.6110
  759.0000   -45.8080    57.2351    19.1429    17.4541    42.0965
