~VERSION INFORMATION
 VERS.                2.0:   CWLS LOG ASCII STANDARD - VERSION 2.0
 WRAP.                 NO:   ONE LINE PER DEPTH STEP
~WELL INFORMATION
#MNEM.UNIT      DATA TYPE    INFORMATION
#----------   ------------   ------------------------------
 STRT.F          103.0000:   START DEPTH
 STOP.F          898.0000:   STOP DEPTH
 STEP.F            0.5000:   STEP LENGTH
 NULL.          -999.2500:   NO VALUE
 COMP. LAWRENCE/ALLISON INC:   COMPANY
 WELL. NPR 3 32-66 SX #2-2:   WELL
 FLD .             TEAPOT:   FIELD
 LOC .       S2 T38N R78W:   LOCATION
 CNTY.            NATRONA:   COUNTY
 STAT.            WYOMING:   STATE
 CTRY. UNITED STATES OF AMERICA:   COUNTRY
 SRVC.      Dresser Atlas:   SERVICE COMPANY
 DATE.        30-JAN-1986:   LOGDATE
 API .       490251106900:   API NUMBER
~CURVE INFORMATION
#MNEM.UNIT       API CODE    CURVE DESCRIPTION
#----------   ------------   ------------------------------
 DEPT.F                  :   
 RILD.OHMM   07 120 46 00:   INDUCTION LOG DEEP RESISTIVITY
 RILM.OHMM   07 120 44 00:   INDUCTION LOG MEDIUM RESISTIVITY
 CALD.IN     45 280 60 00:   CALIPER FROM DENSITY
 GRD .GAPI   45 310 01 00:   GAMMA RAY FROM DENSITY LOG
 CORR.G/C3   45 356 01 00:   DENSITY CORRECTION
 PORD.DEC    45 890 10 00:   POROSITY DENSITY LIMESTONE
 DEN .G/C3   45 350 01 00:   COMPENSATED BULK DENSITY
~PARAMETER INFORMATION
#MNEM.UNIT          VALUE    DESCRIPTION
#----------   ------------   ------------------------------
 PD  .                 GL:   PERMANENT DATUM
 EPD .F              5136:   ELEVATION PERMANENT DATUM
 LMF .                 GL:   LOG MEASURED FROM
 DMF .                 GL:   DRILLING MEASURED FROM
 EGL .F              5136:   GROUND LEVEL
 DATE.        30-JAN-1986:   RUN DATE
 RUN .                  1:   RUN NUMBER
 DD  .F               885:   DEPTH DRILLER
 DL  .F               902:   DEPTH LOGGER
 BLI .F               894:   BOTTOM LOG INTERVAL
 CS  .IN            8.625:   CASING SIZE
 CBD .F               130:   CASING BOTTOM DRILLER
 CBL .F               126:   CASING BOTTOM LOGGER
 BS  .IN             6.25:   BIT SIZE
 BSD .F               885:   BIT SIZE AT DEPTH
 DFT .                AIR:   DRILLING FLUID TYPE
 LUN .            HL-6264:   LOGGING UNIT NUMBER
 LUL .           GILLETTE:   LOGGING UNIT LOCATION
 ENGI.     P. M. FAHLSING:   RECORDING ENGINEER
 WITN.        LINDA FIVAS:   WITNESSED BY
 CLNT.            A2DTECH:   CLIENT CODE
 ORIG.           5" PRINT:   ORIGIN OF DATA
 UWI .       490251106900:   UNIQUE WELL ID
 DICO. A2D Technologies, Inc.:   DIGITIZING COMPANY
 R1  . POROSITY WITH LIMESTONE:   REMARKS 1
~OTHER INFORMATION
~A   DEPT     RILD       RILM       CALD        GRD       CORR       PORD        DEN   
# ...
  558.0000     6.1103     6.0396     7.1862   130.3303     0.1406     0.1375     2.4512
  558.5000     6.4188     6.3016     7.1863   132.7327     0.1239     0.1348     2.4580
  559.0000     6.6963     6.5296     7.1865   133.9339     0.1194     0.1294     2.4799
  559.5000     6.7949     6.6727     7.1866   133.9540     0.1254     0.1179     2.4981
  560.0000     6.8950     6.8190     7.1868   133.0330     0.1269     0.1089     2.5011
  560.5000     6.9003     6.8726     7.1869   133.3434     0.1183     0.1095     2.4965
  561.0000     6.9525     6.9267     7.1871   136.3766     0.0861     0.1182     2.4829
  561.5000     7.0062     6.9330     7.1721   139.3393     0.0830     0.1246     2.4738
  562.0000     7.0115     6.8915     7.1723   139.3393     0.0906     0.1185     2.4843
  562.5000     6.9684     6.8964     7.1724   139.0390     0.1057     0.1152     2.4888
  563.0000     6.9256     6.9026     7.1726   139.9399     0.1102     0.1161     2.4858
  563.5000     6.8831     6.8611     7.1727   142.3423     0.1056     0.1249     2.4737
  564.0000     6.7936     6.8199     7.1729   143.5435     0.0996     0.1300     2.4631
  564.5000     6.7042     6.7322     7.1730   142.3423     0.0920     0.1312     2.4615
  565.0000     6.5714     6.6457     7.1732   140.2402     0.0890     0.1313     2.4615
  565.5000     6.4413     6.5150     7.1733   137.5375     0.0890     0.1298     2.4645
  566.0000     6.2714     6.3428     7.1709   136.6366     0.1071     0.1270     2.4713
  566.5000     6.0626     6.1325     7.1586   136.9369     0.1282     0.1234     2.4766
  567.0000     5.7403     5.8883     7.1588   137.5375     0.1267     0.1240     2.4743
  567.5000     5.3234     5.5760     7.1589   138.1381     0.1191     0.1256     2.4689
  568.0000     4.8688     5.2077     7.1591   136.9369     0.1025     0.1307     2.4614
  568.5000     4.6420     4.6981     7.1592   130.9309     0.0828     0.1337     2.4538
  569.0000     4.6456     4.2385     7.1744   128.5285     0.0662     0.1361     2.4447
  569.5000     4.8464     4.0687     7.1745   128.2282     0.0647     0.1440     2.4189
  570.0000     4.9239     4.5193     7.1898   130.3303     0.0964     0.1790     2.3773
  570.5000     5.0241     4.8143     7.1899   132.7327     0.1220     0.1796     2.3826
  571.0000     5.0662     4.9884     7.1901   132.1321     0.1114     0.1721     2.3905
  571.5000     5.2120     5.1332     7.1902   130.6306     0.1054     0.1556     2.4176
  572.0000     5.6257     5.4683     7.1904   131.5315     0.1133     0.1369     2.4705
  572.5000     5.9921     6.0305     7.1905   133.3333     0.1267     0.1205     2.4874
  573.0000     6.3383     6.3073     7.1907   133.3333     0.1280     0.1108     2.5005
  573.5000     6.6583     6.5248     7.1908   135.1351     0.1219     0.1072     2.5035
  574.0000     6.8033     6.7585     7.1910   138.7387     0.1144     0.1057     2.5042
  574.5000     6.9035     6.9044     7.1911   142.3423     0.1053     0.1072     2.4974
  575.0000     7.0052     7.0047     7.1913   142.9429     0.1038     0.1109     2.4943
  575.5000     7.0593     7.0598     7.1914   142.6326     0.1128     0.1115     2.4958
  576.0000     7.1138     7.1154     7.1916   142.3423     0.1188     0.1082     2.5049
  576.5000     7.2186     7.2212     7.2068   142.3423     0.1249     0.1036     2.5169
  577.0000     7.3250     7.3795     7.2220   143.0231     0.1279     0.0964     2.5184
  577.5000     7.4845     7.4892     7.2221   145.4456     0.1248     0.0976     2.5169
  578.0000     7.6475     7.6534     7.2223   147.7477     0.1218     0.1012     2.5139
  578.5000     7.7602     7.7672     7.2224   149.8499     0.1127     0.1025     2.5093
  579.0000     7.8201     7.8283     7.2226   148.9489     0.0931     0.1025     2.5078
  579.5000     7.8249     7.8355     7.2077   147.1471     0.0901     0.1028     2.5085
  580.0000     7.8309     7.8426     7.2079   140.5405     0.1036     0.1043     2.5062
  580.5000     7.8369     7.8497     7.1930   135.1351     0.1127     0.1037     2.5024
  581.0000     7.8428     7.8569     7.1931   134.2342     0.1217     0.1025     2.5062
  581.5000     7.8489     7.8641     7.1932   135.7357     0.1277     0.1019     2.5092
  582.0000     7.8549     7.8712     7.1934   137.5375     0.1292     0.1025     2.5091
  582.5000     7.8610     7.9331     7.1935   137.2372     0.1337     0.1037     2.5076
  583.0000     7.8125     7.9404     7.1937   135.7357     0.1367     0.1043     2.5076
  583.5000     7.8188     7.9462     7.1938   131.5315     0.1367     0.1046     2.5076
  584.0000     7.8792     8.0086     7.1940   130.0300     0.1303     0.1061     2.5053
  584.5000     7.8853     7.9603     7.1941   135.1351     0.0604     0.1068     2.4999
  585.0000     7.8914     7.9677     7.2094   139.9399     0.0334     0.1101     2.4924
  585.5000     7.9524     7.9748     7.1944   139.3393     0.0502     0.1158     2.4878
  586.0000     7.9021     7.9821     7.1946   137.8378     0.0748     0.1152     2.4878
  586.5000     7.9647     7.9893     7.1947   133.9339     0.0883     0.1134     2.4924
  587.0000     7.9708     7.9966     7.1949   134.5345     0.1019     0.1113     2.4938
  587.5000     7.9204     8.0039     7.2101   135.7357     0.1064     0.1138     2.4892
  588.0000     7.9280     7.9010     7.2253   137.5375     0.1064     0.1134     2.4877
  588.5000     7.4548     7.5864     7.2255   138.7387     0.1154     0.1116     2.4907
  589.0000     6.9039     7.1345     7.2256   138.7387     0.1290     0.1038     2.5096
  589.5000     6.8222     6.8031     7.2408   140.2402     0.1426     0.0996     2.5164
  590.0000     6.6841     6.4423     7.2410   146.5465     0.1365     0.1008     2.5148
  590.5000     6.1133     6.1006     7.2562   150.4706     0.1154     0.1074     2.5065
  591.0000     5.4410     5.3164     7.2715   152.5925     0.0731     0.1149     2.4875
  591.5000     5.0110     4.8296     7.2866   153.1532     0.0580     0.1230     2.4739
  592.0000     4.0460     4.2380     7.2867   153.0730     0.0670     0.1297     2.4678
  592.5000     3.4055     3.4942     7.2869   151.9520     0.1002     0.1370     2.4602
  593.0000     2.9879     3.0240     7.2870   150.4505     0.1153     0.1425     2.4557
  593.5000     2.7328     2.7471     7.3023   147.1471     0.1093     0.1500     2.4428
  594.0000     2.4994     2.5304     7.3326   142.9429     0.0851     0.1974     2.3792
  594.5000     2.3179     2.3869     7.3478   139.9399     0.0639     0.2306     2.3043
  595.0000     2.3358     2.2843     7.3630   133.9339     0.0579     0.2544     2.2574
  595.5000     2.3702     2.3373     7.3782   125.5255     0.0624     0.2607     2.2460
  596.0000     2.4556     2.4717     7.3783   126.1261     0.0912     0.2511     2.2559
  596.5000     2.7455     2.6491     7.3785   139.9399     0.1306     0.2161     2.3315
  597.0000     3.1777     2.9622     7.3786   145.9460     0.1457     0.1929     2.3572
  597.5000     3.6525     3.3586     7.3788   144.1441     0.1514     0.1853     2.3701
  598.0000     4.2865     3.9694     7.3940   138.7387     0.1856     0.2018     2.3329
  598.5000     4.7196     4.7899     7.4092   140.2402     0.2631     0.2415     2.2709
  599.0000     5.1507     5.1380     7.3491   144.7448     0.2876     0.2270     2.3132
  599.5000     5.5160     5.5115     7.3041   147.4474     0.2178     0.1682     2.3646
  600.0000     5.7901     5.7539     7.2868   147.5860     0.1181     0.1338     2.4206
  600.5000     6.0426     6.0417     7.2737   148.3483     0.0953     0.1196     2.4682
  601.0000     6.2184     6.0472     7.2584   148.9489     0.0879     0.1142     2.4886
  601.5000     6.2666     6.0527     7.2581   149.8499     0.0909     0.1148     2.4855
  602.0000     6.2727     6.1003     7.2578   147.4474     0.0938     0.1181     2.4825
  602.5000     6.2352     6.1483     7.2575   147.1471     0.0843     0.1205     2.4801
  603.0000     6.1525     6.1539     7.2572   147.7477     0.0787     0.1218     2.4772
