~VERSION INFORMATION
 VERS.                2.0:   CWLS LOG ASCII STANDARD - VERSION 2.0
 WRAP.                 NO:   ONE LINE PER DEPTH STEP
~WELL INFORMATION
#MNEM.UNIT      DATA TYPE    INFORMATION
#----------   ------------   ------------------------------
 STRT.F           20.0000:   START DEPTH
 STOP.F          610.0000:   STOP DEPTH
 STEP.F            0.5000:   STEP LENGTH
 NULL.          -999.2500:   NO VALUE
 COMP. LAWRENCE/ALLISON INC:   COMPANY
 WELL.    44-55 SX #10-10:   WELL
 FLD .             TEAPOT:   FIELD
 LOC .      S10 T38N R78W:   LOCATION
 CNTY.            NATRONA:   COUNTY
 STAT.            WYOMING:   STATE
 CTRY. UNITED STATES OF AMERICA:   COUNTRY
 SRVC.            Unknown:   SERVICE COMPANY
 DATE.        29-AUG-1984:   LOGDATE
 API .       490251098300:   API NUMBER
~CURVE INFORMATION
#MNEM.UNIT       API CODE    CURVE DESCRIPTION
#----------   ------------   ------------------------------
 DEPT.F                  :   
 AC  .US/F   60 520 00 00:   ACOUSTIC SONIC
 SPR .MV     07 010 01 00:   SPONTANEOUS POTENTIAL
 RILD.OHMM   07 120 46 00:   INDUCTION LOG DEEP RESISTIVITY
 RILM.OHMM   07 120 44 00:   INDUCTION LOG MEDIUM RESISTIVITY
 RFOC.OHMM   07 220 04 00:   RESISTIVITY FOCUSED LOG
 GRD .GAPI   45 310 01 00:   GAMMA RAY FROM DENSITY LOG
 CALD.IN     45 280 60 00:   CALIPER
 DEN .G/C3   45 350 01 00:   COMPENSATED BULK DENSTIY
 CNC .DEC    42 890 03 00:   NEUTRON POROSITY SANDSTONE
 PORD.DEC    45 890 12 00:   DENSITY POROSITY SANDSTONE
 CORR.G/C3   45 356 01 00:   DENSITY CORRECTION
~PARAMETER INFORMATION
#MNEM.UNIT          VALUE    DESCRIPTION
#----------   ------------   ------------------------------
 PD  .                 GL:   PERMANENT DATUM
 EPD .F              5247:   ELEVATION PERMANENT DATUM
 LMF .                 KB:   LOG MEASURED FROM
 DAPD.F                13:   FEET ABOVE PERMANENT DATUM
 DMF .                 KB:   DRILLING MEASURED FROM
 EKB .F              5260:   KELLING BUSHING
 EGL .F              5247:   GROUND LEVEL
 DATE.        29-AUG-1984:   RUN DATE
 RUN .                  1:   RUN NUMBER
 DD  .F               613:   DEPTH DRILLER
 DL  .F               607:   DEPTH LOGGER
 BLI .F               607:   BOTTOM LOG INTERVAL
 TLI .F                42:   TOP LOG INTERVAL
 CBL .F                42:   CASING BOTTOM LOGGER
 BS  .IN            7.875:   BIT SIZE
 BSD .F               613:   BIT SIZE AT DEPTH
 DFT .          KCL WATER:   DRILLING FLUID TYPE
 MSS .               TANK:   MUD SAMPLE SOURCE
 RMS .OHMM           .295:   RESISTIVITY MUD SAMPLE
 MST .F                75:   MUD SAMPLE TEMPERATURE
 TCS .HRS               3:   TIME CURCULATED STOPPED
 MRT .F               100:   MAXIMUM RECORDED TEMPERATURE
 LUN .               4082:   LOGGING UNIT NUMBER
 LUL .               ROOS:   LOGGING UNIT LOCATION
 ENGI.             MILLER:   RECORDING ENGINEER
 WITN.            JOHNSON:   WITNESSED BY
 CLNT.            A2DTECH:   CLIENT CODE
 ORIG.       2", 5" PRINT:   ORIGIN OF DATA
 UWI .       490251098300:   UNIQUE WELL ID
 DICO. A2D Technologies, Inc.:   DIGITIZING COMPANY
~OTHER INFORMATION
~A   DEPT       AC        SPR       RILD       RILM       RFOC         GRD      CALD        DEN        CNC       PORD       CORR   
# ...
  142.0000    95.3849    26.9724    12.0573    12.2901    11.8982    86.7304     8.0756     2.5261     0.2785     0.0928     0.0795
  142.5000    96.0180    26.1841    11.8933    12.1301    11.6266    85.4294     8.0772     2.5268     0.2788     0.0920     0.0736
  143.0000    96.6022    25.3940    11.7316    11.9722    11.4263    86.4505     8.0775     2.5190     0.2840     0.0971     0.0676
  143.5000    97.3471    24.6023    11.5720    11.8163    11.2295    87.4351     8.0775     2.5103     0.2879     0.1019     0.0605
  144.0000    97.9887    23.8148    11.4147    11.6624    11.0363    86.8426     8.0775     2.5017     0.2883     0.1066     0.0463
  144.5000    98.4387    22.9744    11.2594    11.5106    10.8464    83.2942     8.0775     2.4931     0.2886     0.1111     0.0320
  145.0000    98.7367    22.1279    11.1063    11.3608    10.6598    79.7893     8.0775     2.4857     0.2909     0.1157     0.0205
  145.5000    98.6119    21.2738    10.9553    11.2606    10.4670    76.2860     8.0775     2.4792     0.2918     0.1203     0.0182
  146.0000    98.2376    20.4097    10.8533    11.3484    10.3593    76.6986     8.0775     2.4763     0.2859     0.1204     0.0219
  146.5000    97.8343    19.4008    11.0837    11.4169    10.3642    78.7794     8.0775     2.4781     0.2834     0.1194     0.0474
  147.0000    96.6432    18.2025    11.2619    11.4855    10.6465    80.7670     8.0775     2.4800     0.2871     0.1185     0.0751
  147.5000    95.3593    17.0102    11.4430    11.5545    10.9059    82.2733     8.0775     2.4819     0.2922     0.1176     0.0812
  148.0000    94.4830    15.8057    11.6841    11.5746    11.1731    83.3539     8.0763     2.4837     0.2857     0.1169     0.0473
  148.5000    94.1417    14.7174    11.5707    11.3338    11.4687    84.2533     8.0749     2.4842     0.2763     0.1161     0.0398
  149.0000    95.2339    13.7193    11.3567    11.1208    11.4687    84.2169     8.0735     2.4768     0.2730     0.1181     0.0389
  149.5000    96.9405    12.7194    11.1455    10.9119    11.2583    82.8273     8.0721     2.4684     0.2786     0.1238     0.0259
  150.0000    97.9381    11.9127    10.9384    10.7069    11.0299    80.5840     8.0707     2.4642     0.2838     0.1296     0.0084
  150.5000    98.9358    11.2792    10.7353    10.5057    10.8062    81.0988     8.0693     2.4621     0.2913     0.1303    -0.0074
  151.0000    99.7824    10.6381    10.5359    10.1592    10.5871    82.0576     8.0679     2.4621     0.2997     0.1303    -0.0042
  151.5000   100.1983     9.8797    10.3400    10.0838    10.3722    83.4690     8.0665     2.4644     0.3081     0.1286     0.0153
  152.0000   100.5316     8.8533    10.1474    10.1419    10.1616    83.8569     8.0651     2.4690     0.3165     0.1260     0.0351
  152.5000   100.5921     7.7336     9.9017    10.1957     9.9560    81.4194     8.0637     2.4738     0.3249     0.1234     0.0353
  153.0000   100.2588     6.6263    10.0539    10.2497     9.8100    82.8579     8.0623     2.4768     0.3098     0.1214     0.0252
  153.5000    99.9255     5.5967    10.2709    10.3039     9.9540    84.6333     8.0609     2.4792     0.2982     0.1198     0.0233
  154.0000    99.6481     4.6025    10.0859    10.3650    10.0685    86.3702     8.0595     2.4799     0.2934     0.1188     0.0442
  154.5000    99.7980     3.4819     9.9163    10.2507    10.1769    83.5506     8.0580     2.4753     0.2984     0.1221     0.0696
  155.0000    99.9342     1.8809     9.7494    10.1206     9.9674    81.5221     8.0585     2.4731     0.3012     0.1232     0.0677
  155.5000    99.9680     1.0954     9.5853     9.9917     9.7301    83.5721     8.0596     2.4775     0.3036     0.1206     0.0502
  156.0000   100.0023     0.3571     9.3691     9.8645     9.4985    85.5705     8.0608     2.4819     0.3061     0.1176     0.0329
  156.5000   100.0319    -0.6777     9.3903     9.7198     9.2803    82.7036     8.0619     2.4802     0.3100     0.1194     0.0185
  157.0000    99.7394    -2.4313     9.4256     9.8232     9.4021    79.3651     8.0631     2.4761     0.3043     0.1228     0.0259
  157.5000    99.3744    -3.8850     9.4603     9.9466     9.5945    78.1845     8.0642     2.4730     0.3081     0.1225     0.0252
  158.0000    99.1310    -5.3440     9.4953    10.0715     9.7885    80.7424     8.0653     2.4741     0.3125     0.1220     0.0117
  158.5000    99.7349    -6.6278     9.5424    10.1980     9.9001    83.5741     8.0665     2.4750     0.3171     0.1216     0.0158
  159.0000   100.6793    -7.3079     9.4976    10.2709     9.7086    83.3234     8.0676     2.4760     0.3216     0.1211     0.0264
  159.5000   101.6237    -7.9921     9.4248    10.0629     9.5562    81.9336     8.0688     2.4769     0.3226     0.1228     0.0336
  160.0000   102.6247    -8.6765     9.3531     9.8968     9.4056    80.5046     8.0699     2.4702     0.3090     0.1270     0.0368
  160.5000   102.7245    -9.3588     9.2820     9.7334     9.2572    82.0847     8.0711     2.4622     0.3031     0.1309     0.0468
  161.0000   102.0307   -10.0610     9.1982     9.5408     9.1141    85.6404     8.0722     2.4542     0.3181     0.1336     0.0512
  161.5000   100.9223   -11.2641     9.2261     9.5857     9.1141    86.4726     8.0734     2.4569     0.3203     0.1320     0.0364
  162.0000    99.7124   -12.4810     9.2718     9.6892     9.2623    84.8256     8.0745     2.4620     0.3079     0.1305     0.0450
  162.5000    98.4365   -13.6953     9.3178     9.7952     9.3689    82.5544     8.0757     2.4616     0.2994     0.1296     0.0549
  163.0000    97.7996   -14.9089     9.3641     9.9021     9.4767    80.2412     8.0768     2.4610     0.2997     0.1296     0.0517
  163.5000    97.5179   -16.1238     9.4105    10.0100     9.5858    79.9291     8.0771     2.4721     0.3014     0.1221     0.0330
  164.0000    97.3719   -17.3518     9.4572    10.1192     9.6960    80.5046     8.0756     2.4839     0.3030     0.1152     0.0142
  164.5000    97.6055   -18.1139     9.5041    10.2295     9.8081    81.0938     8.0741     2.4878     0.3047     0.1160    -0.0033
  165.0000    98.1637   -18.7753     9.5427    10.3410     9.9258    81.7241     8.0726     2.4700     0.3063     0.1284     0.0067
  165.5000    99.1262   -19.4341     9.0783    10.3658    10.0838    83.7599     8.0712     2.4564     0.3015     0.1332     0.0227
  166.0000   100.3261   -20.0917     8.7027     9.7323     9.5746    87.3395     8.0697     2.4551     0.3028     0.1339     0.0326
  166.5000   101.6267   -21.0160     8.3426     9.2968     9.0794    89.2299     8.0682     2.4540     0.3041     0.1344     0.0394
  167.0000   102.4092   -22.1349     7.9975     8.8808     8.6099    88.3740     8.0668     2.4492     0.3054     0.1394     0.0459
  167.5000   102.9092   -23.2546     7.6536     8.4831     8.1646    86.8363     8.0653     2.4425     0.3068     0.1440     0.0505
  168.0000   102.9469   -24.3785     7.5989     8.0083     7.7242    85.2807     8.0638     2.4369     0.3082     0.1444     0.0423
  168.5000   102.4735   -25.5124     7.4454     8.0163     7.7242    83.7276     8.0624     2.4383     0.3094     0.1419     0.0251
  169.0000   101.8902   -26.2110     7.5443     7.9402     7.9307    83.1654     8.0609     2.4453     0.3111     0.1381     0.0103
  169.5000   101.5269   -26.9005     7.6311     8.3941     8.1144    83.0649     8.0594     2.4534     0.3036     0.1326     0.0176
  170.0000   101.7842   -27.5973     7.6536     8.7047     8.3022    84.3554     8.0580     2.4615     0.2918     0.1270     0.0311
  170.5000   102.2287   -28.3006     7.6935     8.6262     8.3904    86.1117     8.0574     2.4702     0.2904     0.1260     0.0448
  171.0000   102.3253   -28.4807     8.0135     8.5435     8.3138    86.7719     8.0571     2.4658     0.2930     0.1297     0.0381
  171.5000   102.0508   -28.6330     8.0135     8.4615     8.2469    84.3869     8.0567     2.4573     0.2956     0.1334     0.0276
  172.0000   101.6987   -28.7881     8.0135     8.3904     8.1805    81.7442     8.0564     2.4578     0.2982     0.1336     0.0172
