~VERSION INFORMATION
 VERS.                2.0:   CWLS LOG ASCII STANDARD - VERSION 2.0
 WRAP.                 NO:   ONE LINE PER DEPTH STEP
~WELL INFORMATION
#MNEM.UNIT      DATA TYPE    INFORMATION
#----------   ------------   ------------------------------
 STRT.F           20.0000:   START DEPTH
 STOP.F          436.5000:   STOP DEPTH
 STEP.F            0.5000:   STEP LENGTH
 NULL.          -999.2500:   NO VALUE
 COMP. FENIX & SCISSON INC:   COMPANY
 WELL. NPR 3 SX-10 #55-10:   WELL
 FLD .        YEAPOT DOME:   FIELD
 LOC .      S10 T38N R78W:   LOCATION
 CNTY.            NATRONA:   COUNTY
 STAT.            WYOMING:   STATE
 CTRY. UNITED STATES OF AMERICA:   COUNTRY
 SRVC.           BIRDWELL:   SERVICE COMPANY
 DATE.        06-JUN-1978:   LOGDATE
 API .       490251062900:   API NUMBER
~CURVE INFORMATION
#MNEM.UNIT       API CODE    CURVE DESCRIPTION
#----------   ------------   ------------------------------
 DEPT.F                  :   
 GRD .GAPI   45 310 01 00:   GAMMA RAY FROM DENSITY LOG
 CALD.IN     45 280 60 00:   CALIPER FROM DENSITY LOG
 RHOB.G/C3   45 350 01 00:   BULK DENSITY
 DPHI.DEC    45 890 12 00:   DENSITY POROSITY SANDSTONE
 CORR.G/C3   45 356 01 00:   DENSITY CORRECTION
 SPR .MV     05 010 01 00:   SPONTANEOUS POTENTIAL FROM RES.
 SN  .OHMM   05 040 16 00:   SHORT NORMAL 16"
 ILD .OHMM   05 120 46 00:   INDUCTION LOG DEEP
~PARAMETER INFORMATION
#MNEM.UNIT          VALUE    DESCRIPTION
#----------   ------------   ------------------------------
 PD  .                 GL:   PERMANENT DATUM
 EPD .F              5202:   ELEVATION PERMANENT DATUM
 LMF .                 KB:   LOG MEASURED FROM
 DAPD.F                 4:   FEET ABOVE PERMANENT DATUM
 DMF .                 KB:   DRILLING MEASURED FROM
 EKB .F              5206:   KELLING BUSHING
 EGL .F              5202:   GROUND LEVEL
 DATE.             6-6-78:   RUN DATE
 RUN .                  1:   RUN NUMBER
 DD  .F               425:   DEPTH DRILLER
 DL  .F               436:   DEPTH LOGGER
 BLI .F               432:   BOTTOM LOG INTERVAL
 TLI .F                40:   TOP LOG INTERVAL
 CS  .IN            8.625:   CASING SIZE
 CBD .F                40:   CASING BOTTOM DRILLER
 CBL .F                40:   CASING BOTTOM LOGGER
 BS  .IN            7.875:   BIT SIZE
 BSD .F               425:   BIT SIZE AT DEPTH
 DFT .            KCL/OIL:   DRILLING FLUID TYPE
 DFD .                8.6:   DRILLING FLUID DENSITY
 DFV .                 34:   DRILLING FLUID VISCOSITY
 DFPH.                 10:   DRILLING FLUID PH
 DFL .                7.6:   DRILLING FLUID LOSS
 MSS .                PIT:   MUD SAMPLE SOURCE
 TCS .HRS               4:   TIME CURCULATED STOPPED
 LUN .               2958:   LOGGING UNIT NUMBER
 LUL .               CASP:   LOGGING UNIT LOCATION
 ENGI.            POINTER:   RECORDING ENGINEER
 WITN.           MCGINLEY:   WITNESSED BY
 CLNT.            A2DTECH:   CLIENT CODE
 ORIG. 1", 2", 2.5", 5" PRINT:   ORIGIN OF DATA
 UWI .       490251062900:   UNIQUE WELL ID
 DICO. A2D Technologies, Inc.:   DIGITIZING COMPANY
~OTHER INFORMATION
~A   DEPT       GRD      CALD       RHOB       DPHI       CORR        SPR         SN        ILD   
# ...
  141.5000    89.7714     7.7474     2.4222     0.1600     0.0371   -21.7469     6.2843     3.1844
  142.0000    89.7129     7.8301     2.4279     0.1592     0.0404   -21.7289     6.1239     3.2176
  142.5000    89.6259     7.9126     2.4379     0.1525     0.0441   -21.2235     6.1566     3.2527
  143.0000    89.5139     7.9946     2.4474     0.1465     0.0434   -20.7455     6.1896     3.2882
  143.5000    89.4101     8.0775     2.4576     0.1405     0.0424   -20.7250     6.2227     3.3241
  144.0000    88.9502     8.1598     2.4636     0.1345     0.0412   -20.7139     6.4043     3.3604
  144.5000    88.4121     8.2408     2.4648     0.1333     0.0402   -20.7012     6.7197     3.3965
  145.0000    87.8867     8.3282     2.4664     0.1347     0.0391   -20.6881     7.0507     3.7318
  145.5000    88.8321     8.3509     2.4681     0.1339     0.0380   -20.6751     7.3979     4.0943
  146.0000    89.4906     8.3185     2.4669     0.1331     0.0369   -20.6620     7.7271     4.4258
  146.5000    89.5475     8.2940     2.4644     0.1323     0.0364   -20.6489     7.7997     4.6438
  147.0000    89.6978     8.2663     2.4597     0.1355     0.0365   -20.6358     7.8331     4.8640
  147.5000    89.8711     8.2375     2.4556     0.1382     0.0365   -20.6228     7.8666     4.8871
  148.0000    90.8670     8.1589     2.4510     0.1409     0.0365   -20.6097     7.9002     4.9074
  148.5000    91.8280     8.0847     2.4501     0.1437     0.0365   -20.5966     7.9339     4.9284
  149.0000    92.8149     8.0074     2.4489     0.1449     0.0365   -20.5835     7.9678     4.9497
  149.5000    93.7590     7.9320     2.4508     0.1416     0.0365   -20.5705     8.0019     4.9711
  150.0000    94.4608     7.8555     2.4564     0.1382     0.0365   -20.5574     8.0361     4.9926
  150.5000    93.8758     7.7804     2.4615     0.1348     0.0365   -20.5446     8.0704     5.0141
  151.0000    91.6577     7.7046     2.4670     0.1315     0.0365   -20.5084     8.1049     5.0358
  151.5000    90.6790     7.6795     2.4726     0.1281     0.0365   -20.4649     8.1395     5.0575
  152.0000    91.2980     7.6713     2.4839     0.1252     0.0365   -20.4214     8.1743     5.0794
  152.5000    91.7342     7.6653     2.4956     0.1140     0.0365   -20.3778     8.2092     5.1013
  153.0000    92.3419     7.6543     2.5054     0.1095     0.0365   -20.3343     8.2443     5.1234
  153.5000    91.9128     7.6409     2.5048     0.1122     0.0365   -20.2908     8.2795     5.1408
  154.0000    89.7898     7.5078     2.5043     0.1134     0.0365   -20.2471     8.2991     5.1142
  154.5000    87.5994     7.3559     2.5075     0.1085     0.0365   -20.2039     8.2496     5.0924
  155.0000    87.6833     7.1975     2.5045     0.1103     0.0365   -20.1597     8.2156     5.0706
  155.5000    87.8906     7.1140     2.5005     0.1158     0.0365   -20.2705     8.1818     5.0489
  156.0000    88.2073     7.1961     2.5015     0.1141     0.0365   -20.5070     8.1481     5.0273
  156.5000    88.4775     7.2733     2.5036     0.1103     0.0365   -20.7717     8.1145     5.0058
  157.0000    88.4931     7.3554     2.5048     0.1066     0.0365   -21.5385     8.0811     4.9845
  157.5000    88.1252     7.4361     2.5117     0.1028     0.0365   -21.6870     8.0035     4.9632
  158.0000    87.8243     7.5164     2.5240     0.0991     0.0365   -21.8154     7.9126     4.9420
  158.5000    87.5320     7.5979     2.5277     0.0976     0.0366   -21.9451     7.8226     4.9208
  159.0000    88.2929     7.7105     2.5262     0.0968     0.0387   -22.0796     7.7337     4.8998
  159.5000    89.4417     7.8688     2.5037     0.1055     0.0404   -22.3440     7.6458     4.8789
  160.0000    90.6190     8.0324     2.4788     0.1192     0.0421   -22.7623     7.5589     4.8580
  160.5000    91.8776     8.1874     2.4678     0.1308     0.0439   -23.1791     7.4730     4.8373
  161.0000    92.7869     8.3485     2.4696     0.1315     0.0439   -23.5969     7.3881     4.8166
  161.5000    93.1550     8.3178     2.4703     0.1322     0.0432   -24.0194     7.3041     4.7960
  162.0000    93.5946     8.2774     2.4634     0.1343     0.0426   -24.1472     7.2211     4.7756
  162.5000    94.0239     8.2291     2.4542     0.1405     0.0419   -24.1486     7.1391     4.7788
  163.0000    94.2387     8.1863     2.4415     0.1467     0.0413   -24.1441     7.0148     4.6045
  163.5000    93.5017     8.1413     2.4303     0.1529     0.0406   -24.1689     6.8493     4.3993
  164.0000    91.9785     8.0967     2.4182     0.1590     0.0400   -24.7508     6.6635     4.2199
  164.5000    90.6629     8.0521     2.4067     0.1652     0.0393   -25.3457     6.3819     4.0483
  165.0000    90.6143     8.0076     2.3892     0.1714     0.0387   -25.9297     6.1127     3.8835
  165.5000    90.5774     7.9648     2.3724     0.1798     0.0380   -25.9593     5.8548     3.7257
  166.0000    90.6040     7.9357     2.3552     0.1912     0.0374   -26.1415     5.5077     3.5452
  166.5000    90.5940     7.9069     2.3381     0.2026     0.0367   -26.5907     5.1054     3.1427
  167.0000    90.5941     7.8844     2.3212     0.2139     0.0361   -27.0531     4.7316     2.6480
  167.5000    90.5941     7.8704     2.3039     0.2253     0.0355   -27.1546     4.3855     2.2312
  168.0000    90.5293     7.8576     2.2870     0.2366     0.0348   -27.1560     4.0647     1.8665
  168.5000    90.3175     7.8470     2.2707     0.2480     0.0342   -27.1532     3.8282     1.7823
  169.0000    90.1144     7.8324     2.2652     0.2531     0.0335   -27.1227     3.6562     1.6985
  169.5000    88.8992     7.8202     2.2596     0.2490     0.0329   -27.0922     3.6227     1.6407
  170.0000    87.7324     7.8186     2.2869     0.2460     0.0317   -27.0620     3.6650     1.6389
  170.5000    86.9888     7.6994     2.3354     0.2026     0.0299   -27.0317     3.7483     1.6688
  171.0000    88.6102     7.3811     2.3620     0.1956     0.0280   -27.0014     3.8335     1.7269
  171.5000    88.2053     7.0390     2.3695     0.1878     0.0263   -26.9712     4.0206     1.8985
  172.0000    86.9359     7.0448     2.3964     0.1760     0.0249   -26.9409     4.2748     2.1574
  172.5000    87.7364     7.0669     2.4261     0.1598     0.0279   -26.9106     4.7756     2.4495
  173.0000    88.0314     7.1077     2.4534     0.1436     0.0307   -26.8804     5.1440     2.7812
  173.5000    89.8889     7.1587     2.4571     0.1381     0.0338   -26.8501     5.5530     3.1578
  174.0000    93.0399     7.2353     2.4585     0.1386     0.0367   -26.8198     5.9945     3.5854
  174.5000    96.2151     7.4979     2.4560     0.1391     0.0397   -26.7891     6.1952     3.9182
  175.0000    97.4945     7.8960     2.4543     0.1394     0.0427   -26.7544     6.2391     4.0460
  175.5000    96.3352     8.1445     2.4457     0.1433     0.0457   -26.9137     6.2381     4.1979
  176.0000    96.1419     8.3028     2.4365     0.1473     0.0485   -27.1125     6.2379     4.1024
  176.5000    97.5406     8.4392     2.4362     0.1506     0.0515   -27.3119     6.2383     3.9932
  177.0000    98.7555     8.4208     2.4437     0.1465     0.0510   -27.5108     6.1600     3.8870
  177.5000    99.5890     8.3698     2.4328     0.1436     0.0492   -27.7097     6.0577     3.7835
  178.0000    99.9984     8.3156     2.4199     0.1544     0.0475   -27.9086     5.9570     3.6900
  178.5000   100.4312     8.2646     2.4136     0.1639     0.0458   -28.1076     5.8580     3.6705
  179.0000   100.8744     8.2100     2.4076     0.1710     0.0441   -28.3136     5.7783     3.6485
  179.5000   101.3066     8.1563     2.4018     0.1710     0.0424   -28.3309     5.7321     3.6266
  180.0000   101.7422     8.0422     2.3968     0.1710     0.0406   -28.2966     5.6889     3.6048
  180.5000   102.1822     7.9371     2.4045     0.1668     0.0404   -28.2612     5.7685     3.5831
  181.0000   102.6001     7.8196     2.4211     0.1579     0.0404   -28.2260     5.8448     3.5566
  181.5000   102.9928     7.7608     2.4368     0.1490     0.0404   -28.1893     5.9223     3.6646
