~VERSION INFORMATION
 VERS.                2.0:   CWLS LOG ASCII STANDARD - VERSION 2.0
 WRAP.                 NO:   ONE LINE PER DEPTH STEP
~WELL INFORMATION
#MNEM.UNIT      DATA TYPE    INFORMATION
#----------   ------------   ------------------------------
 STRT.F            8.5000:   START DEPTH
 STOP.F          509.0000:   STOP DEPTH
 STEP.F            0.5000:   STEP LENGTH
 NULL.          -999.2500:   NO VALUE
 COMP. LAWRENCE-ALLISON &AS:   COMPANY
 WELL. NPR 3 #68-26SX3LP2:   WELL
 FLD .             TEAPOT:   FIELD
 LOC .       S3 T38N R78W:   LOCATION
 CNTY.            NATRONA:   COUNTY
 STAT.            WYOMING:   STATE
 CTRY. UNITED STATES OF AMERICA:   COUNTRY
 SRVC.      Dresser Atlas:   SERVICE COMPANY
 DATE.        12-DEC-1984:   LOGDATE
 API .       490251099600:   API NUMBER
~CURVE INFORMATION
#MNEM.UNIT       API CODE    CURVE DESCRIPTION
#----------   ------------   ------------------------------
 DEPT.F                  :   
 CNC .DEC    42 890 03 00:   NEUTRON POROSITY SANDSTONE
 CALD.IN     45 280 60 00:   CALIPER FROM DENSITY LOG
 CORR.G/C3   45 356 01 00:   DENSITY CORRECTION
 GRD .GAPI   45 310 01 00:   GAMMA RAY FROM DENSITY LOG
 PORD.DEC    45 890 12 00:   POROSITY DENSITY SANDSTONE
 RHOB.G/C3   45 350 01 00:   BULK DENSITY
 DT  .US/F   60 520 00 00:   INTERVAL TRANSIT TIME
 SPR .MV     11 010 01 00:   SPONTANEOUS POTENTIAL FROM RES.
 RS  .OHMM   11 220 09 00:   RESISTIVITY SHALLOW
 RD  .OHMM   11 220 10 00:   RESISTIVITY DEEP
~PARAMETER INFORMATION
#MNEM.UNIT          VALUE    DESCRIPTION
#----------   ------------   ------------------------------
 PD  .                 GL:   PERMANENT DATUM
 EPD .F              5158:   ELEVATION PERMANENT DATUM
 LMF .                 GL:   LOG MEASURED FROM
 DMF .                 GL:   DRILLING MEASURED FROM
 EGL .F              5158:   GROUND LEVEL
 DATE.        12-DEC-1984:   RUN DATE
 RUN .                  1:   RUN NUMBER
 DD  .F               510:   DEPTH DRILLER
 DL  .F               510:   DEPTH LOGGER
 BLI .F               501:   BOTTOM LOG INTERVAL
 TLI .F                20:   TOP LOG INTERVAL
 CS  .IN            8.625:   CASING SIZE
 CBD .F                20:   CASING BOTTOM DRILLER
 CBL .F                20:   CASING BOTTOM LOGGER
 BS  .IN            7.875:   BIT SIZE
 BSD .F               510:   BIT SIZE AT DEPTH
 DFT .          KCL/WATER:   DRILLING FLUID TYPE
 MSS .            MUDTANK:   MUD SAMPLE SOURCE
 RMS .OHMM           0.21:   RESISTIVITY MUD SAMPLE
 MST .F                70:   MUD SAMPLE TEMPERATURE
 RMF .OHMM           0.16:   RESISTIVITY MUD FILTRATE SAMPLE
 MFST.F                70:   MUD FILTRATE SAMPLE TEMPERATURE
 RMC .OHMM           0.26:   RESISTIVITY MUD CAKE
 MCST.F                70:   MUD CAKE SAMPLE TEMPERATURE
 MFSS.               CALC:   MUD FILTRATE SAMPLE SOURCE
 MCSS.               CALC:   MUD CAKE SAMPLE SOURCE
 RMB .OHMM           0.17:   RESISTIVITY MUD AT BHT
 BHT .F                85:   BOTTOM HOLE TEMPERATURE
 TCS .HRS               6:   TIME CURCULATED STOPPED
 MRT .F               100:   MAXIMUM RECORDED TEMPERATURE
 LUN .               6270:   LOGGING UNIT NUMBER
 LUL .                 FM:   LOGGING UNIT LOCATION
 ENGI.           E.GOVETT:   RECORDING ENGINEER
 WITN.              LUERS:   WITNESSED BY
 CLNT.            A2DTECH:   CLIENT CODE
 ORIG.           5" PRINT:   ORIGIN OF DATA
 UWI .       490251099600:   UNIQUE WELL ID
 DICO. A2D Technologies, Inc.:   DIGITIZING COMPANY
~OTHER INFORMATION
~A    DEPT     CNC       CALD       CORR        GRD       PORD       RHOB          DT       SPR         RS         RD   
# ...
  142.5000     0.3022     7.7667     0.0174    98.4662     0.1484     2.4355   110.4095   -50.8902     8.0206    16.4703
  143.0000     0.3097     7.7686     0.0419    96.2596     0.1508     2.4288   113.6544   -51.1727     7.2834    14.6481
  143.5000     0.3100     7.7705     0.0541    93.6080     0.1641     2.4116   115.6021   -51.3066     6.8948    12.4110
  144.0000     0.2988     7.7575     0.0571    89.9177     0.1743     2.3862   116.0729   -51.5891     6.8016    12.3298
  144.5000     0.2985     7.7594     0.0483    91.4204     0.1749     2.3848   115.0017   -52.0201     7.3998    13.3136
  145.0000     0.3024     7.7312     0.0334    95.4453     0.1664     2.4014   113.1079   -52.3031     8.1126    14.5748
  145.5000     0.3045     7.7335     0.0095    98.8932     0.1570     2.4113   110.9135   -52.5851     8.7718    15.9554
  146.0000     0.3002     7.7354     0.0022    97.9109     0.1555     2.4160   108.6441   -52.8676     9.4189    17.3462
  146.5000     0.2806     7.7373     0.0069    95.7473     0.1531     2.4194   107.9524   -53.0015     9.9243    17.9659
  147.0000     0.2781     7.7392     0.0252    94.1905     0.1422     2.4371   107.5612   -52.9866    10.0690    17.9745
  147.5000     0.2826     7.7559     0.0223    93.9080     0.1325     2.4582   107.0949   -52.9718    10.0752    17.9831
  148.0000     0.2859     7.7430     0.0150    94.6735     0.1295     2.4628   106.7037   -52.9569    10.0814    17.9918
  148.5000     0.2825     7.7450     0.0062    96.9180     0.1337     2.4584   106.7633   -52.9391    10.0876    18.0005
  149.0000     0.2789     7.7473     0.0019   100.4978     0.1364     2.4540   106.8986   -52.9244    10.1640    18.1361
  149.5000     0.2768     7.7640     0.0006   102.7423     0.1369     2.4504   106.8825   -52.9097    10.3122    18.3979
  150.0000     0.2804     7.7956     0.0068   104.2449     0.1321     2.4535   106.5665   -52.7464    10.4626    18.6633
  150.5000     0.2779     7.7975     0.0313   105.3024     0.1254     2.4663   106.0899   -52.7318    10.7633    19.0642
  151.0000     0.2740     7.7994     0.0465   102.9475     0.1233     2.4687   105.3879   -52.4199    11.0726    19.6090
  151.5000     0.2712     7.7859     0.0585    98.3671     0.1242     2.4695   104.8632   -52.2566    11.3122    19.6184
  152.0000     0.2712     7.8032     0.0662    98.8311     0.1218     2.4711   104.7725   -52.0933    11.5569    19.6278
  152.5000     0.2815     7.8050     0.0679   101.0855     0.1154     2.4780   104.8360   -51.7815    11.7254    19.4993
  153.0000     0.2891     7.8366     0.0651   102.7398     0.1072     2.4925   104.8166   -51.4696    11.7746    19.6017
  153.5000     0.2887     7.8682     0.0561   101.4663     0.1015     2.5039   104.6508   -51.0092    11.8216    20.1322
  154.0000     0.2787     7.8849     0.0442    98.0215     0.0994     2.5053   104.4099   -50.6973    11.9234    20.5009
  154.5000     0.2795     7.8720     0.0308    94.1829     0.1060     2.4994   104.0939   -50.5340    12.0865    20.5107
  155.0000     0.2831     7.8590     0.0220    93.9003     0.1096     2.4950   103.7778   -50.2221    12.1781    20.8066
  155.5000     0.2857     7.8461     0.0176    94.6659     0.1113     2.4936   104.1380   -50.2075    12.2703    21.1069
  156.0000     0.2891     7.8128     0.0223    95.2783     0.1116     2.4929   104.3517   -50.1928    12.1912    21.2637
  156.5000     0.2930     7.7995     0.0375    95.7424     0.1119     2.4938   104.2572   -50.1684    12.1144    21.2738
  157.0000     0.2917     7.8013     0.0497    95.8554     0.1113     2.4954   104.0914   -50.1328    12.0400    21.4318
  157.5000     0.2850     7.8028     0.0589    96.2957     0.1103     2.4992   103.8505   -50.0972    12.0474    21.2936
  158.0000     0.2853     7.8042     0.0545    96.9100     0.1079     2.5033   103.8350   -50.2288    12.0548    21.3041
  158.5000     0.3001     7.7908     0.0427    98.8200     0.1031     2.5090   103.9742   -50.3685    12.0622    21.3142
  159.0000     0.3004     7.7774     0.0307   102.4091     0.0964     2.5135   104.1757   -50.3596    11.9035    21.1773
  159.5000     0.2919     7.7641     0.0157   104.4994     0.0903     2.5279   104.3333   -50.4994    11.8286    21.0235
  160.0000     0.2813     7.7656     0.0327    98.8746     0.0948     2.5243   104.5955   -50.6392    11.7541    20.6183
  160.5000     0.2764     7.7671     0.0479    96.9590     0.1132     2.4929   104.8805   -50.6283    11.6801    20.2064
  161.0000     0.2746     7.7685     0.0525    96.5238     0.1217     2.4768   105.0152   -50.6195    11.6065    19.9356
  161.5000     0.2815     7.7700     0.0437    97.5788     0.1231     2.4794   105.1500   -50.4622    11.4502    19.6730
  162.0000     0.2944     7.8163     0.0408   101.1529     0.1184     2.4952   105.2134   -50.6042    11.1395    19.5442
  162.5000     0.2974     7.8026     0.0620   104.2818     0.1056     2.5036   105.2731   -50.7440    10.8372    19.1538
  163.0000     0.2959     7.7892     0.0893   103.1080     0.1028     2.5067   105.2537   -50.7331    10.4879    18.7689
  163.5000     0.2995     7.7910     0.0924    98.6702     0.1031     2.5060   105.3171   -50.8751    10.2165    18.1388
  164.0000     0.3073     7.7925     0.0640    97.9382     0.1043     2.5008   105.4480   -51.0128     9.8054    17.7743
  164.5000     0.2979     7.7756     0.0462    98.8449     0.1169     2.4694   106.2589   -51.0040     9.3944    16.5929
  165.0000     0.2958     7.7655     0.0042    99.1549     0.1293     2.4507   107.9715   -50.9953     8.9268    15.1716
  165.5000     0.3006     7.7524    -0.0031    97.9811     0.1413     2.4380   109.1728   -51.1351     8.3910    13.9560
  166.0000     0.3039     7.7390     0.0113    92.2079     0.1458     2.4336   110.8153   -51.2769     7.8846    12.9078
  166.5000     0.3075     7.7405     0.0273    90.1440     0.1479     2.4299   112.3054   -51.5633     7.4004    11.5987
  167.0000     0.3087     7.7420     0.0184    90.9189     0.1500     2.4262   113.4949   -51.7032     6.8114    10.5320
  167.5000     0.3135     7.7434     0.0126    93.8056     0.1557     2.4166   115.0601   -51.9916     5.8234     9.4319
  168.0000     0.3253     7.7449     0.0112    98.9377     0.1659     2.4024   117.1871   -52.2800     5.1074     8.1029
  168.5000     0.3648     7.7463     0.0219   103.6988     0.1744     2.3739   120.1870   -52.4199     4.5106     6.8180
  169.0000     0.4433     7.7329     0.0416   101.7859     0.1912     2.3477   123.0488   -52.4089     3.6911     5.7369
  169.5000     0.4804     7.7196     0.0538    96.7546     0.2129     2.3200   129.5820   -52.4002     3.2824     5.5436
  170.0000     0.5018     7.7211     0.0645    86.0853     0.2348     2.2631   136.1810   -52.5422     3.1285     5.5080
  170.5000     0.4519     7.7226     0.0737    83.1311     0.2625     2.2414   138.1250   -53.4228     3.2180     5.6269
  171.0000     0.4152     7.7344     0.0709    82.5475     0.2664     2.2352   137.5833   -54.1570     3.5230     5.9503
  171.5000     0.3731     7.7404     0.0650    86.5700     0.2559     2.2505   134.7157   -54.7429     4.2500     6.7903
  172.0000     0.3597     7.7570     0.0215    94.1499     0.2157     2.2900   131.0217   -55.1796     5.4569     8.6167
  172.5000     0.3500     7.7881     0.0234   100.9880     0.1874     2.3615   123.5711   -55.4681     6.4475    10.8451
  173.0000     0.3379     7.7896     0.0415   103.5235     0.1675     2.3951   118.5998   -55.7564     7.1572    12.2518
  173.5000     0.3288     7.7910     0.0492   101.3111     0.1466     2.4278   114.3799   -55.7477     8.0560    13.4123
  174.0000     0.3137     7.7925     0.0433    98.2086     0.1358     2.4537   111.7377   -55.5881     8.7612    13.7956
  174.5000     0.3124     7.7940     0.0269    98.6669     0.1321     2.4605   110.7325   -55.1336     8.8854    13.8981
  175.0000     0.3157     7.7954     0.0376   103.4278     0.1309     2.4621   110.2860   -54.8277     8.8897    14.2952
  175.5000     0.3178     7.7969     0.0393   109.9692     0.1303     2.4614   110.8713   -54.5217     8.8948    14.6023
