~VERSION INFORMATION
 VERS.                2.0:   CWLS LOG ASCII STANDARD - VERSION 2.0
 WRAP.                 NO:   ONE LINE PER DEPTH STEP
~WELL INFORMATION
#MNEM.UNIT      DATA TYPE    INFORMATION
#----------   ------------   ------------------------------
 STRT.F           89.0000:   START DEPTH
 STOP.F         1360.0000:   STOP DEPTH
 STEP.F            0.5000:   STEP LENGTH
 NULL.          -999.2500:   NO VALUE
 COMP.           U S NAVY:   COMPANY
 WELL.     NPR 3 #85 S-11:   WELL
 FLD .             TEAPOT:   FIELD
 LOC .      S11 T38N R78W:   LOCATION
 CNTY.            NATRONA:   COUNTY
 STAT.            WYOMING:   STATE
 CTRY. UNITED STATES OF AMERICA:   COUNTRY
 SRVC.       Schlumberger:   SERVICE COMPANY
 DATE.        15-AUG-1966:   LOGDATE
 API .       490250959000:   API NUMBER
~CURVE INFORMATION
#MNEM.UNIT       API CODE    CURVE DESCRIPTION
#----------   ------------   ------------------------------
 DEPT.F                  :   
 SPR .MV     05 010 01 00:   SPONTANEOUS POTENTIAL FROM RES.
 CILD.MMHO   05 110 46 00:   CONDUCTIVITY INDUCTION LOG DEEP
 ASN .OHMM   05 041 16 00:   AMPLIFIED SHORT NORMAL 16"
 ILD .OHMM   05 120 46 00:   INDUCTION LOG DEEP
 GR  .GAPI   30 310 01 00:   GAMMA RAY
~PARAMETER INFORMATION
#MNEM.UNIT          VALUE    DESCRIPTION
#----------   ------------   ------------------------------
 PD  .                 GL:   PERMANENT DATUM
 EPD .F              5288:   ELEVATION PERMANENT DATUM
 LMF .                 KB:   LOG MEASURED FROM
 DAPD.F                 5:   FEET ABOVE PERMANENT DATUM
 DMF .                 KB:   DRILLING MEASURED FROM
 EKB .F            5286.9:   KELLING BUSHING
 EGL .F            5281.9:   GROUND LEVEL
 DATE.        15-AUG-1966:   RUN DATE
 RUN .                  1:   RUN NUMBER
 DD  .F              1360:   DEPTH DRILLER
 DL  .F              1361:   DEPTH LOGGER
 BLI .F              1360:   BOTTOM LOG INTERVAL
 TLI .F                88:   TOP LOG INTERVAL
 CS  .IN            8.625:   CASING SIZE
 CBD .F                12:   CASING BOTTOM DRILLER
 BS  .IN            7.875:   BIT SIZE
 BSD .F              1360:   BIT SIZE AT DEPTH
 DFT .          CHEM- GEL:   DRILLING FLUID TYPE
 DFD .                9.6:   DRILLING FLUID DENSITY
 DFV .                 60:   DRILLING FLUID VISCOSITY
 DFPH.                7.2:   DRILLING FLUID PH
 DFL .                6.4:   DRILLING FLUID LOSS
 MSS .         CIRCULATED:   MUD SAMPLE SOURCE
 RMS .OHMM           1.41:   RESISTIVITY MUD SAMPLE
 MST .F                72:   MUD SAMPLE TEMPERATURE
 RMF .OHMM           0.75:   RESISTIVITY MUD FILTRATE SAMPLE
 MFST.F                73:   MUD FILTRATE SAMPLE TEMPERATURE
 MFSS.               MEAS:   MUD FILTRATE SAMPLE SOURCE
 TCS .HRS             2.5:   TIME CURCULATED STOPPED
 LUN .               3527:   LOGGING UNIT NUMBER
 LUL .              CSPR.:   LOGGING UNIT LOCATION
 ENGI.               HAUG:   RECORDING ENGINEER
 WITN.             TUTTLE:   WITNESSED BY
 CLNT.            A2DTECH:   CLIENT CODE
 ORIG.       2", 5" PRINT:   ORIGIN OF DATA
 UWI .       490250959000:   UNIQUE WELL ID
 DICO. A2D Technologies, Inc.:   DIGITIZING COMPANY
~OTHER INFORMATION
~A   DEPT      SPR       CILD          ASN        ILD       GR   
# ...
  150.0000   -54.4949   180.2441     6.9754     5.4261  -999.2500
  150.5000   -54.7787   178.2664     7.0176     5.2981  -999.2500
  151.0000   -54.9348   178.2894     7.0386     5.2514  -999.2500
  151.5000   -54.9400   180.2803     7.0619     5.2177  -999.2500
  152.0000   -54.6929   185.8295     6.8806     5.2148  -999.2500
  152.5000   -54.5593   192.5471     6.7621     5.2124  -999.2500
  153.0000   -54.3500   193.6298     6.5786     5.2027  -999.2500
  153.5000   -54.2038   195.6116     6.4623     5.1315  -999.2500
  154.0000   -54.3606   196.3415     6.4242     5.1293  -999.2500
  154.5000   -54.3666   196.3565     6.3965     5.1266  -999.2500
  155.0000   -54.5227   196.3760     6.3961     5.1240  -999.2500
  155.5000   -54.5280   197.1413     6.3806     5.1044  -999.2500
  156.0000   -54.5333   198.0468     6.3650     5.0434  -999.2500
  156.5000   -54.5386   199.4229     6.3596     5.0771  -999.2500
  157.0000   -54.5442   199.7683     6.3491     5.1137  -999.2500
  157.5000   -54.5492   201.0526     6.3246     5.1105  -999.2500
  158.0000   -54.4025   202.4699     6.3030     5.1083  -999.2500
  158.5000   -54.4090   204.2190     6.3025     5.1056  -999.2500
  159.0000   -54.4136   205.4939     6.2871     5.1030  -999.2500
  159.5000   -54.4188   207.8637     6.2700     5.1004  -999.2500
  160.0000   -54.2727   209.4170     6.2409     5.0975  -999.2500
  160.5000   -54.1256   211.5304     6.0928     5.0951  -999.2500
  161.0000   -54.1321   211.5471     6.0292     5.0925  -999.2500
  161.5000   -54.1371   211.5060     6.0044     5.0894  -999.2500
  162.0000   -54.1424   210.0931     5.9982     5.1905  -999.2500
  162.5000   -54.1484   208.3645     5.9977     5.3102  -999.2500
  163.0000   -54.1530   206.3906     6.0049     5.4298  -999.2500
  163.5000   -54.1583   204.7845     6.0270     5.4557  -999.2500
  164.0000   -54.1636   202.3717     6.0566     5.5276  -999.2500
  164.5000   -54.1689   199.7216     6.1072     5.4871  -999.2500
  165.0000   -54.1745   198.2935     6.1616     5.4474  -999.2500
  165.5000   -54.1795   195.9504     6.3171     5.4443  -999.2500
  166.0000   -54.1848   194.5473     6.5094     5.4421  -999.2500
  166.5000   -54.1908   193.8154     6.6417     5.4385  -999.2500
  167.0000   -54.1955   193.0870     6.5792     5.3617  -999.2500
  167.5000   -54.2008   191.9096     6.4561     5.3590  -999.2500
  168.0000   -54.2061   191.4599     6.3240     5.3562  -999.2500
  168.5000   -54.2114   190.9006     6.2935     5.3538  -999.2500
  169.0000   -54.2169   190.9193     6.2957     5.3512  -999.2500
  169.5000   -54.2220   190.9380     6.3933     5.4233  -999.2500
  170.0000   -54.2525   190.9597     6.5602     5.4211  -999.2500
  170.5000   -54.3848   190.7063     6.7284     5.4185  -999.2500
  171.0000   -54.3894   190.2466     6.8870     5.4649  -999.2500
  171.5000   -54.4010   189.5179     6.7204     5.5094  -999.2500
  172.0000   -54.5515   188.6099     6.6066     5.7111  -999.2500
  172.5000   -54.5568   188.0605     6.6612     5.7086  -999.2500
  173.0000   -54.5624   186.2158     6.8219     5.8684  -999.2500
  173.5000   -54.5674   185.0187     6.9666     6.0038  -999.2500
  174.0000   -54.5727   183.6352     7.0963     6.1078  -999.2500
  174.5000   -54.7302   181.8772     7.2068     6.1493  -999.2500
  175.0000   -54.7348   179.1853     7.2779     6.1466  -999.2500
  175.5000   -54.7402   175.3675     7.3628     6.1440  -999.2500
  176.0000   -54.7455   171.7460     7.3861     6.0660  -999.2500
  176.5000   -54.7066   172.5163     7.3707     5.9472  -999.2500
  177.0000   -54.6045   173.6597     7.3372     5.8092  -999.2500
  177.5000   -54.6099   174.9938     7.2793     5.6820  -999.2500
  178.0000   -54.6152   177.0581     7.2178     5.6476  -999.2500
  178.5000   -54.6211   178.8577     7.1279     5.5979  -999.2500
  179.0000   -54.6258   180.0922     7.0304     5.5235  -999.2500
  179.5000   -54.6311   181.3266     6.9763     5.4467  -999.2500
  180.0000   -54.6364   182.5611     6.9759     5.5188  -999.2500
  180.5000   -54.6417   183.8764     7.0279     5.5583  -999.2500
  181.0000   -54.6472   183.8939     7.0992     5.6027  -999.2500
  181.5000   -54.5702   183.8029     7.1703     5.6613  -999.2500
  182.0000   -54.5055   183.1839     7.1433     5.6587  -999.2500
  182.5000   -54.5120   183.2025     7.0790     5.6561  -999.2500
  183.0000   -54.3652   183.2209     7.0443     5.8033  -999.2500
  183.5000   -54.3705   182.4925     6.9988     5.8252  -999.2500
  184.0000   -54.2747   182.5112     6.9723     5.8737  -999.2500
  184.5000   -54.1854   182.5310     6.9260     5.9463  -999.2500
  185.0000   -54.0833   182.5486     6.8811     5.9436  -999.2500
  185.5000   -54.1707   182.8064     6.8655     5.9407  -999.2500
  186.0000   -54.2455   184.8306     6.8651     5.9384  -999.2500
  186.5000   -54.4030   185.9031     6.8646     5.9357  -999.2500
  187.0000   -54.4707   187.1076     6.8792     6.0078  -999.2500
  187.5000   -54.7159   187.1263     6.8982     6.0307  -999.2500
  188.0000   -54.7212   187.1450     6.9235     6.0782  -999.2500
  188.5000   -54.7265   186.4172     6.9779     6.1508  -999.2500
  189.0000   -54.7321   184.8705     7.0334     6.1642  -999.2500
  189.5000   -54.7371   183.3346     7.1028     6.2207  -999.2500
  190.0000   -54.7424   181.2430     7.1607     6.2181  -999.2500
  190.5000   -54.7484   179.1268     7.2262     6.2154  -999.2500
  191.0000   -54.6015   175.9268     7.3273     6.2123  -999.2500
  191.5000   -54.4552   172.3318     7.4401     6.2101  -999.2500
  192.0000   -54.4606   169.9352     7.5794     6.2075  -999.2500
  192.5000   -54.4217   165.6398     7.7244     6.2049  -999.2500
  193.0000   -54.3197   162.5784     7.8828     6.2022  -999.2500
  193.5000   -54.3250   157.4530     8.0254     6.1994  -999.2500
  194.0000   -54.3303   160.4655     8.0947     6.1970  -999.2500
  194.5000   -54.3363   161.9768     8.0923     6.1943  -999.2500
  195.0000   -54.3409   160.4011     7.9647     6.1913  -999.2500
  195.5000   -54.3462   156.7860     7.8354     6.1891  -999.2500
  196.0000   -54.3515   154.3199     7.8693     6.1864  -999.2500
  196.5000   -54.3126   153.8303     7.9219     6.1838  -999.2500
  197.0000   -54.2106   157.4864     8.0453     6.1060  -999.2500
  197.5000   -54.2159   162.0866     8.1573     6.1032  -999.2500
  198.0000   -54.2465   159.1201     8.2099     6.1008  -999.2500
  198.5000   -54.3787   156.5558     8.2023     6.1735  -999.2500
  199.0000   -54.5348   154.6114     8.1581     6.1703  -999.2500
  199.5000   -54.5402   153.9424     8.0727     6.1680  -999.2500
  200.0000   -54.5455   158.1963     8.0070     6.1654  -999.2500
  200.5000   -54.5066   164.4436     7.8760     6.1628  -999.2500
  201.0000   -54.4045   165.2093     7.7980     6.1792  -999.2500
  201.5000   -54.2583   164.9090     7.7486     6.3077  -999.2500
  202.0000   -54.2636   162.2589     7.7087     6.3434  -999.2500
  202.5000   -54.1181   160.8308     7.6932     6.3878  -999.2500
  203.0000   -54.1295   158.4181     7.7276     6.4504  -999.2500
  203.5000   -54.1614   155.5899     7.8937     6.6272  -999.2500
  204.0000   -54.1932   152.5860     8.0795     6.7234  -999.2500
  204.5000   -54.2251   150.3927     8.2332     6.8055  -999.2500
  205.0000   -54.2569   147.9592     8.3632     6.8876  -999.2500
  205.5000   -54.2930   145.4852     8.4824     6.9696  -999.2500
  206.0000   -54.3576   143.0112     8.5930     7.0642  -999.2500
  206.5000   -54.4556   141.2058     8.6797     7.2685  -999.2500
  207.0000   -54.6091   136.2359     8.7127     7.3699  -999.2500
  207.5000   -54.6136   135.5007     8.7366     7.4906  -999.2500
  208.0000   -54.6186   134.7688     8.8434     7.5178  -999.2500
  208.5000   -54.6227   135.2080     8.9368     7.4515  -999.2500
  209.0000   -54.6121   135.8296     8.9813     7.3344  -999.2500
  209.5000   -54.4803   138.5518     8.9960     7.1856  -999.2500
  210.0000   -54.3333   140.7075     8.8599     6.9399  -999.2500
  210.5000   -54.3380   144.6001     8.5085     6.7271  -999.2500
