~VERSION INFORMATION
 VERS.                2.0:   CWLS LOG ASCII STANDARD - VERSION 2.0
 WRAP.                 NO:   ONE LINE PER DEPTH STEP
~WELL INFORMATION
#MNEM.UNIT      DATA TYPE    INFORMATION
#----------   ------------   ------------------------------
 STRT.F           29.0000:   START DEPTH
 STOP.F          500.0000:   STOP DEPTH
 STEP.F            0.5000:   STEP LENGTH
 NULL.          -999.2500:   NO VALUE
 COMP.    FENIX & SCISSON:   COMPANY
 WELL.        NPR #48-S-3:   WELL
 FLD .             TEAPOT:   FIELD
 LOC .       S3 T38N R78W:   LOCATION
 CNTY.            NATRONA:   COUNTY
 STAT.            WYOMING:   STATE
 CTRY. UNITED STATES OF AMERICA:   COUNTRY
 SRVC.              Welex:   SERVICE COMPANY
 DATE.        24-APR-1977:   LOGDATE
 API .       490251034900:   API NUMBER
~CURVE INFORMATION
#MNEM.UNIT       API CODE    CURVE DESCRIPTION
#----------   ------------   ------------------------------
 DEPT.F                  :   
 SPR .MV     07 010 01 00:   SPONTANEOUS POTENTIAL
 ILD .OHMM   07 120 46 00:   INDUCTION LOG DEEP
 ILM .OHMM   07 120 44 00:   INDUCTION LOG MEDIUM
 SGRD.OHMM   07 221 05 00:   SHALLOW SHORT GUARD RESISTIVITY
 GRD .GAPI   45 310 01 00:   GAMMA RAY FROM DENSITY LOG
 CALD.IN     45 280 60 00:   CALIPER FROM DENSITY LOG
 CORR.G/C3   45 356 01 00:   DENSITY CORRECTION
 RHOB.G/C3   45 350 01 00:   BULK DENSITY
 DPHI.DEC    45 890 12 00:   DENSITY POROSITY SANDSTONE
~PARAMETER INFORMATION
#MNEM.UNIT          VALUE    DESCRIPTION
#----------   ------------   ------------------------------
 PD  .                 GL:   PERMANENT DATUM
 EPD .F              5199:   ELEVATION PERMANENT DATUM
 LMF .                 GL:   LOG MEASURED FROM
 DMF .                 GL:   DRILLING MEASURED FROM
 EGL .F              5199:   GROUND LEVEL
 DATE.        24-APR-1977:   RUN DATE
 RUN .                  1:   RUN NUMBER
 DD  .F               500:   DEPTH DRILLER
 DL  .F               499:   DEPTH LOGGER
 BLI .F               497:   BOTTOM LOG INTERVAL
 TLI .F                30:   TOP LOG INTERVAL
 CS  .IN            8.625:   CASING SIZE
 BS  .IN               12:   BIT SIZE
 BSD .F               500:   BIT SIZE AT DEPTH
 DFT .             KCLMUD:   DRILLING FLUID TYPE
 DFD .                8.9:   DRILLING FLUID DENSITY
 TCS .HRS               1:   TIME CURCULATED STOPPED
 MRT .F                70:   MAXIMUM RECORDED TEMPERATURE
 ENGI.          T. JOYNER:   RECORDING ENGINEER
 WITN.            R. LYON:   WITNESSED BY
 CLNT.            A2DTECH:   CLIENT CODE
 ORIG.           5" PRINT:   ORIGIN OF DATA
 UWI .       490251034900:   UNIQUE WELL ID
 DICO. A2D Technologies, Inc.:   DIGITIZING COMPANY
~OTHER INFORMATION
~A   DEPT      SPR        ILD        ILM       SGRD        GRD         CALD      CORR        RHOB     DPHI   
# ...
  248.0000   -57.3181     4.9293     5.8602    11.0152   141.8203     7.8092     0.0023     2.4142     0.1351
  248.5000   -57.3034     4.8327     5.7067    10.8716   139.8785     7.8091     0.0008     2.4180     0.1339
  249.0000   -57.1432     4.8029     5.6725    10.2944   138.6819     7.8089     0.0000     2.4211     0.1342
  249.5000   -56.9831     4.8087     5.6372     9.2880   137.3363     7.8088    -0.0007     2.4202     0.1354
  250.0000   -56.8099     4.8130     5.6477     7.4417   135.9874     7.8086    -0.0008     2.4133     0.1375
  250.5000   -56.6162     4.8184     5.7140     7.0069   133.1970     7.8082    -0.0036     2.4022     0.1447
  251.0000   -56.3491     4.9583     5.8172     8.0586   131.0571     7.8077    -0.0068     2.3945     0.1531
  251.5000   -56.0376     5.1377     5.9888     9.6505   129.4107     7.8223    -0.0061     2.3917     0.1534
  252.0000   -55.7261     5.2869     6.1269    11.0816   127.3172     7.8516    -0.0053     2.3984     0.1468
  252.5000   -55.7113     5.5161     6.3086    11.4683   123.6434     7.8663    -0.0046     2.4126     0.1387
  253.0000   -55.6965     5.7157     6.5344    11.4755   122.3851     7.8657    -0.0046     2.4223     0.1352
  253.5000   -55.6818     5.8817     6.6808    11.5622   123.4195     7.8952    -0.0046     2.4208     0.1337
  254.0000   -55.6670     6.0108     6.8215    11.5692   124.3066     7.9097    -0.0046     2.4163     0.1352
  254.5000   -55.6523     6.0583     6.8791    11.4898   125.0447     7.9092    -0.0054     2.4110     0.1373
  255.0000   -55.7864     5.8987     6.7930    11.4247   125.3339     7.9238    -0.0054     2.4095     0.1373
  255.5000   -56.0678     5.7434     6.5703    11.5112   125.1778     7.9233    -0.0054     2.4117     0.1364
  256.0000   -56.2017     5.5536     6.3990    11.5183   123.6804     7.9229    -0.0062     2.4185     0.1341
  256.5000   -56.4837     5.3700     6.1892    11.3672   121.8838     7.9224    -0.0062     2.4207     0.1329
  257.0000   -56.7654     5.1568     5.9863    10.8920   123.8142     7.9070    -0.0070     2.4214     0.1323
  257.5000   -56.8991     4.9863     5.7501    10.1703   128.7251     7.9065    -0.0070     2.4214     0.1323
  258.0000   -57.0326     4.8550     5.6764     8.2754   131.2516     7.8912    -0.0070     2.4183     0.1332
  258.5000   -57.0178     4.8250     5.6852     7.1503   132.9056     7.8758    -0.0070     2.4116     0.1353
  259.0000   -56.8507     4.8644     5.9334     6.8409   134.2163     7.8752    -0.0070     2.4033     0.1401
  259.5000   -56.5361     4.9711     6.1497     9.0706   135.1035     7.8748    -0.0070     2.3973     0.1419
  260.0000   -55.9348     5.0802     6.3739    11.1843   136.4377     7.8744    -0.0071     2.4085     0.1404
  260.5000   -55.7715     5.2278     6.5608    10.4447   135.8339     7.8740    -0.0071     2.4306     0.1355
  261.0000   -55.6083     5.3796     6.8000    10.0255   132.8462     7.8731    -0.0071     2.4452     0.1246
  261.5000   -55.5934     5.6518     7.0479    10.9754   129.3398     7.8581    -0.0064     2.4512     0.1222
  262.0000   -55.4303     5.8969     7.3049    11.8488   125.2297     7.8576    -0.0064     2.4556     0.1208
  262.5000   -55.2671     6.1953     7.5712    12.1882   130.4405     7.8572    -0.0064     2.4609     0.1175
  263.0000   -55.0761     6.4640     7.7932    12.4510   127.4511     7.8568    -0.0064     2.4668     0.1123
  263.5000   -54.6410     6.6517     8.0216    12.5450   124.0163     7.8564    -0.0064     2.4698     0.1085
  264.0000   -54.4779     6.7509     8.1434    12.5528   122.3681     7.8558    -0.0064     2.4698     0.1068
  264.5000   -54.4631     6.8990     8.3244    12.8234   123.2552     7.8554    -0.0064     2.4720     0.1050
  265.0000   -54.3000     7.0504     8.4508    13.0098   124.8875     7.8550    -0.0072     2.4727     0.1038
  265.5000   -54.2852     7.1062     8.5199    12.9263   126.6688     7.8546    -0.0072     2.4750     0.1032
  266.0000   -54.4225     7.2121     8.5305    12.9363   127.4075     7.8691    -0.0065     2.4757     0.1032
  266.5000   -54.4040     7.2692     8.5411    12.9443   124.7161     7.8685    -0.0065     2.4772     0.1032
  267.0000   -54.3893     7.2762     8.6110    12.8612   122.6226     7.8681    -0.0065     2.4809     0.1009
  267.5000   -54.3745     7.3338     8.7417    12.8712   121.4232     7.8677    -0.0065     2.4847     0.0973
  268.0000   -54.3598     7.3918     8.8132    12.7886   123.5009     7.8673    -0.0065     2.4936     0.0937
  268.5000   -54.3450     7.5020     8.9470    12.7985   126.9233     7.8667    -0.0066     2.4965     0.0931
  269.0000   -54.3302     7.5092     9.0203    12.9845   124.9771     7.8663    -0.0058     2.4928     0.0937
  269.5000   -54.3155     7.5686     9.0941    13.1732   123.4797     7.8808    -0.0058     2.4883     0.0949
  270.0000   -54.3007     7.6285     9.1054    13.5505   121.4754     7.8804    -0.0051     2.4815     0.0983
  270.5000   -54.2859     7.7422     9.1166    13.4635   119.8871     7.8800    -0.0051     2.4785     0.1033
  271.0000   -54.2712     7.8035     8.9405    13.1977   120.7742     7.8794    -0.0051     2.4777     0.1039
  271.5000   -54.2564     7.8110     8.7676    12.7578   122.8536     7.8790    -0.0044     2.4784     0.1028
  272.0000   -54.2416     7.8728     8.5361    12.2477   128.3601     7.8786    -0.0037     2.4807     0.0995
  272.5000   -54.2269     7.8804     8.2565    12.1691   126.1176     7.8782    -0.0022     2.4859     0.0949
  273.0000   -54.2121     7.8880     8.3933    12.4334   122.4978     7.8777    -0.0007     2.4933     0.0938
  273.5000   -54.4941     7.7872     8.9343    13.0571   123.4191     7.8773     0.0016     2.4978     0.0926
  274.0000   -54.6314     7.5821     9.0072    13.9029   129.0764     7.8768     0.0045     2.5000     0.0900
  274.5000   -54.6129     7.2308     8.7640    14.3990   127.4282     7.8764     0.0060     2.4993     0.0894
  275.0000   -54.7502     6.8958     8.4754    14.5077   125.4838     7.8909     0.0068     2.4933     0.0960
  275.5000   -54.5834     6.5310     8.0627    14.4165   122.4961     7.8903     0.0067     2.4872     0.1049
  276.0000   -54.5687     6.1429     7.4094    14.1916   123.4147     7.8899     0.0052     2.4692     0.1121
  276.5000   -54.4055     5.8989     6.8279    13.3074   125.4608     7.8895     0.0045     2.4505     0.1199
  277.0000   -54.0940     5.7040     6.4239    10.1581   127.9873     7.8891     0.0037     2.4287     0.1268
  277.5000   -53.6342     5.5923     6.0021     6.3560   131.2589     7.8886     0.0022     2.4100     0.1382
  278.0000   -53.0259     5.5208     6.1781     5.9347   135.1266     7.8881     0.0022     2.3890     0.1435
  278.5000   -52.2693     5.6420     6.9094     8.7428   137.2060     7.8727     0.0014     2.4257     0.1337
  279.0000   -51.5127     5.8461     8.1667    13.7982   134.8127     7.8723     0.0014     2.4603     0.1188
  279.5000   -50.6077     6.1419     9.2606    15.7421   127.9502     7.8719     0.0014     2.4960     0.1014
  280.0000   -49.8511     6.4975     9.9359    15.8610   116.1697     7.8565     0.0013     2.5005     0.0976
  280.5000   -49.2429     6.9214    10.4416    16.0915   115.2684     7.8560     0.0013     2.4953     0.1015
  281.0000   -48.6347     7.4756    11.0491    16.4384   118.5383     7.8556     0.0013     2.4870     0.1048
  281.5000   -48.1748     7.9084    11.3730    16.7929   120.0215     7.8551     0.0021     2.4800     0.1093
  282.0000   -47.5666     8.3663    11.7065    16.8033   118.6732     7.8547     0.0020     2.4720     0.1124
  282.5000   -46.9583     8.8507    11.9666    16.5831   114.4932     7.8542     0.0028     2.4637     0.1165
  283.0000   -46.2017     9.1709    12.1483    16.2533   114.0391     7.8537     0.0035     2.4554     0.1192
  283.5000   -45.5925     9.3076    12.4183    15.9299   117.0109     7.8533     0.0042     2.4494     0.1225
  284.0000   -44.9852     9.3821    12.6943    15.8277   119.3901     7.8529     0.0042     2.4427     0.1243
