~VERSION INFORMATION
 VERS.                2.0:   CWLS LOG ASCII STANDARD - VERSION 2.0
 WRAP.                 NO:   ONE LINE PER DEPTH STEP
~WELL INFORMATION
#MNEM.UNIT      DATA TYPE    INFORMATION
#----------   ------------   ------------------------------
 STRT.F           30.0000:   START DEPTH
 STOP.F          506.0000:   STOP DEPTH
 STEP.F            0.5000:   STEP LENGTH
 NULL.          -999.2500:   NO VALUE
 COMP. FENIX & SCISSON INC:   COMPANY
 WELL.    42 SX-3F1 #55-3:   WELL
 FLD .             TEAPOT:   FIELD
 LOC .       S3 T38N R78W:   LOCATION
 CNTY.            NATRONA:   COUNTY
 STAT.            WYOMING:   STATE
 CTRY. UNITED STATES OF AMERICA:   COUNTRY
 SRVC.              Welex:   SERVICE COMPANY
 DATE.        26-MAY-1980:   LOGDATE
 API .       490251082900:   API NUMBER
~CURVE INFORMATION
#MNEM.UNIT       API CODE    CURVE DESCRIPTION
#----------   ------------   ------------------------------
 DEPT.F                  :   
 GRD .GAPI   45 310 01 00:   GAMMA RAY FROM DENSITY LOG
 CALD.IN     45 280 60 00:   CALIPER
 RHOB.G/C3   45 350 01 00:   BULK DENSITY
 CORR.G/C3   45 356 01 00:   DENSITY CORRECTION
 DPHI.DEC    45 890 12 00:   DENSITY POROSITY SANDSTONE
 NPHI.DEC    42 890 03 00:   NEUTRON POROSITY SANDSTONE
 GURD.OHMM   07 220 05 00:   GUARD RESISTIVITY
 ILD .OHMM   07 120 46 00:   INDUCTION LOG DEEP
 ILM .OHMM   07 120 44 00:   INDUCTION LOG MEDIUM
 SPR .MV     07 010 01 00:   SPONTANEOUS POTENTIAL
~PARAMETER INFORMATION
#MNEM.UNIT          VALUE    DESCRIPTION
#----------   ------------   ------------------------------
 PD  .                 GL:   PERMANENT DATUM
 EPD .F              5161:   ELEVATION PERMANENT DATUM
 LMF .                 KB:   LOG MEASURED FROM
 DAPD.F                 4:   FEET ABOVE PERMANENT DATUM
 DMF .                 KB:   DRILLING MEASURED FROM
 EKB .F              5165:   KELLING BUSHING
 EGL .F              5161:   GROUND LEVEL
 DATE.            5-26-80:   RUN DATE
 RUN .                  1:   RUN NUMBER
 DD  .F               500:   DEPTH DRILLER
 DL  .F               502:   DEPTH LOGGER
 BLI .F               500:   BOTTOM LOG INTERVAL
 TLI .F                34:   TOP LOG INTERVAL
 BS  .IN            9.875:   BIT SIZE
 BSD .F               500:   BIT SIZE AT DEPTH
 DFT .          KCL WATER:   DRILLING FLUID TYPE
 DFD .                9.5:   DRILLING FLUID DENSITY
 DFV .                 45:   DRILLING FLUID VISCOSITY
 MSS .            MUD PIT:   MUD SAMPLE SOURCE
 RMS .OHMM            .39:   RESISTIVITY MUD SAMPLE
 MST .F                75:   MUD SAMPLE TEMPERATURE
 RMF .OHMM           .312:   RESISTIVITY MUD FILTRATE SAMPLE
 MFST.F                75:   MUD FILTRATE SAMPLE TEMPERATURE
 RMC .OHMM           .468:   RESISTIVITY MUD CAKE
 MCST.F                75:   MUD CAKE SAMPLE TEMPERATURE
 MFSS.           MEASURED:   MUD FILTRATE SAMPLE SOURCE
 MCSS.           MEASURED:   MUD CAKE SAMPLE SOURCE
 RMB .OHMM            .39:   RESISTIVITY MUD AT BHT
 BHT .F                75:   BOTTOM HOLE TEMPERATURE
 TCS .HRS               2:   TIME CURCULATED STOPPED
 MRT .F                75:   MAXIMUM RECORDED TEMPERATURE
 LUN .               9685:   LOGGING UNIT NUMBER
 LUL .             CASPER:   LOGGING UNIT LOCATION
 ENGI.            TOTHILL:   RECORDING ENGINEER
 WITN.            RHOADES:   WITNESSED BY
 CLNT.            A2DTECH:   CLIENT CODE
 ORIG.           5" PRINT:   ORIGIN OF DATA
 UWI .       490251082900:   UNIQUE WELL ID
 DICO. A2D Technologies, Inc.:   DIGITIZING COMPANY
~OTHER INFORMATION
~A   DEPT      GRD       CALD       RHOB       CORR         DPHI       NPHI      GURD        ILD        ILM       SPR   
# ...
  331.5000    83.8504     9.8110     2.4308     0.0822     0.1593     0.2281    18.6658    17.5565    12.9836   -25.7806
  332.0000    84.2425     9.8446     2.4382     0.0839     0.1580     0.2267    18.6648    17.6351    12.7004   -25.6525
  332.5000    84.6461     9.8780     2.4126     0.0637     0.1714     0.2270    19.3142    17.7141    12.7935   -25.8382
  333.0000    84.4515     9.8949     2.4185     0.0663     0.1706     0.2250    19.8319    17.7934    12.9305   -26.0361
  333.5000    84.0073     9.8924     2.3937     0.0575     0.1739     0.2204    20.0907    17.8332    13.0548   -26.0619
  334.0000    83.5540     9.8900     2.3904     0.0528     0.1793     0.2183    19.6340    17.8332    12.9082   -26.0833
  334.5000    83.0885     9.8876     2.3954     0.0556     0.1839     0.2243    19.3343    17.8332    12.8175   -26.1051
  335.0000    83.0684     9.8852     2.3824     0.0480     0.1881     0.2213    19.0392    17.8332    12.9356   -26.1271
  335.5000    83.3006     9.8828     2.3767     0.0396     0.1881     0.2189    18.7486    17.8325    12.8147   -26.1490
  336.0000    83.5335     9.8805     2.3658     0.0312     0.1666     0.2164    18.4648    17.8340    12.7004   -26.1710
  336.5000    83.7673     9.8782     2.3643     0.0303     0.1424     0.2143    18.2004    17.6470    13.0548   -26.1929
  337.0000    83.9958     9.8749     2.3917     0.0436     0.1350     0.2188    17.9382    17.4506    12.8060   -26.2149
  337.5000    84.0423     9.8524     2.4302     0.0798     0.1389     0.2209    17.6687    17.2558    12.5845   -26.2411
  338.0000    83.3969     9.8294     2.4543     0.1004     0.1432     0.2219    18.1233    17.0632    12.7915   -26.2903
  338.5000    82.7723     9.8066     2.4512     0.0968     0.1511     0.2251    19.0118    16.8727    12.9736   -26.3398
  339.0000    82.1486     9.7828     2.4466     0.0894     0.1571     0.2270    18.6083    16.6844    13.0563   -26.3892
  339.5000    81.5269     9.7772     2.4318     0.0824     0.1513     0.2273    17.8868    16.4982    13.0549   -26.4449
  340.0000    80.9020     9.7771     2.4201     0.0711     0.1445     0.2280    17.1907    16.3155    12.7931   -26.5308
  340.5000    80.7294     9.7770     2.4267     0.0817     0.1404     0.2289    17.2528    16.1358    12.6992   -26.6171
  341.0000    81.0288     9.7914     2.4347     0.0780     0.1434     0.2267    17.3491    15.9581    12.7689   -26.7025
  341.5000    81.3244     9.8164     2.4475     0.0856     0.1515     0.2249    17.0702    15.7823    12.8169   -26.7909
  342.0000    81.3311     9.8415     2.4348     0.0696     0.1464     0.2258    16.6110    15.6085    12.6508   -26.6587
  342.5000    80.8729     9.8667     2.4297     0.0562     0.1440     0.2261    16.1642    15.3677    12.4843   -26.3957
  343.0000    80.4209     9.8918     2.4366     0.0685     0.1518     0.2265    15.7294    15.0866    12.3208   -26.3762
  343.5000    79.9727     9.9008     2.4407     0.0591     0.1572     0.2260    15.3987    14.8107    12.1311   -26.7332
  344.0000    79.8927     9.9071     2.4198     0.0462     0.1668     0.2279    15.8436    14.6993    12.1516   -27.0882
  344.5000    80.5891     9.9134     2.4118     0.0298     0.1755     0.2341    16.2700    14.6847    12.1847   -27.2373
  345.0000    81.2599     9.9196     2.3919     0.0086     0.1765     0.2399    16.0498    14.6704    12.2178   -27.2751
  345.5000    81.9518     9.9259     2.3830     0.0043     0.1741     0.2445    15.8396    14.6561    12.2429   -27.3109
  346.0000    82.0561     9.9322     2.3927     0.0072     0.1687     0.2429    15.6828    14.6417    12.2095   -27.3466
  346.5000    81.9799     9.9349     2.3842     0.0109     0.1460     0.2453    15.6837    14.6273    12.1826   -27.3826
  347.0000    81.8991     9.9349     2.4327     0.0467     0.1404     0.2492    15.6839    14.6130    12.1559   -27.4185
  347.5000    81.8195     9.9349     2.4448     0.0657     0.1369     0.2517    15.6838    14.5988    12.1305   -27.4545
  348.0000    81.7403     9.9349     2.4560     0.0711     0.1364     0.2528    15.6838    14.5854    12.0777   -27.4904
  348.5000    81.6595     9.9349     2.4557     0.0663     0.1400     0.2520    15.4691    14.5746    12.0222   -27.5264
  349.0000    81.5751     9.9349     2.4481     0.0599     0.1344     0.2494    15.2721    14.3734    12.3557   -27.5624
  349.5000    81.5501     9.9338     2.4551     0.0618     0.1340     0.2468    15.0803    14.1903    12.1606   -27.5984
  350.0000    82.3850     9.9289     2.4571     0.0562     0.1391     0.2455    14.8172    14.0096    11.8832   -27.6239
  350.5000    83.2112     9.9242     2.4508     0.0494     0.1385     0.2449    14.5017    13.8312    11.4814   -27.6448
  351.0000    84.0311     9.9194     2.4464     0.0506     0.1388     0.2499    14.1901    13.6550    11.5587   -27.6658
  351.5000    84.7308     9.9144     2.4553     0.0554     0.1336     0.2557    13.9206    13.4811    11.6940   -27.6868
  352.0000    84.4680     9.9069     2.4531     0.0558     0.1342     0.2560    13.9206    13.2966    11.6233   -27.7077
  352.5000    84.2041     9.8993     2.4586     0.0518     0.1308     0.2597    15.1213    13.2400    11.5603   -27.7287
  353.0000    84.7846     9.8917     2.4643     0.0479     0.1322     0.2593    14.8306    13.1790    11.4814   -27.7497
  353.5000    85.4641     9.8841     2.4620     0.0439     0.1304     0.2542    14.3792    13.1183    11.5086   -27.7707
  354.0000    85.8648     9.8765     2.4612     0.0449     0.1300     0.2491    13.9428    13.0579    11.5591   -27.7917
  354.5000    85.5355     9.8689     2.4664     0.0467     0.1360     0.2439    13.6676    12.9978    11.6101   -27.8201
  355.0000    85.2177     9.8613     2.4539     0.0397     0.1374     0.2387    13.7935    12.9378    11.6616   -27.8641
  355.5000    85.2173     9.8537     2.4507     0.0450     0.1479     0.2352    13.7935    12.8784    11.6940   -27.9080
  356.0000    85.5347     9.8462     2.4344     0.0291     0.1501     0.2338    13.7935    12.8175    11.7171   -27.9519
  356.5000    85.8509     9.8386     2.4303     0.0286     0.1547     0.2355    13.7935    12.9106    11.8018   -27.9957
  357.0000    86.1876     9.8309     2.4226     0.0214     0.1491     0.2390    14.0425    13.0069    11.5058   -28.0396
  357.5000    86.5315     9.8232     2.4320     0.0325     0.1418     0.2388    14.3109    13.1042    11.3765   -28.0835
  358.0000    86.8756     9.8169     2.4427     0.0440     0.1367     0.2377    14.3108    13.2021    11.7216   -28.1273
  358.5000    87.2196     9.8614     2.4544     0.0552     0.1430     0.2377    14.3059    13.3005    11.9768   -28.1705
  359.0000    87.5636     9.8755     2.4416     0.0432     0.1508     0.2360    15.1003    13.4009    12.1311   -28.1848
  359.5000    87.9077     9.8759     2.4320     0.0293     0.1532     0.2305    15.6838    13.4631    12.0897   -28.1445
  360.0000    88.2524     9.8756     2.4234     0.0150     0.1537     0.2294    15.1840    13.5369    12.0604   -28.1052
  360.5000    88.5971     9.8481     2.4246     0.0122     0.1514     0.2304    14.7066    13.6106    12.0311   -28.0657
  361.0000    88.9034     9.8172     2.4277     0.0223     0.1449     0.2314    14.4410    13.6676    11.9386   -28.0262
  361.5000    88.8421     9.7858     2.4369     0.0333     0.1359     0.2308    14.9265    13.4581    11.8097   -27.9868
  362.0000    88.7686     9.7865     2.4467     0.0444     0.1282     0.2281    15.2552    13.2957    11.6821   -27.9473
  362.5000    88.6961     9.7994     2.4684     0.0553     0.1222     0.2309    14.7794    13.0693    11.5872   -27.9078
  363.0000    88.6239     9.8128     2.4743     0.0512     0.1138     0.2336    14.3283    12.8540    11.5871   -27.8684
  363.5000    88.5517     9.8165     2.4902     0.0605     0.1140     0.2344    13.8943    12.6428    11.5871   -27.8291
  364.0000    88.4798     9.8166     2.4935     0.0702     0.1251     0.2352    13.6523    12.4351    11.5874   -27.8054
  364.5000    88.4080     9.8166     2.4829     0.0574     0.1327     0.2332    13.5952    12.2308    11.5872   -27.8057
