~VERSION INFORMATION
 VERS.                2.0:   CWLS LOG ASCII STANDARD - VERSION 2.0
 WRAP.                 NO:   ONE LINE PER DEPTH STEP
~WELL INFORMATION
#MNEM.UNIT      DATA TYPE    INFORMATION
#----------   ------------   ------------------------------
 STRT.F           26.0000:   START DEPTH
 STOP.F          520.0000:   STOP DEPTH
 STEP.F            0.5000:   STEP LENGTH
 NULL.          -999.2500:   NO VALUE
 COMP. LAWRENCE/ALLISON INC:   COMPANY
 WELL.   52-15 STX #52-10:   WELL
 FLD .             TEAPOT:   FIELD
 LOC .      S10 T38N R78W:   LOCATION
 CNTY.            NATRONA:   COUNTY
 STAT.            WYOMING:   STATE
 CTRY. UNITED STATES OF AMERICA:   COUNTRY
 SRVC.           Gearhart:   SERVICE COMPANY
 DATE.        23-JUL-1987:   LOGDATE
 API .       490251114600:   API NUMBER
~CURVE INFORMATION
#MNEM.UNIT       API CODE    CURVE DESCRIPTION
#----------   ------------   ------------------------------
 DEPT.F                  :   
 RLL .OHMM   07 220 00 00:   LATEROLOG RESISTIVITY
 RILD.OHMM   07 120 46 00:   INDUCTION LOG DEEP RESISTIVITY
 RILM.OHMM   07 120 44 00:   INDUCTION LOG MEDIUM RESISTIVITY
 GRR .GAPI   07 310 01 00:   GAMMA RAY FROM RES. LOG.
~PARAMETER INFORMATION
#MNEM.UNIT          VALUE    DESCRIPTION
#----------   ------------   ------------------------------
 PD  .                 GL:   PERMANENT DATUM
 EPD .F              5195:   ELEVATION PERMANENT DATUM
 LMF .                 KB:   LOG MEASURED FROM
 DAPD.F                 8:   FEET ABOVE PERMANENT DATUM
 DMF .                 KB:   DRILLING MEASURED FROM
 EKB .F              5203:   KELLING BUSHING
 EDF .F              5201:   DRILLING FLOOR
 EGL .F              5195:   GROUND LEVEL
 DATE.          7-23-1987:   RUN DATE
 RUN .                  1:   RUN NUMBER
 DD  .F               519:   DEPTH DRILLER
 DL  .F               520:   DEPTH LOGGER
 BLI .F               519:   BOTTOM LOG INTERVAL
 TLI .F                30:   TOP LOG INTERVAL
 CS  .IN            8.625:   CASING SIZE
 CBD .F                48:   CASING BOTTOM DRILLER
 CBL .F                48:   CASING BOTTOM LOGGER
 BS  .IN            7.875:   BIT SIZE
 BSD .F               519:   BIT SIZE AT DEPTH
 DFT .                MUD:   DRILLING FLUID TYPE
 DFD .                8.9:   DRILLING FLUID DENSITY
 DFV .                 40:   DRILLING FLUID VISCOSITY
 MSS .            MUD PIT:   MUD SAMPLE SOURCE
 RMS .OHMM            .37:   RESISTIVITY MUD SAMPLE
 MST .F                70:   MUD SAMPLE TEMPERATURE
 RMF .OHMM            .29:   RESISTIVITY MUD FILTRATE SAMPLE
 MFST.F                70:   MUD FILTRATE SAMPLE TEMPERATURE
 RMC .OHMM             .5:   RESISTIVITY MUD CAKE
 MCST.F                70:   MUD CAKE SAMPLE TEMPERATURE
 MFSS.              CHART:   MUD FILTRATE SAMPLE SOURCE
 MCSS.              CHART:   MUD CAKE SAMPLE SOURCE
 RMB .OHMM            .35:   RESISTIVITY MUD AT BHT
 BHT .F                80:   BOTTOM HOLE TEMPERATURE
 TCS .HRS            1100:   TIME CURCULATED STOPPED
 TLAB.HRS            1534:   TIME LOGGER AT BOTTOM
 MRT .F                80:   MAXIMUM RECORDED TEMPERATURE
 LUN .               7597:   LOGGING UNIT NUMBER
 LUL .           GILLETTE:   LOGGING UNIT LOCATION
 ENGI.         WEATHERMON:   RECORDING ENGINEER
 WITN.         MR. STRONG:   WITNESSED BY
 CLNT.            A2DTECH:   CLIENT CODE
 ORIG.       2", 5" PRINT:   ORIGIN OF DATA
 UWI .       490251114600:   UNIQUE WELL ID
 DICO. A2D Technologies, Inc.:   DIGITIZING COMPANY
~OTHER INFORMATION
~A   DEPT      RLL       RILD       RILM         GRR  
# ...
   99.0000    10.6182    10.3904    10.0032    95.0881
   99.5000    10.5039    10.3733     9.8758    96.0181
  100.0000    10.5518    10.3563     9.7508    95.1861
  100.5000    10.5974    10.3392     9.6273    93.7164
  101.0000    10.6432    10.3223     9.5054    92.3071
  101.5000    10.7004    10.2890     9.3851    91.4930
  102.0000    10.6319    10.2259     9.2662    92.0502
  102.5000    10.5423    10.1632     9.1489    92.5815
  103.0000    10.4535    10.1009     9.0465    93.1235
  103.5000    10.3653    10.0389     8.9970    93.6632
  104.0000    10.2779    10.0024     8.9478    93.3690
  104.5000    10.1912     9.9615     8.8989    91.3836
  105.0000    10.1054     9.9207     8.8502    89.4465
  105.5000    10.0284     9.8801     8.8018    87.4835
  106.0000    10.0508     9.8397     8.7536    87.1686
  106.5000    10.0758     9.7994     8.7058    88.4602
  107.0000    10.1008     9.7593     8.6466    90.1411
  107.5000    10.1259     9.7193     8.6559    90.4654
  108.0000    10.1511     9.6799     8.6683    90.1580
  108.5000    10.1761     9.6633     8.6807    91.6827
  109.0000    10.2005     9.6634     8.6932    93.3393
  109.5000    10.2180     9.6635     8.7052    94.8937
  110.0000    10.0202     9.6635     8.7180    94.2577
  110.5000     9.8420     9.4546     8.8083    94.9990
  111.0000     9.4479     9.1494     8.7142    95.8675
  111.5000     9.0891     8.8539     8.5313    95.8461
  112.0000     8.7239     8.5693     8.1678    94.3609
  112.5000     8.7271     8.3137     7.8198    93.4140
  113.0000     8.9536     8.2070     7.4867    93.7958
  113.5000     9.0566     8.0989     7.1678    94.1259
  114.0000     8.5286     7.9925     6.9225    93.2753
  114.5000     8.1062     7.8882     6.9958    92.3377
  115.0000     7.9548     7.8092     7.0695    92.0030
  115.5000     8.2175     7.9398     7.1439    92.7726
  116.0000     8.4817     8.0476     7.3183    93.5238
  116.5000     8.7531     8.1567     7.3335    94.2875
  117.0000     8.8912     8.2551     7.3650    94.4802
  117.5000     8.8129     8.1791     7.4131    94.3712
  118.0000     8.7533     8.1116     7.4958    94.2493
  118.5000     8.6945     8.0288     7.5794    94.1304
  119.0000     8.6466     8.0894     7.6653    95.6628
  119.5000     8.6725     8.1687     7.6259    97.9728
  120.0000     8.6989     8.2488     7.5860   100.4654
  120.5000     8.7255     8.3297     7.5464   101.2006
  121.0000     8.7520     8.4114     7.5246   101.4611
  121.5000     8.7796     8.4878     7.5997   101.7160
  122.0000     8.8055     8.6176     7.7146   101.5464
  122.5000     8.9715     8.7404     7.8311   101.1463
  123.0000     9.1357     8.8650     7.9502    98.8207
  123.5000     9.3110     8.9913     8.0757    95.4676
  124.0000     9.4435     9.1194     8.2179    91.1730
  124.5000     9.5830     9.2260     8.3620    89.1276
  125.0000     9.7535     9.1766     8.5085    91.1820
  125.5000     9.6581     9.1264     8.5668    93.8544
  126.0000     9.5407     9.0763     8.4297    95.0600
  126.5000     9.4248     9.0267     8.2657    94.0074
  127.0000     9.3102     8.9773     8.1048    93.0521
  127.5000     9.1971     8.9282     7.9471    94.2559
  128.0000     9.0797     8.8794     7.8087    95.9455
  128.5000     8.9731     8.8083     7.7367    96.9833
  129.0000     9.1477     8.8511     7.7991    96.9719
  129.5000     9.3059     8.9318     7.8550    96.9920
  130.0000     9.4669     9.0131     7.9113    97.7971
  130.5000     9.6307     9.0953     7.9681    99.6500
  131.0000     9.7973     9.1781     8.0252   100.2374
  131.5000     9.9667     9.2260     8.0828    98.8691
  132.0000    10.0284     9.1715     8.1036    97.3406
  132.5000     9.9050     9.1070     8.0744    95.8544
  133.0000     9.8443     9.0422     8.0512    97.5091
  133.5000     9.8443     8.9735     8.0279    99.4146
  134.0000     9.8443     8.9933     8.0048   100.1908
  134.5000     9.7776     9.0157     7.9817   100.2168
  135.0000     9.5820     9.0381     7.9587    99.9106
  135.5000     9.3903     9.0566     7.9357    98.2214
  136.0000     9.2023     8.9363     7.9130    96.3039
  136.5000     8.9731     8.8351     7.8809    94.3410
  137.0000     8.9941     8.7351     7.8825    94.7282
  137.5000     9.0198     8.6362     7.7048    96.1227
  138.0000     9.0456     8.5385     7.5639    97.4157
  138.5000     9.0715     8.4095     7.4256    97.3844
  139.0000     9.0975     8.1972     7.2898    97.1248
  139.5000     9.1235     7.9339     7.0690    96.6612
  140.0000     9.1409     7.6131     6.8502    96.1379
  140.5000     8.6640     7.3033     6.6382    94.1604
  141.0000     8.2643     7.1157     6.4327    92.1068
  141.5000     7.8826     7.1431     6.2336    90.7088
  142.0000     7.5204     7.1777     6.0803    92.8260
  142.5000     7.3864     7.2116     6.0243    96.2432
  143.0000     7.5165     7.2457     6.2266    98.4393
  143.5000     7.6758     7.2800     6.3967    97.4330
  144.0000     7.8383     7.3144     6.5715    97.2049
  144.5000     8.0186     7.4728     6.7468    97.6798
  145.0000     8.2384     7.6511     6.8882    97.5303
  145.5000     8.4630     7.8337     7.0328    97.1997
  146.0000     8.6934     8.0288     7.1804    97.2175
  146.5000     8.8903     8.0613     7.3304    97.9375
  147.0000     8.8648     8.0937     7.4552    98.7543
  147.5000     8.8387     8.1269     7.4218    99.4066
  148.0000     8.8127     8.1602     7.3939    99.2424
  148.5000     8.7867     8.1790     7.3660    99.0775
  149.0000     8.7606     8.0880     7.3383    98.5859
  149.5000     8.7351     8.0697     7.3183    96.7776
  150.0000     8.6487     8.0515     7.2030    96.3756
  150.5000     8.5360     8.0333     7.1340    96.2015
  151.0000     8.4248     7.8232     7.0657    97.3360
  151.5000     8.3150     7.5045     6.9980    97.0184
  152.0000     8.1500     7.1253     6.9310    98.0248
  152.5000     8.0384     6.7653     6.5258    99.3002
  153.0000     7.9283     6.4234     6.0999   100.5378
  153.5000     7.6281     6.0989     5.7007    99.3579
  154.0000     6.9968     5.8591     5.3274    97.4265
  154.5000     6.4177     5.8591     4.9812    94.6139
  155.0000     5.8866     5.8591     4.6908    91.8123
  155.5000     5.6985     5.9006     4.8438    88.9902
  156.0000     6.1075     5.9579     5.0612    86.1285
  156.5000     6.6426     6.0157     5.2881    87.6899
  157.0000     7.2242     6.0740     5.5255    91.1538
  157.5000     7.8563     6.3741     5.7734    93.8405
  158.0000     8.1036     6.7202     6.0331    95.7206
  158.5000     8.1036     7.0851     6.2589    97.5580
  159.0000     8.1036     7.4698     6.4272    99.3993
  159.5000     8.3232     7.6509     6.5778   101.2279
  160.0000     8.5856     7.8000     6.6855   101.8027
  160.5000     8.8083     7.9548     6.7936   102.1967
  161.0000     8.8083     8.0047     6.9037   101.4965
  161.5000     8.8083     8.0886     7.0157    99.6782
  162.0000     8.8209     8.1735     7.1177    97.8228
  162.5000     8.8636     8.2593     7.1184    98.2119
  163.0000     8.9065     8.3459     7.1179   100.8209
  163.5000     8.9496     8.4335     7.1797   101.6970
  164.0000     8.9896     8.5220     7.2432   101.5563
  164.5000     9.0258     8.5723     7.3071   101.5264
  165.0000     9.0622     8.6212     7.3715   102.5851
  165.5000     9.0987     8.6703     7.4228   102.4662
  166.0000     9.1354     8.7197     7.4718   101.5230
  166.5000     9.3301     8.7693     7.5155   100.5676
  167.0000     9.4905     8.8193     7.8853    98.6274
  167.5000     9.6511     8.8695     7.8788    96.7552
  168.0000     9.8482     8.8903     7.8807    94.8550
  168.5000     9.8764     8.8505     7.8810    94.4748
  169.0000     9.9082     8.8220     7.9721    97.1725
  169.5000     9.9359     8.7937     8.0457   100.3259
  170.0000     9.8985     8.7654     8.1200   101.2234
  170.5000     9.8585     8.7376     8.1790    99.9085
  171.0000     9.8142     8.7080     8.1444    98.5817
  171.5000     9.7668     8.6664     8.0903    98.7131
