~VERSION INFORMATION
 VERS.                2.0:   CWLS LOG ASCII STANDARD - VERSION 2.0
 WRAP.                 NO:   ONE LINE PER DEPTH STEP
~WELL INFORMATION
#MNEM.UNIT      DATA TYPE    INFORMATION
#----------   ------------   ------------------------------
 STRT.F         1179.0000:   START DEPTH
 STOP.F         2186.0000:   STOP DEPTH
 STEP.F            0.5000:   STEP LENGTH
 NULL.          -999.2500:   NO VALUE
 COMP. FENIX & SCISSON INC:   COMPANY
 WELL.  404 SH 33 #404-33:   WELL
 FLD .             TEAPOT:   FIELD
 LOC .      S33 T39N R78W:   LOCATION
 CNTY.            NATRONA:   COUNTY
 STAT.            WYOMING:   STATE
 CTRY. UNITED STATES OF AMERICA:   COUNTRY
 SRVC.            Unknown:   SERVICE COMPANY
 DATE.        19-NOV-1992:   LOGDATE
 API .       490251071100:   API NUMBER
~CURVE INFORMATION
#MNEM.UNIT       API CODE    CURVE DESCRIPTION
#----------   ------------   ------------------------------
 DEPT.F                  :   
 TGAS.UNITS  91 830 01 00:   TOTAL GAS FROM HOTWIRE
 ROP .MIN/FT 91 810 01 00:   RATE OF DRILLING PENETRATION
~PARAMETER INFORMATION
#MNEM.UNIT          VALUE    DESCRIPTION
#----------   ------------   ------------------------------
 EKB .F              5170:   KELLING BUSHING
 EGL .F              5160:   GROUND LEVEL
 DATE.        19-NOV-1992:   RUN DATE
 RUN .                  1:   RUN NUMBER
 DD  .F              2186:   DEPTH DRILLER
 TLI .F              1186:   TOP LOG INTERVAL
 CS  .IN             8.25:   CASING SIZE
 CBD .F              1080:   CASING BOTTOM DRILLER
 WITN.   C. TOWER/R. HUSK:   WITNESSED BY
 CLNT.            A2DTECH:   CLIENT CODE
 ORIG.           5" PRINT:   ORIGIN OF DATA
 UWI .       490251071100:   UNIQUE WELL ID
 DICO. A2D Technologies, Inc.:   DIGITIZING COMPANY
~OTHER INFORMATION
~A  DEPT       TGAS       ROP   
# ...
 1908.0000   129.7965     0.4485
 1908.5000   129.8603     0.4493
 1909.0000   128.8079     0.4501
 1909.5000   128.8929     0.4510
 1910.0000   128.9566     0.4518
 1910.5000   127.9095     0.4526
 1911.0000   125.7728     0.4534
 1911.5000   125.8525     0.4536
 1912.0000   125.9204     0.4539
 1912.5000   129.2900     0.4431
 1913.0000   129.3535     0.4434
 1913.5000   129.4223     0.4436
 1914.0000   130.5860     0.4328
 1914.5000   130.6548     0.4331
 1915.0000   132.9188     0.4114
 1915.5000   132.9876     0.4116
 1916.0000   134.1513     0.4009
 1916.5000   134.2201     0.4011
 1917.0000   134.2738     0.4013
 1917.5000   135.4527     0.4016
 1918.0000   135.5162     0.4127
 1918.5000   138.8857     0.4458
 1919.0000   138.9492     0.4569
 1919.5000   140.1182     0.4900
 1920.0000   142.3716     0.5011
 1920.5000   144.6462     0.5232
 1921.0000   148.0157     0.5344
 1921.5000   149.1795     0.5455
 1922.0000   152.5490     0.5677
 1922.5000   155.9080     0.5679
 1923.0000   158.1825     0.5790
 1923.5000   161.5468     0.5792
 1924.0000   164.9110     0.5795
 1924.5000   169.3808     0.5796
 1925.0000   173.8452     0.5799
 1925.5000   176.1145     0.5801
 1926.0000   176.1833     0.5803
 1926.5000   177.3471     0.5805
 1927.0000   178.5108     0.5808
 1927.5000   178.5697     0.5810
 1928.0000   177.5429     0.5812
 1928.5000   176.4902     0.5814
 1929.0000   176.5802     0.5816
 1929.5000   176.6384     0.5819
 1930.0000   175.5964     0.5711
 1930.5000   175.6758     0.5714
 1931.0000   172.4279     0.5716
 1931.5000   171.3859     0.5718
 1932.0000   170.3544     0.5610
 1932.5000   167.1331     0.5503
 1933.0000   166.1017     0.5506
 1933.5000   163.9488     0.5508
 1934.0000   162.9173     0.5510
 1934.5000   159.6801     0.5622
 1935.0000   158.6434     0.5733
 1935.5000   156.5275     0.5736
 1936.0000   155.4749     0.5738
 1936.5000   154.4435     0.5630
 1937.0000   153.4226     0.5523
 1937.5000   151.2750     0.5525
 1938.0000   151.3496     0.5418
 1938.5000   150.3071     0.5420
 1939.0000   150.3917     0.5094
 1939.5000   150.4605     0.4987
 1940.0000   150.5240     0.4989
 1940.5000   150.5822     0.4663
 1941.0000   150.6563     0.4666
 1941.5000   150.7145     0.4558
 1942.0000   149.6778     0.4560
 1942.5000   150.8521     0.4563
 1943.0000   150.9209     0.4455
 1943.5000   150.9755     0.4238
 1944.0000   151.0479     0.4241
 1944.5000   151.1076     0.4243
 1945.0000   151.1802     0.4136
 1945.5000   152.3492     0.4248
 1946.0000   153.5183     0.4250
 1946.5000   155.7770     0.4142
 1947.0000   156.9513     0.4144
 1947.5000   159.2153     0.4147
 1948.0000   160.3843     0.4149
 1948.5000   163.7486     0.4151
 1949.0000   164.9176     0.4154
 1949.5000   168.2818     0.4155
 1950.0000   169.4403     0.4158
 1950.5000   170.6040     0.4160
 1951.0000   173.9789     0.4162
 1951.5000   174.0477     0.4054
 1952.0000   175.2061     0.4057
 1952.5000   175.2802     0.3840
 1953.0000   175.3437     0.3843
 1953.5000   175.4125     0.3845
 1954.0000   176.5710     0.3737
 1954.5000   178.8455     0.3849
 1955.0000   178.9090     0.3742
 1955.5000   178.9778     0.3744
 1956.0000   180.1416     0.3746
 1956.5000   180.2103     0.3749
 1957.0000   180.2641     0.3751
 1957.5000   179.2424     0.3753
 1958.0000   179.3059     0.3755
 1958.5000   179.3747     0.3757
 1959.0000   179.4382     0.3760
 1959.5000   179.5017     0.3762
 1960.0000   179.5652     0.3764
 1960.5000   179.6340     0.3766
 1961.0000   177.5023     0.3768
 1961.5000   176.4444     0.3770
 1962.0000   176.5343     0.3773
 1962.5000   176.5978     0.3775
 1963.0000   176.6666     0.3777
 1963.5000   176.7248     0.3779
 1964.0000   175.6775     0.3781
 1964.5000   175.7622     0.3784
 1965.0000   175.8310     0.3676
 1965.5000   175.8892     0.3679
 1966.0000   174.8471     0.3462
 1966.5000   172.7207     0.3464
 1967.0000   172.7948     0.3466
 1967.5000   171.7369     0.3359
 1968.0000   171.8269     0.3361
 1968.5000   171.8851     0.3364
 1969.0000   170.8431     0.3475
 1969.5000   170.9171     0.3806
 1970.0000   168.7696     0.3917
 1970.5000   168.8542     0.4138
 1971.0000   170.0180     0.4250
 1971.5000   170.0868     0.4361
 1972.0000   171.2505     0.4363
 1972.5000   171.3140     0.4366
 1973.0000   172.4831     0.4368
 1973.5000   172.5518     0.4370
 1974.0000   172.6101     0.4262
 1974.5000   172.6841     0.4265
 1975.0000   172.7476     0.4267
 1975.5000   172.8164     0.4269
 1976.0000   172.8799     0.4162
 1976.5000   172.9487     0.3946
 1977.0000   173.0069     0.3948
 1977.5000   173.0810     0.3950
 1978.0000   173.1445     0.3952
 1978.5000   173.2080     0.3954
 1979.0000   173.2715     0.3957
 1979.5000   173.3456     0.3959
 1980.0000   173.4038     0.3961
 1980.5000   174.5676     0.4182
 1981.0000   174.6417     0.4294
 1981.5000   174.7052     0.4405
 1982.0000   174.7740     0.4517
 1982.5000   174.8375     0.4738
 1983.0000   173.7848     0.4740
 1983.5000   173.8695     0.4742
 1984.0000   173.9383     0.4744
 1984.5000   174.0018     0.4636
 1985.0000   172.9492     0.4421
 1985.5000   173.0338     0.4423
 1986.0000   173.1026     0.4315
 1986.5000   173.1608     0.4318
 1987.0000   173.2349     0.3991
 1987.5000   173.2984     0.3994
 1988.0000   173.3566     0.3886
 1988.5000   173.4307     0.3889
 1989.0000   173.4889     0.3891
 1989.5000   173.5577     0.3893
 1990.0000   173.6265     0.3895
 1990.5000   173.6953     0.3788
 1991.0000   173.7588     0.3790
 1991.5000   173.8276     0.3792
 1992.0000   173.8911     0.3684
 1992.5000   172.8544     0.3577
 1993.0000   172.9179     0.3689
 1993.5000   174.0869     0.3801
 1994.0000   174.1504     0.3585
 1994.5000   175.3141     0.3587
 1995.0000   175.3790     0.3589
 1995.5000   175.4450     0.3481
 1996.0000   175.5110     0.3484
 1996.5000   175.5787     0.3486
 1997.0000   175.6528     0.3488
 1997.5000   175.7163     0.3380
 1998.0000   175.7798     0.3383
 1998.5000   175.8486     0.3495
 1999.0000   175.9121     0.3497
 1999.5000   175.9809     0.3609
 2000.0000   176.0497     0.3939
 2000.5000   176.1132     0.4160
 2001.0000   176.1767     0.4491
 2001.5000   175.1400     0.4711
 2002.0000   175.2088     0.4823
 2002.5000   173.0718     0.4825
 2003.0000   173.1458     0.4828
 2003.5000   173.2094     0.4829
 2004.0000   173.2782     0.4832
 2004.5000   173.3416     0.4834
 2005.0000   172.2890     0.4836
 2005.5000   173.4686     0.5142
 2006.0000   172.4319     0.5142
 2006.5000   172.5060     0.5033
 2007.0000   172.5695     0.4814
 2007.5000   173.7286     0.4705
 2008.0000   173.8073     0.4595
 2008.5000   173.8708     0.4376
 2009.0000   172.8182     0.4267
 2009.5000   172.8976     0.4267
 2010.0000   174.0666     0.4048
 2010.5000   174.1354     0.3939
 2011.0000   174.1989     0.3829
 2011.5000   174.2624     0.3829
 2012.0000   174.3259     0.3829
 2012.5000   174.4000     0.3829
 2013.0000   174.4635     0.3611
 2013.5000   174.5270     0.3611
 2014.0000   174.5958     0.3501
 2014.5000   174.6646     0.3501
 2015.0000   174.7281     0.3501
 2015.5000   173.6755     0.3501
 2016.0000   173.7548     0.3501
 2016.5000   173.8236     0.3501
 2017.0000   173.8871     0.3611
 2017.5000   173.9559     0.3720
 2018.0000   174.0247     0.3720
 2018.5000   174.0935     0.3829
 2019.0000   174.1517     0.3829
 2019.5000   173.1150     0.3829
 2020.0000   173.1785     0.3939
 2020.5000   173.2473     0.3939
 2021.0000   173.3161     0.3939
 2021.5000   173.3849     0.3939
 2022.0000   173.4537     0.4048
 2022.5000   173.5172     0.4158
 2023.0000   173.5860     0.4158
 2023.5000   172.5333     0.4267
 2024.0000   171.4966     0.4267
 2024.5000   171.5813     0.4267
 2025.0000   170.5379     0.4267
 2025.5000   170.6133     0.4267
 2026.0000   170.6768     0.4267
 2026.5000   170.7456     0.4267
 2027.0000   169.6930     0.4376
 2027.5000   167.5560     0.4376
 2028.0000   167.6460     0.4267
 2028.5000   166.5880     0.4267
 2029.0000   166.6780     0.4267
