~VERSION INFORMATION
 VERS.                2.0:   CWLS LOG ASCII STANDARD - VERSION 2.0
 WRAP.                 NO:   ONE LINE PER DEPTH STEP
~WELL INFORMATION
#MNEM.UNIT      DATA TYPE    INFORMATION
#----------   ------------   ------------------------------
 STRT.F           20.5000:   START DEPTH
 STOP.F          544.0000:   STOP DEPTH
 STEP.F            0.5000:   STEP LENGTH
 NULL.          -999.2500:   NO VALUE
 COMP. LAWRENCE/ALLISON INC:   COMPANY
 WELL.    45-65 SX #10-10:   WELL
 FLD .             TEAPOT:   FIELD
 LOC .      S10 T38N R78W:   LOCATION
 CNTY.            NATRONA:   COUNTY
 STAT.            WYOMING:   STATE
 CTRY. UNITED STATES OF AMERICA:   COUNTRY
 SRVC.            Unknown:   SERVICE COMPANY
 DATE.        01-SEP-1984:   LOGDATE
 API .       490251098400:   API NUMBER
~CURVE INFORMATION
#MNEM.UNIT       API CODE    CURVE DESCRIPTION
#----------   ------------   ------------------------------
 DEPT.F                  :   
 GRD .GAPI   45 310 01 00:   GAMMA RAY FROM DENSITY LOG
 CALD.IN     45 280 60 00:   CALIPER
 DEN .G/C3   45 350 01 00:   COMPENSATED BULK DENSTIY
 CORR.G/C3   45 356 01 00:   DENSITY CORRECTION
 CNC .DEC    42 890 03 00:   NEUTRON POROSITY SANDSTONE
 PORD.DEC    45 890 12 00:   POROSITY DENSITY SANDSTONE
 AC  .US/F   60 520 00 00:   ACOUSTIC SONIC
 SPR .MV     07 010 01 00:   SPONTANEOUS POTENTIAL
 RILD.OHMM   07 120 46 00:   INDUCTION LOG DEEP RESISTIVITY
 RILM.OHMM   07 120 44 00:   INDUCTION LOG MEDIUM RESISTIVITY
 RFOC.OHMM   07 220 04 00:   RESISTIVITY FOCUSED LOG
~PARAMETER INFORMATION
#MNEM.UNIT          VALUE    DESCRIPTION
#----------   ------------   ------------------------------
 PD  .                 GL:   PERMANENT DATUM
 EPD .F              5208:   ELEVATION PERMANENT DATUM
 LMF .                 KB:   LOG MEASURED FROM
 DAPD.F                12:   FEET ABOVE PERMANENT DATUM
 DMF .                 KB:   DRILLING MEASURED FROM
 EKB .F              5220:   KELLING BUSHING
 EGL .F              5208:   GROUND LEVEL
 DATE.        1-SEPT-1984:   RUN DATE
 RUN .                  1:   RUN NUMBER
 DD  .F               550:   DEPTH DRILLER
 DL  .F               544:   DEPTH LOGGER
 BLI .F               544:   BOTTOM LOG INTERVAL
 TLI .F                30:   TOP LOG INTERVAL
 CBL .F                44:   CASING BOTTOM LOGGER
 BS  .IN            7.875:   BIT SIZE
 BSD .F               550:   BIT SIZE AT DEPTH
 DFT .          KCL WATER:   DRILLING FLUID TYPE
 MSS .               TANK:   MUD SAMPLE SOURCE
 RMS .OHMM           .236:   RESISTIVITY MUD SAMPLE
 MST .F                75:   MUD SAMPLE TEMPERATURE
 TCS .HRS               3:   TIME CURCULATED STOPPED
 MRT .F               100:   MAXIMUM RECORDED TEMPERATURE
 LUN .               4082:   LOGGING UNIT NUMBER
 LUL .               ROOS:   LOGGING UNIT LOCATION
 ENGI.             MILLER:   RECORDING ENGINEER
 WITN.            JOHNSON:   WITNESSED BY
 CLNT.            A2DTECH:   CLIENT CODE
 ORIG.       2", 5" PRINT:   ORIGIN OF DATA
 UWI .       490251098400:   UNIQUE WELL ID
 DICO. A2D Technologies, Inc.:   DIGITIZING COMPANY
~OTHER INFORMATION
~A   DEPT      GRD       CALD        DEN       CORR          CNC     PORD         AC        SPR       RILD       RILM       RFOC   
# ...
   51.0000   159.2247     8.2962     2.4144     0.0150     0.1587  -999.2500  -999.2500  -999.2500     7.9878     8.3150  -999.2500
   51.5000   161.6483     8.2962     2.4116     0.0202     0.1585  -999.2500  -999.2500  -999.2500     8.9563     8.8883  -999.2500
   52.0000   163.6664     8.2962     2.4193     0.0253     0.1565  -999.2500  -999.2500  -999.2500     9.2832     9.1982  -999.2500
   52.5000   165.2068     8.2962     2.4206     0.0227     0.1547  -999.2500  -999.2500  -999.2500     8.8509     8.7330  -999.2500
   53.0000   163.3387     8.2962     2.4205     0.0123     0.1531  -999.2500  -999.2500  -999.2500     8.4791     8.3873  -999.2500
   53.5000   159.7925     8.2962     2.4271     0.0019     0.1515  -999.2500  -999.2500  -999.2500     8.1229     8.0552  -999.2500
   54.0000   156.0892     8.2963     2.4342    -0.0084     0.1475  -999.2500  -999.2500  -999.2500     7.9402     7.9402  -999.2500
   54.5000   155.4753     8.3013     2.4398    -0.0190     0.1677  -999.2500  -999.2500  -999.2500     7.9957     7.9259  -999.2500
   55.0000   164.8657     8.3068     2.4101    -0.0035     0.1607  -999.2500  -999.2500  -999.2500     8.0334     7.9094  -999.2500
   55.5000   166.2635     8.3124     2.3758     0.0332     0.1579  -999.2500  -999.2500  -999.2500     8.0717     7.8930  -999.2500
   56.0000   161.6518     8.3179     2.3434     0.0679     0.2014  -999.2500  -999.2500  -999.2500     8.1099     7.8766  -999.2500
   56.5000   155.1634     8.3234     2.3422     0.0623     0.2054  -999.2500  -999.2500  -999.2500     8.1486     7.8676  -999.2500
   57.0000   155.4242     8.3289     2.3381     0.0606     0.2068  -999.2500  -999.2500  -999.2500     8.2228     8.0435  -999.2500
   57.5000   156.3579     8.3347     2.3331     0.1094     0.2050  -999.2500  -999.2500  -999.2500     8.3175     8.1672  -999.2500
   58.0000   151.7486     8.3215     2.3433     0.0810     0.1994  -999.2500  -999.2500  -999.2500     8.4132     8.2928  -999.2500
   58.5000   148.8835     8.2948     2.3822     0.0433     0.1924  -999.2500  -999.2500  -999.2500     8.5100     8.4203  -999.2500
   59.0000   149.6789     8.2830     2.4205     0.0043     0.1687  -999.2500  -999.2500  -999.2500     8.6080     8.5498  -999.2500
   59.5000   150.8886     8.3048     2.4291     0.0036     0.1487  -999.2500  -999.2500  -999.2500     8.7071     8.6812  -999.2500
   60.0000   153.8404     8.3262     2.4359     0.0356     0.1491  -999.2500  -999.2500  -999.2500     8.8073     8.8147  -999.2500
   60.5000   154.1775     8.3358     2.4339     0.0588     0.1513  -999.2500  -999.2500  -999.2500     8.9087     8.9480  -999.2500
   61.0000   154.5835     8.3360     2.4268     0.0606     0.1527  -999.2500  -999.2500  -999.2500     9.0307     8.8155  -999.2500
   61.5000   156.2710     8.3360     2.4199     0.0336     0.1527  -999.2500  -999.2500  -999.2500     8.9262     8.6555  -999.2500
   62.0000   157.3062     8.3360     2.4268     0.0133     0.1495  -999.2500  -999.2500  -999.2500     8.7575     8.4985  -999.2500
   62.5000   156.4170     8.3360     2.4415     0.0181     0.1379  -999.2500  -999.2500  -999.2500     8.5921     8.3443  -999.2500
   63.0000   157.8244     8.3360     2.4510     0.0305     0.1367  -999.2500   111.3516  -999.2500     8.4297     8.1929  -999.2500
   63.5000   159.1619     8.3360     2.4561     0.0434     0.1347  -999.2500   110.4795  -999.2500     8.2705     8.0442  -999.2500
   64.0000   158.0793     8.3360     2.4611     0.0374     0.1319  -999.2500   109.8880  -999.2500     8.1142     7.8983  -999.2500
   64.5000   156.7129     8.3360     2.4616     0.0281     0.1315  -999.2500   109.3923  -999.2500     7.9609     7.7242  -999.2500
   65.0000   155.7779     8.3360     2.4577     0.0184     0.1325  -999.2500   108.7727  -999.2500     7.8637     7.7812  -999.2500
   65.5000   153.3564     8.3360     2.4536     0.0149     0.1358  -999.2500   108.1530  -999.2500     7.8426     7.8545  -999.2500
   66.0000   150.5589     8.3360     2.4514     0.0236     0.1379  -999.2500   107.8091  -999.2500     7.8215     7.9285  -999.2500
   66.5000   148.0219     8.3360     2.4632     0.0369     0.1195  -999.2500   107.6793  -999.2500     7.8005     8.0031  -999.2500
   67.0000   148.0695     8.3360     2.4780     0.0505     0.1198  -999.2500   107.5496  -999.2500     7.7956     8.0785  -999.2500
   67.5000   147.8260     8.3360     2.4855     0.0642     0.1190  -999.2500   107.4198  -999.2500     7.7956     8.1546  -999.2500
   68.0000   146.3138     8.3360     2.4826     0.0439     0.1250  -999.2500   107.2900  -999.2500     7.8676     8.2315  -999.2500
   68.5000   146.2161     8.3360     2.4645     0.0233     0.1343  -999.2500   107.1249  -999.2500     7.9594     8.3090  -999.2500
   69.0000   148.3107     8.3360     2.4465     0.0280     0.1367  -999.2500   106.7832  -999.2500     8.0566     8.3873  -999.2500
   69.5000   150.5963     8.3360     2.4454     0.0329     0.1359  -999.2500   106.3836  -999.2500     8.1551     8.4663  -999.2500
   70.0000   152.5477     8.3360     2.4606     0.0363     0.1309  -999.2500   105.7853  -999.2500     8.2548     8.5460  -999.2500
   70.5000   151.8007     8.3360     2.4669     0.0081     0.1295  -999.2500   105.2484  -999.2500     8.3556     8.6265  -999.2500
   71.0000   150.0523     8.3360     2.4571    -0.0069     0.1339  -999.2500   105.0792  -999.2500     8.4577     8.7078  -999.2500
   71.5000   148.6050     8.3360     2.4554     0.0178     0.1357  -999.2500   105.0479  -999.2500     8.5611     8.7898  -999.2500
   72.0000   147.9469     8.3360     2.4590     0.0339     0.1381  -999.2500   105.0166  -999.2500     8.6657     8.8726  -999.2500
   72.5000   148.6801     8.3360     2.4425     0.0163     0.1449  -999.2500   104.9869  -999.2500     8.7716     8.9562  -999.2500
   73.0000   151.2048     8.3360     2.4195    -0.0160     0.1497  -999.2500   105.4068  -999.2500     8.8662     9.0307  -999.2500
   73.5000   154.8599     8.3360     2.4146    -0.0311     0.1553  -999.2500   105.6736  -999.2500     8.8174     8.9846  -999.2500
   74.0000   156.0119     8.3360     2.4310    -0.0233     0.1435  -999.2500   105.5990  -999.2500     8.7645     8.9437  -999.2500
   74.5000   152.6102     8.3360     2.4449    -0.0055     0.1397  -999.2500   105.5275  -999.2500     8.7118     8.9028  -999.2500
   75.0000   152.5370     8.3360     2.4439     0.0120     0.1402  -999.2500   105.5719  -999.2500     8.6595     8.8621  -999.2500
   75.5000   153.8611     8.3360     2.4383     0.0294     0.1432  -999.2500   105.7909  -999.2500     8.6075     8.8216  -999.2500
   76.0000   159.4211     8.3360     2.4327     0.0439     0.1487  -999.2500   106.0099  -999.2500     8.5558     8.7813  -999.2500
   76.5000   164.9631     8.3360     2.4269     0.0460     0.1435  -999.2500   106.2581  -999.2500     8.5044     8.7412  -999.2500
   77.0000   164.8707     8.3360     2.4313     0.0436     0.1459  -999.2500   106.6202  -999.2500     8.4679     8.7047  -999.2500
   77.5000   162.7030     8.3360     2.4469     0.0240     0.1417  -999.2500   106.9829  -999.2500     8.3904     8.6250  -999.2500
   78.0000   160.6389     8.3360     2.4478     0.0039     0.1383  -999.2500   107.3424  -999.2500     8.3904     8.7047  -999.2500
   78.5000   158.5522     8.3360     2.4421    -0.0077     0.1409  -999.2500   107.2985  -999.2500     8.4679     8.6250  -999.2500
   79.0000   157.0226     8.3352     2.4399    -0.0073     0.1411  -999.2500   106.7094  -999.2500     8.5171     8.7974  -999.2500
   79.5000   152.4445     8.3342     2.4456     0.0061     0.1403  -999.2500   105.9395  -999.2500     8.6227     8.9019  -999.2500
   80.0000   147.8971     8.3333     2.4514     0.0192     0.1377  -999.2500   105.1848  -999.2500     8.7296     9.0077  -999.2500
   80.5000   147.4357     8.3323     2.4526     0.0327     0.1367  -999.2500   104.9850  -999.2500     8.8377     9.1147  -999.2500
   81.0000   147.7561     8.3313     2.4526     0.0384     0.1367  -999.2500   104.9850  -999.2500     8.9450     9.2230  -999.2500
