~VERSION INFORMATION
 VERS.                2.0:   CWLS LOG ASCII STANDARD - VERSION 2.0
 WRAP.                 NO:   ONE LINE PER DEPTH STEP
~WELL INFORMATION
#MNEM.UNIT      DATA TYPE    INFORMATION
#----------   ------------   ------------------------------
 STRT.F         1099.5000:   START DEPTH
 STOP.F         2700.0000:   STOP DEPTH
 STEP.F            0.5000:   STEP LENGTH
 NULL.          -999.2500:   NO VALUE
 COMP. LAWRENCE/ALLISON INC NPR #3:   COMPANY
 WELL.   47 STX 14 #47-14:   WELL
 FLD .             TEAPOT:   FIELD
 LOC .      S14 T38N R78W:   LOCATION
 CNTY.            NATRONA:   COUNTY
 STAT.            WYOMING:   STATE
 CTRY. UNITED STATES OF AMERICA:   COUNTRY
 SRVC.            Unknown:   SERVICE COMPANY
 DATE.        01-SEP-1988:   LOGDATE
 API .       490251124400:   API NUMBER
~CURVE INFORMATION
#MNEM.UNIT       API CODE    CURVE DESCRIPTION
#----------   ------------   ------------------------------
 DEPT.F                  :   
 ROP .MIN/FT 91 810 01 00:   RATE OF DRILLING PENETRATION
 TGAS.UNITS  91 830 01 00:   TOTAL GAS FROM HOTWIRE
~PARAMETER INFORMATION
#MNEM.UNIT          VALUE    DESCRIPTION
#----------   ------------   ------------------------------
 EKB .F              5286:   KELLING BUSHING
 EGL .F              5276:   GROUND LEVEL
 DATE.             9-1-88:   RUN DATE
 DD  .F              2700:   DEPTH DRILLER
 CBD .F              1088:   CASING BOTTOM DRILLER
 TCS .HRS            1200:   TIME CURCULATED STOPPED
 TLAB.HRS            1223:   TIME LOGGER AT BOTTOM
 ENGI.               HUSK:   RECORDING ENGINEER
 WITN.           PETERSON:   WITNESSED BY
 CLNT.            A2DTECH:   CLIENT CODE
 ORIG.           5" PRINT:   ORIGIN OF DATA
 UWI .       490251124400:   UNIQUE WELL ID
 DICO. A2D Technologies, Inc.:   DIGITIZING COMPANY
~OTHER INFORMATION
~A  DEPT       ROP       TGAS   
 1099.5000  -999.2500  -999.2500
 1100.0000  -999.2500  -999.2500
 1100.5000     0.7387     1.6496
 1101.0000     0.6657     1.6412
 1101.5000     0.5927     1.6328
 1102.0000     0.5197     1.6243
 1102.5000     0.4467     1.6159
 1103.0000     0.3737     1.6075
 1103.5000     0.3007     1.5990
 1104.0000     0.3060     1.5906
 1104.5000     0.3782     1.5822
 1105.0000     0.4505     1.5737
 1105.5000     0.5228     1.5653
 1106.0000     0.6070     1.5569
 1106.5000     0.5965     1.5484
 1107.0000     0.5549     1.5400
 1107.5000     0.5031     1.5316
 1108.0000     0.4409     1.5231
 1108.5000     0.3684     1.5147
 1109.0000     0.3062     1.5063
 1109.5000     0.2321     1.4978
 1110.0000     0.1575     1.4894
 1110.5000     0.0809     1.4810
 1111.0000     0.1182     1.4726
 1111.5000     0.2315     1.4641
 1112.0000     0.3404     1.4557
 1112.5000     0.4329     1.4473
 1113.0000     0.4178     1.4388
 1113.5000     0.3576     1.4304
 1114.0000     0.2938     1.4220
 1114.5000     0.3866     1.4135
 1115.0000     0.4483     1.4051
 1115.5000     0.4793     1.3967
 1116.0000     0.4893     1.3882
 1116.5000     0.4879     1.3798
 1117.0000     0.4864     1.3714
 1117.5000     0.4849     1.3629
 1118.0000     0.4833     1.3545
 1118.5000     0.4818     1.3461
 1119.0000     0.4803     1.3376
 1119.5000     0.4788     1.3292
 1120.0000     0.4773     1.3208
 1120.5000     0.5302     1.3124
 1121.0000     0.5823     1.3039
 1121.5000     0.6344     1.2955
 1122.0000     0.6866     1.2871
 1122.5000     0.6786     1.2786
 1123.0000     0.6147     1.2702
 1123.5000     0.5558     1.2618
 1124.0000     0.4978     1.2533
 1124.5000     0.4444     1.2449
 1125.0000     0.4442     1.2365
 1125.5000     0.4440     1.2280
 1126.0000     0.4438     1.2196
 1126.5000     0.4436     1.2112
 1127.0000     0.4434     1.2027
 1127.5000     0.4432     1.1943
 1128.0000     0.4430     1.1859
 1128.5000     0.4428     1.1774
 1129.0000     0.4743     1.1690
 1129.5000     0.5266     1.1606
 1130.0000     0.5455     1.1521
 1130.5000     0.5391     1.1437
 1131.0000     0.5090     1.1353
 1131.5000     0.4664     1.1269
 1132.0000     0.4307     1.1184
 1132.5000     0.4205     1.1100
 1133.0000     0.4202     1.1016
 1133.5000     0.4279     1.0931
 1134.0000     0.4383     1.0847
 1134.5000     0.4403     1.0763
 1135.0000     0.4401     1.0678
 1135.5000     0.4502     1.0594
 1136.0000     0.4603     1.0510
 1136.5000     0.4911     1.0425
 1137.0000     0.5012     1.0341
 1137.5000     0.5114     1.0257
 1138.0000     0.5215     1.0172
 1138.5000     0.5213     1.0088
 1139.0000     0.5211     1.0004
 1139.5000     0.5190     0.9919
 1140.0000     0.5000     0.9764
 1140.5000     0.5604     0.9276
 1141.0000     0.6239     0.8788
 1141.5000     0.6894     0.8299
 1142.0000     0.7575     0.7811
 1142.5000     0.6968     0.7323
 1143.0000     0.6414     0.6835
 1143.5000     0.5822     0.6347
 1144.0000     0.5759     0.5858
 1144.5000     0.6076     0.5370
 1145.0000     0.6450     0.4882
 1145.5000     0.6828     0.4394
 1146.0000     0.6506     0.3906
 1146.5000     0.5942     0.3417
 1147.0000     0.5254     0.2929
 1147.5000     0.4670     0.2441
 1148.0000     0.3933     0.1953
 1148.5000     0.3312     0.1465
 1149.0000     0.2897     0.0976
 1149.5000     0.2895     0.0488
 1150.0000     0.2893     0.0000
 1150.5000     0.2890     0.0251
 1151.0000     0.2888     0.0502
 1151.5000     0.3031     0.0753
 1152.0000     0.3314     0.1005
 1152.5000     0.3434     0.1256
 1153.0000     0.3649     0.1507
 1153.5000     0.3995     0.1758
 1154.0000     0.4872     0.2009
 1154.5000     0.4151     0.2260
 1155.0000     0.3533     0.2511
 1155.5000     0.2915     0.2762
 1156.0000     0.3048     0.3014
 1156.5000     0.3533     0.3265
 1157.0000     0.3854     0.3516
 1157.5000     0.4013     0.3767
 1158.0000     0.4122     0.4018
 1158.5000     0.4105     0.4269
 1159.0000     0.4000     0.4520
 1159.5000     0.3896     0.4771
 1160.0000     0.3791     0.5023
 1160.5000     0.3687     0.5274
 1161.0000     0.3504     0.5525
 1161.5000     0.3375     0.5776
 1162.0000     0.3355     0.6027
 1162.5000     0.3618     0.6278
 1163.0000     0.4152     0.6529
 1163.5000     0.4676     0.6780
 1164.0000     0.4930     0.7032
 1164.5000     0.4644     0.7283
 1165.0000     0.4398     0.7534
 1165.5000     0.4012     0.7785
 1166.0000     0.3785     0.8036
 1166.5000     0.3787     0.8287
 1167.0000     0.3789     0.8538
 1167.5000     0.3791     0.8789
 1168.0000     0.3793     0.9041
 1168.5000     0.3795     0.9292
 1169.0000     0.3798     0.9543
 1169.5000     0.3903     0.9794
 1170.0000     0.3905     1.0045
 1170.5000     0.3907     1.0296
 1171.0000     0.3909     1.0547
 1171.5000     0.3911     1.0798
 1172.0000     0.3913     1.1050
 1172.5000     0.4603     1.1301
 1173.0000     0.5335     1.1552
 1173.5000     0.6124     1.1803
 1174.0000     0.7021     1.2054
 1174.5000     0.6713     1.2305
 1175.0000     0.6405     1.2556
 1175.5000     0.6200     1.2807
 1176.0000     0.5884     1.3059
 1176.5000     0.5460     1.3310
 1177.0000     0.5028     1.3561
 1177.5000     0.4498     1.3812
 1178.0000     0.3953     1.4063
 1178.5000     0.3632     1.4314
 1179.0000     0.3992     1.4565
 1179.5000     0.4420     1.4816
 1180.0000     0.4848     1.5068
 1180.5000     0.4991     1.5322
 1181.0000     0.4461     1.7905
 1181.5000     0.4022     2.0521
 1182.0000     0.3802     2.3138
 1182.5000     0.3698     2.5754
 1183.0000     0.3649     2.8371
 1183.5000     0.3709     3.0988
 1184.0000     0.3818     3.3604
 1184.5000     0.3991     4.3931
 1185.0000     0.4274     6.8555
 1185.5000     0.4667     9.3180
 1186.0000     0.5021    10.2790
 1186.5000     0.5110    10.3099
 1187.0000     0.4950    10.3407
 1187.5000     0.4701    10.3715
 1188.0000     0.4290    10.4023
 1188.5000     0.4292    10.4332
 1189.0000     0.4190    10.4640
 1189.5000     0.3986    10.4948
 1190.0000     0.3988    10.5256
 1190.5000     0.3886    10.5565
 1191.0000     0.3888    10.5873
 1191.5000     0.3909    10.6181
 1192.0000     0.4230    10.6489
 1192.5000     0.4539    10.6797
 1193.0000     0.4723    10.7106
 1193.5000     0.4725    10.7414
 1194.0000     0.4727    10.7722
 1194.5000     0.4654    10.8030
 1195.0000     0.4393    10.8339
 1195.5000     0.4194    10.8647
 1196.0000     0.3784    10.8955
 1196.5000     0.3932    10.9263
 1197.0000     0.4515    10.9572
 1197.5000     0.4926    10.9880
 1198.0000     0.5118    11.0188
 1198.5000     0.5227    11.0496
 1199.0000     0.5264    11.0805
 1199.5000     0.5192    11.1113
 1200.0000     0.5424    10.7661
 1200.5000     0.5903     9.6273
 1201.0000     0.6273     8.4886
 1201.5000     0.6656     7.3498
 1202.0000     0.6826     6.1927
 1202.5000     0.6945     6.1203
 1203.0000     0.7281     6.0467
 1203.5000     0.7652     5.9732
 1204.0000     0.7831     5.8996
 1204.5000     0.7834     5.8260
 1205.0000     0.7433     5.7524
 1205.5000     0.6599     5.6788
 1206.0000     0.5717     5.6053
 1206.5000     0.5009     5.5317
 1207.0000     0.4362     5.4581
 1207.5000     0.3834     5.3845
 1208.0000     0.4056     5.3110
 1208.5000     0.4157     5.2374
 1209.0000     0.4227     5.1638
 1209.5000     0.4221     5.0902
 1210.0000     0.4101     5.0166
 1210.5000     0.3816     4.9431
 1211.0000     0.3551     4.8695
 1211.5000     0.3370     4.7959
 1212.0000     0.3311     4.7223
 1212.5000     0.3310     4.6488
 1213.0000     0.3530     4.5752
 1213.5000     0.3971     4.5016
 1214.0000     0.4499     4.4280
 1214.5000     0.5239     4.3545
 1215.0000     0.5305     4.2809
 1215.5000     0.4550     4.2073
 1216.0000     0.4038     4.1337
 1216.5000     0.4135     4.0601
 1217.0000     0.4128     3.9866
 1217.5000     0.4122     3.9130
 1218.0000     0.4116     3.8394
 1218.5000     0.4110     3.7658
 1219.0000     0.4103     3.6923
 1219.5000     0.4097     3.6187
 1220.0000     0.4132     3.5451
 1220.5000     0.4278     3.4715
