~VERSION INFORMATION
 VERS.                2.0:   CWLS LOG ASCII STANDARD - VERSION 2.0
 WRAP.                 NO:   ONE LINE PER DEPTH STEP
~WELL INFORMATION
#MNEM.UNIT      DATA TYPE    INFORMATION
#----------   ------------   ------------------------------
 STRT.F           15.0000:   START DEPTH
 STOP.F          620.0000:   STOP DEPTH
 STEP.F            0.5000:   STEP LENGTH
 NULL.          -999.2500:   NO VALUE
 COMP.       F D SERV INC:   COMPANY
 WELL. NAVAL PETROLEUM RESERVE 3 SX-1 #87-1-10:   WELL
 FLD .             TEAPOT:   FIELD
 LOC .      S10 T38N R78W:   LOCATION
 CNTY.            NATRONA:   COUNTY
 STAT.            WYOMING:   STATE
 CTRY. UNITED STATES OF AMERICA:   COUNTRY
 SRVC.     Atlas Wireline:   SERVICE COMPANY
 DATE.        02-JAN-1991:   LOGDATE
 API .       490252247100:   API NUMBER
~CURVE INFORMATION
#MNEM.UNIT       API CODE    CURVE DESCRIPTION
#----------   ------------   ------------------------------
 DEPT.F                  :   
 GRR .GAPI   07 310 01 00:   GAMMA RAY
 RILD.OHMM   07 120 46 00:   INDUCTION LOG DEEP RESISTIVITY
 RILM.OHMM   07 120 44 00:   INDUCTION LOG MEDIUM RESISTIVITY
~PARAMETER INFORMATION
#MNEM.UNIT          VALUE    DESCRIPTION
#----------   ------------   ------------------------------
 PD  .                 GL:   PERMANENT DATUM
 EPD .F              5239:   ELEVATION PERMANENT DATUM
 LMF .                 KB:   LOG MEASURED FROM
 DAPD.F                10:   FEET ABOVE PERMANENT DATUM
 DMF .                 KB:   DRILLING MEASURED FROM
 EKB .F              5249:   KELLING BUSHING
 EDF .F              5248:   DRILLING FLOOR
 EGL .F              5239:   GROUND LEVEL
 DATE.        02-JAN-1991:   RUN DATE
 RUN .                  1:   RUN NUMBER
 DD  .F               630:   DEPTH DRILLER
 DL  .F               630:   DEPTH LOGGER
 BLI .F               628:   BOTTOM LOG INTERVAL
 CS  .IN            9.625:   CASING SIZE
 CBD .F                40:   CASING BOTTOM DRILLER
 CBL .F                50:   CASING BOTTOM LOGGER
 BS  .IN            8.625:   BIT SIZE
 BSD .F               630:   BIT SIZE AT DEPTH
 DFT .                AIR:   DRILLING FLUID TYPE
 LUN .            HL 6274:   LOGGING UNIT NUMBER
 LUL .             CASPER:   LOGGING UNIT LOCATION
 ENGI.       P. RASMUSSEN:   RECORDING ENGINEER
 WITN.          G. STRONG:   WITNESSED BY
 CLNT.            A2DTECH:   CLIENT CODE
 ORIG.           5" PRINT:   ORIGIN OF DATA
 UWI .       490252247100:   UNIQUE WELL ID
 DICO. A2D Technologies, Inc.:   DIGITIZING COMPANY
~OTHER INFORMATION
~A   DEPT       GRR      RILD       RILM   
# ...
  561.0000   119.2647     9.3824     9.0143
  561.5000   120.4514     9.5106     9.2015
  562.0000   122.8379     9.6406     9.3278
  562.5000   124.3262     9.9078     9.5216
  563.0000   124.2975    10.0432     9.7198
  563.5000   122.4670    10.1811     9.9901
  564.0000   120.7050    10.3431    10.1273
  564.5000   120.0975    10.5160    10.4094
  565.0000   119.7893    10.7511    10.6251
  565.5000   120.0822    10.8980    10.8458
  566.0000   120.3729    11.0530    10.9189
  566.5000   120.3619    11.3539    11.0688
  567.0000   119.7544    11.4289    11.1440
  567.5000   117.6249    11.5850    11.2970
  568.0000   114.9444    11.6631    11.4516
  568.5000   114.0374    11.8225    11.6088
  569.0000   114.3281    11.9832    11.7681
  569.5000   116.7146    11.9800    11.7657
  570.0000   119.6999    11.9767    11.7628
  570.5000   120.2921    11.9735    11.7604
  571.0000   119.3830    11.9702    11.7580
  571.5000   119.0748    11.9662    11.7557
  572.0000   119.0659    11.8805    11.7533
  572.5000   119.0552    11.7141    11.7509
  573.0000   118.7471    11.6302    11.8302
  573.5000   118.4390    11.6270    11.9099
  574.0000   119.0291    11.6239    11.9074
  574.5000   120.8167    11.6208    11.9044
  575.0000   122.9038    11.6176    11.8200
  575.5000   116.6077    11.6144    11.7361
  576.0000   112.6066    11.6106    11.6528
  576.5000   108.5042    11.6074    11.5701
  577.0000   108.1983    11.6043    11.4088
  577.5000   112.3790    11.5380    11.4064
  578.0000   116.2625    11.1264    11.2474
  578.5000   120.1459    10.8948    11.0080
  579.0000   121.3370    10.6681    10.7851
  579.5000   121.0267    10.4461    10.6347
  580.0000   120.4192    10.2287    10.3423
  580.5000   119.5122    10.0853    10.1981
  581.0000   121.8965    10.0125    10.0559
  581.5000   121.8878     9.9408     9.9156
  582.0000   123.0767     9.8015     9.7774
  582.5000   124.2656     9.7989     9.7080
  583.0000   126.6520     9.6616     9.5700
  583.5000   127.8431     9.5262     9.4295
  584.0000   124.2394     9.3928     9.2429
  584.5000   123.0031     9.2611     9.1140
  585.0000   123.6727     9.1313     9.0493
  585.5000   125.4108     9.0654     8.9851
  586.0000   125.1005     9.0004     8.8598
  586.5000   126.5888     8.9360     8.8580
  587.0000   128.9753     8.9336     8.8562
  587.5000   131.9605     8.9312     8.7934
  588.0000   130.7542     8.8672     8.7309
  588.5000   130.1467     8.8649     8.7288
  589.0000   129.5389     8.7406     8.7270
  589.5000   130.1270     8.7325     8.7252
  590.0000   131.0165     8.4968     8.7235
  590.5000   131.9082     8.4945     8.7217
  591.0000   132.4961     8.3755     8.7199
  591.5000   133.6849     8.2582     8.5984
  592.0000   136.3708     8.2559     8.4785
  592.5000   137.8591     8.1968     8.3564
  593.0000   136.6326     8.1381     8.2337
  593.5000   134.4582     8.0798     8.1283
  594.0000   132.4415     8.0219     8.0150
  594.5000   130.9358     7.9094     7.9581
  595.0000   130.6298     7.7982     7.9016
  595.5000   133.6129     7.6889     7.7914
  596.0000   135.9994     7.5812     7.6298
  596.5000   138.3859     7.4234     7.4715
  597.0000   139.5748     7.2188     7.2146
  597.5000   139.8655     6.9715     6.9627
  598.0000   138.3575     6.5942     6.6841
  598.5000   137.1512     6.2374     6.3667
  599.0000   135.6455     6.2461     6.3215
  599.5000   134.4391     6.4531     6.4083
  600.0000   133.2328     6.7248     6.5869
  600.5000   131.1283     7.0080     6.9124
  601.0000   129.3231     7.3539     7.4576
  601.5000   130.2126     7.8787     7.8805
  602.0000   129.9042     8.2674     8.3327
  602.5000   128.3966     8.5562     8.7384
  603.0000   127.4896     8.7940     8.9199
  603.5000   128.6785     8.9810     9.1052
  604.0000   129.5680     9.1618     9.2948
  604.5000   131.0563     9.2870     9.4224
  605.0000   131.9457     9.4139     9.4859
  605.5000   132.2365     9.4767     9.4835
  606.0000   132.2476     9.6062     9.4816
  606.5000   132.8178     9.6029     9.4143
  607.0000  -999.2500     9.5341     9.4123
  607.5000  -999.2500     9.4658     9.4100
  608.0000  -999.2500     9.3332     9.4081
  608.5000  -999.2500     9.2663     9.3414
  609.0000  -999.2500     9.2632     9.2751
  609.5000  -999.2500     9.1969     9.2732
  610.0000  -999.2500     9.1944     9.2713
  610.5000  -999.2500     9.1285     9.2055
  611.0000  -999.2500     9.1261     9.2037
  611.5000  -999.2500     8.9982     9.1383
  612.0000  -999.2500     8.8722     9.0105
  612.5000  -999.2500     8.7479     8.8848
  613.0000  -999.2500     8.5595     8.7609
  613.5000  -999.2500     8.3292     8.5200
  614.0000  -999.2500     8.1558     8.2858
  614.5000  -999.2500     7.8220     8.1139
  615.0000  -999.2500     7.5019     7.8364
  615.5000  -999.2500     7.2951     7.5162
  616.0000  -999.2500     6.9966     7.1553
  616.5000  -999.2500     6.6180     6.7253
  617.0000  -999.2500     6.2167     6.1882
  617.5000  -999.2500     5.6674     5.9921
  618.0000  -999.2500     4.7097     5.0695
  618.5000  -999.2500  -999.2500     4.3795
  619.0000  -999.2500  -999.2500     3.7311
  619.5000  -999.2500  -999.2500     3.1346
  620.0000  -999.2500  -999.2500     2.8667
