~VERSION INFORMATION
 VERS.                2.0:   CWLS LOG ASCII STANDARD - VERSION 2.0
 WRAP.                 NO:   ONE LINE PER DEPTH STEP
~WELL INFORMATION
#MNEM.UNIT      DATA TYPE    INFORMATION
#----------   ------------   ------------------------------
 STRT.F           20.5000:   START DEPTH
 STOP.F          544.0000:   STOP DEPTH
 STEP.F            0.5000:   STEP LENGTH
 NULL.          -999.2500:   NO VALUE
 COMP. LAWRENCE/ALLISON INC:   COMPANY
 WELL.    45-65 SX #10-10:   WELL
 FLD .             TEAPOT:   FIELD
 LOC .      S10 T38N R78W:   LOCATION
 CNTY.            NATRONA:   COUNTY
 STAT.            WYOMING:   STATE
 CTRY. UNITED STATES OF AMERICA:   COUNTRY
 SRVC.            Unknown:   SERVICE COMPANY
 DATE.        01-SEP-1984:   LOGDATE
 API .       490251098400:   API NUMBER
~CURVE INFORMATION
#MNEM.UNIT       API CODE    CURVE DESCRIPTION
#----------   ------------   ------------------------------
 DEPT.F                  :   
 GRD .GAPI   45 310 01 00:   GAMMA RAY FROM DENSITY LOG
 CALD.IN     45 280 60 00:   CALIPER
 DEN .G/C3   45 350 01 00:   COMPENSATED BULK DENSTIY
 CORR.G/C3   45 356 01 00:   DENSITY CORRECTION
 CNC .DEC    42 890 03 00:   NEUTRON POROSITY SANDSTONE
 PORD.DEC    45 890 12 00:   POROSITY DENSITY SANDSTONE
 AC  .US/F   60 520 00 00:   ACOUSTIC SONIC
 SPR .MV     07 010 01 00:   SPONTANEOUS POTENTIAL
 RILD.OHMM   07 120 46 00:   INDUCTION LOG DEEP RESISTIVITY
 RILM.OHMM   07 120 44 00:   INDUCTION LOG MEDIUM RESISTIVITY
 RFOC.OHMM   07 220 04 00:   RESISTIVITY FOCUSED LOG
~PARAMETER INFORMATION
#MNEM.UNIT          VALUE    DESCRIPTION
#----------   ------------   ------------------------------
 PD  .                 GL:   PERMANENT DATUM
 EPD .F              5208:   ELEVATION PERMANENT DATUM
 LMF .                 KB:   LOG MEASURED FROM
 DAPD.F                12:   FEET ABOVE PERMANENT DATUM
 DMF .                 KB:   DRILLING MEASURED FROM
 EKB .F              5220:   KELLING BUSHING
 EGL .F              5208:   GROUND LEVEL
 DATE.        1-SEPT-1984:   RUN DATE
 RUN .                  1:   RUN NUMBER
 DD  .F               550:   DEPTH DRILLER
 DL  .F               544:   DEPTH LOGGER
 BLI .F               544:   BOTTOM LOG INTERVAL
 TLI .F                30:   TOP LOG INTERVAL
 CBL .F                44:   CASING BOTTOM LOGGER
 BS  .IN            7.875:   BIT SIZE
 BSD .F               550:   BIT SIZE AT DEPTH
 DFT .          KCL WATER:   DRILLING FLUID TYPE
 MSS .               TANK:   MUD SAMPLE SOURCE
 RMS .OHMM           .236:   RESISTIVITY MUD SAMPLE
 MST .F                75:   MUD SAMPLE TEMPERATURE
 TCS .HRS               3:   TIME CURCULATED STOPPED
 MRT .F               100:   MAXIMUM RECORDED TEMPERATURE
 LUN .               4082:   LOGGING UNIT NUMBER
 LUL .               ROOS:   LOGGING UNIT LOCATION
 ENGI.             MILLER:   RECORDING ENGINEER
 WITN.            JOHNSON:   WITNESSED BY
 CLNT.            A2DTECH:   CLIENT CODE
 ORIG.       2", 5" PRINT:   ORIGIN OF DATA
 UWI .       490251098400:   UNIQUE WELL ID
 DICO. A2D Technologies, Inc.:   DIGITIZING COMPANY
~OTHER INFORMATION
~A   DEPT      GRD       CALD        DEN       CORR          CNC     PORD         AC        SPR       RILD       RILM       RFOC   
# ...
  112.0000   141.7023     8.3392     2.3859    -0.0138     0.1778  -999.2500   101.3919  -999.2500     9.5427     9.9916  -999.2500
  112.5000   147.5649     8.3406     2.3788    -0.0026     0.1784  -999.2500   101.3860  -999.2500     9.6176     9.9916  -999.2500
  113.0000   150.2686     8.3420     2.3789     0.0099     0.1752  -999.2500   101.2286  -999.2500     9.7062     9.9916  -999.2500
  113.5000   147.3358     8.3434     2.3870     0.0143     0.1703  -999.2500   101.0711  -999.2500     9.7198     9.9916  -999.2500
  114.0000   143.8499     8.3448     2.3982     0.0022     0.1657  -999.2500   100.9137  -999.2500     9.6151     9.9916  -999.2500
  114.5000   141.7934     8.3462     2.4079    -0.0099     0.1639  -999.2500   101.2345  -999.2500     9.4540     9.7140  -999.2500
  115.0000   142.9454     8.3476     2.4057    -0.0201     0.1639  -999.2500   101.7713  -999.2500     9.4578     9.4554  -999.2500
  115.5000   145.0780     8.3490     2.3994    -0.0138     0.1687  -999.2500   102.2877  -999.2500     8.9322     9.2037  -999.2500
  116.0000   147.2365     8.3504     2.3929    -0.0073     0.1687  -999.2500   103.0639  -999.2500     8.5941     8.8803  -999.2500
  116.5000   147.5690     8.3518     2.3946    -0.0007     0.1680  -999.2500   103.8117  -999.2500     8.2687     8.5255  -999.2500
  117.0000   146.8130     8.3532     2.3983     0.0041     0.1659  -999.2500   104.5594  -999.2500     7.9567     8.1849  -999.2500
  117.5000   144.7408     8.3546     2.4021    -0.0028     0.1633  -999.2500   105.0849  -999.2500     7.7242     7.8676  -999.2500
  118.0000   141.2608     8.3559     2.4058    -0.0145     0.1609  -999.2500   104.7098  -999.2500     7.8170     7.9488  -999.2500
  118.5000   138.7093     8.3550     2.4097    -0.0179     0.1607  -999.2500   103.5051  -999.2500     7.8513     8.0285  -999.2500
  119.0000   140.9682     8.3542     2.4152     0.0082     0.1587  -999.2500   102.3004  -999.2500     7.8856     8.1089  -999.2500
  119.5000   142.6852     8.3534     2.4209     0.0338     0.1543  -999.2500   101.9880  -999.2500     7.9201     8.1902  -999.2500
  120.0000   142.1206     8.3526     2.4267     0.0505     0.1541  -999.2500   102.2428  -999.2500     7.9546     8.2722  -999.2500
  120.5000   144.0239     8.3518     2.4239     0.0397     0.1591  -999.2500   102.4920  -999.2500     8.0200     8.3551  -999.2500
  121.0000   146.2891     8.3510     2.4171     0.0293     0.1608  -999.2500   102.6411  -999.2500     8.0859     8.4389  -999.2500
  121.5000   148.4807     8.3502     2.4103     0.0189     0.1593  -999.2500   102.4274  -999.2500     8.1524     8.5234  -999.2500
  122.0000   149.5935     8.3494     2.4068     0.0084     0.1607  -999.2500   102.2138  -999.2500     8.2195     8.6088  -999.2500
  122.5000   150.5081     8.3486     2.4205    -0.0023     0.1413  -999.2500   102.2108  -999.2500     8.2871     8.6705  -999.2500
  123.0000   148.5899     8.3478     2.4339    -0.0077     0.1411  -999.2500   102.5099  -999.2500     8.3915     8.7454  -999.2500
  123.5000   148.6184     8.3470     2.4459    -0.0002     0.1411  -999.2500   102.8090  -999.2500     8.5208     8.8215  -999.2500
  124.0000   149.4994     8.3462     2.4439     0.0130     0.1411  -999.2500   102.9618  -999.2500     8.6520     8.8847  -999.2500
  124.5000   151.8937     8.3455     2.4409     0.0261     0.1399  -999.2500   102.8995  -999.2500     8.7851     8.9812  -999.2500
  125.0000   147.4698     8.3447     2.4447     0.0395     0.1379  -999.2500   102.5275  -999.2500     8.7985     9.0778  -999.2500
  125.5000   143.6991     8.3439     2.4489     0.0477     0.1387  -999.2500   101.8794  -999.2500     8.8660     9.1755  -999.2500
  126.0000   140.5589     8.3431     2.4530     0.0460     0.1353  -999.2500   101.2314  -999.2500     8.9341     9.2743  -999.2500
  126.5000   141.5050     8.3423     2.4571     0.0374     0.1319  -999.2500   100.5833  -999.2500     9.0026     9.3740  -999.2500
  127.0000   145.7145     8.3415     2.4598     0.0288     0.1341  -999.2500   100.0899  -999.2500     9.0717     9.4554  -999.2500
  127.5000   150.7812     8.3407     2.4496     0.0201     0.1409  -999.2500   100.3601  -999.2500     9.1413     9.4554  -999.2500
  128.0000   150.5132     8.3399     2.4351     0.0114     0.1505  -999.2500   100.8170  -999.2500     9.2119     9.4555  -999.2500
  128.5000   149.3292     8.3391     2.4236     0.0121     0.1487  -999.2500   101.2662  -999.2500     9.2829     9.4554  -999.2500
  129.0000   149.6766     8.3383     2.4291     0.0222     0.1469  -999.2500   101.6816  -999.2500     9.2596     9.4554  -999.2500
  129.5000   150.4862     8.3375     2.4346     0.0322     0.1467  -999.2500   102.0971  -999.2500     9.2350     9.4558  -999.2500
  130.0000   148.1747     8.3367     2.4377     0.0280     0.1487  -999.2500   102.5125  -999.2500     9.2108     9.4388  -999.2500
  130.5000   141.9373     8.3361     2.4331     0.0136     0.1579  -999.2500   102.8871  -999.2500     9.1867     9.4175  -999.2500
  131.0000   139.1665     8.3390     2.4246    -0.0007     0.1561  -999.2500   102.7286  -999.2500     9.1627     9.3963  -999.2500
  131.5000   141.0204     8.3419     2.4162    -0.0098     0.1595  -999.2500   102.3876  -999.2500     9.1387     9.3751  -999.2500
  132.0000   146.2418     8.3447     2.4093     0.0002     0.1571  -999.2500   101.9021  -999.2500     9.1147     9.3540  -999.2500
  132.5000   150.8779     8.3475     2.4167     0.0103     0.1503  -999.2500   101.4036  -999.2500     9.0909     9.3329  -999.2500
  133.0000   150.7516     8.3503     2.4252     0.0203     0.1499  -999.2500   101.3330  -999.2500     9.0671     9.3119  -999.2500
  133.5000   150.8479     8.3531     2.4289     0.0273     0.1499  -999.2500   101.3905  -999.2500     9.0434     9.2909  -999.2500
  134.0000   152.8027     8.3559     2.4316     0.0323     0.1483  -999.2500   101.4480  -999.2500     9.0197     9.2699  -999.2500
  134.5000   155.1536     8.3587     2.4333     0.0213     0.1483  -999.2500   101.5058  -999.2500     8.9961     9.2491  -999.2500
  135.0000   152.4451     8.3615     2.4323     0.0085     0.1484  -999.2500   101.5628  -999.2500     8.9725     9.2282  -999.2500
  135.5000   148.7491     8.3643     2.4315     0.0075     0.1464  -999.2500   101.5543  -999.2500     8.9486     9.2075  -999.2500
  136.0000   147.6955     8.3671     2.4388     0.0238     0.1385  -999.2500   101.4915  -999.2500     8.9227     9.1759  -999.2500
  136.5000   148.0406     8.3699     2.4482     0.0366     0.1393  -999.2500   101.4292  -999.2500     8.8894     9.1359  -999.2500
  137.0000   150.6039     8.3727     2.4481     0.0223     0.1407  -999.2500   101.3277  -999.2500     8.8561     9.0961  -999.2500
  137.5000   150.2258     8.3756     2.4447     0.0285     0.1415  -999.2500   101.1542  -999.2500     8.8230     9.0564  -999.2500
  138.0000   146.4520     8.3758     2.4443     0.0422     0.1429  -999.2500   100.9806  -999.2500     8.7901     9.0169  -999.2500
  138.5000   145.2119     8.3757     2.4364     0.0206     0.1467  -999.2500   100.8074  -999.2500     8.7572     8.9776  -999.2500
  139.0000   145.3663     8.3757     2.4326    -0.0055     0.1479  -999.2500   100.6316  -999.2500     8.7245     8.9385  -999.2500
  139.5000   145.3570     8.3757     2.4363    -0.0157     0.1455  -999.2500   100.6511  -999.2500     8.6919     8.8995  -999.2500
  140.0000   145.9666     8.3757     2.4419     0.0043     0.1415  -999.2500   100.8036  -999.2500     8.6594     8.8662  -999.2500
  140.5000   151.4877     8.3757     2.4476     0.0234     0.1379  -999.2500   101.0354  -999.2500     8.6250     8.7710  -999.2500
  141.0000   151.9239     8.3757     2.4517     0.0294     0.1367  -999.2500   101.3667  -999.2500     8.4991     8.6439  -999.2500
  141.5000   155.2574     8.3757     2.4494     0.0193     0.1367  -999.2500   101.7001  -999.2500     8.3610     8.5187  -999.2500
  142.0000   157.0111     8.3757     2.4402     0.0117     0.1453  -999.2500   102.0320  -999.2500     8.2252     8.3953  -999.2500
