~VERSION INFORMATION
 VERS.                2.0:   CWLS LOG ASCII STANDARD - VERSION 2.0
 WRAP.                 NO:   ONE LINE PER DEPTH STEP
~WELL INFORMATION
#MNEM.UNIT      DATA TYPE    INFORMATION
#----------   ------------   ------------------------------
 STRT.F           36.0000:   START DEPTH
 STOP.F          442.0000:   STOP DEPTH
 STEP.F            0.5000:   STEP LENGTH
 NULL.          -999.2500:   NO VALUE
 COMP.    FENIX & SCISSON:   COMPANY
 WELL.      NPR #66-SX-10:   WELL
 FLD .             TEAPOT:   FIELD
 LOC .      S10 T38N R78W:   LOCATION
 CNTY.            NATRONA:   COUNTY
 STAT.            WYOMING:   STATE
 CTRY. UNITED STATES OF AMERICA:   COUNTRY
 SRVC.              Welex:   SERVICE COMPANY
 DATE.        19-APR-1977:   LOGDATE
 API .       490251036100:   API NUMBER
~CURVE INFORMATION
#MNEM.UNIT       API CODE    CURVE DESCRIPTION
#----------   ------------   ------------------------------
 DEPT.F                  :   
 CALD.IN     45 280 60 00:   CALIPER FROM DENSITY LOG
 DPHI.DEC    45 890 12 00:   DENSITY POROSITY SANDSTONE
 DRHO.G/C3   45 356 01 00:   DENSITY CORRECTION
 GRD .GAPI   45 310 01 00:   GAMMA RAY FROM DENSITY LOG
 RHOB.G/C3   45 350 01 00:   BULK DENSITY
 ILD .OHMM   07 120 46 00:   INDUCTION LOG DEEP
 ILM .OHMM   07 120 44 00:   INDUCTION LOG MEDIUM
 SGRD.OHMM   07 221 05 00:   SHALLOW SHORT GUARD RESISTIVITY
 SPR .MV     07 010 01 00:   SPONTANEOUS POTENTIAL
~PARAMETER INFORMATION
#MNEM.UNIT          VALUE    DESCRIPTION
#----------   ------------   ------------------------------
 PD  .                 GL:   PERMANENT DATUM
 EPD .F              5200:   ELEVATION PERMANENT DATUM
 LMF .                 GL:   LOG MEASURED FROM
 DMF .                 GL:   DRILLING MEASURED FROM
 EGL .F              5200:   GROUND LEVEL
 DATE.        19-APR-1977:   RUN DATE
 RUN .                  1:   RUN NUMBER
 DD  .F               476:   DEPTH DRILLER
 DL  .F               447:   DEPTH LOGGER
 BLI .F               445:   BOTTOM LOG INTERVAL
 TLI .F                35:   TOP LOG INTERVAL
 CS  .IN            8.625:   CASING SIZE
 CBD .F                42:   CASING BOTTOM DRILLER
 CBL .F                42:   CASING BOTTOM LOGGER
 BS  .IN            7.875:   BIT SIZE
 BSD .F               476:   BIT SIZE AT DEPTH
 DFT .            KCL MUD:   DRILLING FLUID TYPE
 DFD .                8.8:   DRILLING FLUID DENSITY
 DFV .                 37:   DRILLING FLUID VISCOSITY
 MSS .           FLOWLINE:   MUD SAMPLE SOURCE
 RMS .OHMM           1.06:   RESISTIVITY MUD SAMPLE
 MST .F                48:   MUD SAMPLE TEMPERATURE
 RMF .OHMM           1.03:   RESISTIVITY MUD FILTRATE SAMPLE
 MFST.F                48:   MUD FILTRATE SAMPLE TEMPERATURE
 RMC .OHMM           1.18:   RESISTIVITY MUD CAKE
 MCST.F                48:   MUD CAKE SAMPLE TEMPERATURE
 MFSS.               MEAS:   MUD FILTRATE SAMPLE SOURCE
 MCSS.               MEAS:   MUD CAKE SAMPLE SOURCE
 RMB .OHMM           0.86:   RESISTIVITY MUD AT BHT
 BHT .F                59:   BOTTOM HOLE TEMPERATURE
 TCS .HRS               5:   TIME CURCULATED STOPPED
 MRT .F                59:   MAXIMUM RECORDED TEMPERATURE
 LUN .               8611:   LOGGING UNIT NUMBER
 LUL .             CASPER:   LOGGING UNIT LOCATION
 ENGI.               DOAK:   RECORDING ENGINEER
 WITN.        MR. R. LYON:   WITNESSED BY
 CLNT.            A2DTECH:   CLIENT CODE
 ORIG.      2.5" 5" PRINT:   ORIGIN OF DATA
 UWI .       490251036100:   UNIQUE WELL ID
 DICO. A2D Technologies, Inc.:   DIGITIZING COMPANY
~OTHER INFORMATION
~A   DEPT     CALD       DPHI       DRHO         GRD      RHOB        ILD        ILM       SGRD        SPR   
# ...
  401.0000     7.8143     0.1003     0.0099    92.8829     2.4829    13.0891    14.1932    19.0470   -39.8541
  401.5000     7.8150     0.0964     0.0130    92.0048     2.4904    13.0795    14.2963    19.2984   -39.8684
  402.0000     7.8305     0.0906     0.0161    89.6230     2.4972    12.8931    14.2894    19.2871   -39.8828
  402.5000     7.8313     0.0882     0.0146    87.7348     2.5002    12.8837    14.4788    19.2766   -39.8971
  403.0000     7.8322     0.0903     0.0087    85.6725     2.4957    12.7000    14.6695    19.2661   -39.9115
  403.5000     7.8329     0.0945     0.0042    78.7106     2.4843    12.5190    14.6627    19.1642   -39.9258
  404.0000     7.8186     0.0960    -0.0004    73.1451     2.4809    12.5006    14.4572    18.7269   -39.6452
  404.5000     7.7900     0.0971    -0.0017  -999.2500     2.4862    12.1642    14.2546    18.6026   -39.6608
  405.0000     7.7316     0.0986     0.0044  -999.2500     2.4795    12.1801    14.4443    18.2029   -39.6755
  405.5000     7.6880     0.1016     0.0060  -999.2500     2.4713    12.4824    14.6354    18.1930   -39.6903
  406.0000     7.7478     0.1033     0.0045  -999.2500     2.4766    12.4721    14.8297    18.1811   -39.7079
  406.5000     7.7653     0.1045     0.0015  -999.2500     2.4706    12.6351    15.0262    18.4211   -39.7225
  407.0000     7.7049     0.1057    -0.0029  -999.2500     2.4617    12.6243    15.2256    18.6642   -39.7371
  407.5000     8.0677     0.1063    -0.0044  -999.2500     2.4632    12.8339    15.4276    18.6543   -39.7517
  408.0000     8.3418     0.1026    -0.0013  -999.2500     2.4738    12.6536    15.6322    18.6444   -39.7663
  408.5000     8.1211     0.0987     0.0033  -999.2500     2.4776    12.6471    15.5700    18.6344   -39.7809
  409.0000     8.0479     0.1029     0.0079  -999.2500     2.4790    12.6407    15.2931    18.8809   -39.7955
  409.5000     8.0486     0.0987     0.0048  -999.2500     2.4768    12.4632    14.8645    18.6146   -39.8083
  410.0000     8.0493     0.1073    -0.0010  -999.2500     2.4694    12.4569    14.7128    18.6047   -39.8246
  410.5000     8.0351     0.1154    -0.0025  -999.2500     2.4560    12.4505    14.7028    18.5945   -39.8392
  411.0000     8.0360     0.1169    -0.0040  -999.2500     2.4508    12.4441    14.4937    18.5844   -39.5575
  411.5000     8.0367     0.1152    -0.0054  -999.2500     2.4561    12.2695    14.4838    18.3225   -39.5734
  412.0000     8.0374     0.1108    -0.0069  -999.2500     2.4524    12.0973    14.4739    18.0644   -39.5880
  412.5000     8.0234     0.1177    -0.0068  -999.2500     2.4487    12.0434    14.4640    17.7495   -39.3076
  413.0000     8.0241     0.1153    -0.0082  -999.2500     2.4542    11.9214    14.4542    17.5589   -39.3222
  413.5000     8.0249     0.1127    -0.0036  -999.2500     2.4779    11.7540    14.4443    17.4661   -39.0418
  414.0000     8.0257     0.1085     0.0145  -999.2500     2.4712    11.6897    14.2369    17.3020   -39.0564
  414.5000     8.0088     0.1133    -0.0006  -999.2500     2.4429    11.5217    14.2274    17.2926   -39.3659
  415.0000     7.9975     0.1172    -0.0188  -999.2500     2.4369    11.4205    14.0251    16.7071   -39.6755
  415.5000     7.9688     0.1205    -0.0155  -999.2500     2.4549    11.2602    14.0157    15.9159   -39.6903
  416.0000     7.9504     0.1205    -0.0064  -999.2500     2.4452    11.1022    13.8165    16.1257   -39.7050
  416.5000     7.9406     0.1208    -0.0003  -999.2500     2.4400    10.8735    13.8072    16.1154   -40.0147
  417.0000     7.9118     0.1205     0.0013  -999.2500     2.4453    10.7173    13.6110    15.3892   -40.0557
  417.5000     7.8953     0.1181     0.0225  -999.2500     2.4822    10.3444    13.4175    14.9648   -40.3392
  418.0000     7.8543     0.1094     0.0271  -999.2500     2.4711     9.9944    13.0476    14.7521   -40.3933
  418.5000     7.8401     0.1058     0.0301  -999.2500     2.4544     9.6401    12.8621    14.3452   -40.7096
  419.0000     7.7966     0.1132     0.0300  -999.2500     2.4597     9.0215    12.6793    14.1413   -40.9734
  419.5000     7.7235     0.1214     0.0393  -999.2500     2.4440     8.5387    12.3297    14.1317   -41.2832
  420.0000     7.6355     0.1232     0.0500  -999.2500     2.4455     8.0817    11.9897    13.9308   -41.3635
  420.5000     7.4885     0.1175     0.0548  -999.2500     2.4683     7.5457    11.6485    13.7328   -41.6077
  421.0000     7.2527     0.1107     0.0742  -999.2500     2.4734     6.9498    11.0123    12.9945   -41.7011
  421.5000     6.9884     0.1125     0.0814  -999.2500     2.4564     6.4889    10.2429    10.8750   -41.9322
  422.0000     6.9934     0.1196     0.0969  -999.2500     2.4489     6.0585     9.2551     9.1012   -41.6496
  422.5000  -999.2500     0.1006     0.0931  -999.2500     2.4795     5.8129     8.0259     8.4953   -41.6667
  423.0000  -999.2500     0.0998     0.0931  -999.2500     2.4905     5.7314     8.1941     8.7297   -41.3838
  423.5000  -999.2500  -999.2500  -999.2500  -999.2500  -999.2500     5.8071     8.6841     9.6612   -41.1034
  424.0000  -999.2500  -999.2500  -999.2500  -999.2500  -999.2500     5.8838     9.3964    12.6649   -40.7080
  424.5000  -999.2500  -999.2500  -999.2500  -999.2500  -999.2500     6.0432    10.0205    14.2641   -40.5457
  425.0000  -999.2500  -999.2500  -999.2500  -999.2500  -999.2500     6.3785    10.4369    14.8141   -40.6916
  425.5000  -999.2500  -999.2500  -999.2500  -999.2500  -999.2500     7.1095    10.9257    14.6028   -41.4405
  426.0000  -999.2500  -999.2500  -999.2500  -999.2500  -999.2500     8.7172    11.5733    14.5929   -42.5041
  426.5000  -999.2500  -999.2500  -999.2500  -999.2500  -999.2500     9.4549    11.7228    14.5829   -42.6696
  427.0000  -999.2500  -999.2500  -999.2500  -999.2500  -999.2500     9.8467    11.8757    14.5730   -42.3894
  427.5000  -999.2500  -999.2500  -999.2500  -999.2500  -999.2500    10.1170    11.9491    14.7642   -41.9453
  428.0000  -999.2500  -999.2500  -999.2500  -999.2500  -999.2500    10.3854    12.1876    14.8026   -41.4880
  428.5000  -999.2500  -999.2500  -999.2500  -999.2500  -999.2500    10.3799    12.2741    15.0003   -40.6666
  429.0000  -999.2500  -999.2500  -999.2500  -999.2500  -999.2500    10.3746    12.5077    15.3500   -41.2712
  429.5000  -999.2500  -999.2500  -999.2500  -999.2500  -999.2500    10.2290    12.6709    15.5820   -43.0557
  430.0000  -999.2500  -999.2500  -999.2500  -999.2500  -999.2500    10.0854    13.0111    15.7534   -43.6602
  430.5000  -999.2500  -999.2500  -999.2500  -999.2500  -999.2500    10.0802    13.1810    15.7409   -43.6748
  431.0000  -999.2500  -999.2500  -999.2500  -999.2500  -999.2500    10.1050    13.7226    15.9483   -43.3944
  431.5000  -999.2500  -999.2500  -999.2500  -999.2500  -999.2500    10.2087    14.4826    16.1565   -43.1140
  432.0000  -999.2500  -999.2500  -999.2500  -999.2500  -999.2500    10.3435    15.2848    16.4600   -42.8336
  432.5000  -999.2500  -999.2500  -999.2500  -999.2500  -999.2500    10.4801    15.4853    16.9090   -42.5516
  433.0000  -999.2500  -999.2500  -999.2500  -999.2500  -999.2500    10.6638    15.2643    17.3702   -41.9779
  433.5000  -999.2500  -999.2500  -999.2500  -999.2500  -999.2500    10.9565    15.2541    17.6022   -41.9924
  434.0000  -999.2500  -999.2500  -999.2500  -999.2500  -999.2500    11.3144    15.0372    18.0823   -41.7109
  434.5000  -999.2500  -999.2500  -999.2500  -999.2500  -999.2500    12.1803    15.0272    18.4404   -41.7266
  435.0000  -999.2500  -999.2500  -999.2500  -999.2500  -999.2500    13.1220    15.0171    18.8236   -41.7412
  435.5000  -999.2500  -999.2500  -999.2500  -999.2500  -999.2500    14.0776    15.0070    19.0749   -41.7558
  436.0000  -999.2500  -999.2500  -999.2500  -999.2500  -999.2500    15.0727    15.2166    19.1717   -40.2234
  436.5000  -999.2500  -999.2500  -999.2500  -999.2500  -999.2500    15.8122    15.6340    18.3878   -36.7976
  437.0000  -999.2500  -999.2500  -999.2500  -999.2500  -999.2500    16.5866    16.3443    16.9310   -35.6544
