~VERSION INFORMATION
 VERS.                2.0:   CWLS LOG ASCII STANDARD - VERSION 2.0
 WRAP.                 NO:   ONE LINE PER DEPTH STEP
~WELL INFORMATION
#MNEM.UNIT      DATA TYPE    INFORMATION
#----------   ------------   ------------------------------
 STRT.F            6.0000:   START DEPTH
 STOP.F          640.0000:   STOP DEPTH
 STEP.F            0.5000:   STEP LENGTH
 NULL.          -999.2500:   NO VALUE
 COMP. LAWRENCE/ALLISON INC:   COMPANY
 WELL. NPR 3 #81-11-SX-15:   WELL
 FLD .             TEAPOT:   FIELD
 LOC .      S15 T38N R78W:   LOCATION
 CNTY.            NATRONA:   COUNTY
 STAT.            WYOMING:   STATE
 CTRY. UNITED STATES OF AMERICA:   COUNTRY
 SRVC.           Gearhart:   SERVICE COMPANY
 DATE.        15-JUL-1987:   LOGDATE
 API .       490251115100:   API NUMBER
~CURVE INFORMATION
#MNEM.UNIT       API CODE    CURVE DESCRIPTION
#----------   ------------   ------------------------------
 DEPT.F                  :   
 GRR .GAPI   07 310 01 00:   GAMMA RAY
 RILD.OHMM   07 120 46 00:   INDUCTION LOG DEEP RESISTIVITY
 RILM.OHMM   07 120 44 00:   INDUCTION LOG MEDIUM RESISTIVITY
~PARAMETER INFORMATION
#MNEM.UNIT          VALUE    DESCRIPTION
#----------   ------------   ------------------------------
 PD  .                 GL:   PERMANENT DATUM
 EPD .F            5265.4:   ELEVATION PERMANENT DATUM
 LMF .                 KB:   LOG MEASURED FROM
 DAPD.F                 8:   FEET ABOVE PERMANENT DATUM
 DMF .                 KB:   DRILLING MEASURED FROM
 EKB .F            5273.4:   KELLING BUSHING
 EDF .F            5271.4:   DRILLING FLOOR
 EGL .F            5265.4:   GROUND LEVEL
 DATE.        15-JUL-1987:   RUN DATE
 RUN .                  1:   RUN NUMBER
 DD  .F               646:   DEPTH DRILLER
 DL  .F               648:   DEPTH LOGGER
 BLI .F               640:   BOTTOM LOG INTERVAL
 TLI .F                 6:   TOP LOG INTERVAL
 CS  .IN            8.625:   CASING SIZE
 CBD .F                50:   CASING BOTTOM DRILLER
 CBL .F                50:   CASING BOTTOM LOGGER
 BS  .IN             7.87:   BIT SIZE
 BSD .F               646:   BIT SIZE AT DEPTH
 DFT .                AIR:   DRILLING FLUID TYPE
 TCS .HRS            2400:   TIME CURCULATED STOPPED
 TLAB.HRS            0112:   TIME LOGGER AT BOTTOM
 LUN .               7597:   LOGGING UNIT NUMBER
 LUL .           GILLETTE:   LOGGING UNIT LOCATION
 ENGI.           JOHNSTON:   RECORDING ENGINEER
 WITN.         MR. STRONG:   WITNESSED BY
 CLNT.            A2DTECH:   CLIENT CODE
 ORIG.      2" , 5" PRINT:   ORIGIN OF DATA
 UWI .       490251115100:   UNIQUE WELL ID
 DICO. A2D Technologies, Inc.:   DIGITIZING COMPANY
~OTHER INFORMATION
~A    DEPT     GRR       RILD       RILM   
    6.0000  -999.2500  -999.2500  -999.2500
    6.5000    50.4264  -999.2500  -999.2500
    7.0000    61.9389  -999.2500  -999.2500
    7.5000    69.5178  -999.2500  -999.2500
    8.0000    79.5174  -999.2500  -999.2500
    8.5000    82.8604  -999.2500  -999.2500
    9.0000    82.5725  -999.2500  -999.2500
    9.5000    84.1000  -999.2500  -999.2500
   10.0000    85.6480  -999.2500  -999.2500
   10.5000    86.2474  -999.2500  -999.2500
   11.0000    85.3544  -999.2500  -999.2500
   11.5000    84.1625  -999.2500  -999.2500
   12.0000    82.9669  -999.2500  -999.2500
   12.5000    83.2841  -999.2500  -999.2500
   13.0000    85.4168  -999.2500  -999.2500
   13.5000    86.6418  -999.2500  -999.2500
   14.0000    85.7408  -999.2500  -999.2500
   14.5000    85.8084  -999.2500  -999.2500
   15.0000    87.5972  -999.2500  -999.2500
   15.5000    90.0325  -999.2500  -999.2500
   16.0000    92.4678  -999.2500  -999.2500
   16.5000    91.5747  -999.2500  -999.2500
   17.0000    87.9586  -999.2500  -999.2500
   17.5000    85.5522  -999.2500  -999.2500
   18.0000    86.1725  -999.2500  -999.2500
   18.5000    86.4902  -999.2500  -999.2500
   19.0000    84.9953  -999.2500  -999.2500
   19.5000    83.1945  -999.2500  -999.2500
   20.0000    85.0247  -999.2500  -999.2500
   20.5000    89.8805  -999.2500  -999.2500
   21.0000    92.0132  -999.2500  -999.2500
   21.5000    89.0022  -999.2500  -999.2500
   22.0000    86.8988  -999.2500  -999.2500
   22.5000    85.0378  -999.2500  -999.2500
   23.0000    87.8396  -999.2500  -999.2500
   23.5000    88.7620  -999.2500  -999.2500
   24.0000    88.1715  -999.2500  -999.2500
   24.5000    87.5811  -999.2500  -999.2500
   25.0000    88.8061  -999.2500  -999.2500
   25.5000    90.3336  -999.2500  -999.2500
   26.0000    90.9534  -999.2500  -999.2500
   26.5000    89.4473  -999.2500  -999.2500
   27.0000    87.6107  -999.2500  -999.2500
   27.5000    89.4883  -999.2500  -999.2500
   28.0000    92.8313  -999.2500  -999.2500
   28.5000    93.7500  -999.2500  -999.2500
   29.0000    89.8350  -999.2500  -999.2500
   29.5000    87.1265  -999.2500  -999.2500
   30.0000    86.2330  -999.2500  -999.2500
   30.5000    85.9456  -999.2500  -999.2500
   31.0000    83.5078  -999.2500  -999.2500
   31.5000    80.8349  -999.2500  -999.2500
   32.0000    82.6650  -999.2500  -999.2500
   32.5000    84.7977  -999.2500  -999.2500
   33.0000    86.9304  -999.2500  -999.2500
   33.5000    87.8528  -999.2500  -999.2500
   34.0000    89.0778  -999.2500  -999.2500
   34.5000    90.9079  -999.2500  -999.2500
   35.0000    92.4559  -999.2500  -999.2500
   35.5000    93.0590  -999.2500  -999.2500
   36.0000    93.3762  -999.2500  -999.2500
   36.5000    93.3909  -999.2500  -999.2500
   37.0000    92.1953  -999.2500  -999.2500
   37.5000    91.3023  -999.2500  -999.2500
   38.0000    90.4056  -999.2500  -999.2500
   38.5000    89.8185  -999.2500  -999.2500
   39.0000    88.3127  -999.2500  -999.2500
   39.5000    86.1735  -999.2500  -999.2500
   40.0000    83.5089  -999.2500  -999.2500
   40.5000    85.9478  -999.2500  -999.2500
   41.0000    89.2908  -999.2500  -999.2500
   41.5000    91.7260  -999.2500  -999.2500
   42.0000    94.1613  -999.2500  -999.2500
   42.5000    95.3863  -999.2500  -999.2500
   43.0000    93.5855  -999.2500  -999.2500
   43.5000    91.1796  -999.2500  -999.2500
   44.0000    92.4083  -999.2500  -999.2500
   44.5000    90.9101  -999.2500  -999.2500
   45.0000    88.5042  -999.2500  -999.2500
   45.5000    84.8881  -999.2500  -999.2500
   46.0000    84.2939  -999.2500  -999.2500
   46.5000    87.9431  -999.2500  -999.2500
   47.0000    89.7733  -999.2500  -999.2500
   47.5000    90.3933  -999.2500  -999.2500
   48.0000    89.2012  -999.2500  -999.2500
   48.5000    87.4004  -999.2500  -999.2500
   49.0000    84.9945  -999.2500  -999.2500
   49.5000    84.0978  -999.2500  -999.2500
   50.0000    96.8242   292.4583  -999.2500
   50.5000   106.2186    13.6107   231.8360
   51.0000   113.4950     4.0950    12.8627
   51.5000   118.3752     3.4667     4.3670
   52.0000   121.1780     3.6141     3.2188
   52.5000   123.5277     9.4184     3.3163
   53.0000   119.6089    12.5188     3.8643
   53.5000   115.6902    13.6062     4.5977
   54.0000   115.3986    12.6938     5.7033
   54.5000   118.1401     8.4161     6.6457
   55.0000   120.2728     7.4317     7.4275
   55.5000   122.7081     7.3871     7.7978
   56.0000   125.2083     7.5426     7.6036
   56.5000   123.9514     7.8633     6.7857
   57.0000   119.1249     8.0847     6.5085
   57.5000   116.7191     8.0847     6.5085
   58.0000   115.5235     7.7549     6.5085
   58.5000   114.3279     7.4904     6.5539
   59.0000   116.4068     7.2329     6.6920
   59.5000   118.2339     7.0293     6.8331
   60.0000   117.6405     6.8441     6.8807
   60.5000   115.5343     6.9881     6.8807
   61.0000   116.7988     7.0858     6.8331
   61.5000   119.8971     7.3871     6.7857
   62.0000   121.3213     7.4904     6.6920
   62.5000   121.6327     7.4904     6.7857
   63.0000   120.7396     7.3871     6.8807
   63.5000   119.2385     7.3902     7.0257
   64.0000   116.5271     7.6043     7.1241
   64.5000   115.3283     7.9181     7.2431
   65.0000   117.1760     8.0847     7.3760
   65.5000   118.4256     8.1410     7.4793
   66.0000   116.8796     7.9732     7.6369
   66.5000   113.2605     7.8633     7.7239
   67.0000   111.1513     8.1977     7.9207
   67.5000   113.2839     8.4871     8.0736
   68.0000   114.2034     8.7917     8.1866
   68.5000   113.3074     9.0342     8.3591
   69.0000   110.8865     8.9097     8.4762
   69.5000   107.1497     8.7261     8.4175
   70.0000   104.2655     8.7261     8.3012
   70.5000   109.7264     8.5674     8.1299
   71.0000   112.4613     8.3123     7.9621
   71.5000   114.5911     8.0920     7.8522
   72.0000   113.9977     7.9732     7.6902
   72.5000   111.2863     7.9181     7.5315
   73.0000   109.4806     7.8633     7.4275
   73.5000   109.5734     7.8089     7.3760
   74.0000   111.3244     7.8124     7.2238
   74.5000   111.6358     7.9181     7.1738
   75.0000   110.1376     7.9181     7.1241
   75.5000   111.0571     7.9181     7.1738
   76.0000   112.8843     7.9732     7.2238
   76.5000   111.9883     7.9732     7.2742
   77.0000   109.8820     7.9732     7.2816
   77.5000   107.1004     7.9797     7.4275
   78.0000   108.0930     8.0287     7.5315
   78.5000   110.5253     8.0287     7.6369
   79.0000   112.9576     8.0338     7.7438
   79.5000   114.7848     8.1410     7.8522
   80.0000   115.3988     8.2291     7.8522
   80.5000   112.3877     8.2548     7.8522
   81.0000   109.0712     8.1977     7.8522
   81.5000   107.5700     8.2548     7.8522
   82.0000   109.7027     8.3701     7.6369
   82.5000   111.5299     8.5463     7.6369
   83.0000   113.0545     8.6657     7.7438
   83.5000   113.9739     8.6058     7.7978
   84.0000   112.1703     8.5463     7.8522
   84.5000   109.7614     8.4871     7.9621
   85.0000   107.3526     8.4284     7.9621
   85.5000   107.4463     8.3701     7.9621
   86.0000   111.0099     8.2789     7.9070
   86.5000   110.1139     8.0847     7.8522
   87.0000   109.8201     7.9181     7.7438
   87.5000   112.2554     7.7549     7.6369
   88.0000   117.7134     7.7013     7.4275
   88.5000   121.9612     7.7549     7.2742
   89.0000   121.0652     7.6789     7.0734
   89.5000   117.0742     7.6312     6.9217
   90.0000   115.9450     7.5951     6.8331
   90.5000   121.7085     7.6480     6.8331
   91.0000   125.9562     7.6480     6.8331
   91.5000   127.4808     7.6588     6.8331
   92.0000   123.8617     7.7216     6.8807
   92.5000   119.6375     7.7549     6.8807
   93.0000   115.4132     7.7377     6.8807
   93.5000   118.7534     7.7013     6.9339
   94.0000   119.0675     7.7013     7.0257
   94.5000   116.0565     7.7549     7.0257
   95.0000   113.3451     7.8089     7.1241
   95.5000   111.8440     7.8089     7.2742
   96.0000   110.6454     7.8089     7.3760
   96.5000   109.4469     7.9732     7.4793
