~VERSION INFORMATION
 VERS.                2.0:   CWLS LOG ASCII STANDARD - VERSION 2.0
 WRAP.                 NO:   ONE LINE PER DEPTH STEP
~WELL INFORMATION
#MNEM.UNIT      DATA TYPE    INFORMATION
#----------   ------------   ------------------------------
 STRT.F           16.0000:   START DEPTH
 STOP.F         2438.0000:   STOP DEPTH
 STEP.F            0.5000:   STEP LENGTH
 NULL.          -999.2500:   NO VALUE
 COMP. FENIX & SCISSON INC:   COMPANY
 WELL.      15 SHX #27-27:   WELL
 FLD .             TEAPOT:   FIELD
 LOC .      S27 T39N R78W:   LOCATION
 CNTY.            NATRONA:   COUNTY
 STAT.            WYOMING:   STATE
 CTRY. UNITED STATES OF AMERICA:   COUNTRY
 SRVC.            Unknown:   SERVICE COMPANY
 DATE.        09-JUN-1978:   LOGDATE
 API .       490251064100:   API NUMBER
~CURVE INFORMATION
#MNEM.UNIT       API CODE    CURVE DESCRIPTION
#----------   ------------   ------------------------------
 DEPT.F                  :   
 CALD.IN     45 280 60 00:   CALIPER FROM DENSITY LOG
 GRD .GAPI   45 310 01 00:   GAMMA RAY FROM DENSITY LOG
 CORR.G/C3   45 356 01 00:   DENSITY CORRECTION
 RHOB.G/C3   45 350 01 00:   BULK DENSITY
 DPHI.DEC    45 890 10 00:   DENSITY POROSITY LIMESTONE
~PARAMETER INFORMATION
#MNEM.UNIT          VALUE    DESCRIPTION
#----------   ------------   ------------------------------
 PD  .                 GL:   PERMANENT DATUM
 EPD .F              5062:   ELEVATION PERMANENT DATUM
 LMF .                 KB:   LOG MEASURED FROM
 DAPD.F                10:   FEET ABOVE PERMANENT DATUM
 DMF .                 KB:   DRILLING MEASURED FROM
 EKB .F              5072:   KELLING BUSHING
 EGL .F              5062:   GROUND LEVEL
 DATE.        09-JUN-1978:   RUN DATE
 RUN .                  1:   RUN NUMBER
 DD  .F              2450:   DEPTH DRILLER
 DL  .F              2445:   DEPTH LOGGER
 BLI .F              2438:   BOTTOM LOG INTERVAL
 TLI .F                10:   TOP LOG INTERVAL
 CS  .IN            9.625:   CASING SIZE
 CBD .F               688:   CASING BOTTOM DRILLER
 CBL .F               694:   CASING BOTTOM LOGGER
 BS  .IN             8.75:   BIT SIZE
 BSD .F              2450:   BIT SIZE AT DEPTH
 DFT .           AIR MIST:   DRILLING FLUID TYPE
 TCS .HRS               1:   TIME CURCULATED STOPPED
 LUN .               2958:   LOGGING UNIT NUMBER
 LUL .                CPR:   LOGGING UNIT LOCATION
 ENGI.             MILLER:   RECORDING ENGINEER
 WITN.           MCGINLEY:   WITNESSED BY
 CLNT.            A2DTECH:   CLIENT CODE
 ORIG.           5" PRINT:   ORIGIN OF DATA
 UWI .       490251064100:   UNIQUE WELL ID
 DICO. A2D Technologies, Inc.:   DIGITIZING COMPANY
~OTHER INFORMATION
~A   DEPT     CALD         GRD      CORR       RHOB       DPHI   
# ...
 1602.0000    10.3437    86.4224  -999.2500     2.5365     0.0043
 1602.5000    10.2838    86.4372  -999.2500     2.5384     0.0025
 1603.0000    10.1779    85.8375  -999.2500     2.5467    -0.0077
 1603.5000    10.1181    80.8204  -999.2500     2.5538    -0.0099
 1604.0000    10.1042    74.9646  -999.2500     2.5585    -0.0081
 1604.5000    10.1060    77.4371  -999.2500     2.5624    -0.0032
 1605.0000    10.1075    76.2230  -999.2500     2.5640     0.0014
 1605.5000    10.1090    73.9337  -999.2500     2.5656     0.0063
 1606.0000    10.1105    74.8702  -999.2500     2.5457     0.0106
 1606.5000    10.1120    76.2675  -999.2500     2.5196     0.0102
 1607.0000    10.1138    76.7587  -999.2500     2.5282     0.0087
 1607.5000    10.1153    77.5297  -999.2500     2.5367     0.0037
 1608.0000    10.1167    80.6167  -999.2500     2.5491     0.0009
 1608.5000    10.1182    82.9319  -999.2500     2.5436     0.0049
 1609.0000    10.1197    80.0318  -999.2500     2.5323     0.0064
 1609.5000    10.1212    75.7456  -999.2500     2.5478     0.0057
 1610.0000    10.1227    71.1521  -999.2500     2.5579     0.0011
 1610.5000    10.1245    70.2452  -999.2500     2.5634    -0.0061
 1611.0000    10.1106    70.4173  -999.2500     2.5658    -0.0027
 1611.5000    10.1121    72.5827  -999.2500     2.5643    -0.0046
 1612.0000    10.1136    80.2780  -999.2500     2.5606    -0.0009
 1612.5000    10.1151    79.5247  -999.2500     2.5584     0.0000
 1613.0000    10.1166    71.8591  -999.2500     2.5554    -0.0003
 1613.5000    10.1184    76.2132  -999.2500     2.5531    -0.0001
 1614.0000    10.1199    78.0368  -999.2500     2.5509    -0.0007
 1614.5000    10.1056    76.2082  -999.2500     2.5518    -0.0007
 1615.0000    10.0764    74.5333  -999.2500     2.5589    -0.0002
 1615.5000     9.9862    72.8584  -999.2500     2.5604     0.0029
 1616.0000     9.9724    71.4871  -999.2500     2.5513     0.0044
 1616.5000    10.0202    75.6530  -999.2500     2.5421    -0.0009
 1617.0000    10.0371    79.6929  -999.2500     2.5468    -0.0069
 1617.5000    10.0692    78.6049  -999.2500     2.5615    -0.0102
 1618.0000    10.0707    75.5475  -999.2500     2.5747    -0.0040
 1618.5000    10.0568    75.2514  -999.2500     2.5609     0.0018
 1619.0000    10.0430    75.1126  -999.2500     2.5502     0.0008
 1619.5000    10.0291    78.5105  -999.2500     2.5572    -0.0017
 1620.0000    10.0309    81.7512  -999.2500     2.5612    -0.0026
 1620.5000    10.0014    82.2268  -999.2500     2.5582    -0.0023
 1621.0000    10.0032    79.9411  -999.2500     2.5559    -0.0021
 1621.5000    10.0047    79.9560  -999.2500     2.5584    -0.0039
 1622.0000    10.0062    80.1244  -999.2500     2.5731    -0.0095
 1622.5000    10.0230    82.2897  -999.2500     2.5816    -0.0102
 1623.0000    10.0248    85.3767  -999.2500     2.5840    -0.0102
 1623.5000    10.0263    86.0061  -999.2500     2.5864    -0.0091
 1624.0000    10.0278    85.5636  -999.2500     2.5803    -0.0016
 1624.5000    10.0293    84.8104  -999.2500     2.5620    -0.0007
 1625.0000    10.0461    83.7499  -999.2500     2.5536     0.0011
 1625.5000    10.0629    80.9998  -999.2500     2.5506     0.0023
 1626.0000    10.0798    83.1651  -999.2500     2.5498     0.0010
 1626.5000    10.0815    86.4057  -999.2500     2.5577    -0.0009
 1627.0000    10.0523    85.0224  -999.2500     2.5616    -0.0031
 1627.5000     9.8391    76.3008  -999.2500     2.5624    -0.0056
 1628.0000     9.8095    77.3909  -999.2500     2.5610    -0.0071
 1628.5000     9.8727    79.2490  -999.2500     2.5649    -0.0075
 1629.0000     9.9356    79.8782  -999.2500     2.5673    -0.0081
 1629.5000     9.9681    77.7425  -999.2500     2.5674    -0.0078
 1630.0000     9.9849    75.6068  -999.2500     2.5652    -0.0032
 1630.5000     9.9864    75.6221  -999.2500     2.5628    -0.0004
 1631.0000     9.9878    75.6401  -999.2500     2.5507     0.0022
 1631.5000     9.9740    75.8085  -999.2500     2.5431     0.0050
 1632.0000     9.9755    76.5913  -999.2500     2.5409     0.0059
 1632.5000     9.9773    77.6814  -999.2500     2.5394     0.0062
 1633.0000     9.9788    79.3859  -999.2500     2.5380     0.0058
 1633.5000     9.9802    80.4762  -999.2500     2.5380     0.0055
 1634.0000     9.9817    80.4945  -999.2500     2.5482    -0.0090
 1634.5000     9.9832    79.1268  -999.2500     2.5675    -0.0125
 1635.0000     9.9847    76.6839  -999.2500     2.5699    -0.0131
 1635.5000     9.9708    76.5414  -999.2500     2.5707    -0.0134
 1636.0000     9.9727    76.5599  -999.2500     2.5708    -0.0138
 1636.5000     9.9741    77.0355  -999.2500     2.5670    -0.0132
 1637.0000     9.9756    77.6957  -999.2500     2.5564    -0.0084
 1637.5000     9.9771    80.1410  -999.2500     2.5518    -0.0028
 1638.0000     9.9786    80.4631  -999.2500     2.5534    -0.0028
 1638.5000     9.9647    79.4026  -999.2500     2.5620    -0.0041
 1639.0000     9.9052    77.1132  -999.2500     2.5659    -0.0063
 1639.5000     9.8607    74.5167  -999.2500     2.5660    -0.0091
 1640.0000     9.8621    72.3810  -999.2500     2.5620    -0.0103
 1640.5000     9.8636    72.8263  -999.2500     2.5562    -0.0107
 1641.0000     9.8651    77.1762  -999.2500     2.5555    -0.0110
 1641.5000     9.8819    76.5728  -999.2500     2.5648    -0.0110
 1642.0000     9.9141    77.5130  -999.2500     2.5680    -0.0108
 1642.5000     9.8852    80.6000  -999.2500     2.5650    -0.0089
 1643.0000     9.7640    78.6179  -999.2500     2.5533    -0.0043
 1643.5000     9.7498    73.2489  -999.2500     2.5497    -0.0013
 1644.0000     9.8743    74.5037  -999.2500     2.5629    -0.0075
 1644.5000     9.9371    80.5093  -999.2500     2.5661    -0.0081
 1645.0000     9.9540    81.1349  -999.2500     2.5654    -0.0079
 1645.5000     9.8331    75.7770  -999.2500     2.5609    -0.0073
 1646.0000     9.8035    76.5599  -999.2500     2.5627    -0.0079
 1646.5000     9.8054    84.4088  -999.2500     2.5888    -0.0095
 1647.0000     9.8068    84.7308  -999.2500     2.5912    -0.0196
 1647.5000     9.8083    80.1373  -999.2500     2.5782    -0.0231
 1648.0000     9.8098    82.1528  -999.2500     2.5621    -0.0158
 1648.5000     9.8116    82.4748  -999.2500     2.5568    -0.0148
 1649.0000     9.7974    82.4896  -999.2500     2.5569    -0.0189
 1649.5000     9.7686    82.5044  -999.2500     2.5893    -0.0257
 1650.0000     9.7544    81.9048  -999.2500     2.6055    -0.0282
 1650.5000     9.7558    80.4987  -999.2500     2.6010    -0.0233
 1651.0000     9.7722    79.9376  -999.2500     2.5934    -0.0138
 1651.5000     9.7639    79.4954  -999.2500     2.5480    -0.0003
 1652.0000     9.7547    77.6670  -999.2500     2.5427     0.0010
 1652.5000     9.7447    76.9101  -999.2500     2.5566    -0.0022
 1653.0000     9.7458    76.6178  -999.2500     2.5628    -0.0025
 1653.5000     9.7315    79.2477  -999.2500     2.5506    -0.0013
 1654.0000     9.7172    79.2627  -999.2500     2.5514    -0.0014
 1654.5000     9.7185    79.2996  -999.2500     2.5538    -0.0026
 1655.0000     9.7195    80.2178  -999.2500     2.5469    -0.0033
 1655.5000     9.7205    83.3049  -999.2500     2.5454    -0.0039
 1656.0000     9.7523    83.6233  -999.2500     2.5494    -0.0043
 1656.5000     9.9220    78.8800  -999.2500     2.5549    -0.0043
 1657.0000     9.9424    74.5938  -999.2500     2.5618    -0.0034
 1657.5000     9.8474    74.5619  -999.2500     2.5635    -0.0013
 1658.0000     9.8157    79.8907  -999.2500     2.5597     0.0018
 1658.5000     9.7884    83.2406  -999.2500     2.5497     0.0036
 1659.0000     9.7431    78.4936  -999.2500     2.5467     0.0032
 1659.5000     9.7598    81.2772  -999.2500     2.5445     0.0029
 1660.0000     9.7915    82.9818  -999.2500     2.5453     0.0016
 1660.5000     9.8079    83.9183  -999.2500     2.5519    -0.0021
 1661.0000     9.8549    84.2404  -999.2500     2.5655    -0.0061
 1661.5000     9.8877    84.4089  -999.2500     2.5555    -0.0083
 1662.0000     9.9339    83.1518  -999.2500     2.5656    -0.0081
 1662.5000     9.9503    76.1456  -999.2500     2.5672    -0.0084
