~VERSION INFORMATION
 VERS.                2.0:   CWLS LOG ASCII STANDARD - VERSION 2.0
 WRAP.                 NO:   ONE LINE PER DEPTH STEP
~WELL INFORMATION
#MNEM.UNIT      DATA TYPE    INFORMATION
#----------   ------------   ------------------------------
 STRT.F            8.0000:   START DEPTH
 STOP.F          500.0000:   STOP DEPTH
 STEP.F            0.5000:   STEP LENGTH
 NULL.          -999.2500:   NO VALUE
 COMP. FENIX & SCISSON INC:   COMPANY
 WELL. 65 12 SX 3FI #65-3:   WELL
 FLD .             TEAPOT:   FIELD
 LOC .       S3 T38N R78W:   LOCATION
 CNTY.            NATRONA:   COUNTY
 STAT.            WYOMING:   STATE
 CTRY. UNITED STATES OF AMERICA:   COUNTRY
 SRVC.              Welex:   SERVICE COMPANY
 DATE.        01-JUN-1980:   LOGDATE
 API .       490251082400:   API NUMBER
~CURVE INFORMATION
#MNEM.UNIT       API CODE    CURVE DESCRIPTION
#----------   ------------   ------------------------------
 DEPT.F                  :   
 GRD .GAPI   45 310 01 00:   GAMMA RAY FROM DENSITY LOG
 CALD.IN     45 280 60 00:   CALIPER
 RHOB.G/C3   45 350 01 00:   BULK DENSITY
 CORR.G/C3   45 356 01 00:   DENSITY CORRECTION
 DPHI.DEC    45 890 12 00:   DENSITY POROSITY SANDSTONE
 NPHI.DEC    42 890 03 00:   NEUTRON POROSITY SANDSTONE
 SPR .MV     07 010 01 00:   SPONTANEOUS POTENTIAL
 SGRD.OHMM   07 220 05 00:   SHALLOW GUARD RESISTIVITY
 ILD .OHMM   07 120 46 00:   INDUCTION LOG DEEP
 ILM .OHMM   07 120 44 00:   INDUCTION LOG MEDIUM
~PARAMETER INFORMATION
#MNEM.UNIT          VALUE    DESCRIPTION
#----------   ------------   ------------------------------
 PD  .                 GL:   PERMANENT DATUM
 EPD .F              5155:   ELEVATION PERMANENT DATUM
 LMF .                 KB:   LOG MEASURED FROM
 DAPD.F                 4:   FEET ABOVE PERMANENT DATUM
 DMF .                 KB:   DRILLING MEASURED FROM
 EKB .F              5159:   KELLING BUSHING
 EGL .F              5155:   GROUND LEVEL
 DATE.             6-1-80:   RUN DATE
 RUN .                  1:   RUN NUMBER
 DD  .F               505:   DEPTH DRILLER
 DL  .F               502:   DEPTH LOGGER
 BLI .F               500:   BOTTOM LOG INTERVAL
 TLI .F                20:   TOP LOG INTERVAL
 BS  .IN            9.875:   BIT SIZE
 BSD .F               505:   BIT SIZE AT DEPTH
 DFT .      OIL BASED MUD:   DRILLING FLUID TYPE
 MSS .            MUD PIT:   MUD SAMPLE SOURCE
 RMS .OHMM             .9:   RESISTIVITY MUD SAMPLE
 MST .F                65:   MUD SAMPLE TEMPERATURE
 RMF .OHMM            .72:   RESISTIVITY MUD FILTRATE SAMPLE
 MFST.F                65:   MUD FILTRATE SAMPLE TEMPERATURE
 RMC .OHMM           1.08:   RESISTIVITY MUD CAKE
 MCST.F                65:   MUD CAKE SAMPLE TEMPERATURE
 MFSS.           MEASURED:   MUD FILTRATE SAMPLE SOURCE
 MCSS.           MEASURED:   MUD CAKE SAMPLE SOURCE
 RMB .OHMM            .71:   RESISTIVITY MUD AT BHT
 BHT .F                76:   BOTTOM HOLE TEMPERATURE
 TCS .HRS               2:   TIME CURCULATED STOPPED
 MRT .F                76:   MAXIMUM RECORDED TEMPERATURE
 LUN .               9685:   LOGGING UNIT NUMBER
 LUL .             CASPER:   LOGGING UNIT LOCATION
 ENGI.               REIN:   RECORDING ENGINEER
 WITN.            RHOADES:   WITNESSED BY
 CLNT.            A2DTECH:   CLIENT CODE
 ORIG.        2" 5" PRINT:   ORIGIN OF DATA
 UWI .       490251082400:   UNIQUE WELL ID
 DICO. A2D Technologies, Inc.:   DIGITIZING COMPANY
~OTHER INFORMATION
~A    DEPT     GRD       CALD       RHOB       CORR       DPHI       NPHI        SPR        SGRD         ILD        ILM 
# ...
  108.5000    97.0027     9.9526     2.4654     0.0279     0.1337     0.3121   -23.0930    10.8576     8.0516     9.6831
  109.0000    96.0385     9.9477     2.4563     0.0318     0.1381     0.3092   -23.0388    11.1390     8.3019     9.9145
  109.5000    95.0750     9.9429     2.4474     0.0077     0.1315     0.3011   -22.9847    11.4277     8.5543    10.1514
  110.0000    94.1114     9.9416     2.4555    -0.0025     0.1252     0.2874   -22.9306    11.7238     8.6681    10.3940
  110.5000    93.1453     9.9551     2.4692     0.0114     0.1183     0.2793   -22.8767    12.0276     8.9046    10.6424
  111.0000    92.1739     9.9683     2.4763     0.0062     0.1226     0.2767   -22.8241    12.3393     9.1513    10.8967
  111.5000    91.3102     9.9815     2.4779     0.0108     0.1131     0.2752   -22.7710    12.6591     9.4053    11.1571
  112.0000    92.0791     9.9948     2.4796     0.0035     0.1024     0.2765   -22.5376    13.0534     9.6660    11.4254
  112.5000    92.7635    10.0078     2.5067     0.0336     0.1100     0.2827   -22.2999    12.8676     9.9339    11.5892
  113.0000    91.5731    10.0149     2.4908     0.0417     0.1187     0.2859   -22.0635    12.6387    10.1906    11.5870
  113.5000    90.3548    10.0006     2.4765     0.0263     0.1303     0.2835   -21.8273    12.4118    10.1923    11.5872
  114.0000    89.1601     9.9870     2.4726     0.0300     0.1425     0.2812   -21.5911    12.1897    10.1663    11.5468
  114.5000    89.1827     9.9733     2.4534     0.0165     0.1546     0.2863   -21.3549    11.9715    10.1460    11.3575
  115.0000    90.6202     9.9596     2.4193    -0.0085     0.1558     0.2891   -21.1180    11.7572    10.1254    11.1713
  115.5000    91.4934     9.9461     2.4192    -0.0166     0.1560     0.2922   -20.8825    11.5468    10.1052    10.9881
  116.0000    90.7196     9.9473     2.4180    -0.0117     0.1610     0.2940   -20.6356    11.3402     9.8960    10.8080
  116.5000    89.9987     9.9817     2.4089    -0.0103     0.1658     0.2958   -20.3908    11.1372     9.5821    10.6307
  117.0000    89.4866    10.0141     2.4032    -0.0218     0.1582     0.2975   -20.1416    10.9379     9.4351    10.4563
  117.5000    90.5775    10.0323     2.4125    -0.0149     0.1485     0.2993   -20.1634    10.8665     9.3809    10.2843
  118.0000    91.7782    10.0130     2.4291    -0.0029     0.1348     0.3010   -20.4402    10.9554     9.3270    10.1898
  118.5000    92.7409     9.9946     2.4482     0.0270     0.1338     0.3037   -20.7188    11.1591     9.2735    10.2039
  119.0000    91.7281     9.9760     2.4537     0.0382     0.1330     0.3065   -20.9984    11.3665     9.2203    10.2146
  119.5000    90.7213     9.9575     2.4557     0.0388     0.1341     0.3051   -21.2782    11.4814     9.1674    10.2253
  120.0000    89.7424     9.9388     2.4537     0.0302     0.1219     0.3010   -21.5570    11.3372     9.1148    10.2360
  120.5000    90.4293     9.9205     2.4684     0.0294     0.1186     0.2907   -21.7973    11.2391     9.0624    10.2467
  121.0000    91.2057     9.9320     2.4789     0.0431     0.1210     0.2942   -21.7605    11.1419     9.0131    10.2574
  121.5000    90.3758     9.9456     2.4761     0.0408     0.1204     0.2977   -21.7284    11.0455     8.9653    10.2681
  122.0000    89.4293     9.9591     2.4701     0.0367     0.1248     0.2979   -21.6974    10.9500     8.9178    10.2792
  122.5000    88.4880     9.9727     2.4640     0.0326     0.1302     0.2908   -21.6663    10.8552     8.8705    10.2861
  123.0000    87.6616     9.9749     2.4579     0.0283     0.1341     0.2829   -21.6352    10.7613     8.8235    10.1963
  123.5000    89.3073     9.9692     2.4502     0.0215     0.1365     0.2741   -21.6026    10.6682     8.7453    10.1278
  124.0000    91.3546     9.9634     2.4427     0.0148     0.1405     0.2701   -21.6365    10.5759     8.6349    10.0598
  124.5000    93.4650     9.9597     2.4350     0.0085     0.1444     0.2685   -21.6859    10.4844     8.5260     9.9922
  125.0000    92.6860     9.9661     2.4414     0.0078     0.1373     0.2722   -21.7357    10.4225     8.4183     9.9251
  125.5000    91.2706     9.9723     2.4442     0.0175     0.1408     0.2714   -21.7853    10.3643     8.3123     9.8584
  126.0000    89.9604     9.9785     2.4456     0.0269     0.1309     0.2685   -21.8349    10.3064     8.2060     9.7922
  126.5000    90.9765     9.9846     2.4558     0.0398     0.1396     0.2724   -21.8845    10.2489     8.1338     9.7240
  127.0000    91.7066     9.9908     2.4490     0.0340     0.1381     0.2791   -21.9341    10.1916     8.0723     9.6368
  127.5000    90.8660     9.9970     2.4442     0.0268     0.1353     0.2839   -21.9837    10.1347     8.0119     9.5503
  128.0000    90.0491    10.0032     2.4516     0.0379     0.1295     0.2895   -22.0333    10.0781     7.9519     9.4647
  128.5000    89.3604    10.0093     2.4589     0.0488     0.1239     0.2926   -22.0830    10.0218     7.8924     9.3798
  129.0000    90.6253    10.0157     2.4662     0.0510     0.1210     0.2999   -22.1330     9.9658     7.8332     9.2956
  129.5000    91.9222    10.0071     2.4739     0.0426     0.1299     0.3025   -22.1845     9.9102     7.7746     9.2123
  130.0000    92.4117     9.9914     2.4659     0.0334     0.1372     0.3052   -22.1174     9.8548     7.7163     9.1296
  130.5000    91.9138     9.9755     2.4542     0.0223     0.1482     0.3079   -22.0331     9.7998     7.6585     9.0477
  131.0000    91.3950     9.9594     2.4370     0.0111     0.1499     0.3105   -21.9483     9.7451     7.5982     8.9624
  131.5000    92.4899     9.9436     2.4288    -0.0002     0.1402     0.3133   -21.8639     9.6908     7.5982     8.9407
  132.0000    94.2449     9.9283     2.4382     0.0051     0.1334     0.3109   -21.7794     9.6300     7.5981     8.9178
  132.5000    94.7607     9.9547     2.4517     0.0231     0.1432     0.3062   -21.6950     9.5348     7.5982     8.8951
  133.0000    92.4501    10.0272     2.4419     0.0349     0.1409     0.3056   -21.6104     9.4406     7.5982     8.8723
  133.5000    90.5364    10.0997     2.4391     0.0248     0.1389     0.3041   -21.5264     9.3473     7.5982     8.8497
  134.0000    90.0923    10.1385     2.4408     0.0300     0.1460     0.2990   -21.4414     9.2549     7.5986     8.8270
  134.5000    91.3719    10.1464     2.4311     0.0034     0.1477     0.2919   -21.4669     9.1634     7.5998     8.8045
  135.0000    92.8756    10.1536     2.4339     0.0043     0.1531     0.2883   -21.5947     9.0729     7.6035     8.6914
  135.5000    93.5394    10.1608     2.4237     0.0090     0.1477     0.2855   -21.7232     8.9832     7.5253     8.5543
  136.0000    92.2851    10.1679     2.4214     0.0034     0.1412     0.2795   -21.8519     8.8945     7.4126     8.4192
  136.5000    90.8580    10.1751     2.4334     0.0066     0.1456     0.2789   -21.9805     8.8069     7.3148     8.2863
  137.0000    90.0085    10.1823     2.4386     0.0176     0.1515     0.2848   -22.1091     8.7191     7.2238     8.1555
  137.5000    90.9891    10.1895     2.4225     0.0064     0.1440     0.2906   -22.2377     8.5299     7.0437     8.0268
  138.0000    92.6259    10.1967     2.4284    -0.0002     0.1504     0.2915   -22.3664     8.3441     6.8700     7.9001
  138.5000    94.2728    10.2038     2.4323     0.0202     0.1579     0.2855   -22.4950     8.1618     6.7004     7.7754
  139.0000    95.9270    10.2113     2.4162     0.0082     0.1654     0.2946   -22.6242     7.9827     6.5350     7.6527
  139.5000    97.5699    10.1914     2.4052    -0.0066     0.1677     0.3022   -22.7586     7.8114     6.3736     7.5319
  140.0000    98.7802    10.1518     2.3988    -0.0221     0.1544     0.3091   -22.6557     8.1281     6.2164     7.3920
  140.5000    97.6653    10.1385     2.4141     0.0055     0.1465     0.3160   -22.4950     8.4564     6.0970     7.4806
  141.0000    96.5872    10.1428     2.4225    -0.0007     0.1389     0.3172   -22.3329     8.7183     6.1414     7.6256
  141.5000    95.5159    10.1474     2.4369     0.0164     0.1450     0.3077   -22.1713     8.6316     6.1781     7.7389
