~VERSION INFORMATION
 VERS.                2.0:   CWLS LOG ASCII STANDARD - VERSION 2.0
 WRAP.                 NO:   ONE LINE PER DEPTH STEP
~WELL INFORMATION
#MNEM.UNIT      DATA TYPE    INFORMATION
#----------   ------------   ------------------------------
 STRT.F           17.0000:   START DEPTH
 STOP.F          565.5000:   STOP DEPTH
 STEP.F            0.5000:   STEP LENGTH
 NULL.          -999.2500:   NO VALUE
 COMP. LAWRENCE/ALLISON INC:   COMPANY
 WELL. NPR 3 #83-56 SX 10:   WELL
 FLD .             TEAPOT:   FIELD
 LOC .      S10 T38N R78W:   LOCATION
 CNTY.            NATRONA:   COUNTY
 STAT.            WYOMING:   STATE
 CTRY. UNITED STATES OF AMERICA:   COUNTRY
 SRVC.           Gearhart:   SERVICE COMPANY
 DATE.        11-JUN-1986:   LOGDATE
 API .       490251108300:   API NUMBER
~CURVE INFORMATION
#MNEM.UNIT       API CODE    CURVE DESCRIPTION
#----------   ------------   ------------------------------
 DEPT.F                  :   
 GRR .GAPI   07 310 01 00:   GAMMA RAY FROM RES. LOG.
 RILD.OHMM   07 120 46 00:   INDUCTION LOG DEEP RESISTIVITY
 RILM.OHMM   07 120 44 00:   INDUCTION LOG MEDIUM RESISTIVITY
~PARAMETER INFORMATION
#MNEM.UNIT          VALUE    DESCRIPTION
#----------   ------------   ------------------------------
 PD  .                 GL:   PERMANENT DATUM
 EPD .F              5174:   ELEVATION PERMANENT DATUM
 LMF .                 KB:   LOG MEASURED FROM
 DMF .                 KB:   DRILLING MEASURED FROM
 EKB .F              5174:   KELLING BUSHING
 EGL .F              5174:   GROUND LEVEL
 DATE.            6-11-86:   RUN DATE
 RUN .                  1:   RUN NUMBER
 DD  .F               580:   DEPTH DRILLER
 DL  .F               576:   DEPTH LOGGER
 BLI .F               565:   BOTTOM LOG INTERVAL
 TLI .F                15:   TOP LOG INTERVAL
 CS  .IN            8.625:   CASING SIZE
 CBD .F                42:   CASING BOTTOM DRILLER
 CBL .F                42:   CASING BOTTOM LOGGER
 BS  .IN            7.875:   BIT SIZE
 BSD .F               580:   BIT SIZE AT DEPTH
 DFT .                AIR:   DRILLING FLUID TYPE
 TCS .HRS            0300:   TIME CURCULATED STOPPED
 TLAB.HRS            0445:   TIME LOGGER AT BOTTOM
 MRT .F                95:   MAXIMUM RECORDED TEMPERATURE
 LUN .               7609:   LOGGING UNIT NUMBER
 LUL .           GILLETTE:   LOGGING UNIT LOCATION
 ENGI.              BAUER:   RECORDING ENGINEER
 WITN.           JENNINGS:   WITNESSED BY
 CLNT.            A2DTECH:   CLIENT CODE
 ORIG.       2", 5" PRINT:   ORIGIN OF DATA
 UWI .       490251108300:   UNIQUE WELL ID
 DICO. A2D Technologies, Inc.:   DIGITIZING COMPANY
~OTHER INFORMATION
~A   DEPT       GRR      RILD       RILM   
# ...
  381.0000    95.1354    20.6052    20.5911
  381.5000   100.2765    20.5842    20.5089
  382.0000    99.9583    20.5631    20.4268
  382.5000    97.7996    20.5421    20.3450
  383.0000    96.8185    20.5210    20.2636
  383.5000    98.1826    20.4999    20.1826
  384.0000    99.1400    20.4785    20.1019
  384.5000    99.7562    20.4042    20.0215
  385.0000   100.3748    20.2766    19.9414
  385.5000   100.1413    20.1499    19.8617
  386.0000    99.0846    20.0239    19.7822
  386.5000    95.3479    19.9076    19.7239
  387.0000    90.5231    19.5686    19.3114
  387.5000    86.1155    19.2574    18.9342
  388.0000    85.3981    18.9512    18.5643
  388.5000    88.3854    18.5174    18.2016
  389.0000    92.2213    18.0090    17.8460
  389.5000    95.3701    17.5145    17.4974
  390.0000    97.6384    17.0062    17.1556
  390.5000    99.9045    16.9549    16.9473
  391.0000    99.6682    16.9006    16.8477
  391.5000    99.3402    16.8494    16.7468
  392.0000    96.2334    16.7549    16.6465
  392.5000    92.5310    16.6656    16.5467
  393.0000    91.5313    16.5768    16.4475
  393.5000    91.8786    16.4885    16.3489
  394.0000    92.4833    16.4004    16.2510
  394.5000    94.8721    16.3881    16.1537
  395.0000    98.2222    16.3874    16.0569
  395.5000    97.3199    16.2107    15.9605
  396.0000    95.1649    15.8871    15.7764
  396.5000    95.2083    15.5699    15.5680
  397.0000    97.5954    15.2589    15.3623
  397.5000    98.6640    14.9537    15.1593
  398.0000    95.9263    14.6569    14.9590
  398.5000    94.8497    14.4839    14.7613
  399.0000    97.3142    14.4068    14.5661
  399.5000    99.9687    14.3300    14.3741
  400.0000   101.0275    14.2610    14.1294
  400.5000   101.4060    14.2609    14.1571
  401.0000   102.9953    14.2606    14.1960
  401.5000   106.9866    14.2926    14.2351
  402.0000   109.1088    14.3329    14.2743
  402.5000   104.5360    14.3732    14.3135
  403.0000    99.9214    14.4867    14.3529
  403.5000    96.7093    14.6712    14.3937
  404.0000    99.7083    14.8580    14.6012
  404.5000   104.6820    15.0763    14.8189
  405.0000   108.1625    15.0466    14.9372
  405.5000   105.3011    15.0014    14.7994
  406.0000   100.6829    14.9564    14.7994
  406.5000    93.7513    14.8294    14.7994
  407.0000    90.4825    14.6429    14.6319
  407.5000    89.2409    14.4588    14.3608
  408.0000    91.9994    14.2610    14.0947
  408.5000    94.0102    14.0549    13.8336
  409.0000    94.9820    13.7732    13.5772
  409.5000    95.9485    13.4967    13.3257
  410.0000    97.3286    13.2417    13.0300
  410.5000    99.0512    13.1992    13.1199
  411.0000   101.4394    13.1604    13.0614
  411.5000   104.7704    13.1199    13.0266
  412.0000   108.0961    13.3455    12.9989
  412.5000   110.5314    13.5810    13.0744
  413.0000   111.2645    14.3549    13.3926
  413.5000   110.7777    15.5164    13.9512
  414.0000   108.1439    17.0346    14.6629
  414.5000   103.3268    18.7014    16.4492
  415.0000    96.4267    20.6363    18.5293
  415.5000    87.6590    23.1609    20.8725
  416.0000    81.4197    25.9945    23.5121
  416.5000    77.0926    29.1747    26.4855
  417.0000    75.2970    32.3400    29.8348
  417.5000    73.6203    35.1568    33.6078
  418.0000    74.9419    37.5694    37.8578
  418.5000    77.9183    38.2619    38.8539
  419.0000    80.9554    39.1544    38.9787
  419.5000    81.1054    38.9506    39.1039
  420.0000    80.4870    38.5897    39.2294
  420.5000    79.7737    38.2322    39.3554
  421.0000    77.4610    37.8780    39.4818
  421.5000    75.2286    37.5271    39.6341
  422.0000    73.4995    37.1794    39.8589
  422.5000    72.6372    36.6583    40.0851
  423.0000    71.8144    36.0228    40.2581
  423.5000    72.4946    35.2196    37.9838
  424.0000    77.2753    33.5660    35.4822
  424.5000    81.9850    32.1092    33.6577
  425.0000    83.8257    30.8125    32.3445
  425.5000    82.2519    29.5683    31.0825
  426.0000    80.6877    28.3742    29.8697
  426.5000    81.7425    27.6306    28.7043
  427.0000    83.6807    27.3228    27.5336
  427.5000    87.9605    27.0160    27.4334
  428.0000    92.2813    26.7639    27.2581
  428.5000    95.9208    26.6962    27.0839
  429.0000    94.9236    26.6287    26.9108
  429.5000    94.4977    26.5617    26.7388
  430.0000    94.7567    26.5313    26.5679
  430.5000    95.0042    26.5317    26.4195
  431.0000    94.6092    26.5317    26.2319
  431.5000    93.0761    26.5319    26.0457
  432.0000    90.1319    26.5324    25.8608
  432.5000    87.1958    26.5318    25.6772
  433.0000    84.7128    26.2279    25.4949
  433.5000    86.2508    25.8427    25.3139
  434.0000    89.4913    25.4631    25.1342
  434.5000    92.7176    25.0891    24.9558
  435.0000    92.8388    24.7206    24.7786
  435.5000    92.4435    24.4607    24.6362
  436.0000    92.0277    24.0088    24.2451
  436.5000    92.1853    23.5652    23.8596
  437.0000    92.9583    23.1299    23.4802
  437.5000    94.3433    22.7026    23.1068
  438.0000    93.8756    22.2831    22.7393
  438.5000    91.7297    21.8715    22.3777
  439.0000    90.2638    21.4674    22.0219
  439.5000    92.9037    21.0708    21.6717
  440.0000    96.2476    20.6593    21.3270
  440.5000    99.0089    20.3415    20.9879
  441.0000    99.7299    20.0096    20.6541
  441.5000   100.7531    19.6831    20.3257
  442.0000   103.5937    19.3619    20.0025
  442.5000   107.6224    19.0458    19.6844
  443.0000   108.7194    18.7348    19.3714
  443.5000   100.0672    18.4295    19.0633
  444.0000    94.9802    18.2527    18.7602
  444.5000    93.6108    18.1533    18.4617
  445.0000    94.0725    18.0543    18.1682
  445.5000    94.6358    17.9559    17.8793
  446.0000    96.0220    17.8581    17.7370
  446.5000    97.2072    17.7607    17.6386
  447.0000    96.7421    17.6640    17.5413
  447.5000    94.8591    17.5687    17.4448
  448.0000    93.0669    17.4856    17.3477
  448.5000    91.8730    17.2917    17.2036
  449.0000    94.5316    17.0899    16.9918
  449.5000    97.7315    16.8905    16.7826
  450.0000   100.0312    16.6934    16.5759
  450.5000    95.7253    16.4986    16.3719
  451.0000    92.0734    16.3061    16.1703
  451.5000    91.5705    16.1158    15.9712
  452.0000    92.6972    15.9278    15.7746
  452.5000    94.8086    15.7419    15.5804
  453.0000    97.3775    15.5230    15.3887
  453.5000    99.9765    15.2692    15.1983
  454.0000   101.1817    15.0196    15.0095
  454.5000   100.8050    14.7738    14.8175
  455.0000    99.5652    14.5321    14.6280
  455.5000    97.1445    14.2940    14.4409
  456.0000    94.6692    14.2310    14.2562
  456.5000    92.2437    14.1962    14.1174
  457.0000    90.9797    14.1614    14.0784
  457.5000    91.0251    14.1267    14.0394
  458.0000    92.8395    14.0921    14.0005
  458.5000    96.4364    14.0576    13.9618
  459.0000   100.0128    14.0232    13.9231
  459.5000   103.5613    13.9937    13.8846
  460.0000   104.7866    13.9756    13.8462
  460.5000   105.6424    13.9576    13.8078
  461.0000   107.2289    13.9396    13.7696
  461.5000   109.4279    13.9216    13.7315
  462.0000   111.6205    13.9035    13.6936
  462.5000   113.3223    13.8855    13.6557
  463.0000   113.2567    13.8553    13.6156
  463.5000   112.0446    13.7438    13.5184
  464.0000   109.5456    13.6329    13.4154
  464.5000   108.7638    13.5228    13.3131
  465.0000   110.6629    13.4137    13.2117
  465.5000   112.5710    13.3054    13.1110
  466.0000   112.0673    13.1980    13.0111
  466.5000   110.2241    13.0915    12.9119
  467.0000   108.3884    12.9859    12.8135
  467.5000   106.5507    12.8811    12.7159
  468.0000   104.7139    12.7769    12.6421
  468.5000   102.8779    12.6425    12.6425
  469.0000   101.0297    12.6552    12.6425
  469.5000   100.3876    12.6745    12.6426
  470.0000   101.8324    12.6935    12.6426
  470.5000   103.8835    12.7125    12.6426
  471.0000   105.7740    12.7316    12.6426
  471.5000   106.3898    12.7504    12.6426
