~VERSION INFORMATION
 VERS.                2.0:   CWLS LOG ASCII STANDARD - VERSION 2.0
 WRAP.                 NO:   ONE LINE PER DEPTH STEP
~WELL INFORMATION
#MNEM.UNIT      DATA TYPE    INFORMATION
#----------   ------------   ------------------------------
 STRT.F           11.0000:   START DEPTH
 STOP.F          807.0000:   STOP DEPTH
 STEP.F            0.5000:   STEP LENGTH
 NULL.          -999.2500:   NO VALUE
 COMP. BROWN JOHN E&C INC:   COMPANY
 WELL. NPR 3 SHX-34 #77-1-34:   WELL
 FLD .             TEAPOT:   FIELD
 LOC .      S34 T39N R79W:   LOCATION
 CNTY.            NATRONA:   COUNTY
 STAT.            WYOMING:   STATE
 CTRY. UNITED STATES OF AMERICA:   COUNTRY
 SRVC.     Atlas Wireline:   SERVICE COMPANY
 DATE.        07-DEC-1991:   LOGDATE
 API .       490252248000:   API NUMBER
~CURVE INFORMATION
#MNEM.UNIT       API CODE    CURVE DESCRIPTION
#----------   ------------   ------------------------------
 DEPT.F                  :   
 CALD.IN     45 280 60 00:   CALIPER FROM DENSITY LOG
 CORR.G/C3   45 356 01 00:   DENSITY CORRECTION
 DEN .G/C3   45 350 01 00:   COMPENSATED BULK DENSTIY
 GRD .GAPI   45 310 01 00:   GAMMA RAY FROM DENSITY LOG
 PORD.DEC    45 890 12 00:   POROSITY DENSITY SANDSTONE
 GRR .GAPI   07 310 01 00:   GAMMA RAY FROM RESISTIVITY
 RILD.OHMM   07 120 46 00:   RESISTIVITY INDUCTION LOG DEEP
 RILM.OHMM   07 120 44 00:   RESITIVITY INDUCTION LOG MEDIUM
~PARAMETER INFORMATION
#MNEM.UNIT          VALUE    DESCRIPTION
#----------   ------------   ------------------------------
 PD  .                 GL:   PERMANENT DATUM
 EPD .F              5098:   ELEVATION PERMANENT DATUM
 LMF .                 KB:   LOG MEASURED FROM
 DAPD.F                10:   FEET ABOVE PERMANENT DATUM
 DMF .                 KB:   DRILLING MEASURED FROM
 EKB .F              5108:   KELLING BUSHING
 EDF .F              5107:   DRILLING FLOOR
 EGL .F              5098:   GROUND LEVEL
 DATE.        07-DEC-1991:   RUN DATE
 RUN .                  1:   RUN NUMBER
 DD  .F               810:   DEPTH DRILLER
 DL  .F               810:   DEPTH LOGGER
 BLI .F               808:   BOTTOM LOG INTERVAL
 CS  .IN            9.625:   CASING SIZE
 CBD .F                85:   CASING BOTTOM DRILLER
 CBL .F                97:   CASING BOTTOM LOGGER
 BS  .IN             8.75:   BIT SIZE
 BSD .F               810:   BIT SIZE AT DEPTH
 DFT .                AIR:   DRILLING FLUID TYPE
 BHT .F                90:   BOTTOM HOLE TEMPERATURE
 MRT .F                90:   MAXIMUM RECORDED TEMPERATURE
 LUN .            HL 6274:   LOGGING UNIT NUMBER
 LUL .             CASPER:   LOGGING UNIT LOCATION
 ENGI.       P. RASMUSSEN:   RECORDING ENGINEER
 WITN.        GARY STRONG:   WITNESSED BY
 CLNT.            A2DTECH:   CLIENT CODE
 ORIG.           5" PRINT:   ORIGIN OF DATA
 UWI .       490252248000:   UNIQUE WELL ID
 DICO. A2D Technologies, Inc.:   DIGITIZING COMPANY
~OTHER INFORMATION
~A   DEPT     CALD       CORR        DEN        GRD       PORD         GRR      RILD       RILM   
# ...
  375.5000     9.2677     0.0083     2.4123   147.1329     0.1387   121.6148     8.2634     8.3096
  376.0000     9.2821     0.0113     2.4076   145.6201     0.1440   123.7126     8.2623     8.1944
  376.5000     9.2815     0.0038     2.4047   141.7049     0.1473   116.1980     8.1477     8.1933
  377.0000     9.2789     0.0038     2.4062   137.4893     0.1467   110.1182     8.0906     8.1358
  377.5000     9.2653     0.0053     2.4092   136.8745     0.1449   111.6808     8.0338     8.0786
  378.0000     9.2647     0.0053     2.4122   139.2656     0.1425   113.1780     7.9775     8.0775
  378.5000     9.2792     0.0068     2.4121   142.8578     0.1413   113.7729     7.9213     8.0762
  379.0000     9.2786     0.0068     2.4121   149.7534     0.1422   113.7658     7.9203     8.0752
  379.5000     9.2779     0.0068     2.4113   154.8769     0.1434   114.6611     7.9193     8.0741
  380.0000     9.2623     0.0038     2.4113   155.1361     0.1425   112.5519     7.9183     8.0730
  380.5000     9.2318     0.0008     2.4135   153.6204     0.1413   110.7444     7.8627     7.9609
  381.0000     9.2299    -0.0009     2.4150   154.8102     0.1407   114.0521     7.9162     7.9598
  381.5000     9.2306    -0.0023     2.4135   155.6998     0.1410   119.1401     7.9149     7.9040
  382.0000     9.2449    -0.0008     2.4104   154.7847     0.1425   120.3370     7.9139     7.8484
  382.5000     9.2595     0.0008     2.4074   148.4671     0.1435   116.7263     7.9128     7.8472
  383.0000     9.2588     0.0038     2.4073   146.3536     0.1450   111.6155     7.9115     7.7921
  383.5000     9.2581     0.0053     2.4088   145.7416     0.1450   110.7076     7.9106     7.8452
  384.0000     9.2425     0.0083     2.4110   145.1269     0.1432   113.1043     7.9095     7.8441
  384.5000     9.2270     0.0098     2.4141   142.1125     0.1401   119.7052     7.9085     7.8429
  385.0000     9.2264     0.0052     2.4193   140.2994     0.1377   124.5044     7.9072     7.8418
  385.5000     9.2257     0.0023     2.4200   139.9580     0.1380   128.1842     7.9061     7.8408
  386.0000     9.2251    -0.0008     2.4154   144.6006     0.1408   131.0982     7.9051     7.7857
  386.5000     9.2246    -0.0023     2.4124   149.5718     0.1414   130.4919     7.8497     7.7845
  387.0000     9.2240    -0.0038     2.4109   151.6625     0.1417   127.7836     7.8484     7.7835
  387.5000     9.2384    -0.0038     2.4146   149.8494     0.1414   121.3214     7.8474     7.7825
  388.0000     9.2227    -0.0038     2.4191   150.4785     0.1399   115.7588     7.7924     7.7278
  388.5000     9.2222    -0.0023     2.4191   152.8268     0.1384   114.8536     7.7914     7.6205
  389.0000     9.2216    -0.0008     2.4160   153.7164     0.1390   119.6514     7.7300     7.5148
  389.5000     9.2059     0.0038     2.4145   153.1044     0.1405   121.7568     7.6823     7.5138
  390.0000     9.2053     0.0068     2.4137   150.6907     0.1414   122.3427     7.6813     7.5129
  390.5000     9.2048     0.0068     2.4129   149.7784     0.1420   122.6374     7.6803     7.5116
  391.0000     9.2042     0.0038     2.4137   153.3679     0.1420   124.1318     7.6792     7.5630
  391.5000     9.2186     0.0023     2.4181   155.1583     0.1390   125.0270     7.6780     7.6145
  392.0000     9.2029     0.0038     2.4249   154.5464     0.1298   123.8187     7.7839     7.7221
  392.5000     9.2024     0.0038     2.4308   152.1298     0.1266   120.8100     7.8909     7.8882
  393.0000     9.2018     0.0053     2.4361   153.9202     0.1260   118.4020     7.9457     8.0442
  393.5000     9.2011     0.0068     2.4398   155.1101     0.1257   114.1921     8.0540     8.2687
  394.0000     9.1855     0.0098     2.4368   153.2969     0.1308   112.6849     8.2212     8.3848
  394.5000     9.1850     0.0128     2.4255   149.0210     0.1360   120.1853     8.3344     8.4396
  395.0000     9.1844     0.0158     2.4217   146.9651     0.1372   121.3823     8.3334     8.4382
  395.5000     9.1838     0.0250     2.4231   145.1519     0.1369   117.7716     8.4478     8.4371
  396.0000     9.1831     0.0233     2.4246   143.3388     0.1363   119.6316     8.4467     8.3778
  396.5000     9.1977     0.0158     2.4253   143.0271     0.1360   123.4645     8.3875     8.3188
  397.0000     9.1970     0.0038     2.4246   144.8147     0.1354   124.9618     8.3287     8.2604
  397.5000     9.1964     0.0008     2.4215   146.6052     0.1363   123.1529     8.2618     8.2024
  398.0000     9.1957     0.0023     2.4192   144.7920     0.1372   119.4956     8.1556     8.1587
  398.5000     9.1951     0.0023     2.4177   141.1771     0.1381   116.2332     8.0984     8.0874
  399.0000     9.1946     0.0053     2.4184   139.0608     0.1387   116.8282     7.9863     8.0306
  399.5000     9.2090     0.0143     2.4207   137.8482     0.1384   119.8255     7.9551     7.9742
  400.0000     9.2083     0.0068     2.4244   138.7378     0.1351   123.4234     7.8745     7.8637
  400.5000     9.2077     0.0008     2.4304   140.5282     0.1306   126.1190     7.7655     7.7544
  401.0000     9.2072     0.0049     2.4349   142.3984     0.1276   124.3116     7.6580     7.5942
  401.5000     9.2066    -0.0073     2.4409   145.6078     0.1258   120.7023     7.6021     7.4889
  402.0000     9.2059    -0.0026     2.4446   151.3022     0.1264   119.7957     7.4472     7.3851
  402.5000     9.2053     0.0019     2.4340   153.9964     0.1324   124.8937     7.2936     7.2825
  403.0000     9.2048     0.0049     2.4242   150.6386     0.1366   128.7920     7.1926     7.1321
  403.5000     9.2192     0.0019     2.4189   148.8629     0.1379   129.6886     7.1422     7.0820
  404.0000     9.2335    -0.0011     2.4181   148.2509     0.1388   127.8797     7.0431     7.0323
  404.5000     9.2329    -0.0041     2.4143   147.6390     0.1409   126.0721     7.0910     6.9829
  405.0000     9.2324    -0.0056     2.4120   145.8258     0.1427   125.7649     7.1887     7.0792
  405.5000     9.2168    -0.0041     2.4119   143.4092     0.1418   123.9574     7.2877     7.1769
  406.0000     9.2011     0.0019     2.4159   140.9955     0.1391   122.4502     7.3880     7.2756
  406.5000     9.2005     0.0064     2.4202   138.2814     0.1379   123.0681     7.5414     7.4269
  407.0000     9.2000     0.0079     2.4210   136.7686     0.1373   124.2407     7.6453     7.5816
  407.5000     9.2144     0.0079     2.4209   139.1568     0.1373   123.3327     7.6973     7.6864
  408.0000     9.2288     0.0087     2.4217   141.5479     0.1361   121.2249     7.7667     7.8463
  408.5000     9.2281     0.0071     2.4246   143.0380     0.1339   119.7127     7.7667     8.0097
  409.0000     9.2275     0.0086     2.4283   144.5282     0.1316   118.1552     7.8205     8.1968
  409.5000     9.2270     0.0101     2.4313   146.3186     0.1310   116.9453     7.9323     8.2536
  410.0000     9.2414     0.0100     2.4328   143.6017     0.1316   115.1348     8.0952     8.3109
  410.5000     9.2407     0.0100     2.4283   141.4883     0.1325   111.4982     8.2646     8.4851
  411.0000     9.2401     0.0084     2.4275   138.4739     0.1337   103.7057     8.4376     8.6634
  411.5000     9.2396     0.0069     2.4327   136.0500     0.1307   110.3018     8.6738     8.7923
  412.0000     9.2389     0.0068     2.4364   136.9469     0.1271   111.4964     8.7944     8.8445
  412.5000     9.2233     0.0053     2.4387   139.9385     0.1302   106.3805     8.6142     8.7836
  413.0000     9.1928     0.0052     2.4281   140.5306     0.1364   101.2667     8.3761     8.6033
  413.5000     9.1922     0.0067     2.4183   137.8137     0.1400   106.0628     8.2077     8.4851
  414.0000     9.2066     0.0066     2.4130   135.3971     0.1421   112.6727     8.0952     8.3686
  414.5000     9.2210     0.0066     2.4146   135.3858     0.1421   114.4538     7.9842     8.2536
  415.0000     9.2203     0.0065     2.4205   137.1762     0.1382   113.2417     7.8747     8.1403
  415.5000     9.2198     0.0065     2.4249   138.9667     0.1310   113.8336     7.8747     8.0842
