~VERSION INFORMATION
 VERS.                2.0:   CWLS LOG ASCII STANDARD - VERSION 2.0
 WRAP.                 NO:   ONE LINE PER DEPTH STEP
~WELL INFORMATION
#MNEM.UNIT      DATA TYPE    INFORMATION
#----------   ------------   ------------------------------
 STRT.F            4.0000:   START DEPTH
 STOP.F         1997.5000:   STOP DEPTH
 STEP.F            0.5000:   STEP LENGTH
 NULL.          -999.2500:   NO VALUE
 COMP. LAWRENCE/ALLISON INC:   COMPANY
 WELL. NPR 3 66 SX #32-11:   WELL
 FLD .             TEAPOT:   FIELD
 LOC .      S11 T38N R78W:   LOCATION
 CNTY.            NATRONA:   COUNTY
 STAT.            WYOMING:   STATE
 CTRY. UNITED STATES OF AMERICA:   COUNTRY
 SRVC.      NL McCullough:   SERVICE COMPANY
 DATE.        16-SEP-1988:   LOGDATE
 API .       490251108600:   API NUMBER
~CURVE INFORMATION
#MNEM.UNIT       API CODE    CURVE DESCRIPTION
#----------   ------------   ------------------------------
 DEPT.F                  :   
 ROP .MIN/FT 91 810 01 00:   RATE OF DRILLING PENETRATION
 GR  .GAPI   81 310 01 00:   GAMMA RAY FROM CEMENT BOND LOG
 TGAS.UNITS  91 830 01 00:   TOTAL GAS FROM HOTWIRE
~PARAMETER INFORMATION
#MNEM.UNIT          VALUE    DESCRIPTION
#----------   ------------   ------------------------------
 PD  .                 GL:   PERMANENT DATUM
 EPD .F              5170:   ELEVATION PERMANENT DATUM
 LMF .                 KB:   LOG MEASURED FROM
 DMF .                 KB:   DRILLING MEASURED FROM
 EKB .F              5170:   KELLING BUSHING
 EGL .F              5170:   GROUND LEVEL
 DATE.        16-SEP-1988:   RUN DATE
 RUN .                  1:   RUN NUMBER
 DD  .F               837:   DEPTH DRILLER
 DL  .F               737:   DEPTH LOGGER
 BLI .F               733:   BOTTOM LOG INTERVAL
 CS  .IN              5.5:   CASING SIZE
 CBD .F               836:   CASING BOTTOM DRILLER
 BSD .F               837:   BIT SIZE AT DEPTH
 DFT .              WATER:   DRILLING FLUID TYPE
 TCS .HRS             1.5:   TIME CURCULATED STOPPED
 ENGI.          BANGERTER:   RECORDING ENGINEER
 WITN.               LOWE:   WITNESSED BY
 CLNT.            A2DTECH:   CLIENT CODE
 ORIG.           5" PRINT:   ORIGIN OF DATA
 UWI .       490251108600:   UNIQUE WELL ID
 DICO. A2D Technologies, Inc.:   DIGITIZING COMPANY
~OTHER INFORMATION
~A    DEPT     ROP          GR      TGAS   
# ...
 1733.0000     0.2664  -999.2500    10.3709
 1733.5000     0.2666  -999.2500    10.3954
 1734.0000     0.2668  -999.2500     7.3448
 1734.5000     0.2670  -999.2500     7.4049
 1735.0000     0.2672  -999.2500     7.4654
 1735.5000     0.2674  -999.2500     7.5276
 1736.0000     0.2676  -999.2500     7.5899
 1736.5000     0.2678  -999.2500     7.6521
 1737.0000     0.2680  -999.2500     7.5569
 1737.5000     0.2682  -999.2500     6.5451
 1738.0000     0.2684  -999.2500     6.9224
 1738.5000     0.2686  -999.2500    11.0115
 1739.0000     0.2688  -999.2500    10.1559
 1739.5000     0.2690  -999.2500     8.0253
 1740.0000     0.2692  -999.2500     7.7073
 1740.5000     0.2694  -999.2500     7.1129
 1741.0000     0.2696  -999.2500     6.7207
 1741.5000     0.2698  -999.2500     6.2005
 1742.0000     0.2700  -999.2500     6.2627
 1742.5000     0.2702  -999.2500     6.8909
 1743.0000     0.2704  -999.2500     6.9149
 1743.5000     0.2706  -999.2500     7.5017
 1744.0000     0.2708  -999.2500     8.6129
 1744.5000     0.2710  -999.2500     8.8829
 1745.0000     0.2712  -999.2500    10.9968
 1745.5000     0.2714  -999.2500    12.0739
 1746.0000     0.2716  -999.2500    12.1141
 1746.5000     0.2718  -999.2500    12.1543
 1747.0000     0.2720  -999.2500    13.2314
 1747.5000     0.2722  -999.2500    13.2805
 1748.0000     0.2724  -999.2500    14.3486
 1748.5000     0.2726  -999.2500    13.3520
 1749.0000     0.2728  -999.2500    13.3963
 1749.5000     0.2730  -999.2500    13.2978
 1750.0000     0.2733  -999.2500    12.4357
 1750.5000     0.2732  -999.2500    12.4839
 1751.0000     0.2731  -999.2500    12.2869
 1751.5000     0.2730  -999.2500    11.5300
 1752.0000     0.2729  -999.2500    11.5714
 1752.5000     0.2728  -999.2500    11.6129
 1753.0000     0.2727  -999.2500    11.6544
 1753.5000     0.2726  -999.2500    11.6959
 1754.0000     0.2725  -999.2500    11.7373
 1754.5000     0.2724  -999.2500    11.7788
 1755.0000     0.2723  -999.2500    11.8203
 1755.5000     0.2722  -999.2500    11.8617
 1756.0000     0.2721  -999.2500    11.9114
 1756.5000     0.2720  -999.2500    12.9885
 1757.0000     0.2719  -999.2500    13.0287
 1757.5000     0.2718  -999.2500    17.2163
 1758.0000     0.2717  -999.2500    25.5515
 1758.5000     0.2716  -999.2500    20.4073
 1759.0000     0.2715  -999.2500    18.3738
 1759.5000     0.2714  -999.2500    17.3771
 1760.0000     0.2713  -999.2500    17.4194
 1760.5000     0.2712  -999.2500    17.4608
 1761.0000     0.2711  -999.2500    17.5023
 1761.5000     0.2710  -999.2500    17.5438
 1762.0000     0.2709  -999.2500    17.5853
 1762.5000     0.2708  -999.2500    17.6267
 1763.0000     0.2707  -999.2500    17.6682
 1763.5000     0.2706  -999.2500    17.7097
 1764.0000     0.2705  -999.2500    17.7512
 1764.5000     0.2704  -999.2500    17.7926
 1765.0000     0.2703  -999.2500    17.8341
 1765.5000     0.2702  -999.2500    17.8756
 1766.0000     0.2701  -999.2500    17.9170
 1766.5000     0.2700  -999.2500    17.9585
 1767.0000     0.2698  -999.2500    18.0000
 1767.5000     0.2697  -999.2500    18.0415
 1768.0000     0.2696  -999.2500    18.0829
 1768.5000     0.2695  -999.2500    18.1244
 1769.0000     0.2694  -999.2500    18.1659
 1769.5000     0.2693  -999.2500    18.2074
 1770.0000     0.2692  -999.2500    18.2488
 1770.5000     0.2691  -999.2500    18.2903
 1771.0000     0.2690  -999.2500    18.3318
 1771.5000     0.2689  -999.2500    18.3733
 1772.0000     0.2688  -999.2500    18.4147
 1772.5000     0.2687  -999.2500    18.4562
 1773.0000     0.2686  -999.2500    18.4977
 1773.5000     0.2685  -999.2500    18.5392
 1774.0000     0.2684  -999.2500    18.5806
 1774.5000     0.2683  -999.2500    18.6221
 1775.0000     0.2682  -999.2500    18.6636
 1775.5000     0.2681  -999.2500    18.7051
 1776.0000     0.2680  -999.2500    18.7465
 1776.5000     0.2679  -999.2500    18.9854
 1777.0000     0.2678  -999.2500    21.2973
 1777.5000     0.2677  -999.2500    24.0553
 1778.0000     0.2676  -999.2500    23.5060
 1778.5000     0.2675  -999.2500    20.5680
 1779.0000     0.2674  -999.2500    18.9954
 1779.5000     0.2673  -999.2500    18.7414
 1780.0000     0.2672  -999.2500    18.0415
 1780.5000     0.2671  -999.2500    18.0620
 1781.0000     0.2670  -999.2500    18.0413
 1781.5000     0.2669  -999.2500    18.0206
 1782.0000     0.2668  -999.2500    17.9999
 1782.5000     0.2667  -999.2500    17.9792
 1783.0000     0.2666  -999.2500    17.9585
 1783.5000     0.2665  -999.2500    17.9378
 1784.0000     0.2664  -999.2500    17.9172
 1784.5000     0.2663  -999.2500    17.8965
 1785.0000     0.2662  -999.2500    17.8758
 1785.5000     0.2661  -999.2500    17.8551
 1786.0000     0.2660  -999.2500    17.8344
 1786.5000     0.2659  -999.2500    17.8137
 1787.0000     0.2658  -999.2500    17.7930
 1787.5000     0.2657  -999.2500    17.7723
 1788.0000     0.2656  -999.2500    17.7517
 1788.5000     0.2655  -999.2500    17.7310
 1789.0000     0.2654  -999.2500    17.7103
 1789.5000     0.2653  -999.2500    17.6896
 1790.0000     0.2652  -999.2500    17.6689
 1790.5000     0.2651  -999.2500    17.6482
 1791.0000     0.2650  -999.2500    17.6275
 1791.5000     0.2649  -999.2500    17.6068
 1792.0000     0.2648  -999.2500    17.5862
 1792.5000     0.2647  -999.2500    17.5655
 1793.0000     0.2646  -999.2500    17.5448
 1793.5000     0.2645  -999.2500    17.5241
 1794.0000     0.2644  -999.2500    17.5034
 1794.5000     0.2643  -999.2500    17.4827
 1795.0000     0.2642  -999.2500    17.4620
 1795.5000     0.2641  -999.2500    17.4414
 1796.0000     0.2640  -999.2500    17.4207
 1796.5000     0.2639  -999.2500    17.4000
 1797.0000     0.2638  -999.2500    17.3788
 1797.5000     0.2637  -999.2500    20.5731
 1798.0000     0.2636  -999.2500    25.7542
 1798.5000     0.2635  -999.2500    20.0937
 1799.0000     0.2634  -999.2500    13.2892
 1799.5000     0.2633  -999.2500    12.3955
 1800.0000     0.2632  -999.2500    12.4421
 1800.5000     0.2635  -999.2500    12.4820
 1801.0000     0.2638  -999.2500    12.5219
 1801.5000     0.2641  -999.2500    12.5617
 1802.0000     0.2644  -999.2500    12.6016
 1802.5000     0.2647  -999.2500    12.6414
 1803.0000     0.2650  -999.2500    12.6813
 1803.5000     0.2653  -999.2500    12.7212
 1804.0000     0.2656  -999.2500    12.7610
 1804.5000     0.2659  -999.2500    12.8009
 1805.0000     0.2662  -999.2500    12.8407
 1805.5000     0.2665  -999.2500    12.8806
 1806.0000     0.2668  -999.2500    12.9205
 1806.5000     0.2671  -999.2500    12.9603
 1807.0000     0.2674  -999.2500    13.0002
 1807.5000     0.2677  -999.2500    13.0400
 1808.0000     0.2680  -999.2500    13.0799
 1808.5000     0.2683  -999.2500    13.1198
 1809.0000     0.2686  -999.2500    13.1596
 1809.5000     0.2689  -999.2500    13.1995
 1810.0000     0.2692  -999.2500    13.2394
 1810.5000     0.2695  -999.2500    13.2792
 1811.0000     0.2698  -999.2500    13.3191
 1811.5000     0.2701  -999.2500    13.3589
 1812.0000     0.2704  -999.2500    13.3988
 1812.5000     0.2707  -999.2500    13.4387
 1813.0000     0.2711  -999.2500    13.4785
 1813.5000     0.2714  -999.2500    13.5184
 1814.0000     0.2717  -999.2500    13.5582
 1814.5000     0.2720  -999.2500    13.5981
 1815.0000     0.2723  -999.2500    13.6380
 1815.5000     0.2726  -999.2500    13.6778
 1816.0000     0.2729  -999.2500    13.7177
 1816.5000     0.2732  -999.2500    13.7575
 1817.0000     0.2735  -999.2500    13.7974
 1817.5000     0.2738  -999.2500    17.9337
 1818.0000     0.2741  -999.2500    17.9135
 1818.5000     0.2744  -999.2500    14.7827
 1819.0000     0.2747  -999.2500    11.6519
 1819.5000     0.2750  -999.2500    10.5949
 1820.0000     0.2753  -999.2500    10.5747
 1820.5000     0.2756  -999.2500    10.5545
 1821.0000     0.2759  -999.2500    10.5343
 1821.5000     0.2762  -999.2500    10.6110
 1822.0000     0.2765  -999.2500    10.6886
 1822.5000     0.2768  -999.2500    10.7663
 1823.0000     0.2771  -999.2500    10.8439
 1823.5000     0.2774  -999.2500    10.9215
