~VERSION INFORMATION
 VERS.                2.0:   CWLS LOG ASCII STANDARD - VERSION 2.0
 WRAP.                 NO:   ONE LINE PER DEPTH STEP
~WELL INFORMATION
#MNEM.UNIT      DATA TYPE    INFORMATION
#----------   ------------   ------------------------------
 STRT.F           80.0000:   START DEPTH
 STOP.F          740.0000:   STOP DEPTH
 STEP.F            0.5000:   STEP LENGTH
 NULL.          -999.2500:   NO VALUE
 COMP. U S NAVY/INTEX OIL CO:   COMPANY
 WELL. NPR 3 TEAPOT DOME #73-S-34:   WELL
 FLD .             TEAPOT:   FIELD
 LOC .      S34 T39N R78W:   LOCATION
 CNTY.            NATRONA:   COUNTY
 STAT.            WYOMING:   STATE
 CTRY. UNITED STATES OF AMERICA:   COUNTRY
 SRVC. Schlumberger Well Surveying Corp:   SERVICE COMPANY
 DATE.        19-FEB-1961:   LOGDATE
 API .       490250655200:   API NUMBER
~CURVE INFORMATION
#MNEM.UNIT       API CODE    CURVE DESCRIPTION
#----------   ------------   ------------------------------
 DEPT.F                  :   
 GR  .CPS    99 310 30 00:   GAMMA RAY FROM PERFORATING FORMATION COLLAR CHART
 SPR .MV     05 010 01 00:   SPONTANEOUS POTENTIAL
 ILD .OHMM   05 120 46 00:   INDUCTION LOG DEEP
 CILD.MMHO   05 110 46 00:   CONDUCTIVITY INDUCTION LOG DEEP
 ASN .OHMM   05 041 16 00:   AMPLIFIED SHORT NORMAL 16"
~PARAMETER INFORMATION
#MNEM.UNIT          VALUE    DESCRIPTION
#----------   ------------   ------------------------------
 LMF .                 KB:   LOG MEASURED FROM
 DMF .                 KB:   DRILLING MEASURED FROM
 EKB .F              5044:   KELLING BUSHING
 EGL .F              5040:   GROUND LEVEL
 DATE.          2-19-1961:   RUN DATE
 RUN .                  1:   RUN NUMBER
 DD  .F               740:   DEPTH DRILLER
 DL  .F               741:   DEPTH LOGGER
 BLI .F               740:   BOTTOM LOG INTERVAL
 TLI .F                80:   TOP LOG INTERVAL
 CBD .F               740:   CASING BOTTOM DRILLER
 CBL .F               741:   CASING BOTTOM LOGGER
 BS  .IN            7.875:   BIT SIZE
 BSD .F               740:   BIT SIZE AT DEPTH
 DFT .       GEL-OIL EMUL:   DRILLING FLUID TYPE
 DFD .                9.2:   DRILLING FLUID DENSITY
 DFV .                 49:   DRILLING FLUID VISCOSITY
 DFPH.                  8:   DRILLING FLUID PH
 DFL .               11.4:   DRILLING FLUID LOSS
 MSS .           FLOWLINE:   MUD SAMPLE SOURCE
 RMS .OHMM            .84:   RESISTIVITY MUD SAMPLE
 MST .F                74:   MUD SAMPLE TEMPERATURE
 RMF .OHMM            .83:   RESISTIVITY MUD FILTRATE SAMPLE
 MFST.F                75:   MUD FILTRATE SAMPLE TEMPERATURE
 RMC .OHMM            .52:   RESISTIVITY MUD CAKE
 MCST.F                74:   MUD CAKE SAMPLE TEMPERATURE
 RMB .OHMM           1.98:   RESISTIVITY MUD AT BHT
 BHT .F                70:   BOTTOM HOLE TEMPERATURE
 TCS .HRS               1:   TIME CURCULATED STOPPED
 MRT .F                70:   MAXIMUM RECORDED TEMPERATURE
 LUN .               2523:   LOGGING UNIT NUMBER
 LUL .               CSPR:   LOGGING UNIT LOCATION
 ENGI.             KNOBEL:   RECORDING ENGINEER
 WITN.          JORGENSEN:   WITNESSED BY
 CLNT.            A2DTECH:   CLIENT CODE
 ORIG.        2" 5" PRINT:   ORIGIN OF DATA
 UWI .       490250655200:   UNIQUE WELL ID
 DICO. A2D Technologies, Inc.:   DIGITIZING COMPANY
~OTHER INFORMATION
~A   DEPT       GR        SPR          ILD      CILD         ASN 
# ...
  385.0000  -999.2500   -21.3783     7.6118   134.6992    10.2860
  385.5000  -999.2500   -21.3438     7.5185   136.7791    10.1909
  386.0000  -999.2500   -21.3092     7.4253   138.8589    10.1142
  386.5000  -999.2500   -21.2747     7.3320   140.9388     9.9893
  387.0000  -999.2500   -21.2401     7.2378   143.0231     9.8919
  387.5000  -999.2500   -21.2058     7.2087   145.1087     9.8120
  388.0000  -999.2500   -21.1760     7.2725   145.7412     9.8817
  388.5000  -999.2500   -21.2282     7.3615   144.4470     9.9481
  389.0000  -999.2500   -21.2994     7.4518   142.5652    10.0310
  389.5000  -999.2500   -21.3715     7.5420   140.6834    10.1185
  390.0000  -999.2500   -21.4436     7.6321   138.8016    10.2073
  390.5000  -999.2500   -21.5156     7.7222   136.9198    10.2964
  391.0000  -999.2500   -21.5877     7.8123   135.0380    10.4301
  391.5000  -999.2500   -21.6597     7.9025   133.1562    10.4230
  392.0000  -999.2500   -21.7318     7.9926   131.2744    10.5301
  392.5000  -999.2500   -21.8038     8.0827   129.3927    10.6378
  393.0000  -999.2500   -21.8760     8.1729   127.5109    10.6813
  393.5000  -999.2500   -21.9474     8.2630   125.8117    10.7323
  394.0000  -999.2500   -22.0120     8.3531   124.7718    10.8455
  394.5000  -999.2500   -21.7889     8.4435   123.7318    10.8372
  395.0000  -999.2500   -21.7969     8.5384   122.9253    10.9483
  395.5000  -999.2500   -21.8040     8.4852   122.9253    10.9441
  396.0000  -999.2500   -21.5893     8.3860   122.9253    10.9445
  396.5000  -999.2500   -21.3758     8.2857   123.8118    10.9435
  397.0000  -999.2500   -21.3843     8.1857   125.0251    10.8938
  397.5000  -999.2500   -21.3846     8.0857   126.2383    10.8417
  398.0000  -999.2500   -21.3854     7.9858   127.4519    10.8398
  398.5000  -999.2500   -21.3830     7.8858   128.6630    10.7891
  399.0000  -999.2500   -21.2821     7.7857   129.8879    10.6853
  399.5000  -999.2500   -21.1891     7.6856   130.5607    10.5813
  400.0000  -999.2500   -21.2348     7.5876   131.0622    10.5289
  400.5000  -999.2500   -21.2827     7.5765   131.5637    10.5286
  401.0000  -999.2500   -21.3297     7.7479   132.0652    10.5277
  401.5000  -999.2500   -21.3765     7.9160   131.5353    10.6339
  402.0000  -999.2500   -21.4233     8.0846   129.4606    10.8029
  402.5000  -999.2500   -21.4701     8.2530   127.0871    10.9734
  403.0000  -999.2500   -21.5169     8.4213   124.6082    11.1483
  403.5000  -999.2500   -21.5637     8.5898   121.7314    11.3278
  404.0000  -999.2500   -21.6106     8.7632   118.8278    11.5068
  404.5000  -999.2500   -21.6574     8.9938   115.9306    11.6857
  405.0000  -999.2500   -21.7043     9.2323   113.0335    11.8646
  405.5000  -999.2500   -21.7513     9.4709   110.1363    12.0437
  406.0000  -999.2500   -21.7961     9.7095   107.3652    12.2220
  406.5000  -999.2500   -21.7985     9.9481   104.6840    12.4453
  407.0000  -999.2500   -21.7639    10.1867   102.1143    12.6946
  407.5000  -999.2500   -21.7172    10.4253    99.5448    12.9445
  408.0000  -999.2500   -21.6698    10.6639    96.9754    13.1945
  408.5000  -999.2500   -21.6223    10.9025    94.4063    13.4445
  409.0000  -999.2500   -21.5750    11.1413    92.1888    13.6944
  409.5000  -999.2500   -21.5276    11.3800    90.5187    13.9449
  410.0000  -999.2500   -21.4802    11.6165    88.8485    14.1938
  410.5000  -999.2500   -21.4325    11.7756    87.1781    14.4384
  411.0000  -999.2500   -21.3859    11.6805    85.5771    14.5452
  411.5000  -999.2500   -21.3840    11.5787    85.0152    14.2471
  412.0000  -999.2500   -21.3926    11.4795    85.8230    14.1378
  412.5000  -999.2500   -21.4349    11.3308    86.6183    14.0255
  413.0000  -999.2500   -21.4762    11.1790    88.7391    13.9132
  413.5000  -999.2500   -21.5174    11.0267    90.8598    13.8009
  414.0000  -999.2500   -21.5586    10.8745    92.9806    13.6888
  414.5000  -999.2500   -21.5998    10.7383    94.9170    13.5743
  415.0000  -999.2500   -21.6410    10.6963    95.1528    13.5942
  415.5000  -999.2500   -21.6822    10.6376    95.3697    13.6779
  416.0000  -999.2500   -21.7237    10.5782    95.5866    13.7632
  416.5000  -999.2500   -21.7646    10.5395    95.8035    13.8486
  417.0000  -999.2500   -21.7814    10.6148    95.8091    13.9340
  417.5000  -999.2500   -21.6842    10.6886    95.3319    14.0198
  418.0000  -999.2500   -21.5892    10.7622    94.8548    14.0305
  418.5000  -999.2500   -21.4944    10.8352    94.3776    13.8361
  419.0000  -999.2500   -21.3997    10.9094    93.8797    13.6403
  419.5000  -999.2500   -21.3049    10.8449    92.8423    13.4449
  420.0000  -999.2500   -21.2101    10.6574    94.6464    13.2497
  420.5000  -999.2500   -21.1154    10.4692    96.3062    13.0545
  421.0000  -999.2500   -21.0206    10.2806    97.9659    12.8593
  421.5000  -999.2500   -20.9257    10.0923    99.6256    12.6641
  422.0000  -999.2500   -20.8314     9.9038   101.2854    12.4684
  422.5000  -999.2500   -20.7641     9.7153   102.9452    12.2735
  423.0000  -999.2500   -20.8227     9.5275   104.6051    12.0720
  423.5000  -999.2500   -20.9630     9.3772   106.2653    12.0170
  424.0000  -999.2500   -21.1021     9.3448   107.9244    11.9580
  424.5000  -999.2500   -21.2415     9.3109   109.4398    11.8983
  425.0000  -999.2500   -21.3808     9.2769   110.5744    11.8387
  425.5000  -999.2500   -21.5205     9.2432   111.6183    11.7793
  426.0000  -999.2500   -21.6611     9.2086   112.6621    11.7195
  426.5000  -999.2500   -21.7898     9.1344   113.7059    11.6433
  427.0000  -999.2500   -21.6744     9.0189   114.7497    11.4837
  427.5000  -999.2500   -21.5495     8.9380   115.7891    11.3244
  428.0000  -999.2500   -21.4256     8.8588   116.7986    11.1653
  428.5000  -999.2500   -21.3020     8.7794   117.4698    11.0061
  429.0000  -999.2500   -21.1785     8.6999   118.1535    10.8473
  429.5000  -999.2500   -21.0549     8.6202   118.8352    10.6856
  430.0000  -999.2500   -20.9313     8.5401   119.5169    10.6833
  430.5000  -999.2500   -20.8075     8.4593   120.1986    10.7570
  431.0000  -999.2500   -20.6833     8.5011   120.8506    10.8324
  431.5000  -999.2500   -20.5617     8.6014   119.8548    10.9080
  432.0000  -999.2500   -20.6307     8.7009   118.9004    10.9833
  432.5000  -999.2500   -20.7664     8.8015   117.9461    11.0588
  433.0000  -999.2500   -20.9018     8.8986   116.9917    11.1342
  433.5000  -999.2500   -21.0375     8.8815   117.2221    11.2078
  434.0000  -999.2500   -21.1727     8.4470   119.6124    11.1846
  434.5000  -999.2500   -21.3067     8.1257   124.3653    10.9963
  435.0000  -999.2500   -21.3368     7.8838   129.1494    10.8067
  435.5000  -999.2500   -21.2239     7.6448   133.1431    10.6586
  436.0000  -999.2500   -21.1129     7.4064   136.9208     9.7818
  436.5000  -999.2500   -21.0013     7.1706   140.6985     9.4712
  437.0000  -999.2500   -20.8898     6.9946   144.4761     9.3221
  437.5000  -999.2500   -20.7782     6.9119   148.2538     9.3571
  438.0000  -999.2500   -20.6662     7.0623   147.8824     9.7251
  438.5000  -999.2500   -20.5605     7.2320   144.1513    10.0299
  439.0000  -999.2500   -20.5563     7.3993   140.3333    10.0874
  439.5000  -999.2500   -20.6020     7.5685   138.2365    10.2132
  440.0000  -999.2500   -20.6636     7.6040   137.7593    10.3298
  440.5000  -999.2500   -20.7255     7.5751   137.2822    10.3450
  441.0000  -999.2500   -20.7873     7.5454   136.8050    10.4135
  441.5000  -999.2500   -20.8491     7.5377   136.1144    10.4805
  442.0000  -999.2500   -20.9109     7.6496   134.4102    10.5127
  442.5000  -999.2500   -20.9727     7.7601   132.7060    10.4507
  443.0000  -999.2500   -21.0345     7.8703   131.0549    10.4258
  443.5000  -999.2500   -21.0962     7.9798   129.8789    10.4285
  444.0000  -999.2500   -21.1592     8.0889   128.6814    10.5176
  444.5000  -999.2500   -21.1563     8.1569   127.4896    10.5305
  445.0000  -999.2500   -21.1264     8.2335   126.2967    10.5609
  445.5000  -999.2500   -21.0958     8.1826   126.3868    10.6077
