~VERSION INFORMATION
 VERS.                2.0:   CWLS LOG ASCII STANDARD - VERSION 2.0
 WRAP.                 NO:   ONE LINE PER DEPTH STEP
~WELL INFORMATION
#MNEM.UNIT      DATA TYPE    INFORMATION
#----------   ------------   ------------------------------
 STRT.F            4.0000:   START DEPTH
 STOP.F          578.0000:   STOP DEPTH
 STEP.F            0.5000:   STEP LENGTH
 NULL.          -999.2500:   NO VALUE
 COMP.              FENIX:   COMPANY
 WELL.   NPR-3 #14SX11-11:   WELL
 FLD .             TEAPOT:   FIELD
 LOC .      S11 T38N R78W:   LOCATION
 CNTY.            NATRONA:   COUNTY
 STAT.            WYOMING:   STATE
 CTRY. UNITED STATES OF AMERICA:   COUNTRY
 SRVC.           BIRDWELL:   SERVICE COMPANY
 DATE.        14-FEB-1978:   LOGDATE
 API .       490251057100:   API NUMBER
~CURVE INFORMATION
#MNEM.UNIT       API CODE    CURVE DESCRIPTION
#----------   ------------   ------------------------------
 DEPT.F                  :   
 ILD .OHMM   05 120 46 00:   INDUCTION LOG DEEP
 SN  .OHMM   05 040 16 00:   SHORT NORMAL 16"
 SPR .MV     05 010 01 00:   SPONTANEOUS POTENTIAL FROM RES.
 CALD.IN     45 280 60 00:   CALIPER FROM DENSITY LOG
 CORR.G/C3   45 356 01 00:   DENSITY CORRECTION
 DPHI.DEC    45 890 12 00:   DENSITY POROSITY SANDSTONE
 GRD .GAPI   45 310 01 00:   GAMMA RAY FROM DENSITY LOG
 RHOB.G/C3   45 350 01 00:   BULK DENSITY
~PARAMETER INFORMATION
#MNEM.UNIT          VALUE    DESCRIPTION
#----------   ------------   ------------------------------
 PD  .                 GL:   PERMANENT DATUM
 EPD .F              5183:   ELEVATION PERMANENT DATUM
 LMF .                 KB:   LOG MEASURED FROM
 DAPD.F                 4:   FEET ABOVE PERMANENT DATUM
 DMF .                 KB:   DRILLING MEASURED FROM
 EKB .F              5187:   KELLING BUSHING
 EGL .F              5183:   GROUND LEVEL
 DATE.        14-FEB-1978:   RUN DATE
 RUN .                  1:   RUN NUMBER
 DD  .F               580:   DEPTH DRILLER
 DL  .F               580:   DEPTH LOGGER
 BLI .F               578:   BOTTOM LOG INTERVAL
 TLI .F                20:   TOP LOG INTERVAL
 CS  .IN            8.625:   CASING SIZE
 CBD .F                15:   CASING BOTTOM DRILLER
 CBL .F                39:   CASING BOTTOM LOGGER
 BS  .IN            7.875:   BIT SIZE
 BSD .F               580:   BIT SIZE AT DEPTH
 DFT .         LIGNO-SULF:   DRILLING FLUID TYPE
 DFD .                8.6:   DRILLING FLUID DENSITY
 DFV .                 33:   DRILLING FLUID VISCOSITY
 DFPH.                 11:   DRILLING FLUID PH
 DFL .                  4:   DRILLING FLUID LOSS
 MSS .           FLOWLINE:   MUD SAMPLE SOURCE
 RMS .OHMM            1.3:   RESISTIVITY MUD SAMPLE
 MST .F                62:   MUD SAMPLE TEMPERATURE
 RMF .OHMM            1.2:   RESISTIVITY MUD FILTRATE SAMPLE
 MFST.F                64:   MUD FILTRATE SAMPLE TEMPERATURE
 RMC .OHMM            1.6:   RESISTIVITY MUD CAKE
 MCST.F                62:   MUD CAKE SAMPLE TEMPERATURE
 MFSS.               MEAS:   MUD FILTRATE SAMPLE SOURCE
 BHT .F                70:   BOTTOM HOLE TEMPERATURE
 TCS .HRS               3:   TIME CURCULATED STOPPED
 MRT .F                70:   MAXIMUM RECORDED TEMPERATURE
 LUN .               2958:   LOGGING UNIT NUMBER
 LUL .               CASP:   LOGGING UNIT LOCATION
 ENGI.            POINTER:   RECORDING ENGINEER
 WITN.           MCGINLEY:   WITNESSED BY
 CLNT.            A2DTECH:   CLIENT CODE
 ORIG.           5" PRINT:   ORIGIN OF DATA
 UWI .       490251057100:   UNIQUE WELL ID
 DICO. A2D Technologies, Inc.:   DIGITIZING COMPANY
~OTHER INFORMATION
~A    DEPT     ILD         SN        SPR       CALD       CORR       DPHI         GRD      RHOB   
# ...
  328.0000     2.9557     3.7678   -28.8242     7.8772     0.0942     0.2193    75.3917     2.2632
  328.5000     2.9346     3.3710   -28.6788     7.8767     0.0806     0.1767    75.8447     2.2895
  329.0000     2.9546     3.1213   -28.5332     7.8611     0.0776     0.1471    80.8590     2.3661
  329.5000     2.9746     3.0780   -28.3876     7.8302     0.0806     0.1303    91.0364     2.4173
  330.0000     3.0155     3.0982   -28.8495     7.7670     0.0655     0.1186    91.6414     2.4496
  330.5000     3.1211     3.2058   -29.4614     7.7382     0.0518     0.1075    92.7015     2.4684
  331.0000     3.2318     3.4584   -30.0734     7.7529     0.0519     0.1003    96.3460     2.4767
  331.5000     3.5769     3.9985   -30.0793     7.7677     0.0519     0.0991    97.1037     2.4827
  332.0000     3.9485     4.5911   -30.5397     7.7671     0.0518     0.0967    96.7961     2.4895
  332.5000     4.4727     4.7841   -31.3032     7.7667     0.0533     0.0912    95.1214     2.4955
  333.0000     4.8937     5.0900   -31.7636     7.7967     0.0502     0.0952    91.9270     2.4977
  333.5000     5.1719     5.4572   -31.9212     7.7810     0.0457     0.1000    91.6201     2.4955
  334.0000     5.4689     5.9417   -31.9284     7.7653     0.0412     0.1012    92.2243     2.4932
  334.5000     5.6576     6.2148   -32.0858     7.7496     0.0411     0.1030    92.5261     2.4917
  335.0000     5.6955     6.2996   -32.0916     7.7188     0.0426     0.1063    92.3704     2.4865
  335.5000     5.6943     6.3843   -32.2491     7.7032     0.0440     0.1085    92.0643     2.4805
  336.0000     5.6932     6.3817   -32.1034     7.6875     0.0470     0.1206    93.5804     2.4707
  336.5000     5.6527     6.2914   -31.8063     7.6719     0.0529     0.1301    97.3768     2.4546
  337.0000     5.4589     6.2022   -31.5091     7.7017     0.0619     0.1253    99.6575     2.4383
  337.5000     5.2354     5.9886   -31.1995     7.7469     0.0663     0.1226    98.6372     2.4444
  338.0000     5.0559     5.7413   -30.9149     7.8224     0.0528     0.1205    92.3521     2.4496
  338.5000     4.9487     5.5340   -30.9222     7.8525     0.0512     0.1181    89.4616     2.4556
  339.0000     4.8143     5.3160   -30.9281     7.8520     0.0620     0.1169    91.8903     2.4602
  339.5000     4.7469     5.1686   -31.0855     7.8363     0.0766     0.1145    96.1427     2.4617
  340.0000     4.7459     5.0954   -31.2429     7.8045     0.0811     0.0950    99.0273     2.4774
  340.5000     4.7782     5.0933   -31.4003     7.7441     0.0826     0.0830    99.3293     2.4892
  341.0000     4.8774     5.3074   -31.4062     7.7286     0.0795     0.0788    99.4773     2.5045
  341.5000     4.9448     5.6077   -31.5636     7.7434     0.0735     0.0803    99.1697     2.5165
  342.0000     5.1180     5.7630   -31.7212     7.7276     0.0644     0.0881    98.5589     2.5195
  342.5000     5.3344     5.8007   -31.8799     7.7272     0.0584     0.0812    97.9480     2.5128
  343.0000     5.6017     5.8844   -32.0373     7.7267     0.0536     0.0827    96.7293     2.5090
  343.5000     5.9165     6.1259   -32.1947     7.7263     0.0478     0.0879    95.0546     2.5196
  344.0000     6.1241     6.4278   -32.6551     7.7258     0.0463     0.0918    92.0121     2.5156
  344.5000     6.3389     6.8138   -33.1156     7.7253     0.0492     0.0918    91.2492     2.5045
  345.0000     6.4712     7.4133   -33.1215     7.7249     0.0507     0.0918    92.0055     2.4992
  345.5000     6.6515     7.5679   -33.1273     7.7244     0.0491     0.0918    91.5467     2.4992
  346.0000     6.7900     7.7787   -32.9817     7.7240     0.0491     0.0918    90.0247     2.4992
  346.5000     6.8834     7.9405   -33.2921     7.7236     0.0490     0.0915    91.2369     2.4992
  347.0000     6.8820     7.9945   -33.9041     7.7231     0.0490     0.0903    92.4505     2.5000
  347.5000     6.9285     7.9373   -34.3645     7.7226     0.0489     0.0888    93.2067     2.5008
  348.0000     6.8789     7.8809   -34.3704     7.7221     0.0489     0.0900    94.8044     2.5031
  348.5000     6.8300     7.7706   -34.0718     7.7217     0.0489     0.0937    96.8482     2.5015
  349.0000     6.6880     7.6563   -33.9261     7.7212     0.0443     0.0928    96.8445     2.4977
  349.5000     6.5945     7.3995   -33.9335     7.7360     0.0443     0.0949    96.9943     2.4932
  350.0000     6.5024     7.2961   -33.9394     7.7508     0.0502     0.0976    97.4466     2.4925
  350.5000     6.4115     7.1942   -34.0970     7.7329     0.0547     0.0952    98.5075     2.4962
  351.0000     6.3219     7.0938   -34.2557     7.6586     0.0501     0.0985   100.9361     2.5000
  351.5000     6.2330     6.9464   -33.8070     7.6581     0.0456     0.1012   102.6049     2.4953
  352.0000     6.0148     6.8021   -33.3584     7.6577     0.0425     0.1073   101.3854     2.4774
  352.5000     5.6542     6.6608   -33.2113     7.6573     0.0410     0.1121   101.5345     2.4647
  353.0000     5.2742     6.4326   -33.2186     7.6635     0.0545     0.1127   101.9875     2.4617
  353.5000     5.0935     6.2078   -33.5275     7.6701     0.0574     0.1106   100.1608     2.4624
  354.0000     5.0223     5.9166   -33.9880     7.6584     0.0543     0.1066    98.6381     2.4677
  354.5000     5.0213     5.8340   -34.1455     7.6734     0.0468     0.0995    98.1571     2.4759
  355.0000     5.0554     5.7525   -34.1515     7.6885     0.0468     0.0944   100.0203     2.4887
  355.5000     5.1248     5.7514   -34.6132     7.7187     0.0452     0.0917   100.7570     2.4970
  356.0000     5.2324     5.8710   -34.7706     7.7185     0.0377     0.0962   100.1454     2.4962
  356.5000     5.3455     6.0768   -35.0795     7.7184     0.0346     0.1022   100.2952     2.4872
  357.0000     5.5274     6.3335   -35.2369     7.7334     0.0301     0.1001    99.5316     2.4835
  357.5000     5.8822     6.6011   -35.2428     7.7505     0.0271     0.0986    98.7696     2.4835
  358.0000     6.3034     6.8413   -35.4002     7.8091     0.0270     0.1008   101.0455     2.4827
  358.5000     6.6156     7.2703   -35.5576     7.7937     0.0270     0.1050   102.5623     2.4774
  359.0000     6.8003     7.5252   -35.5636     7.7936     0.0269     0.1074   102.5587     2.4759
  359.5000     6.8466     7.7355   -35.5709     7.8087     0.0314     0.1083   102.4038     2.4782
  360.0000     6.8925     7.6271   -35.4252     7.8085     0.0388     0.0957   102.2488     2.4842
  360.5000     6.8911     7.6786   -35.2796     7.8084     0.0403     0.0918   101.0301     2.4902
  361.0000     6.8897     7.7308   -35.1325     7.8082     0.0402     0.0942    96.4679     2.4948
  361.5000     6.8880     7.9461   -35.7459     7.8536     0.0417     0.0948    94.9452     2.4977
  362.0000     6.8866     8.1114   -36.3579     7.8687     0.0434     0.0882    96.7861     2.5008
  362.5000     6.8852     8.1662   -35.9092     7.8990     0.0446     0.0834    98.5868     2.5038
  363.0000     6.8838     8.0517   -35.6121     7.9140     0.0447     0.0868    95.8475     2.5068
  363.5000     6.8824     7.9393   -35.6182     7.9290     0.0448     0.0891    95.5414     2.5075
  364.0000     6.8810     7.9139   -35.4723     7.9289     0.0477     0.0894    97.5134     2.5038
  364.5000     6.8796     7.8426   -35.4797     7.9287     0.0506     0.0894   101.6137     2.5008
  365.0000     6.8782     7.7713   -35.3326     7.9286     0.0520     0.0879   102.2187     2.5015
  365.5000     6.8765     7.6999   -35.3400     7.8980     0.0534     0.0843   102.9756     2.5045
  366.0000     6.8751     7.6272   -35.3458     7.8523     0.0518     0.0853   104.0405     2.5075
  366.5000     6.8737     7.6246   -35.3517     7.8369     0.0532     0.0889   100.3854     2.5068
  367.0000     6.8723     7.6215   -35.3576     7.8368     0.0591     0.0898   100.9904     2.4977
  367.5000     6.8709     7.6189   -35.5151     7.8366     0.0666     0.0928   103.4191     2.4947
  368.0000     6.9177     7.6700   -35.9769     7.8365     0.0710     0.0949   104.4807     2.4962
