~VERSION INFORMATION
 VERS.                2.0:   CWLS LOG ASCII STANDARD - VERSION 2.0
 WRAP.                 NO:   ONE LINE PER DEPTH STEP
~WELL INFORMATION
#MNEM.UNIT      DATA TYPE    INFORMATION
#----------   ------------   ------------------------------
 STRT.F           90.5000:   START DEPTH
 STOP.F          836.0000:   STOP DEPTH
 STEP.F            0.5000:   STEP LENGTH
 NULL.          -999.2500:   NO VALUE
 COMP.          U.S. NAVY:   COMPANY
 WELL.    NPR #3 #38-S-35:   WELL
 FLD .           TEAPOT E:   FIELD
 LOC .      S35 T39N R78W:   LOCATION
 CNTY.            NATRONA:   COUNTY
 STAT.            WYOMING:   STATE
 CTRY. UNITED STATES OF AMERICA:   COUNTRY
 SRVC. Schlumberger Well Surveying Corp:   SERVICE COMPANY
 DATE.        21-JUL-1963:   LOGDATE
 API .       490250649100:   API NUMBER
~CURVE INFORMATION
#MNEM.UNIT       API CODE    CURVE DESCRIPTION
#----------   ------------   ------------------------------
 DEPT.F                  :   
 SPR .MV     05 010 01 00:   SPONTANEOUS POTENTIAL FROM RES.
 ASN .OHMM   05 041 16 00:   AMPLIFIED SHORT NORMAL 16"
 ILD .OHMM   05 120 46 00:   INDUCTION LOG DEEP
 CILD.MMHO   05 110 46 00:   CONDUCTIVITY INDUCTION LOG DEEP
 DT  .US/F   60 520 33 00:   INTERVAL TRANSIT TIME
 GR  .GAPI   30 310 01 00:   GAMMA RAY
~PARAMETER INFORMATION
#MNEM.UNIT          VALUE    DESCRIPTION
#----------   ------------   ------------------------------
 LMF .                 KB:   LOG MEASURED FROM
 DMF .                 KB:   DRILLING MEASURED FROM
 EKB .F              5119:   KELLING BUSHING
 EGL .F              5114:   GROUND LEVEL
 DATE.          7-21-1963:   RUN DATE
 RUN .                  1:   RUN NUMBER
 DD  .F               836:   DEPTH DRILLER
 DL  .F               837:   DEPTH LOGGER
 BLI .F               836:   BOTTOM LOG INTERVAL
 TLI .F                90:   TOP LOG INTERVAL
 CBD .F                12:   CASING BOTTOM DRILLER
 BS  .IN             6.75:   BIT SIZE
 BSD .F               836:   BIT SIZE AT DEPTH
 DFT .            GEL-OIL:   DRILLING FLUID TYPE
 DFD .                9.2:   DRILLING FLUID DENSITY
 DFV .                 85:   DRILLING FLUID VISCOSITY
 DFPH.                  8:   DRILLING FLUID PH
 DFL .                3.6:   DRILLING FLUID LOSS
 MSS .           FLOWLINE:   MUD SAMPLE SOURCE
 RMS .OHMM           2.95:   RESISTIVITY MUD SAMPLE
 MST .F                88:   MUD SAMPLE TEMPERATURE
 RMF .OHMM           2.31:   RESISTIVITY MUD FILTRATE SAMPLE
 MFST.F                88:   MUD FILTRATE SAMPLE TEMPERATURE
 RMC .OHMM           2.65:   RESISTIVITY MUD CAKE
 MCST.F                88:   MUD CAKE SAMPLE TEMPERATURE
 MFSS.                  M:   MUD FILTRATE SAMPLE SOURCE
 MCSS.                  M:   MUD CAKE SAMPLE SOURCE
 TCS .HRS               1:   TIME CURCULATED STOPPED
 LUN .               2523:   LOGGING UNIT NUMBER
 LUL .              CSPR.:   LOGGING UNIT LOCATION
 ENGI.             KNOBEL:   RECORDING ENGINEER
 WITN.          JORGENSON:   WITNESSED BY
 CLNT.            A2DTECH:   CLIENT CODE
 ORIG.      2" , 5" PRINT:   ORIGIN OF DATA
 UWI .       490250649100:   UNIQUE WELL ID
 DICO. A2D Technologies, Inc.:   DIGITIZING COMPANY
~OTHER INFORMATION
~A   DEPT      SPR        ASN        ILD       CILD         DT         GR   
# ...
  298.5000   -26.5279     2.9902     2.9632   312.1875  -999.2500  -999.2500
  299.0000   -26.9289     3.3308     3.1729   284.5743  -999.2500  -999.2500
  299.5000   -27.3004     3.7405     3.3825   258.5070  -999.2500  -999.2500
  300.0000   -27.4122     3.8609     3.5921   241.1734  -999.2500  -999.2500
  300.5000   -27.5157     3.9385     3.8100   231.7317  -999.2500  -999.2500
  301.0000   -27.6190     3.9374     3.7809   231.7317   117.7316  -999.2500
  301.5000   -27.6833     3.9154     3.6839   239.5395   118.3234  -999.2500
  302.0000   -27.5814     3.8924     3.5855   247.4632   118.7741  -999.2500
  302.5000   -27.4835     3.8469     3.4879   255.4871   119.0552  -999.2500
  303.0000   -27.3857     3.8021     3.3903   266.6382   119.7599  -999.2500
  303.5000   -27.2885     3.7575     3.2927   278.8483   120.5977  -999.2500
  304.0000   -27.1945     3.7127     3.1951   294.9629   121.4355  -999.2500
  304.5000   -27.0739     3.6685     3.0975   313.8007   122.2734  -999.2500
  305.0000   -26.4862     3.6021     2.9999   332.5826   123.2917  -999.2500
  305.5000   -26.0137     3.5270     2.9021   350.0945   124.4129  -999.2500
  306.0000   -25.7760     3.4511     2.8042   359.3482   125.6874  -999.2500
  306.5000   -25.5330     3.3756     2.7088   359.7410   127.2869  -999.2500
  307.0000   -25.4992     3.3343     2.7371   347.0533   129.6796  -999.2500
  307.5000   -25.4987     3.3972     2.9309   334.3656   135.3072  -999.2500
  308.0000   -25.6483     3.5267     3.1232   319.0190   137.2627  -999.2500
  308.5000   -25.9162     3.4626     3.3163   298.1982   132.8353  -999.2500
  309.0000   -26.1852     3.4979     3.5091   277.3774   129.7505  -999.2500
  309.5000   -26.4546     3.7581     3.7018   256.5525   127.9169  -999.2500
  310.0000   -26.7230     4.0838     3.8946   235.6481   135.5644  -999.2500
  310.5000   -26.9941     4.4104     4.0874   213.7786   129.6450  -999.2500
  311.0000   -27.0460     4.6562     4.2804   200.7007   125.4745  -999.2500
  311.5000   -26.9618     4.8436     4.4731   196.2963   127.1688  -999.2500
  312.0000   -26.8744     4.9554     4.6568   192.8262   114.2489  -999.2500
  312.5000   -26.7863     5.0521     4.7756   189.3560   116.6229  -999.2500
  313.0000   -26.7049     5.1544     4.8899   185.6857   118.6519  -999.2500
  313.5000   -26.7928     5.3797     5.0040   180.1922   115.5030  -999.2500
  314.0000   -26.8886     5.6191     5.1183   174.3624   112.9187  -999.2500
  314.5000   -26.9837     5.8588     5.2326   168.5284   110.3297  -999.2500
  315.0000   -27.0830     6.0538     5.3470   162.7223   107.6923  -999.2500
  315.5000   -27.0131     6.2264     5.4613   157.1144   107.2271  -999.2500
  316.0000   -26.9001     6.4024     5.5664   153.4125   106.7527  -999.2500
  316.5000   -26.7864     6.4944     5.6167   153.7787   106.8445  -999.2500
  317.0000   -26.6730     6.5679     5.6687   155.1886   107.2227  -999.2500
  317.5000   -26.5598     6.5619     5.7208   155.9436   107.6009  -999.2500
  318.0000   -26.4465     6.5444     5.7729   156.3714   107.9790  -999.2500
  318.5000   -26.3332     6.5268     5.8245   156.7993   108.3572  -999.2500
  319.0000   -26.2189     6.5095     5.8510   157.2271   108.6128  -999.2500
  319.5000   -26.1053     6.4977     5.8376   157.6549   108.8010  -999.2500
  320.0000   -26.1434     6.5051     5.8246   158.0827   108.8312  -999.2500
  320.5000   -26.1916     6.5122     5.8116   158.5106   108.7162  -999.2500
  321.0000   -26.2391     6.5269     5.7986   158.9384   109.0462  -999.2500
  321.5000   -26.2847     6.5560     5.7856   159.3662   109.2915  -999.2500
  322.0000   -26.4874     6.5853     5.7725   159.7940   108.8775  -999.2500
  322.5000   -26.7472     6.6151     5.7593   160.2219   108.6873  -999.2500
  323.0000   -27.0092     6.5943     5.7396   160.6497   109.1324  -999.2500
  323.5000   -27.1880     6.5689     5.7170   161.0775   109.8347  -999.2500
  324.0000   -27.3241     6.5436     5.6938   161.5053   110.5370  -999.2500
  324.5000   -27.4606     6.5183     5.6718   160.8358   110.4339  -999.2500
  325.0000   -27.5960     6.4934     5.6931   159.6597   109.8794  -999.2500
  325.5000   -27.6690     6.4922     5.8530   157.1634   109.2907  -999.2500
  326.0000   -27.4976     6.5708     6.0060   154.8861   108.6973  -999.2500
  326.5000   -27.3328     6.7805     6.1567   152.6526   107.9927  -999.2500
  327.0000   -27.1682     6.9904     6.2848   148.9389   107.0008  -999.2500
  327.5000   -27.0037     7.1168     6.4110   145.6456   106.0090  -999.2500
  328.0000   -26.8389     7.2050     6.5371   137.6577   105.6477  -999.2500
  328.5000   -26.6723     7.2932     6.6634   130.5806   105.3691  -999.2500
  329.0000   -26.5094     7.3816     6.7895   124.6246   104.8953  -999.2500
  329.5000   -26.6932     7.4701     6.9171   123.0330   104.0955  -999.2500
  330.0000   -26.9036     7.5573     6.9566   121.6216   103.2958  -999.2500
  330.5000   -27.1133     7.6104     6.9573   122.8228   102.4960  -999.2500
  331.0000   -27.3223     7.5850     6.9580   123.9187   101.8540  -999.2500
  331.5000   -27.4855     7.4754     6.9646   125.0145   102.2919  -999.2500
  332.0000   -27.3315     7.3437     6.7063   127.2701   102.7297  -999.2500
  332.5000   -27.1798     7.1899     6.2264   130.6306   102.8971  -999.2500
  333.0000   -26.9722     7.0079     5.5380   146.3213   102.2767  -999.2500
  333.5000   -26.6896     6.8059     4.8524   179.5045   100.1998  -999.2500
  334.0000   -26.4079     6.4035     4.1653   228.9067   102.8831  -999.2500
  334.5000   -26.1255     5.8258     3.4676   278.6011   106.5996  -999.2500
  335.0000   -25.8433     5.0759     3.1160   328.7234   111.6160  -999.2500
  335.5000   -25.5611     4.2560     2.8227   373.1361   117.5046  -999.2500
  336.0000   -25.2789     3.5875     2.5335   407.7452   123.3932  -999.2500
  336.5000   -24.9963     3.4282     2.2609   435.7232   129.2818  -999.2500
  337.0000   -24.7144     3.2808     2.3249   456.9570   135.1703  -999.2500
  337.5000   -24.4763     3.2607     2.4027   446.4464   141.0589  -999.2500
  338.0000   -24.3883     3.4293     2.6032   429.9299   141.4585  -999.2500
  338.5000   -24.3108     3.6459     3.0796   374.5334   128.8924  -999.2500
  339.0000   -24.8655     3.8674     3.5817   315.7451   119.9688  -999.2500
  339.5000   -25.4767     4.3100     4.8078   256.9570   112.4078  -999.2500
  340.0000   -26.0868     5.5120     6.0493   205.2507   104.8468  -999.2500
  340.5000   -26.6869     6.6976     7.2861   156.9843    97.4026  -999.2500
  341.0000   -27.0920     7.8772     8.5228   117.7344    96.9946  -999.2500
  341.5000   -27.0413     8.6109     9.7621    93.5536    97.8634  -999.2500
  342.0000   -26.9993     9.0436    10.9904    85.0570    96.9132  -999.2500
  342.5000   -26.9554     9.4698    11.5728    81.5528    95.5589  -999.2500
  343.0000   -26.9087     9.7581    10.8782    83.8744    94.1934  -999.2500
  343.5000   -26.9755     9.7146     9.7812    92.3185    93.2457  -999.2500
  344.0000   -27.0793     9.6404     8.6768   110.7545    92.8352  -999.2500
  344.5000   -27.1848     9.3802     7.5758   131.2500    93.9077  -999.2500
  345.0000   -27.2954     8.8638     6.4336   151.7455    95.7274  -999.2500
  345.5000   -27.0982     8.0826     5.7833   167.1815   101.1680  -999.2500
  346.0000   -26.7848     7.3037     5.3330   176.5315   106.6126  -999.2500
  346.5000   -26.0299     6.5239     5.2952   178.8739   112.0456  -999.2500
  347.0000   -25.2761     6.0959     5.2730   181.2162   114.0913  -999.2500
  347.5000   -24.5081     6.4232     5.6986   183.5586   113.1628  -999.2500
  348.0000   -24.5948     6.2989     6.1233   184.6847   110.9758  -999.2500
  348.5000   -25.0074     6.2842     6.5615   173.2332   105.9950  -999.2500
  349.0000   -25.4267     6.9762     7.3561   154.4945   101.0096  -999.2500
  349.5000   -25.7027     7.7975     8.1755   135.7558    97.1538  -999.2500
  350.0000   -25.9488     8.6101     8.9919   121.3993    97.4702  -999.2500
