~VERSION INFORMATION
 VERS.                2.0:   CWLS LOG ASCII STANDARD - VERSION 2.0
 WRAP.                 NO:   ONE LINE PER DEPTH STEP
~WELL INFORMATION
#MNEM.UNIT      DATA TYPE    INFORMATION
#----------   ------------   ------------------------------
 STRT.F           30.0000:   START DEPTH
 STOP.F          602.0000:   STOP DEPTH
 STEP.F            0.5000:   STEP LENGTH
 NULL.          -999.2500:   NO VALUE
 COMP. FENIX & SCISSON U.S NAVY:   COMPANY
 WELL.   S-3 NPR #3 #51-3:   WELL
 FLD .             TEAPOT:   FIELD
 LOC .       S3 T38N R78W:   LOCATION
 CNTY.            NATRONA:   COUNTY
 STAT.            WYOMING:   STATE
 CTRY. UNITED STATES OF AMERICA:   COUNTRY
 SRVC.              Welex:   SERVICE COMPANY
 DATE.        08-MAR-1977:   LOGDATE
 API .       490251030800:   API NUMBER
~CURVE INFORMATION
#MNEM.UNIT       API CODE    CURVE DESCRIPTION
#----------   ------------   ------------------------------
 DEPT.F                  :   
 SPR .MV     07 010 01 00:   SPONTANEOUS POTENTIAL
 ILD .OHMM   07 120 46 00:   INDUCTION LOG DEEP
 ILM .OHMM   07 120 44 00:   INDUCTION LOG MEDIUM
 SGRD.OHMM   07 221 05 00:   SHALLOW SHORT GUARD RESISTIVITY
 CALD.IN     45 280 60 00:   CALIPER FROM DENSITY LOG
 CORR.G/C3   45 356 01 00:   DENSITY CORRECTION
 RHOB.G/C3   45 350 01 00:   BULK DENSITY
 DPHI.DEC    45 890 12 00:   DENSITY POROSITY SANDSTONE
 GRD .GAPI   45 310 01 00:   GAMMA RAY FROM DENSITY LOG
~PARAMETER INFORMATION
#MNEM.UNIT          VALUE    DESCRIPTION
#----------   ------------   ------------------------------
 PD  .                 GL:   PERMANENT DATUM
 EPD .F              5140:   ELEVATION PERMANENT DATUM
 LMF .                 GL:   LOG MEASURED FROM
 DAPD.F                  :   FEET ABOVE PERMANENT DATUM
 DMF .                 GL:   DRILLING MEASURED FROM
 EKB .F                  :   KELLING BUSHING
 EDF .F                  :   DRILLING FLOOR
 EGL .F              5140:   GROUND LEVEL
 DATE.             3-8-77:   RUN DATE
 RUN .                  1:   RUN NUMBER
 DD  .F               611:   DEPTH DRILLER
 DL  .F               555:   DEPTH LOGGER
 BLI .F               553:   BOTTOM LOG INTERVAL
 TLI .F                40:   TOP LOG INTERVAL
 CS  .IN            8.625:   CASING SIZE
 CBD .F                40:   CASING BOTTOM DRILLER
 CBL .F                40:   CASING BOTTOM LOGGER
 BS  .IN            7.875:   BIT SIZE
 BSD .F               611:   BIT SIZE AT DEPTH
 DFT .           CHEM GEL:   DRILLING FLUID TYPE
 DFD .                8.6:   DRILLING FLUID DENSITY
 DFV .                 42:   DRILLING FLUID VISCOSITY
 DFPH.                  8:   DRILLING FLUID PH
 DFL .                3.2:   DRILLING FLUID LOSS
 MSS .           FLOWLINE:   MUD SAMPLE SOURCE
 RMS .OHMM           1.49:   RESISTIVITY MUD SAMPLE
 MST .F                48:   MUD SAMPLE TEMPERATURE
 RMF .OHMM           1.07:   RESISTIVITY MUD FILTRATE SAMPLE
 MFST.F                48:   MUD FILTRATE SAMPLE TEMPERATURE
 RMC .OHMM           2.34:   RESISTIVITY MUD CAKE
 MCST.F                48:   MUD CAKE SAMPLE TEMPERATURE
 MFSS.           MEASURED:   MUD FILTRATE SAMPLE SOURCE
 MCSS.           MEASURED:   MUD CAKE SAMPLE SOURCE
 RMB .OHMM           1.19:   RESISTIVITY MUD AT BHT
 BHT .F                60:   BOTTOM HOLE TEMPERATURE
 TCS .HRS               2:   TIME CURCULATED STOPPED
 TLAB.HRS                :   TIME LOGGER AT BOTTOM
 MRT .F                60:   MAXIMUM RECORDED TEMPERATURE
 LUN .               0716:   LOGGING UNIT NUMBER
 LUL .             VERNAL:   LOGGING UNIT LOCATION
 ENGI.           CALLAHAN:   RECORDING ENGINEER
 WITN.         STUEBINGER:   WITNESSED BY
 CLNT.            A2DTECH:   CLIENT CODE
 ORIG.       2", 5" PRINT:   ORIGIN OF DATA
 UWI .       490251030800:   UNIQUE WELL ID
 DICO. A2D Technologies, Inc.:   DIGITIZING COMPANY
 OS  .                   :   OTHER SERVICES
 PWI .                   :   PRIMARY WELL IDENTIFIER
 R1  .                   :   REMARKS 1
 R2  .                   :   REMARKS 2
 LSRV.                   :   LOG MNEMONIC
~OTHER INFORMATION
~A   DEPT      SPR        ILD        ILM       SGRD       CALD       CORR       RHOB       DPHI        GRD   
# ...
   66.5000  -999.2500     9.0091     8.9682  -999.2500     7.9662     0.0326     2.4188     0.1361   147.5340
   67.0000  -999.2500     8.9414     8.8400  -999.2500     7.9954     0.0447     2.4255     0.1337   147.2275
   67.5000  -999.2500     8.8130     8.6452  -999.2500     8.0396     0.0371     2.4338     0.1353   148.7308
   68.0000  -999.2500     8.6263     8.4109  -999.2500     8.0988     0.0251     2.4330     0.1349   149.3293
   68.5000  -999.2500     8.5024     8.2333  -999.2500     8.1430     0.0205     2.4254     0.1364   149.3233
   69.0000  -999.2500     8.2648     8.0595  -999.2500     8.1577     0.0235     2.4281     0.1310   148.8629
   69.5000  -999.2500     8.1459     7.9442  -999.2500     8.1714     0.0280     2.4479     0.1220   148.2529
   70.0000  -999.2500     8.0278     7.9399  -999.2500     8.1556     0.0340     2.4553     0.1187   147.7953
   70.5000  -999.2500     8.0788     7.9357  -999.2500     8.1249     0.0298     2.4575     0.1190   148.3923
   71.0000  -999.2500     8.1867     7.9866  -999.2500     8.0942    -0.0021     2.4590     0.1264   148.6900
   71.5000  -999.2500     8.3538     8.0379  -999.2500     8.0486     0.0159     2.4130     0.1365   147.0211
   72.0000  -999.2500     8.4069     8.0895  -999.2500     8.0180     0.0249     2.4450     0.1233   147.7706
   72.5000  -999.2500     8.3438     8.0841  -999.2500     8.0172     0.0355     2.4649     0.1121   147.6122
   73.0000  -999.2500     8.2227     7.9685  -999.2500     8.0163     0.0234     2.4724     0.1152   147.1532
   73.5000  -999.2500     8.1610     7.9092  -999.2500     8.0156     0.0279     2.4618     0.1170   144.5794
   74.0000  -999.2500     8.0997     7.8503  -999.2500     8.0149     0.0414     2.4783     0.1108   143.3651
   74.5000  -999.2500     8.0389     7.8451  -999.2500     8.0142     0.0399     2.4707     0.1104   143.3593
   75.0000  -999.2500     7.9785     7.8409  -999.2500     7.9835     0.0233     2.4617     0.1164   142.1450
   75.5000  -999.2500     8.0292     7.8919  -999.2500     7.9828     0.0341     2.4827     0.1083   141.5350
   76.0000  -999.2500     8.0803     7.9972  -999.2500     7.9820     0.0203     2.4631     0.1134   142.7376
   76.5000  -999.2500     8.1882     8.0496  -999.2500     7.9812     0.0173     2.4487     0.1218   141.2197
   77.0000  -999.2500     8.2976     8.1567  -999.2500     7.9804     0.0218     2.4532     0.1167   139.8544
   77.5000  -999.2500     8.4084     8.2661  -999.2500     7.9949     0.0594     2.4827     0.1074   139.0947
   78.0000  -999.2500     8.5208     8.3759  -999.2500     8.0091     0.0519     2.4982     0.1011   140.5980
   78.5000  -999.2500     8.6334     8.4884  -999.2500     8.0082     0.0428     2.5027     0.0996   141.0493
   79.0000  -999.2500     8.7486     8.5440  -999.2500     8.0075     0.0292     2.4508     0.1107   141.6423
   79.5000  -999.2500     8.8029     8.5989  -999.2500     7.9916     0.0107     2.4395     0.1239   141.9400
   80.0000  -999.2500     8.8602     8.6541  -999.2500     7.9610     0.0066     2.4537     0.1176   139.9705
   80.5000  -999.2500     8.8535     8.7085  -999.2500     7.9303     0.0247     2.4650     0.1110   142.5312
   81.0000  -999.2500     8.8482     8.7644  -999.2500     7.8847     0.0367     2.4731     0.1077   143.1310
   81.5000  -999.2500     8.8429     8.8207  -999.2500     7.8390     0.0487     2.4821     0.1053   142.8216
   82.0000  -999.2500     8.8375     8.8773  -999.2500     7.8233     0.0533     2.4896     0.1047   141.8932
   82.5000  -999.2500     8.8309     8.8714  -999.2500     7.7927     0.0322     2.4610     0.1100   141.6000
   83.0000  -999.2500     8.7646     8.8666  -999.2500     7.8069     0.0231     2.4436     0.1243   142.0488
   83.5000  -999.2500     8.7594     8.8619  -999.2500     7.8060     0.0186     2.4344     0.1279   143.0990
   84.0000  -999.2500     8.6936     8.7959  -999.2500     7.8053     0.0216     2.4210     0.1306   143.3967
   84.5000  -999.2500     8.6884     8.7231  -999.2500     7.8345     0.0306     2.4382     0.1321   142.3320
   85.0000  -999.2500     8.6232     8.5450  -999.2500     7.8937     0.0245     2.4510     0.1222   140.6646
   85.5000  -999.2500     8.6780     8.4814  -999.2500     7.9528     0.0080     2.4314     0.1252   139.6013
   86.0000  -999.2500     8.7318     8.4182  -999.2500     7.9970    -0.0041     2.4281     0.1384   141.1046
   86.5000  -999.2500     8.7886     8.4137  -999.2500     8.0113     0.0200     2.4483     0.1204   138.5308
   87.0000  -999.2500     8.9060     8.5269  -999.2500     8.0104     0.0320     2.4673     0.1132   135.9570
   87.5000  -999.2500     9.0250     8.7013  -999.2500     8.0248     0.0471     2.4771     0.1042   135.3469
   88.0000  -999.2500     9.1443     8.8884  -999.2500     8.0239     0.0501     2.4830     0.0994   133.9816
   88.5000  -999.2500     9.2703     9.1232  -999.2500     8.0232     0.0275     2.4770     0.1063   127.3292
   89.0000  -999.2500     9.4555     9.3100  -999.2500     8.0225     0.0440     2.4738     0.1003   125.0795
   89.5000  -999.2500     9.5818     9.5668  -999.2500     8.0216     0.0485     2.4830     0.0976   117.4974
   90.0000  -999.2500     9.5746     9.6952  -999.2500     8.0208     0.0244     2.4859     0.1072   114.0173
   90.5000  -999.2500     9.3070     9.3597  -999.2500     8.0201     0.0394     2.4798     0.1039   113.5583
   91.0000  -999.2500     9.1099     9.0988  -999.2500     8.0194     0.0364     2.4737     0.1052   113.5524
   91.5000  -999.2500     8.9168     8.9674  -999.2500     8.0187     0.0198     2.4707     0.1109   114.0000
   92.0000  -999.2500     8.6580     9.0250  -999.2500     8.0030     0.0033     2.4487     0.1160   114.7492
   92.5000   -96.1683     8.3661     9.0842  1906.1322     8.0022     0.0243     2.4627     0.1133   115.9718
   93.0000   -96.0231     8.1889     9.0781   285.6539     8.0014     0.0228     2.4653     0.1124   116.5503
   93.5000   -95.1273     8.0712     9.0105   277.7529     8.0006     0.0137     2.4525     0.1199   117.1472
   94.0000   -88.9762     8.0106     8.8203   460.2087     7.9999     0.0107     2.4472     0.1220   117.1414
   94.5000   -82.0283     7.9505     8.5711   343.8637     7.9842     0.0062     2.4441     0.1230   117.1355
   95.0000   -75.0235     7.9457     8.1062   513.5945     7.9835     0.0062     2.4426     0.1238   116.9787
   95.5000   -68.2718     7.9962     7.9902   654.2322     7.9828     0.0047     2.4410     0.1244   116.5196
   96.0000   -66.3249     8.0470     7.9859   453.0346     7.9820     0.0061     2.4425     0.1244   116.1873
   96.5000   -66.3299     8.1533     8.2062   662.6623     7.9963     0.0061     2.4439     0.1232   116.3555
   97.0000   -66.4851     8.2622     8.4912   680.9578     7.9954     0.0121     2.4484     0.1215   116.5022
   97.5000   -66.3400     8.4309     8.6053   760.3936     7.9947     0.0181     2.4521     0.1176   116.6474
   98.0000   -65.8958     8.5458     8.5411   719.0783     7.9940     0.0211     2.4581     0.1118   116.4891
   98.5000   -65.7507     8.7785     8.5354   643.2847     7.9932     0.0226     2.4704     0.1097   116.3322
   99.0000   -65.4554     9.0187     8.7709   501.1070     7.9775     0.0151     2.4753     0.1092   116.4774
   99.5000   -65.3103     9.1406     9.0128   608.1202     7.9766     0.0136     2.4639     0.1125   116.9233
  100.0000   -65.6156     9.3906     9.1973  1495.2513     7.9746     0.0196     2.4671     0.1125   117.3101
  100.5000   -66.5228     9.5175     9.3869  1999.0696     7.9563     0.0289     2.4872     0.1073   118.4179
  101.0000   -67.1284     9.7103     9.6445  1997.9070     7.9380     0.0436     2.5000     0.0956   119.6342
  101.5000   -67.7341     9.7720     9.7740  1534.9259     7.9196     0.0419     2.4992     0.0893   120.8412
  102.0000   -68.9403     9.8341     9.9052  1085.3253     7.9155     0.0328     2.4886     0.0993   122.6524
  102.5000   -70.1465     9.7797     9.8986  2000.0000     7.9304     0.0285     2.4909     0.0972   122.9534
