~VERSION INFORMATION
 VERS.                2.0:   CWLS LOG ASCII STANDARD - VERSION 2.0
 WRAP.                 NO:   ONE LINE PER DEPTH STEP
~WELL INFORMATION
#MNEM.UNIT      DATA TYPE    INFORMATION
#----------   ------------   ------------------------------
 STRT.F           33.0000:   START DEPTH
 STOP.F         1310.0000:   STOP DEPTH
 STEP.F            0.5000:   STEP LENGTH
 NULL.          -999.2500:   NO VALUE
 COMP. FENIX & SCISSON INC:   COMPANY
 WELL.    NPR-3 #76-14 SX:   WELL
 FLD .        TEAPOT DOME:   FIELD
 LOC .      S14 T38N R78W:   LOCATION
 CNTY.            NATRONA:   COUNTY
 STAT.            WYOMING:   STATE
 CTRY. UNITED STATES OF AMERICA:   COUNTRY
 SRVC.            Unknown:   SERVICE COMPANY
 DATE.        12-APR-1978:   LOGDATE
 API .       490251061200:   API NUMBER
~CURVE INFORMATION
#MNEM.UNIT       API CODE    CURVE DESCRIPTION
#----------   ------------   ------------------------------
 DEPT.F                  :   
 SPR .MV     05 010 01 00:   SPONTANEOUS POTENTIAL FROM RES.
 SN  .OHMM   05 040 16 00:   SHORT NORMAL 16"
 ILD .OHMM   05 120 46 00:   INDUCTION LOG DEEP
 CALD.IN     45 280 60 00:   CALIPER FROM DENSITY LOG
 GRD .GAPI   45 310 01 00:   GAMMA RAY FROM DENSITY LOG
 DPOR.DEC    45 890 12 00:   DENSITY POROSITY SANDSTONE
 CORR.G/C3   45 356 01 00:   DENSITY CORRECTION
 RHOB.G/C3   45 350 01 00:   BULK DENSITY
~PARAMETER INFORMATION
#MNEM.UNIT          VALUE    DESCRIPTION
#----------   ------------   ------------------------------
 PD  .                 GL:   PERMANENT DATUM
 EPD .F              5332:   ELEVATION PERMANENT DATUM
 LMF .                 KB:   LOG MEASURED FROM
 DMF .                 KB:   DRILLING MEASURED FROM
 EKB .F              5336:   KELLING BUSHING
 EGL .F              5332:   GROUND LEVEL
 DATE.          4-12-1978:   RUN DATE
 RUN .                  1:   RUN NUMBER
 DD  .F              1300:   DEPTH DRILLER
 DL  .F              1302:   DEPTH LOGGER
 BLI .F              1298:   BOTTOM LOG INTERVAL
 TLI .F                50:   TOP LOG INTERVAL
 CS  .IN            8.625:   CASING SIZE
 CBD .F                40:   CASING BOTTOM DRILLER
 CBL .F                46:   CASING BOTTOM LOGGER
 BS  .IN            7.875:   BIT SIZE
 BSD .F              1300:   BIT SIZE AT DEPTH
 DFT .                KCL:   DRILLING FLUID TYPE
 DFD .                8.5:   DRILLING FLUID DENSITY
 DFV .                 28:   DRILLING FLUID VISCOSITY
 MSS .            MUD PIT:   MUD SAMPLE SOURCE
 RMS .OHMM           1.45:   RESISTIVITY MUD SAMPLE
 MST .F                50:   MUD SAMPLE TEMPERATURE
 RMF .OHMM           1.25:   RESISTIVITY MUD FILTRATE SAMPLE
 MFST.F                62:   MUD FILTRATE SAMPLE TEMPERATURE
 RMC .OHMM           1.65:   RESISTIVITY MUD CAKE
 MCST.F                61:   MUD CAKE SAMPLE TEMPERATURE
 MFSS.           MEASURED:   MUD FILTRATE SAMPLE SOURCE
 MCSS.           MEASURED:   MUD CAKE SAMPLE SOURCE
 RMB .OHMM            .93:   RESISTIVITY MUD AT BHT
 BHT .F                78:   BOTTOM HOLE TEMPERATURE
 TCS .HRS               6:   TIME CURCULATED STOPPED
 MRT .F                78:   MAXIMUM RECORDED TEMPERATURE
 LUN .               2958:   LOGGING UNIT NUMBER
 LUL .                CAS:   LOGGING UNIT LOCATION
 ENGI.             MILLER:   RECORDING ENGINEER
 WITN.           MCGINLEY:   WITNESSED BY
 CLNT.            A2DTECH:   CLIENT CODE
 ORIG.      2" , 5" PRINT:   ORIGIN OF DATA
 UWI .       490251061200:   UNIQUE WELL ID
 DICO. A2D Technologies, Inc.:   DIGITIZING COMPANY
~OTHER INFORMATION
~A   DEPT      SPR         SN        ILD       CALD         GRD      DPOR       CORR       RHOB   
# ...
  883.5000   -26.3167     9.7816     6.8882     7.9496    62.0395     0.0718     0.0559     2.5291
  884.0000   -26.2881     9.7816     6.8882     7.9369    62.7692     0.0703     0.0559     2.5329
  884.5000   -26.2594     9.7816     6.8882     7.9184    63.4876     0.0694     0.0559     2.5366
  885.0000   -26.2307     9.7816     6.8882     7.8999    65.8678     0.0695     0.0559     2.5395
  885.5000   -26.2020     9.7816     6.8882     7.8814    68.7827     0.0718     0.0527     2.5402
  886.0000   -26.1733     9.7816     6.8882     7.8629    68.7816     0.0743     0.0469     2.5402
  886.5000   -26.1446     9.7816     6.8882     7.8443    65.9348     0.0768     0.0410     2.5341
  887.0000   -26.1162     9.7816     6.8882     7.8258    62.5190     0.0784     0.0400     2.5246
  887.5000   -26.1074     9.7816     6.8882     7.8073    61.9442     0.0792     0.0402     2.5236
  888.0000   -26.1249     9.7816     6.8882     7.7888    63.3180     0.0801     0.0404     2.5224
  888.5000   -26.1421     9.7816     6.8882     7.7703    64.6092     0.0796     0.0405     2.5201
  889.0000   -26.1594     9.7816     6.8882     7.7518    63.1165     0.0739     0.0407     2.5173
  889.5000   -26.1766     9.7816     6.8882     7.7333    61.5415     0.0773     0.0409     2.5246
  890.0000   -26.1939     9.7816     6.8882     7.7148    61.2406     0.0774     0.0411     2.5315
  890.5000   -26.2111     9.7816     6.8882     7.6962    61.5406     0.0755     0.0413     2.5224
  891.0000   -26.2284     9.7816     6.8882     7.6778    61.6993     0.0755     0.0414     2.5207
  891.5000   -26.2457     9.7816     6.8881     7.6592    61.4722     0.0755     0.0416     2.5268
  892.0000   -26.2629     9.7817     6.8891     7.6491    59.3671     0.0805     0.0418     2.5315
  892.5000   -26.2803     9.7816     6.8551     7.6469    56.6039     0.0862     0.0424     2.5174
  893.0000   -26.2982     9.7817     6.8064     7.6449    55.7307     0.0899     0.0434     2.5029
  893.5000   -26.2785     9.7205     6.7585     7.6429    59.2099     0.0878     0.0444     2.5010
  894.0000   -26.2530     9.6014     6.7108     7.6409    60.6597     0.0839     0.0454     2.5060
  894.5000   -26.2275     9.4840     6.6634     7.6389    59.2738     0.0799     0.0465     2.5127
  895.0000   -26.2020     9.3677     6.6163     7.6368    58.8136     0.0787     0.0475     2.5187
  895.5000   -26.1765     9.3026     6.5763     7.6348    62.2084     0.0779     0.0478     2.5213
  896.0000   -26.1510     9.2533     6.5692     7.6328    64.7989     0.0775     0.0475     2.5240
  896.5000   -26.1253     9.2042     6.5620     7.6308    62.6612     0.0778     0.0473     2.5267
  897.0000   -26.1015     9.1554     6.5549     7.6300    60.6977     0.0783     0.0470     2.5252
  897.5000   -26.1266     9.1069     6.5478     7.6300    61.9251     0.0787     0.0468     2.5222
  898.0000   -26.1540     9.0586     6.5406     7.6300    69.2234     0.0793     0.0465     2.5225
  898.5000   -26.1812     9.0105     6.5335     7.6300    67.3325     0.0803     0.0462     2.5229
  899.0000   -26.2084     8.9627     6.5265     7.6299    64.9400     0.0812     0.0460     2.5230
  899.5000   -26.2355     8.9190     6.5171     7.6300    62.7239     0.0821     0.0457     2.5200
  900.0000   -26.2627     8.9202     6.5407     7.6344    62.6832     0.0830     0.0454     2.5170
  900.5000   -26.2898     8.9153     6.5749     7.6525    62.3912     0.0809     0.0452     2.5138
  901.0000   -26.3170     9.0137     6.6094     7.6698    61.3606     0.0784     0.0449     2.5176
  901.5000   -26.3441     9.0492     6.6451     7.6872    62.2081     0.0772     0.0447     2.5239
  902.0000   -26.3713     9.0854     6.6869     7.7045    65.3773     0.0790     0.0444     2.5280
  902.5000   -26.3984     9.1776     6.7290     7.7219    66.3073     0.0807     0.0442     2.5242
  903.0000   -26.4256     9.2726     6.7714     7.7312    65.2519     0.0812     0.0439     2.5186
  903.5000   -26.4532     9.3685     6.8140     7.7339    63.2082     0.0792     0.0422     2.5163
  904.0000   -26.4798     9.4655     6.8569     7.7364    61.1275     0.0787     0.0405     2.5215
  904.5000   -26.4665     9.5632     6.9001     7.7389    60.9171     0.0810     0.0387     2.5260
  905.0000   -26.3081     9.6636     6.9435     7.7414    62.2171     0.0834     0.0370     2.5136
  905.5000   -26.1549     9.6977     6.9872     7.7439    62.1120     0.0858     0.0352     2.5070
  906.0000   -26.0044     9.7063     7.0202     7.7464    61.6273     0.0881     0.0341     2.5155
  906.5000   -25.9230     9.7148     7.0312     7.7490    61.6420     0.0895     0.0360     2.5050
  907.0000   -26.0042     9.7234     7.0422     7.7515    62.5947     0.0876     0.0379     2.4947
  907.5000   -26.0822     9.7319     7.0533     7.7540    63.5239     0.0844     0.0397     2.5010
  908.0000   -26.1608     9.7405     7.0644     7.7565    64.0238     0.0812     0.0416     2.5106
  908.5000   -26.2390     9.7491     7.0754     7.7590    63.4495     0.0783     0.0414     2.5193
  909.0000   -26.3015     9.7576     7.0866     7.7615    62.3016     0.0783     0.0408     2.5219
  909.5000   -26.3002     9.7662     7.0977     7.7640    61.1634     0.0788     0.0403     2.5231
  910.0000   -26.3000     9.7748     7.1088     7.7666    60.2783     0.0811     0.0397     2.5223
  910.5000   -26.3000     9.7834     7.1200     7.7689    60.2901     0.0834     0.0391     2.5182
  911.0000   -26.3000     9.7920     7.1312     7.7844    60.3491     0.0857     0.0386     2.5142
  911.5000   -26.3000     9.8007     7.1424     7.8068    60.6746     0.0879     0.0381     2.5102
  912.0000   -26.3000     9.8093     7.1536     7.8295    61.8346     0.0877     0.0428     2.5063
  912.5000   -26.3000     9.8179     7.1648     7.8521    65.3726     0.0815     0.0529     2.5052
  913.0000   -26.3000     9.8266     7.1761     7.8748    68.6684     0.0755     0.0634     2.5168
  913.5000   -26.3000     9.8352     7.1875     7.8974    69.2571     0.0751     0.0659     2.5286
  914.0000   -26.3000     9.8439     7.1995     7.9201    69.6454     0.0764     0.0660     2.5289
  914.5000   -26.3000     9.8524     7.2056     7.9429    68.5204     0.0783     0.0659     2.5258
  915.0000   -26.3000     9.8612     7.3151     7.9525    67.5104     0.0777     0.0659     2.5231
  915.5000   -26.2999     9.8699     7.4344     7.9564    67.7169     0.0769     0.0665     2.5221
  916.0000   -26.3004    10.0147     7.5557     7.9602    68.2779     0.0760     0.0672     2.5236
  916.5000   -26.2799    10.2143     7.6789     7.9640    68.0913     0.0752     0.0678     2.5256
  917.0000   -26.2512    10.4179     7.8041     7.9679    65.5407     0.0744     0.0684     2.5275
  917.5000   -26.2220    10.6256     7.9314     7.9717    63.0894     0.0736     0.0691     2.5295
  918.0000   -26.1929    10.8374     8.0608     7.9755    61.3216     0.0727     0.0697     2.5315
  918.5000   -26.1638    11.0534     8.1923     7.9793    60.1269     0.0736     0.0703     2.5334
  919.0000   -26.1347    11.2122     8.3259     7.9831    58.6836     0.0747     0.0710     2.5341
  919.5000   -26.1051    11.3947     8.4617     7.9870    55.6138     0.0759     0.0716     2.5303
  920.0000   -26.1000    11.5808     8.5998     7.9908    55.0547     0.0767     0.0713     2.5263
  920.5000   -26.0999    11.7698     8.7398     7.9946    58.4080     0.0753     0.0696     2.5233
  921.0000   -26.1000    11.9618     8.8826     7.9984    61.3366     0.0743     0.0679     2.5299
  921.5000   -26.1000    12.1569     8.9335     8.0022    64.2495     0.0743     0.0662     2.5362
  922.0000   -26.1000    12.3351     8.9526     8.0061    66.2533     0.0743     0.0645     2.5319
  922.5000   -26.1000    12.4214     8.9718     8.0099    62.1230     0.0758     0.0640     2.5318
  923.0000   -26.1000    12.5084     8.9910     8.0078    57.7383     0.0772     0.0642     2.5312
  923.5000   -26.1000    12.5960     9.0103     8.0050    54.3932     0.0785     0.0643     2.5258
