~VERSION INFORMATION
 VERS.                2.0:   CWLS LOG ASCII STANDARD - VERSION 2.0
 WRAP.                 NO:   ONE LINE PER DEPTH STEP
~WELL INFORMATION
#MNEM.UNIT      DATA TYPE    INFORMATION
#----------   ------------   ------------------------------
 STRT.F           88.0000:   START DEPTH
 STOP.F          893.0000:   STOP DEPTH
 STEP.F            0.5000:   STEP LENGTH
 NULL.          -999.2500:   NO VALUE
 COMP.          U.S. NAVY:   COMPANY
 WELL. RES 3 TEAPOT DOM #24S-35:   WELL
 FLD .        TEAPOT DOME:   FIELD
 LOC .      S35 T39N R78W:   LOCATION
 CNTY.            NATRONA:   COUNTY
 STAT.            WYOMING:   STATE
 CTRY. UNITED STATES OF AMERICA:   COUNTRY
 SRVC.       Schlumberger:   SERVICE COMPANY
 DATE.        26-JUL-1963:   LOGDATE
 API .       490250654800:   API NUMBER
~CURVE INFORMATION
#MNEM.UNIT       API CODE    CURVE DESCRIPTION
#----------   ------------   ------------------------------
 DEPT.F                  :   
 CALS.IN     60 280 50 00:   CALIPER FROM SONIC LOG
 DT  .US/F   60 520 00 00:   INTERVAL TRANSIT TIME
 GR  .GAPI   30 310 01 00:   GAMMA RAY
 ASN .OHMM   05 041 16 00:   AMPLIFIED SHORT NORMAL 16"
 CILD.MMHO   05 110 46 00:   CONDUCTIVITY INDUCTION LOG DEEP
 ILD .OHMM   05 120 46 00:   INDUCTION LOG DEEP
 SPR .MV     05 010 01 00:   SPONTANEOUS POTENTIAL FROM RES.
~PARAMETER INFORMATION
#MNEM.UNIT          VALUE    DESCRIPTION
#----------   ------------   ------------------------------
 PD  .                 GL:   PERMANENT DATUM
 EPD .F              5116:   ELEVATION PERMANENT DATUM
 LMF .                 KB:   LOG MEASURED FROM
 DAPD.F                 5:   FEET ABOVE PERMANENT DATUM
 DMF .                 KB:   DRILLING MEASURED FROM
 EKB .F              5121:   KELLING BUSHING
 EGL .F              5116:   GROUND LEVEL
 DATE.        26-JUL-1963:   RUN DATE
 RUN .                  1:   RUN NUMBER
 DD  .F               900:   DEPTH DRILLER
 DL  .F               894:   DEPTH LOGGER
 BLI .F               893:   BOTTOM LOG INTERVAL
 TLI .F                88:   TOP LOG INTERVAL
 CBD .F                10:   CASING BOTTOM DRILLER
 BS  .IN             6.75:   BIT SIZE
 BSD .F               900:   BIT SIZE AT DEPTH
 DFT .            GEL-OIL:   DRILLING FLUID TYPE
 DFD .                9.5:   DRILLING FLUID DENSITY
 DFV .                 92:   DRILLING FLUID VISCOSITY
 DFPH.                9.5:   DRILLING FLUID PH
 DFL .                5.8:   DRILLING FLUID LOSS
 MSS .           FLOWLINE:   MUD SAMPLE SOURCE
 RMS .OHMM           4.05:   RESISTIVITY MUD SAMPLE
 MST .F                75:   MUD SAMPLE TEMPERATURE
 RMF .OHMM           3.91:   RESISTIVITY MUD FILTRATE SAMPLE
 MFST.F                75:   MUD FILTRATE SAMPLE TEMPERATURE
 RMC .OHMM           3.54:   RESISTIVITY MUD CAKE
 MCST.F                75:   MUD CAKE SAMPLE TEMPERATURE
 MFSS.               MEAS:   MUD FILTRATE SAMPLE SOURCE
 MCSS.               MEAS:   MUD CAKE SAMPLE SOURCE
 TCS .HRS             0.5:   TIME CURCULATED STOPPED
 LUN .               4507:   LOGGING UNIT NUMBER
 LUL .               CSPR:   LOGGING UNIT LOCATION
 ENGI.             KNOBEL:   RECORDING ENGINEER
 WITN.          JORGENSON:   WITNESSED BY
 CLNT.            A2DTECH:   CLIENT CODE
 ORIG.           5" PRINT:   ORIGIN OF DATA
 UWI .       490250654800:   UNIQUE WELL ID
 DICO. A2D Technologies, Inc.:   DIGITIZING COMPANY
~OTHER INFORMATION
~A   DEPT     CALS         DT         GR          ASN      CILD         ILD      SPR   
# ...
  497.5000     6.7106   103.8226  -999.2500     8.1097   133.4611     8.2475   -17.7061
  498.0000     6.7266   103.4430  -999.2500     8.2911   132.7162     8.1691   -17.1226
  498.5000     6.7273   103.7638  -999.2500     8.4876   133.4930     8.0900   -16.6870
  499.0000     6.7127   103.8914  -999.2500     8.6270   135.0247     8.0117   -16.4065
  499.5000     6.6982   103.8132  -999.2500     8.5629   138.0738     7.9333   -16.2684
  500.0000     6.7143   103.9619  -999.2500     8.2602   141.8840     7.4772   -15.6869
  500.5000     6.7149   104.7885  -999.2500     8.1091   144.9331     7.3248   -15.3923
  501.0000     6.7155   105.0958  -999.2500     7.7915   146.4647     7.2475   -15.0977
  501.5000     6.7161   105.0075  -999.2500     7.5648   147.9998     7.1707   -15.4081
  502.0000     6.7319   104.9967  -999.2500     7.6103   148.7727     7.1691   -15.7169
  502.5000     6.7325   104.6974  -999.2500     7.6558   149.5456     7.0921   -15.7240
  503.0000     6.7333   104.3163  -999.2500     7.6711   150.3186     7.0906   -15.7315
  503.5000     6.7338   103.7089  -999.2500     7.6259   150.3362     7.0890   -15.5445
  504.0000     6.7344   103.2524  -999.2500     7.6412   150.3503     7.0876   -15.1418
  504.5000     6.7350   102.9468  -999.2500     7.7170   149.6055     7.0859   -14.9998
  505.0000     6.7203   103.2450  -999.2500     7.7776   149.6206     7.0846   -15.1594
  505.5000     6.7210   103.5433  -999.2500     7.8383   148.8754     7.0831   -15.3173
  506.0000     6.7064   103.7660  -999.2500     7.8536   148.8931     7.0816   -15.4752
  506.5000     6.7070   103.9927  -999.2500     7.8083   148.9074     7.0799   -15.4840
  507.0000     6.6924   104.2989  -999.2500     7.7782   148.1662     7.0785   -15.3403
  507.5000     6.6930   103.9805  -999.2500     7.8389   148.1804     7.1526   -15.1947
  508.0000     6.6936   102.6183  -999.2500     7.8996   148.1945     7.2266   -15.2036
  508.5000     6.6942   101.9354  -999.2500     7.9905   148.2122     7.2250   -15.0603
  509.0000     6.6949   101.6298  -999.2500     8.1117   147.4677     7.2991   -14.9178
  509.5000     6.6955   101.4752  -999.2500     8.1269   147.4818     7.2973   -14.7089
  510.0000     6.6961   101.3960  -999.2500     8.0666   145.9785     7.3716   -14.6305
  510.5000     6.6967   101.0905  -999.2500     8.0210   145.2375     7.3701   -14.4865
  511.0000     6.7125   101.3907  -999.2500     7.9761   144.8356     7.3686   -14.3427
  511.5000     6.7283   101.8378  -999.2500     7.9763   143.8038     7.3671   -14.6532
  512.0000     6.7289   101.8333  -999.2500     8.0218   143.0038     7.3655   -14.9637
  512.5000     6.7295   101.2258  -999.2500     8.1430   141.5005     7.3640   -15.2724
  513.0000     6.7453   100.7693  -999.2500     8.2944   140.0008     7.3623   -15.5811
  513.5000     6.7459   100.2373  -999.2500     8.4761   140.0986     7.4368   -15.8899
  514.0000     6.7465    99.6299  -999.2500     8.5368   144.5850     7.4350   -15.8986
  514.5000     6.7471    99.3243  -999.2500     8.4613   147.6340     7.2822   -15.7531
  515.0000     6.7477    99.2352  -999.2500     8.3102   149.1656     7.2053   -15.4603
  515.5000     6.7483   100.0717  -999.2500     8.0834   151.4595     7.0060   -15.1657
  516.0000     6.7490   100.9102  -999.2500     7.5994   152.2324     6.9000   -15.0219
  516.5000     6.7496   101.7993  -999.2500     7.4332   154.5227     6.8643   -14.7291
  517.0000     6.7349   102.4748  -999.2500     7.3576   156.8741     6.7462   -14.6636
  517.5000     6.7356   102.9994  -999.2500     7.3275   159.1069     6.7447   -14.4415
  518.0000     6.7362   103.4486  -999.2500     7.3731   159.8798     6.6674   -14.4503
  518.5000     6.7368   103.5213  -999.2500     7.4338   159.8940     6.6660   -14.3066
  519.0000     6.7374   103.4422  -999.2500     7.4641   159.9090     6.7135   -14.1628
  519.5000     6.7300   103.6641  -999.2500     7.5097   159.9258     6.8139   -14.1716
  520.0000     6.7234   103.7359  -999.2500     7.5401   159.9400     6.8884   -14.3295
  520.5000     6.7240   103.5811  -999.2500     7.5705   159.1298     6.9763   -14.4874
  521.0000     6.7095   103.4264  -999.2500     7.5700   156.9370     7.0458   -14.6471
  521.5000     6.7101   103.3465  -999.2500     7.5103   153.9162     7.1856   -14.8049
  522.0000     6.7070   103.1919  -999.2500     7.6012   151.6542     7.3356   -14.8120
  522.5000     6.6960   102.7354  -999.2500     7.7527   147.8783     7.4849   -14.8191
  523.0000     6.6967   102.0524  -999.2500     7.9344   144.8575     7.5707   -14.8279
  523.5000     6.6973   100.5393  -999.2500     8.1009   141.8368     7.7839   -14.8349
  524.0000     6.6979    98.7253  -999.2500     8.2524   138.3307     7.8580   -14.8420
  524.5000     6.6985    99.1978  -999.2500     8.4210   134.2814     8.0832   -14.8492
  525.0000     6.6687    97.8868  -999.2500     8.6763   131.2607     8.1569   -14.8579
  525.5000     6.6389    96.6594  -999.2500     8.8428   129.7572     8.2310   -14.8649
  526.0000     6.6091    96.1436  -999.2500     8.8898   127.4954     8.3807   -14.8720
  526.5000     6.5794    98.1767  -999.2500     8.8280   125.9806     8.5300   -14.8808
  527.0000     6.5648    99.0033  -999.2500     9.2215   124.1831     8.6041   -15.1895
  527.5000     6.4742    99.3769  -999.2500     9.3578   122.9135     8.6782   -15.3474
  528.0000     6.3837    98.9959  -999.2500     9.4344   122.2445     8.7628   -15.2037
  528.5000     6.2931    97.3318  -999.2500     9.4943   121.4999     8.8481   -14.7600
  529.0000     6.2481    97.4791  -999.2500     9.5398   120.9559     9.0112   -14.6145
  529.5000     6.2029    97.2490  -999.2500     9.6307   119.2591     9.0499   -14.4707
  530.0000     6.3708    96.5509  -999.2500     9.8124   119.2733     9.1239   -14.4897
  530.5000     6.4626    92.5230  -999.2500     9.9638   118.5252     9.1982   -14.6392
  531.0000     6.5240    92.8597  -999.2500     9.9186   117.7845     9.1964   -14.6462
  531.5000     6.5569    94.2145  -999.2500     9.9188   117.8018     9.1946   -14.8041
  532.0000     6.5861    95.0410  -999.2500     9.9189   118.5747     9.1177   -14.9638
  532.5000     6.6171    95.0374  -999.2500     9.9191   118.5889     9.1163   -14.9708
  533.0000     6.6329    94.9582  -999.2500     9.8436   117.8443     9.1145   -14.9779
  533.5000     6.6182    94.5017  -999.2500     9.8437   117.8620     9.1131   -15.1358
  534.0000     6.6189    93.8943  -999.2500     9.8439   116.3552     9.1581   -15.2954
  534.5000     6.6042    93.1297  -999.2500     9.9003   115.5717     9.2287   -15.3025
  535.0000     6.5896    91.5824  -999.2500     9.9955   113.3557     9.2600   -15.0079
  535.5000     6.5751    90.8644  -999.2500     9.9653   112.6111     9.3341   -15.0151
  536.0000     6.5453    91.6909  -999.2500    10.0591   111.4972     9.4079   -15.1746
  536.5000     6.4091    91.6108  -999.2500    10.1472   110.3633     9.5575   -15.0302
  537.0000  -999.2500    91.3053  -999.2500    10.5256   108.8600     9.7072   -15.0379
  537.5000     6.0000    90.1695  -999.2500    10.8283   107.3602     9.8565   -15.0467
  538.0000     6.0007    89.2602  -999.2500    10.9797   106.5248     9.8547   -14.9029
  538.5000     6.0013    88.6527  -999.2500    11.0611   104.3536     9.9292   -14.9100
  539.0000     6.0323    88.4971  -999.2500    11.2070   103.6091     9.9274   -15.0679
  539.5000     6.0785    88.8787  -999.2500    11.2828   102.1093     9.9338   -15.0767
  540.0000     6.1399    89.2446  -999.2500    11.3586   101.3648    10.0001   -15.0838
  540.5000     6.2165    89.5428  -999.2500    11.4344   100.9881     9.9985   -15.3925
  541.0000     6.2778    89.8410  -999.2500    11.4345    99.8756     9.9970   -15.4117
  541.5000     6.3088    89.8373  -999.2500    11.4347    99.8938     9.9955   -15.8609
  542.0000     6.3550    89.1544  -999.2500    11.5104   100.6698     9.9938   -16.3204
  542.5000     6.3865    88.8488  -999.2500    11.5106   100.6829     9.9924   -16.1765
