~VERSION INFORMATION
 VERS.                2.0:   CWLS LOG ASCII STANDARD - VERSION 2.0
 WRAP.                 NO:   ONE LINE PER DEPTH STEP
~WELL INFORMATION
#MNEM.UNIT      DATA TYPE    INFORMATION
#----------   ------------   ------------------------------
 STRT.F           18.0000:   START DEPTH
 STOP.F          449.0000:   STOP DEPTH
 STEP.F            0.5000:   STEP LENGTH
 NULL.          -999.2500:   NO VALUE
 COMP.   LAWRENCE-ALLISON:   COMPANY
 WELL. NPR 3 #52-51SX10OB5:   WELL
 FLD .             TEAPOT:   FIELD
 LOC .      S10 T38N R78W:   LOCATION
 CNTY.            NATRONA:   COUNTY
 STAT.            WYOMING:   STATE
 CTRY. UNITED STATES OF AMERICA:   COUNTRY
 SRVC.      Dresser Atlas:   SERVICE COMPANY
 DATE.        20-DEC-1984:   LOGDATE
 API .       490251101000:   API NUMBER
~CURVE INFORMATION
#MNEM.UNIT       API CODE    CURVE DESCRIPTION
#----------   ------------   ------------------------------
 DEPT.F                  :   
 CALD.IN     45 280 60 00:   CALIPER FROM DENSITY LOG
 CNC .DEC    42 890 03 00:   NEUTRON POROSITY SANDSTONE
 CORR.G/C3   45 356 01 00:   DENSITY CORRECTION
 DEN .G/C3   45 350 01 00:   COMPENSATED BULK DENSTIY
 GRD .GAPI   45 310 01 00:   GAMMA RAY FROM DENSITY LOG
 PORD.DEC    45 890 12 00:   POROSITY DENSITY SANDSTONE
 DT  .US/F   60 520 00 00:   INTERVAL TRANSIT TIME
~PARAMETER INFORMATION
#MNEM.UNIT          VALUE    DESCRIPTION
#----------   ------------   ------------------------------
 PD  .                 GL:   PERMANENT DATUM
 EPD .F              5159:   ELEVATION PERMANENT DATUM
 LMF .                 GL:   LOG MEASURED FROM
 DMF .                 GL:   DRILLING MEASURED FROM
 EGL .F              5159:   GROUND LEVEL
 DATE.        20-DEC-1984:   RUN DATE
 RUN .                  1:   RUN NUMBER
 DD  .F               451:   DEPTH DRILLER
 DL  .F               451:   DEPTH LOGGER
 BLI .F               449:   BOTTOM LOG INTERVAL
 TLI .F                20:   TOP LOG INTERVAL
 CS  .IN            8.625:   CASING SIZE
 CBD .F                20:   CASING BOTTOM DRILLER
 CBL .F                20:   CASING BOTTOM LOGGER
 BS  .IN             6.25:   BIT SIZE
 BSD .F               451:   BIT SIZE AT DEPTH
 DFT .          KCL/WATER:   DRILLING FLUID TYPE
 MSS .            MUDTANK:   MUD SAMPLE SOURCE
 RMS .OHMM           .141:   RESISTIVITY MUD SAMPLE
 MST .F                54:   MUD SAMPLE TEMPERATURE
 RMF .OHMM           .106:   RESISTIVITY MUD FILTRATE SAMPLE
 MFST.F                54:   MUD FILTRATE SAMPLE TEMPERATURE
 RMC .OHMM           .176:   RESISTIVITY MUD CAKE
 MCST.F                54:   MUD CAKE SAMPLE TEMPERATURE
 MFSS.               CALC:   MUD FILTRATE SAMPLE SOURCE
 MCSS.               CALC:   MUD CAKE SAMPLE SOURCE
 TCS .HRS               2:   TIME CURCULATED STOPPED
 MRT .F               100:   MAXIMUM RECORDED TEMPERATURE
 LUN .               6270:   LOGGING UNIT NUMBER
 LUL .                 FM:   LOGGING UNIT LOCATION
 ENGI.        TOM GAUGHAN:   RECORDING ENGINEER
 WITN.              LUERS:   WITNESSED BY
 CLNT.            A2DTECH:   CLIENT CODE
 ORIG.           5" PRINT:   ORIGIN OF DATA
 UWI .       490251101000:   UNIQUE WELL ID
 DICO. A2D Technologies, Inc.:   DIGITIZING COMPANY
~OTHER INFORMATION
~A   DEPT     CALD         CNC      CORR        DEN         GRD      PORD         DT   
   18.0000  -999.2500    -0.0377  -999.2500  -999.2500    81.9548  -999.2500  -999.2500
   18.5000  -999.2500     0.0692  -999.2500  -999.2500    74.0237  -999.2500   129.8939
   19.0000  -999.2500     0.2338  -999.2500  -999.2500    73.1361  -999.2500   129.6643
   19.5000  -999.2500     0.2998  -999.2500  -999.2500    73.1361  -999.2500   128.1652
   20.0000     6.5565     0.3796    -0.0818     2.1466    73.7278     0.3020   116.8006
   20.5000     6.1144     0.3755     0.2146     2.0018    80.8284     0.4408   103.8665
   21.0000     6.1742     0.3634     0.2122     2.0019    91.9231     0.4396    95.2673
   21.5000     6.2046     0.3482     0.0821     2.0072   101.1021     0.4082    90.7786
   22.0000     6.2345     0.3108     0.0314     2.0918   106.8639     0.2777    89.0384
   22.5000     6.2349     0.3096     0.0465     2.4234   106.8639     0.1556    88.3783
   23.0000     6.2353     0.3119     0.0496     2.4302   105.0888     0.1508   106.6091
   23.5000     6.2357     0.3319     0.0378     2.4340   102.4260     0.1472   122.0756
   24.0000     6.2362     0.3429     0.0379     2.4483   101.5385     0.1340   126.3324
   24.5000     6.1921     0.3357     0.0582     2.5022   101.5385     0.1099   120.6469
   25.0000     6.1778     0.3130     0.0621     2.4980   102.1302     0.1112   121.2405
   25.5000     6.2079     0.3118     0.0606     2.4933   103.9053     0.1130   121.2361
   26.0000     6.2972     0.3201     0.0623     2.4964   106.7160     0.1124   122.4753
   26.5000     6.2384     0.3213     0.0684     2.4927   108.0473     0.1147   124.8138
   27.0000     6.1796     0.3189     0.0849     2.4822   104.9408     0.1211   125.2579
   27.5000     6.1207     0.3284     0.0970     2.4665    98.5799     0.1329   125.7031
   28.0000     6.0619     0.3296     0.0747     2.4511    99.1716     0.1446   123.0071
   28.5000     6.0624     0.3134     0.0539     2.4389    97.6923     0.1458   121.5827
   29.0000     6.1073     0.3077     0.0450     2.4390    95.7692     0.1451   121.8027
   29.5000     6.1226     0.3044     0.0392     2.4405    96.2130     0.1445   122.9808
   30.0000     6.1822     0.3190     0.0393     2.4481    98.4320     0.1408   147.9513
   30.5000     6.2419     0.3211     0.0394     2.4466   106.1243     0.1400   141.2207
   31.0000     6.2424     0.3085     0.0455     2.4427   109.8225     0.1444   142.3049
   31.5000     6.2429     0.3067     0.0546     2.4370   110.4660     0.1486   140.0180
   32.0000     6.2581     0.3192     0.0607     2.4355   111.4497     0.1468   133.5838
   32.5000     6.2734     0.3414     0.0578     2.4408   110.4142     0.1396   122.3687
   33.0000     6.2738     0.3425     0.0460     2.4521   108.6391     0.1334   121.9160
   33.5000     6.2594     0.3371     0.0401     2.4611   107.0118     0.1291   121.7621
   34.0000     6.2450     0.3317     0.0567     2.4656   104.7929     0.1287   121.7578
   34.5000     6.2456     0.3406     0.0703     2.4612   100.9270     0.1335   121.6039
   35.0000     6.2460     0.3412     0.0570     2.4537    99.1716     0.1383   121.6733
   35.5000     6.2315     0.3411     0.0526     2.4493   100.3550     0.1397   121.8185
   36.0000     6.2171     0.3567     0.0602     2.4493   106.2722     0.1388   122.1131
   36.5000     6.2176     0.3605     0.0648     2.4524   111.0059     0.1400   122.6319
   37.0000     6.2329     0.3590     0.0649     2.4402   111.5976     0.1447   123.5244
   37.5000     6.2482     0.3509     0.0650     2.4188   111.5976     0.1564   124.2675
   38.0000     6.2487     0.3320     0.0532     2.4054   109.7238     0.1656   124.7116
   38.5000     6.2491     0.3209     0.0174     2.3987   100.6509     0.1656   123.5103
   39.0000     6.2791     0.3206    -0.0243     2.4182    99.7633     0.1584   119.4701
   39.5000     6.2944     0.3134    -0.0332     2.4347   102.1302     0.1476   117.1489
   40.0000     6.2938     0.2910    -0.0061     2.4513   103.9053     0.1395   114.9024
   40.5000     6.2508     0.3002     0.0359     2.4625   103.3136     0.1296   111.8338
   41.0000     6.2513     0.3241     0.0479     2.4767   103.4615     0.1212   111.5305
   41.5000     6.2368     0.3253     0.0525     2.4888   109.3688     0.1163   111.6009
   42.0000     6.2374     0.3145     0.0541     2.4985   111.4497     0.1104   111.1898
   42.5000     6.2526     0.3121     0.0543     2.4918   108.0473     0.1137   110.6943
   43.0000     6.2530     0.3267     0.0544     2.4919   105.0888     0.1136   110.6152
   43.5000     6.2536     0.3276     0.0530     2.4949   103.1657     0.1130   110.6109
   44.0000     6.2540     0.3054     0.0486     2.4965   104.3491     0.1121   110.7560
   44.5000     6.2544     0.2886     0.0458     2.4980   106.8639     0.1114   110.9013
   45.0000     6.2548     0.2838     0.0429     2.4981   106.8392     0.1097   110.8968
   45.5000     6.2553     0.2877     0.0550     2.4996   106.2722     0.1090   110.5934
   46.0000     6.2557     0.2933     0.0790     2.5034   106.8639     0.1066   109.9902
   46.5000     6.2562     0.2987     0.0791     2.5094   107.0969     0.1033   109.9859
   47.0000     6.2567     0.3088     0.0793     2.5102   104.4970     0.1018   109.7573
   47.5000     6.2571     0.3118     0.0734     2.5103   103.3136     0.1018   109.9025
   48.0000     6.2575     0.3034     0.0720     2.5021   105.1282     0.1065   110.1223
   48.5000     6.2579     0.2980     0.0737     2.4984   104.4970     0.1113   110.2676
   49.0000     6.2584     0.2992     0.0558     2.4962   101.2426     0.1125   110.2631
   49.5000     6.2589     0.2982     0.0380     2.4895    99.7633     0.1121   109.9588
   50.0000     6.2593     0.3057     0.0321     2.4865   102.1302     0.1133   108.7586
   50.5000     6.2598     0.3164     0.0338     2.4843   105.2367     0.1184   107.3343
   51.0000     6.2453     0.3260     0.0473     2.4836   104.9408     0.1195   106.9562
   51.5000     6.2458     0.3286     0.0549     2.4837   103.2618     0.1189   106.6529
   52.0000     6.2462     0.3193     0.0446     2.4837   100.0592     0.1177   106.3496
   52.5000     6.2467     0.3020     0.0387     2.4868    97.3964     0.1159   106.0463
   53.0000     6.2472     0.2977     0.0328     2.4950    96.8047     0.1126   105.7429
   53.5000     6.2327     0.2929     0.0330     2.5018    97.3964     0.1093   105.2892
   54.0000     6.2183     0.2821     0.0331     2.4899    97.3964     0.1122   104.3133
   54.5000     6.2188     0.2669     0.0362     2.4720    93.9916     0.1224   103.0384
   55.0000     6.2341     0.2660     0.0393     2.4660    93.5503     0.1265   102.4361
   55.5000     6.2345     0.2737     0.0394     2.4691    95.7692     0.1265   101.8339
   56.0000     6.2202     0.2802     0.0381     2.4901    97.9882     0.1240    99.7369
   56.5000     6.2207     0.2772     0.0337     2.4998    96.8047     0.1085    98.5037
   57.0000     6.2063     0.2727     0.0278     2.5021    95.0296     0.1067    97.7092
   57.5000     6.2067     0.2718     0.0220     2.5044    91.4793     0.1055    97.3312
   58.0000     6.2071     0.2712     0.0191     2.5082    88.5207     0.1054    96.4300
   58.5000     6.2076     0.2658     0.0162     2.5082    90.8876     0.1024    96.1267
   59.0000     6.2081     0.2675     0.0104     2.5053    93.2544     0.1025    96.1971
   59.5000     6.2085     0.2747     0.0015     2.4829    93.9941     0.1108    96.7159
   60.0000     6.2089     0.2890    -0.0028     2.4754    95.4734     0.1227    97.6981
   60.5000     6.2094     0.2835     0.0227     2.4755    96.2130     0.1239    98.4999
   61.0000     6.2098     0.2725     0.0423     2.4770    97.2485     0.1233    98.8692
   61.5000     6.2102     0.2674     0.0469     2.4786    97.9882     0.1214    99.0891
   62.0000     6.2107     0.2710     0.0350     2.4756    93.5503     0.1202    99.0848
   62.5000     6.2112     0.2889     0.0052     2.4645    89.1124     0.1286    99.0804
   63.0000     6.2116     0.2891    -0.0111     2.4630    88.5207     0.1297    99.3751
