~VERSION INFORMATION
 VERS.                2.0:   CWLS LOG ASCII STANDARD - VERSION 2.0
 WRAP.                 NO:   ONE LINE PER DEPTH STEP
~WELL INFORMATION
#MNEM.UNIT      DATA TYPE    INFORMATION
#----------   ------------   ------------------------------
 STRT.F           90.5000:   START DEPTH
 STOP.F          836.0000:   STOP DEPTH
 STEP.F            0.5000:   STEP LENGTH
 NULL.          -999.2500:   NO VALUE
 COMP.          U.S. NAVY:   COMPANY
 WELL.    NPR #3 #38-S-35:   WELL
 FLD .           TEAPOT E:   FIELD
 LOC .      S35 T39N R78W:   LOCATION
 CNTY.            NATRONA:   COUNTY
 STAT.            WYOMING:   STATE
 CTRY. UNITED STATES OF AMERICA:   COUNTRY
 SRVC. Schlumberger Well Surveying Corp:   SERVICE COMPANY
 DATE.        21-JUL-1963:   LOGDATE
 API .       490250649100:   API NUMBER
~CURVE INFORMATION
#MNEM.UNIT       API CODE    CURVE DESCRIPTION
#----------   ------------   ------------------------------
 DEPT.F                  :   
 SPR .MV     05 010 01 00:   SPONTANEOUS POTENTIAL FROM RES.
 ASN .OHMM   05 041 16 00:   AMPLIFIED SHORT NORMAL 16"
 ILD .OHMM   05 120 46 00:   INDUCTION LOG DEEP
 CILD.MMHO   05 110 46 00:   CONDUCTIVITY INDUCTION LOG DEEP
 DT  .US/F   60 520 33 00:   INTERVAL TRANSIT TIME
 GR  .GAPI   30 310 01 00:   GAMMA RAY
~PARAMETER INFORMATION
#MNEM.UNIT          VALUE    DESCRIPTION
#----------   ------------   ------------------------------
 LMF .                 KB:   LOG MEASURED FROM
 DMF .                 KB:   DRILLING MEASURED FROM
 EKB .F              5119:   KELLING BUSHING
 EGL .F              5114:   GROUND LEVEL
 DATE.          7-21-1963:   RUN DATE
 RUN .                  1:   RUN NUMBER
 DD  .F               836:   DEPTH DRILLER
 DL  .F               837:   DEPTH LOGGER
 BLI .F               836:   BOTTOM LOG INTERVAL
 TLI .F                90:   TOP LOG INTERVAL
 CBD .F                12:   CASING BOTTOM DRILLER
 BS  .IN             6.75:   BIT SIZE
 BSD .F               836:   BIT SIZE AT DEPTH
 DFT .            GEL-OIL:   DRILLING FLUID TYPE
 DFD .                9.2:   DRILLING FLUID DENSITY
 DFV .                 85:   DRILLING FLUID VISCOSITY
 DFPH.                  8:   DRILLING FLUID PH
 DFL .                3.6:   DRILLING FLUID LOSS
 MSS .           FLOWLINE:   MUD SAMPLE SOURCE
 RMS .OHMM           2.95:   RESISTIVITY MUD SAMPLE
 MST .F                88:   MUD SAMPLE TEMPERATURE
 RMF .OHMM           2.31:   RESISTIVITY MUD FILTRATE SAMPLE
 MFST.F                88:   MUD FILTRATE SAMPLE TEMPERATURE
 RMC .OHMM           2.65:   RESISTIVITY MUD CAKE
 MCST.F                88:   MUD CAKE SAMPLE TEMPERATURE
 MFSS.                  M:   MUD FILTRATE SAMPLE SOURCE
 MCSS.                  M:   MUD CAKE SAMPLE SOURCE
 TCS .HRS               1:   TIME CURCULATED STOPPED
 LUN .               2523:   LOGGING UNIT NUMBER
 LUL .              CSPR.:   LOGGING UNIT LOCATION
 ENGI.             KNOBEL:   RECORDING ENGINEER
 WITN.          JORGENSON:   WITNESSED BY
 CLNT.            A2DTECH:   CLIENT CODE
 ORIG.      2" , 5" PRINT:   ORIGIN OF DATA
 UWI .       490250649100:   UNIQUE WELL ID
 DICO. A2D Technologies, Inc.:   DIGITIZING COMPANY
~OTHER INFORMATION
~A   DEPT      SPR        ASN        ILD       CILD         DT         GR   
# ...
  662.5000   -12.3294     4.5620     3.6552   247.2473   111.2047    59.6040
  663.0000   -12.3405     4.8390     3.9065   241.1938   112.0029    60.3186
  663.5000   -12.3514     5.1060     4.1883   229.6876   112.7872    61.0289
  664.0000   -12.3624     5.4811     4.4698   218.1813   111.1524    60.5004
  664.5000   -12.3734     5.9272     4.7509   206.6751   109.9900    59.9170
  665.0000   -12.3844     6.3118     5.0320   195.1689   111.2887    59.1707
  665.5000   -12.3954     6.6348     5.3131   183.6626   110.4911    62.9904
  666.0000   -12.4064     6.9569     5.5943   172.1564   109.0024    63.0976
  666.5000   -12.4174     7.2806     5.8760   160.6501   107.5137    62.9629
  667.0000   -12.4284     7.5415     6.1560   154.9693   106.1521    62.1361
  667.5000   -12.4394     7.7687     6.3605   150.5076   105.1765    63.5628
  668.0000   -12.4504     7.8976     6.2977   146.7740   104.9295    66.2737
  668.5000   -12.4614     7.9417     6.1847   147.7204   105.3916    62.8538
  669.0000   -12.4724     7.9458     6.0714   148.6487   105.8537    65.9833
  669.5000   -12.4834     7.8857     5.9594   151.4673   106.3158    68.1463
  670.0000   -12.4938     7.8046     5.8465   154.2403   106.5654    68.8089
  670.5000   -12.4730     7.7191     5.6431   157.3057   106.7720    68.3331
  671.0000   -12.4170     7.5752     5.4466   162.0704   106.5825    66.7170
  671.5000   -12.3612     7.4238     5.2515   166.8418   106.3477    66.3369
  672.0000   -12.3052     7.2724     5.0563   174.6436   106.3732    63.5209
  672.5000   -12.2493     7.1176     4.8610   183.0796   106.4765    61.0011
  673.0000   -12.1934     6.9154     4.6656   191.5157   106.7524    59.8357
  673.5000   -12.1374     6.6889     4.4715   199.9517   107.0623    60.0424
  674.0000   -12.0815     6.4619     4.3384   208.3877   107.9774    60.0323
  674.5000   -12.0256     6.2343     4.3022   215.3654   108.9910    59.4453
  675.0000   -11.9697     6.0113     4.2608   213.2382   111.0344    62.0353
  675.5000   -11.9136     5.9097     4.3779   210.3754   113.1473    64.6407
  676.0000   -11.8283     6.0901     4.5507   207.5125   113.4969    67.2433
  676.5000   -11.7335     6.2181     4.7246   204.7047   112.5849    69.2089
  677.0000   -11.6386     6.2897     4.8982   198.1789   111.5567    65.7310
  677.5000   -11.5435     6.6432     5.0717   188.9881   110.4895    62.3438
  678.0000   -11.4484     6.9947     5.2453   177.3767   108.5221    60.9102
  678.5000   -11.3549     7.3496     5.4190   165.6406   106.4959    58.9028
  679.0000   -11.3460     7.5076     5.5929   157.2573   105.5832    56.7254
  679.5000   -11.4549     7.6216     5.7507   154.3835   105.9964    57.7170
  680.0000   -11.5626     7.7171     5.8485   153.2991   106.0939    59.2397
  680.5000   -11.6708     7.8040     5.9548   152.2147   105.9026    59.6049
  681.0000   -11.7791     7.8914     6.0617   151.1303   105.7113    57.0974
  681.5000   -11.8870     7.9790     6.1685   150.0459   105.5200    54.9706
  682.0000   -11.9005     8.0648     6.2754   148.7059   105.3288    56.2252
  682.5000   -11.9001     8.1436     6.3824   147.2186   105.1829    58.2444
  683.0000   -11.9006     8.2215     6.4878   145.7314   105.1432    59.6034
  683.5000   -11.8430     8.2487     6.5397   144.2442   105.1034    58.1183
  684.0000   -11.7530     8.2629     6.4887   144.8073   104.9327    59.0601
  684.5000   -11.6619     8.2782     6.4394   146.7593   104.7261    60.0648
  685.0000   -11.5712     8.2213     6.3897   148.7112   104.5195    61.0499
  685.5000   -11.4982     8.1549     6.3401   149.9292   104.8836    64.2460
  686.0000   -11.4999     8.0885     6.2906   150.4677   105.3226    67.9269
  686.5000   -11.5000     8.0222     6.2413   151.0062   105.7623    67.6804
  687.0000   -11.5000     7.9561     6.1915   151.5446   106.1936    60.3705
  687.5000   -11.5000     7.8898     6.1282   152.0831   106.3695    63.3134
  688.0000   -11.5000     7.8486     6.0122   152.6526   106.5408    65.0744
  688.5000   -11.5001     7.8295     5.9027   154.8326   106.7130    64.8251
  689.0000   -11.5001     7.8110     5.5956   158.7016   106.8931    66.6423
  689.5000   -11.4932     7.7617     5.1631   168.3684   106.8354    68.4257
  690.0000   -11.4493     7.5905     4.7284   183.1832   106.5573    70.0641
  690.5000   -11.4058     7.3599     4.3263   198.7988   106.2937    66.6533
  691.0000   -11.3622     6.9732     4.2056   214.4144   106.8931    62.9697
  691.5000   -11.3192     6.3215     4.0772   224.5120   109.9549    61.1028
  692.0000   -11.2002     5.6951     3.9621   226.4640   112.8365    65.5827
  692.5000   -11.0259     5.8972     3.9400   227.2898   113.9630    68.1301
  693.0000   -10.8509     5.9854     4.0570   227.9404   114.6001    67.2458
  693.5000   -10.7268     5.5539     4.1782   228.5911   115.2313    66.6270
  694.0000   -10.9920     5.3386     4.3001   225.5255   115.6843    66.5987
  694.5000   -11.2555     5.9345     4.4232   215.1151   114.2314    65.5497
  695.0000   -11.4973     6.4028     4.5478   203.7037   109.5338    65.8767
  695.5000   -11.4834     6.5508     4.3994   205.0479   108.7006    62.9196
  696.0000   -11.3096     6.4593     4.2234   210.3020   109.1881    58.8835
  696.5000   -11.1348     6.2775     4.0586   218.5435   109.7359    54.7885
  697.0000   -10.9607     5.9778     4.0741   224.7247   111.8647    53.8262
  697.5000   -10.7867     5.6747     4.0959   224.7247   114.8392    55.3870
  698.0000   -10.6127     5.5249     4.1166   223.2983   117.0829    52.9215
  698.5000   -10.4381     5.7668     4.1348   221.9970   116.7268    51.4579
  699.0000   -10.2614     5.8754     4.1678   218.8488   116.1283    53.8297
  699.5000   -10.1144     5.5765     4.5771   215.2052   115.4052    56.7216
  700.0000   -10.4111     6.0158     4.9976   199.2690   113.0732    57.7942
  700.5000   -10.7123     6.6407     5.4167   181.4969   110.5580    56.2502
  701.0000   -11.0109     6.9356     5.8342   168.5358   107.9920    60.2237
  701.5000   -11.3094     7.1466     6.1683   159.7313   107.7785    63.7808
  702.0000   -11.6083     7.2999     6.0094   157.3413   107.5616    67.2825
  702.5000   -11.9043     7.3776     5.8389   158.3884   107.0424    69.1204
  703.0000   -12.0988     7.3424     5.5479   166.2322   106.3818    64.6628
  703.5000   -11.9057     7.2443     5.2556   176.4390   105.7212    63.9694
  704.0000   -11.7033     7.1474     4.9613   186.7154   105.0605    68.9395
  704.5000   -11.5008     6.9504     4.7506   197.6366   104.3999    67.3971
  705.0000   -11.2985     6.6961     4.7541   196.5537   105.8632    74.6931
  705.5000   -11.0951     6.3864     4.7564   195.3072   108.2764    68.2402
  706.0000   -10.9055     6.4143     4.8704   194.0607   109.5924    63.9042
  706.5000   -10.9390     6.4562     5.1413   192.8142   109.5885    67.3448
  707.0000   -10.9797     6.5393     5.4104   186.9180   109.2907    67.7453
  707.5000   -11.0192     6.9721     5.6804   178.1949   108.1456    66.0093
  708.0000   -11.0586     7.4959     5.9510   159.6597   106.4264    64.5250
  708.5000   -11.0980     8.0126     6.2200   151.1497   103.7199    66.4209
  709.0000   -11.1374     8.2812     6.4559   142.9229   102.0676    62.5569
  709.5000   -11.1768     8.5086     6.5863   137.2436   101.7702    63.9606
  710.0000   -11.2162     8.7380     6.6488   136.1414   101.4728    60.8799
  710.5000   -11.2556     8.8893     6.7093   135.0392   101.1754    60.9874
  711.0000   -11.2950     8.7467     6.7689   133.9371   100.7294    52.7599
  711.5000   -11.3344     8.6292     6.8287   132.8349   100.0670    51.0201
  712.0000   -11.3738     8.8728     6.8887   131.7328    99.6544    58.1404
  712.5000   -11.4132     9.0952     6.9485   130.6308   100.1748    60.6121
  713.0000   -11.4526     9.1003     6.9696   129.6252   100.5517    64.5447
  713.5000   -11.4920     9.0996     6.9840   129.2707   100.6905    67.4443
  714.0000   -11.5314     9.1214     6.9985   128.9371   100.8293    64.4115
