~VERSION INFORMATION
 VERS.                2.0:   CWLS LOG ASCII STANDARD - VERSION 2.0
 WRAP.                 NO:   ONE LINE PER DEPTH STEP
~WELL INFORMATION
#MNEM.UNIT      DATA TYPE    INFORMATION
#----------   ------------   ------------------------------
 STRT.F           26.0000:   START DEPTH
 STOP.F          533.5000:   STOP DEPTH
 STEP.F            0.5000:   STEP LENGTH
 NULL.          -999.2500:   NO VALUE
 COMP. BROWN JOHN E&C INC:   COMPANY
 WELL.  NPR 3 #76-531-X-3:   WELL
 FLD .             TEAPOT:   FIELD
 LOC .       S3 T38N R78W:   LOCATION
 CNTY.            NATRONA:   COUNTY
 STAT.            WYOMING:   STATE
 CTRY. UNITED STATES OF AMERICA:   COUNTRY
 SRVC.       Schlumberger:   SERVICE COMPANY
 DATE.        20-SEP-1990:   LOGDATE
 API .       490251130500:   API NUMBER
~CURVE INFORMATION
#MNEM.UNIT       API CODE    CURVE DESCRIPTION
#----------   ------------   ------------------------------
 DEPT.F                  :   
 ILM .OHMM   07 120 44 00:   INDUCTION LOG MEDIUM
 ILD .OHMM   07 120 46 00:   INDUCTION LOG DEEP
 CALD.IN     45 280 60 00:   CALIPER FROM DENSITY LOG
 GRD .GAPI   45 310 01 00:   GAMMA RAY FROM DENSITY LOG
 DPHI.DEC    45 890 12 00:   DENSITY POROSITY SANDSTONE
 RHOB.G/C3   45 350 01 00:   BULK DENSITY
 DRHO.G/C3   45 356 01 00:   DENSITY CORRECTION
~PARAMETER INFORMATION
#MNEM.UNIT          VALUE    DESCRIPTION
#----------   ------------   ------------------------------
 PD  .                 GL:   PERMANENT DATUM
 EPD .F              5148:   ELEVATION PERMANENT DATUM
 LMF .                 KB:   LOG MEASURED FROM
 DAPD.F                10:   FEET ABOVE PERMANENT DATUM
 DMF .                 KB:   DRILLING MEASURED FROM
 EKB .F              5158:   KELLING BUSHING
 EDF .F              5157:   DRILLING FLOOR
 EGL .F              5148:   GROUND LEVEL
 DATE.            9-20-90:   RUN DATE
 RUN .                  1:   RUN NUMBER
 DD  .F               535:   DEPTH DRILLER
 DL  .F               536:   DEPTH LOGGER
 BLI .F               530:   BOTTOM LOG INTERVAL
 TLI .F                49:   TOP LOG INTERVAL
 CBD .F                40:   CASING BOTTOM DRILLER
 CBL .F                49:   CASING BOTTOM LOGGER
 BS  .IN            7.875:   BIT SIZE
 BSD .F               535:   BIT SIZE AT DEPTH
 DFT .                AIR:   DRILLING FLUID TYPE
 TCS .HRS            0315:   TIME CURCULATED STOPPED
 TLAB.HRS            0409:   TIME LOGGER AT BOTTOM
 LUN .               6882:   LOGGING UNIT NUMBER
 LUL .               CODY:   LOGGING UNIT LOCATION
 ENGI.          M. FISHER:   RECORDING ENGINEER
 WITN.          G. STRONG:   WITNESSED BY
 CLNT.            A2DTECH:   CLIENT CODE
 ORIG.   2" 2.5" 5" PRINT:   ORIGIN OF DATA
 UWI .       490251130500:   UNIQUE WELL ID
 DICO. A2D Technologies, Inc.:   DIGITIZING COMPANY
~OTHER INFORMATION
~A   DEPT      ILM        ILD       CALD         GRD      DPHI       RHOB       DRHO   
# ...
  390.0000    16.5604    17.3963     7.9539    97.8078     0.1370     2.3826     0.0021
  390.5000    16.6383    17.3274     7.9539    99.3186     0.1362     2.3855     0.0020
  391.0000    16.6383    17.2587     7.9539    95.8384     0.1358     2.3872     0.0018
  391.5000    16.6384    17.1903     7.9539    92.4929     0.1362     2.3838     0.0017
  392.0000    16.6383    17.1221     7.9539    89.2653     0.1372     2.3807     0.0016
  392.5000    16.6399    16.9607     7.9537    89.1856     0.1378     2.3796     0.0015
  393.0000    16.6410    16.7664     7.9486    90.0124     0.1358     2.3860     0.0015
  393.5000    16.4290    16.5745     7.9435    90.8372     0.1339     2.3946     0.0015
  394.0000    16.0859    16.3849     7.9384    91.6399     0.1328     2.3978     0.0015
  394.5000    15.7521    16.1982     7.9333    93.6395     0.1324     2.3995     0.0015
  395.0000    15.4252    16.0071     7.9282    96.4152     0.1313     2.4011     0.0023
  395.5000    15.1051    15.7954     7.9231    99.3223     0.1294     2.4088     0.0033
  396.0000    15.0096    15.5846     7.9180    99.8519     0.1274     2.4172     0.0043
  396.5000    14.9417    15.3771     7.9142    99.5869     0.1258     2.4223     0.0045
  397.0000    14.8740    15.1723     7.9176    99.2768     0.1275     2.4178     0.0046
  397.5000    14.8066    14.9703     7.9207   100.5840     0.1296     2.4089     0.0021
  398.0000    14.7141    14.7626     7.9239   102.6321     0.1302     2.4048    -0.0007
  398.5000    14.5739    14.7205     7.9271   104.2033     0.1286     2.4160    -0.0036
  399.0000    14.4351    14.6765     7.9302   104.7114     0.1255     2.4274    -0.0065
  399.5000    14.2976    14.6329     7.9334   105.2375     0.1233     2.4343    -0.0072
  400.0000    14.1612    14.6273     7.9365   105.7589     0.1202     2.4417    -0.0054
  400.5000    14.0265    14.6274     7.9397   106.2998     0.1170     2.4547    -0.0005
  401.0000    13.8417    14.6272     7.9428   106.3640     0.1106     2.4677     0.0017
  401.5000    13.9480    14.6248     7.9460   105.9396     0.1106     2.4706     0.0033
  402.0000    14.1224    14.7011     7.9492   103.7708     0.1168     2.4571     0.0043
  402.5000    14.2993    14.8134     7.9523   101.5244     0.1199     2.4459     0.0032
  403.0000    14.4786    14.9266     7.9521   100.3984     0.1210     2.4445     0.0021
  403.5000    14.6597    15.0367     7.9486   101.4071     0.1203     2.4484     0.0010
  404.0000    14.8432    15.1336     7.9450   103.2740     0.1192     2.4523     0.0000
  404.5000    14.8990    15.2493     7.9414   104.2933     0.1197     2.4485    -0.0011
  405.0000    14.8580    15.3658     7.9379   104.2344     0.1226     2.4373    -0.0021
  405.5000    14.8268    15.4576     7.9342   103.9680     0.1255     2.4262    -0.0030
  406.0000    14.7958    15.2227     7.9143   103.6931     0.1279     2.4161    -0.0040
  406.5000    14.7626    15.0324     7.8923   102.6457     0.1294     2.4093    -0.0044
  407.0000    14.5190    14.8445     7.8705   100.9518     0.1294     2.4102    -0.0042
  407.5000    14.2608    14.6590     7.8524    99.2948     0.1284     2.4148    -0.0040
  408.0000    14.0073    14.4868     7.8484    98.4165     0.1274     2.4193    -0.0038
  408.5000    13.7582    14.2689     7.8440    99.5336     0.1264     2.4234    -0.0036
  409.0000    13.5136    14.0543     7.8397   101.7898     0.1254     2.4262    -0.0042
  409.5000    13.2733    13.8429     7.8354   102.6865     0.1245     2.4292    -0.0056
  410.0000    13.0373    13.6348     7.8322   101.2347     0.1236     2.4322    -0.0070
  410.5000    12.8055    13.4297     7.8296    99.7642     0.1214     2.4411    -0.0059
  411.0000    12.7127    13.2193     7.8271   101.6052     0.1174     2.4538    -0.0034
  411.5000    12.6241    13.0891     7.8246   104.5585     0.1134     2.4643    -0.0008
  412.0000    12.5373    12.9546     7.8220   107.5092     0.1085     2.4721     0.0019
  412.5000    12.5079    12.8594     7.8195   107.5371     0.1062     2.4748     0.0025
  413.0000    12.6680    13.5092     7.8170   106.9325     0.1073     2.4739     0.0025
  413.5000    12.9783    14.1310     7.8144   106.3572     0.1101     2.4711     0.0025
  414.0000    14.0635    15.0343     7.8164   105.8052     0.1110     2.4676     0.0025
  414.5000    15.7888    16.9148     7.8203   103.9809     0.1142     2.4574     0.0025
  415.0000    18.2092    19.4555     7.8243    96.7980     0.1269     2.4171     0.0026
  415.5000    21.2371    22.7496     7.8284    89.1230     0.1610     2.3314    -0.0004
  416.0000    24.7686    27.5278     7.8321    81.4831     0.1954     2.2455    -0.0044
  416.5000    28.8873    31.8902     7.8495    74.9770     0.2145     2.0775    -0.0071
  417.0000    33.3348    35.7922     7.8729    73.6001     0.2254     2.0517    -0.0083
  417.5000    37.3872    38.2315     7.8965    77.2465     0.2255     2.0440    -0.0071
  418.0000    38.0165    40.8004     7.9203    81.2998     0.2173     2.1007    -0.0059
  418.5000    38.4772    41.7552     7.9488    85.3750     0.2084     2.1590    -0.0048
  419.0000    38.7966    41.7675     7.9509    85.9517     0.1994     2.2176    -0.0024
  419.5000    38.8214    40.6490     7.9471    85.0227     0.1904     2.2761     0.0003
  420.0000    38.0551    39.5077     7.9432    83.4181     0.1814     2.3340     0.0031
  420.5000    38.9823    39.6315     7.9394    81.8107     0.1794     2.3554     0.0054
  421.0000    39.4950    39.7876     7.9356    80.8873     0.1859     2.2366     0.0093
  421.5000    38.3615    39.8768     7.9319    80.4088     0.1940     2.1657     0.0095
  422.0000    37.5503    37.8136     7.9281    79.8908     0.2031     2.1321     0.0095
  422.5000    35.7793    36.3510     7.9243    78.3171     0.1977     2.1448     0.0093
  423.0000    33.8620    34.9449     7.9205    76.8004     0.1888     2.1790     0.0083
  423.5000    31.5730    33.5976     7.9168    77.3880     0.1800     2.2108     0.0074
  424.0000    29.9820    32.3264     7.9143    81.2954     0.1745     2.2381     0.0063
  424.5000    29.2635    31.3931     7.9174    85.1496     0.1738     2.2434     0.0052
  425.0000    28.5635    30.0605     7.9204    86.6279     0.1748     2.2374     0.0041
  425.5000    27.8569    29.5032     7.9234    85.9511     0.1738     2.2388     0.0030
  426.0000    27.3992    29.2201     7.9263    85.2981     0.1708     2.2513     0.0018
  426.5000    26.9340    28.9690     7.9293    85.3068     0.1682     2.2622     0.0020
  427.0000    26.6015    28.7271     7.9323    85.6961     0.1685     2.2618     0.0028
  427.5000    26.6015    28.4872     7.9352    86.6715     0.1690     2.2607     0.0036
  428.0000    26.6015    28.2494     7.9382    89.7928     0.1682     2.2626     0.0043
  428.5000    26.6018    28.0787     7.9412    91.1310     0.1675     2.2645     0.0051
  429.0000    26.6039    27.9340     7.9441    89.6706     0.1698     2.2605     0.0046
  429.5000    26.6092    27.7901     7.9471    88.0662     0.1726     2.2468     0.0028
  430.0000    26.0859    27.6469     7.9501    87.1097     0.1754     2.2351     0.0016
  430.5000    25.4088    27.5045     7.9530    89.1478     0.1737     2.2373     0.0029
  431.0000    25.1727    27.3627     7.9560    91.5730     0.1706     2.2544     0.0041
  431.5000    25.5680    27.2218     7.9590    92.1207     0.1682     2.2631     0.0053
  432.0000    25.8434    27.0815     7.9619    92.3493     0.1726     2.2449     0.0065
  432.5000    26.1164    26.9420     7.9649    92.5873     0.1779     2.2267     0.0077
  433.0000    25.9033    26.8031     7.9679    92.7094     0.1818     2.2106     0.0080
  433.5000    25.5724    26.6650     7.9709    90.8400     0.1785     2.2279     0.0062
  434.0000    25.2457    26.4691     7.9738    88.1417     0.1724     2.2466     0.0045
  434.5000    24.8602    26.2248     7.9712    86.3467     0.1686     2.2624     0.0029
  435.0000    24.4878    25.9828     7.9682    87.9295     0.1690     2.2592    -0.0003
