~VERSION INFORMATION
 VERS.                2.0:   CWLS LOG ASCII STANDARD - VERSION 2.0
 WRAP.                 NO:   ONE LINE PER DEPTH STEP
~WELL INFORMATION
#MNEM.UNIT      DATA TYPE    INFORMATION
#----------   ------------   ------------------------------
 STRT.F           14.0000:   START DEPTH
 STOP.F          692.5000:   STOP DEPTH
 STEP.F            0.5000:   STEP LENGTH
 NULL.          -999.2500:   NO VALUE
 COMP. FENIX & SCISSON INC:   COMPANY
 WELL. NPR #3 #27-51 SX 11 WP:   WELL
 FLD .        TEAPOT DOME:   FIELD
 LOC .      S11 T38N R78W:   LOCATION
 CNTY.            NATRONA:   COUNTY
 STAT.            WYOMING:   STATE
 CTRY. UNITED STATES OF AMERICA:   COUNTRY
 SRVC.      Dresser Atlas:   SERVICE COMPANY
 DATE.        16-AUG-1980:   LOGDATE
 API .       490251083900:   API NUMBER
~CURVE INFORMATION
#MNEM.UNIT       API CODE    CURVE DESCRIPTION
#----------   ------------   ------------------------------
 DEPT.F                  :   
 RHOB.G/C3   45 350 01 00:   BULK DENSITY
 CORR.G/C3   45 356 01 00:   DENSITY CORRECTION
 GRD .GAPI   45 310 01 00:   GAMMA RAY FROM DENSITY LOG
 CALD.IN     45 280 60 00:   CALIPER
 NPOR.DEC    42 890 03 00:   NEUTRON POROSITY SANDSTONE
 DPOR.DEC    45 890 12 00:   DENSITY POROSITY SANDSTONE
 SPR .MV     07 010 01 00:   SPONTANEOUS POTENTIAL
 SFL .OHMM   07 220 01 00:   SHALLOW FOCUSED LOG RESISTIVITY
 ILM .OHMM   07 120 44 00:   INDUCTION LOG MEDIUM
 ILD .OHMM   07 120 46 00:   INDUCTION LOG DEEP
~PARAMETER INFORMATION
#MNEM.UNIT          VALUE    DESCRIPTION
#----------   ------------   ------------------------------
 PD  .                 GL:   PERMANENT DATUM
 EPD .F              5194:   ELEVATION PERMANENT DATUM
 LMF .                 KB:   LOG MEASURED FROM
 DAPD.F                 5:   FEET ABOVE PERMANENT DATUM
 DMF .                 KB:   DRILLING MEASURED FROM
 EKB .F              5199:   KELLING BUSHING
 EGL .F              5194:   GROUND LEVEL
 DATE.            8-16-80:   RUN DATE
 RUN .                  1:   RUN NUMBER
 DD  .F               685:   DEPTH DRILLER
 DL  .F               693:   DEPTH LOGGER
 BLI .F               692:   BOTTOM LOG INTERVAL
 TLI .F                25:   TOP LOG INTERVAL
 BS  .IN            7.875:   BIT SIZE
 BSD .F               685:   BIT SIZE AT DEPTH
 DFT .                KCL:   DRILLING FLUID TYPE
 DFD .                9.4:   DRILLING FLUID DENSITY
 DFV .                 45:   DRILLING FLUID VISCOSITY
 DFPH.                 11:   DRILLING FLUID PH
 DFL .                7.2:   DRILLING FLUID LOSS
 MSS .           FLOWLINE:   MUD SAMPLE SOURCE
 RMS .OHMM            .74:   RESISTIVITY MUD SAMPLE
 MST .F                60:   MUD SAMPLE TEMPERATURE
 RMF .OHMM            .44:   RESISTIVITY MUD FILTRATE SAMPLE
 MFST.F                60:   MUD FILTRATE SAMPLE TEMPERATURE
 RMC .OHMM           1.35:   RESISTIVITY MUD CAKE
 MCST.F                60:   MUD CAKE SAMPLE TEMPERATURE
 MFSS.               MEAS:   MUD FILTRATE SAMPLE SOURCE
 MCSS.               MEAS:   MUD CAKE SAMPLE SOURCE
 TCS .HRS               1:   TIME CURCULATED STOPPED
 LUN .               6180:   LOGGING UNIT NUMBER
 LUL .               CODY:   LOGGING UNIT LOCATION
 ENGI.              HOYER:   RECORDING ENGINEER
 WITN.           MCINTYRE:   WITNESSED BY
 CLNT.            A2DTECH:   CLIENT CODE
 ORIG.      2" 2.5" PRINT:   ORIGIN OF DATA
 UWI .       490251083900:   UNIQUE WELL ID
 DICO. A2D Technologies, Inc.:   DIGITIZING COMPANY
~OTHER INFORMATION
~A   DEPT     RHOB       CORR        GRD       CALD       NPOR       DPOR        SPR        SFL         ILM       ILD   
# ...
  516.5000     2.3930     0.0271   101.0656     7.9556     0.2227     0.1641   -69.6562    15.6028    13.5715    14.5027
  517.0000     2.3883     0.0267   100.1067     7.9556     0.2210     0.1668   -69.2889    15.8975    13.6163    14.5027
  517.5000     2.3847     0.0263    98.4352     7.9556     0.2238     0.1695   -68.9604    15.6567    13.6612    14.5045
  518.0000     2.3851     0.0259   101.6064     7.9556     0.2272     0.1705   -69.1275    15.2421    13.7059    14.4191
  518.5000     2.3960     0.0256   100.0655     7.9556     0.2305     0.1662   -69.2843    14.9078    13.7250    14.2627
  519.0000     2.4074     0.0253    97.2540     7.9557     0.2339     0.1610   -69.3609    14.7715    13.6359    14.1230
  519.5000     2.4167     0.0248    98.8175     7.9557     0.2373     0.1561   -69.3104    14.7715    13.5215    13.9854
  520.0000     2.4104     0.0246    96.9960     7.9556     0.2411     0.1561   -69.2421    14.5962    13.4078    13.8492
  520.5000     2.4158     0.0243    98.3883     7.9557     0.2411     0.1561   -69.1800    14.3741    13.2952    13.7143
  521.0000     2.4244     0.0289    97.3647     7.9556     0.2386     0.1511   -68.6726    14.1553    13.1835    13.5807
  521.5000     2.4318     0.0345    99.2883     7.9555     0.2350     0.1465   -68.1090    13.9399    13.0728    13.4484
  522.0000     2.4518     0.0410   101.9494     7.9509     0.2314     0.1416   -68.2155    13.7278    12.9630    13.3174
  522.5000     2.4454     0.0414   102.8317     7.9455     0.2283     0.1338   -68.7132    13.5189    12.8541    13.1877
  523.0000     2.4160     0.0306   103.5605     7.9401     0.2300     0.1389   -69.2047    13.4755    12.7462    13.1093
  523.5000     2.3953     0.0204   104.4466     7.9347     0.2322     0.1546   -69.5677    13.4755    12.6391    13.1093
  524.0000     2.3873     0.0158   103.4772     7.9293     0.2345     0.1705   -69.5601    13.4766    12.5330    13.1093
  524.5000     2.4033     0.0294   101.6916     7.9239     0.2355     0.1662   -69.5618    13.3109    12.4278    12.8948
  525.0000     2.4227     0.0366    99.7315     7.9185     0.2351     0.1588   -69.5601    13.1466    12.3041    12.6830
  525.5000     2.4163     0.0340    99.6905     7.9131     0.2339     0.1536   -69.4986    12.9846    12.1770    12.4747
  526.0000     2.4134     0.0315   101.4443     7.9077     0.2339     0.1577   -69.2433    12.8247    12.0511    12.2698
  526.5000     2.4154     0.0290   103.3807     7.9023     0.2375     0.1529   -68.9986    12.6365    11.9266    12.0695
  527.0000     2.4050     0.0265   103.6255     7.8969     0.2403     0.1565   -68.7543    12.7650    11.8033    12.0695
  527.5000     2.3962     0.0244   101.3041     7.8916     0.2387     0.1665   -68.5099    12.9262    11.6813    12.1348
  528.0000     2.4024     0.0279    98.5569     7.8861     0.2326     0.1645   -68.2655    12.9895    11.6282    12.1808
  528.5000     2.4128     0.0311    98.6210     7.8808     0.2259     0.1600   -68.0211    12.7895    11.6001    12.1808
  529.0000     2.4059     0.0346   100.4877     7.8753     0.2259     0.1577   -67.7762    12.6365    11.5721    12.1613
  529.5000     2.4089     0.0380    99.6855     7.8750     0.2270     0.1599   -67.5331    12.6576    11.5441    12.0714
  530.0000     2.4183     0.0413    98.4986     7.8749     0.2280     0.1609   -67.2912    12.7551    11.5180    11.9822
  530.5000     2.4277     0.0441    97.9950     7.8750     0.2270     0.1532   -67.3600    12.8532    11.6233    11.8936
  531.0000     2.4336     0.0390    99.4073     7.8750     0.2253     0.1473   -67.7462    12.8708    11.4420    11.8057
  531.5000     2.4273     0.0318    98.2800     7.8750     0.2236     0.1465   -68.1422    12.7670    11.3537    11.7184
  532.0000     2.4170     0.0275    97.5817     7.8749     0.2220     0.1561   -68.1668    12.5263    11.2681    11.6337
  532.5000     2.4212     0.0308   100.7222     7.8750     0.2202     0.1538   -68.1657    12.2901    11.1834    11.6351
  533.0000     2.4296     0.0351    98.6596     7.8750     0.2202     0.1477   -68.2349    12.0583    11.0994    11.6352
  533.5000     2.4376     0.0397    96.4536     7.8745     0.2311     0.1429   -68.3778    11.8309    11.0160    11.4814
  534.0000     2.4446     0.0356    97.6581     7.8800     0.2355     0.1398   -68.5186    11.6078    10.9332    11.3588
  534.5000     2.4488     0.0308    99.2359     7.8919     0.2322     0.1369   -68.6626    11.5278    10.8511    11.2375
  535.0000     2.4525     0.0254   100.0017     7.9032     0.2281     0.1369   -68.9100    11.5257    10.7695    11.1173
  535.5000     2.4563     0.0265    99.7673     7.9147     0.2240     0.1349   -69.5020    11.7534    10.6886    10.9986
  536.0000     2.4623     0.0301    99.2080     7.9260     0.2230     0.1303   -70.0769    11.9632    10.6083    10.9099
  536.5000     2.4746     0.0321   101.4770     7.9374     0.2276     0.1259   -70.3389    11.6966    10.5286    10.9562
  537.0000     2.4728     0.0257   103.5083     7.9497     0.2307     0.1223   -70.0598    11.3931    10.5164    11.0105
  537.5000     2.4692     0.0199   104.6610     7.9537     0.2332     0.1243   -69.7760    11.1121    10.5164    10.8932
  538.0000     2.4624     0.0126   106.8623     7.9455     0.2347     0.1282   -69.7583    11.0105    10.5165    10.8102
  538.5000     2.4547     0.0144   109.1269     7.9375     0.2316     0.1320   -69.7607    11.0105    10.5162    10.8102
  539.0000     2.4467     0.0170   107.8896     7.9319     0.2282     0.1359   -69.7650    11.0570    10.5153    10.8102
  539.5000     2.4416     0.0199   105.9505     7.9233     0.2266     0.1385   -69.6112    11.1013    10.5823    10.8102
  540.0000     2.4536     0.0229   104.5700     7.9085     0.2296     0.1344   -69.4447    11.1459    10.6350    10.9423
  540.5000     2.4495     0.0225   103.5850     7.8708     0.2307     0.1321   -69.2803    11.1906    10.6881    11.0983
  541.0000     2.4337     0.0175   103.4409     7.8812     0.2307     0.1404   -69.1599    11.2146    10.7414    11.2566
  541.5000     2.4443     0.0187   103.4764     7.8868     0.2307     0.1441   -69.1593    11.2146    10.7950    11.4175
  542.0000     2.4690     0.0259   104.5720     7.8937     0.2307     0.1313   -69.1641    11.2146    10.8490    11.6364
  542.5000     2.4861     0.0254   103.1209     7.9013     0.2285     0.1206   -68.3936    11.6198    10.9028    11.6368
  543.0000     2.4789     0.0190   102.0572     7.9081     0.2248     0.1144   -68.7419    12.2533    10.9099    11.3839
  543.5000     2.4661     0.0132   102.0827     7.9152     0.2212     0.1234   -69.1739    12.8708    10.7641    11.1521
  544.0000     2.4528     0.0136   103.0819     7.9224     0.2178     0.1321   -69.5791    11.9679    10.6299    10.9264
  544.5000     2.4432     0.0181   104.0217     7.9295     0.2232     0.1385   -69.2065    10.9031    10.4974    10.8102
  545.0000     2.4517     0.0223   104.9199     7.9365     0.2313     0.1336   -68.7149    11.0019    10.3665    10.7732
  545.5000     2.4623     0.0264   105.9584     7.9436     0.2394     0.1279   -68.2176    10.8581    10.2372    10.6418
  546.0000     2.4736     0.0312   105.8347     7.9510     0.2435     0.1223   -68.1786    10.7113    10.1093    10.5120
  546.5000     2.4783     0.0283   105.5712     7.9520     0.2444     0.1184   -68.5955    10.7113    10.0443    10.4203
  547.0000     2.4687     0.0212   104.5191     7.9385     0.2472     0.1229   -69.0143    10.7113    10.0443    10.4203
  547.5000     2.4597     0.0147   103.2884     7.9255     0.2499     0.1278   -69.4538    10.7113    10.0444    10.4203
  548.0000     2.4503     0.0079   103.2666     7.9122     0.2523     0.1327   -69.5598    10.7113    10.0443    10.4203
  548.5000     2.4406     0.0033   104.1552     7.8989     0.2485     0.1376   -69.5630    10.7105    10.0431    10.4203
  549.0000     2.4369     0.0073   105.0069     7.8856     0.2434     0.1417   -69.5551    10.7113    10.0847    10.4221
  549.5000     2.4415     0.0139   104.8890     7.8723     0.2383     0.1408   -69.4401    10.8447    10.1371    10.4145
