~VERSION INFORMATION
 VERS.                2.0:   CWLS LOG ASCII STANDARD - VERSION 2.0
 WRAP.                 NO:   ONE LINE PER DEPTH STEP
~WELL INFORMATION
#MNEM.UNIT      DATA TYPE    INFORMATION
#----------   ------------   ------------------------------
 STRT.F          100.0000:   START DEPTH
 STOP.F          780.0000:   STOP DEPTH
 STEP.F            0.5000:   STEP LENGTH
 NULL.          -999.2500:   NO VALUE
 COMP. U S NAVY-INTEX OIL:   COMPANY
 WELL.        NPR #34-S-2:   WELL
 FLD .             TEAPOT:   FIELD
 LOC .       S2 T38N R78W:   LOCATION
 CNTY.            NATRONA:   COUNTY
 STAT.            WYOMING:   STATE
 CTRY. UNITED STATES OF AMERICA:   COUNTRY
 SRVC.       Schlumberger:   SERVICE COMPANY
 DATE.        16-JUL-1962:   LOGDATE
 API .       490250644000:   API NUMBER
~CURVE INFORMATION
#MNEM.UNIT       API CODE    CURVE DESCRIPTION
#----------   ------------   ------------------------------
 DEPT.F                  :   
 ASN .OHMM   05 041 16 00:   AMPLIFIED SHORT NORMAL 16"
 CILD.MMHO   05 110 46 00:   CONDUCTIVITY INDUCTION LOG DEEP
 ILD .OHMM   05 120 46 00:   INDUCTION LOG DEEP
 SPR .MV     05 010 01 00:   SPONTANEOUS POTENTIAL FROM RES.
 CALM.IN     15 280 01 00:   CALIPER FROM MICRO LOG
 GR  .GAPI   30 310 01 00:   GAMMA RAY
~PARAMETER INFORMATION
#MNEM.UNIT          VALUE    DESCRIPTION
#----------   ------------   ------------------------------
 LMF .                 KB:   LOG MEASURED FROM
 DMF .                 KB:   DRILLING MEASURED FROM
 EKB .F              5130:   KELLING BUSHING
 EGL .F              5125:   GROUND LEVEL
 DATE.        16-JUL-1962:   RUN DATE
 RUN .                  1:   RUN NUMBER
 DD  .F               780:   DEPTH DRILLER
 DL  .F               781:   DEPTH LOGGER
 BLI .F               780:   BOTTOM LOG INTERVAL
 TLI .F               100:   TOP LOG INTERVAL
 CBD .F                10:   CASING BOTTOM DRILLER
 BS  .IN             6.75:   BIT SIZE
 BSD .F               780:   BIT SIZE AT DEPTH
 DFT .       OIL EMULSION:   DRILLING FLUID TYPE
 DFD .               10.3:   DRILLING FLUID DENSITY
 DFV .                 43:   DRILLING FLUID VISCOSITY
 DFL .                4.6:   DRILLING FLUID LOSS
 RMS .OHMM              4:   RESISTIVITY MUD SAMPLE
 MST .F                82:   MUD SAMPLE TEMPERATURE
 RMF .OHMM            3.1:   RESISTIVITY MUD FILTRATE SAMPLE
 MFST.F                82:   MUD FILTRATE SAMPLE TEMPERATURE
 RMC .OHMM            4.3:   RESISTIVITY MUD CAKE
 MCST.F                82:   MUD CAKE SAMPLE TEMPERATURE
 TCS .HRS             0.5:   TIME CURCULATED STOPPED
 LUN .               2503:   LOGGING UNIT NUMBER
 LUL .               CSPR:   LOGGING UNIT LOCATION
 ENGI.           ELLERMAN:   RECORDING ENGINEER
 WITN.          JORGENSON:   WITNESSED BY
 CLNT.            A2DTECH:   CLIENT CODE
 ORIG.           5" PRINT:   ORIGIN OF DATA
 UWI .       490250644000:   UNIQUE WELL ID
 DICO. A2D Technologies, Inc.:   DIGITIZING COMPANY
~OTHER INFORMATION
~A   DEPT       ASN       CILD         ILD      SPR       CALM         GR   
# ...
  152.0000     4.4235   220.0398     5.1218   -53.5377  -999.2500  -999.2500
  152.5000     4.2691   223.9147     4.9712   -53.2192  -999.2500  -999.2500
  153.0000     4.0667   231.2410     4.7503   -52.8095  -999.2500  -999.2500
  153.5000     3.9276   245.4553     4.5000   -52.6577  -999.2500  -999.2500
  154.0000     3.7531   269.2793     4.1538   -52.6542  -999.2500  -999.2500
  154.5000     3.5888   302.9399     3.8553   -52.8001  -999.2500  -999.2500
  155.0000     3.4694   314.1454     3.7065   -52.6483  -999.2500  -999.2500
  155.5000     3.3948   317.8668     3.7093   -52.3478  -999.2500  -999.2500
  156.0000     3.3650   317.0954     3.7115   -52.1961  -999.2500  -999.2500
  156.5000     3.4100   317.0733     3.7137   -52.0443  -999.2500  -999.2500
  157.0000     3.4251   321.7068     3.6402   -52.0414  -999.2500  -999.2500
  157.5000     3.3206   330.0897     3.4926   -52.3361  -999.2500  -999.2500
  158.0000     3.1265   337.9598     3.4196   -52.7796  -999.2500  -999.2500
  158.5000     3.1074   343.9258     3.2715   -53.0744  -999.2500  -999.2500
  159.0000     3.1865   346.8978     3.1985   -53.2202  -999.2500  -999.2500
  159.5000     3.1717   346.8758     3.0503   -53.0685  -999.2500  -999.2500
  160.0000     3.0802   348.3507     2.9724   -52.9167  -999.2500  -999.2500
  160.5000     2.9587   355.0652     2.9044   -52.7445  -999.2500  -999.2500
  161.0000     2.7686   383.4863     2.8314   -52.3149  -999.2500  -999.2500
  161.5000     2.6642   449.3326     2.7585   -51.8655  -999.2500  -999.2500
  162.0000     2.5896   489.7297     2.7609   -51.2674  -999.2500  -999.2500
  162.5000     2.5150   518.8992     2.7634   -50.9668  -999.2500  -999.2500
  163.0000     2.4703   521.1228     2.7656   -50.8151  -999.2500  -999.2500
  163.5000     2.4854   505.5681     2.7679   -50.8122  -999.2500  -999.2500
  164.0000     2.6200   480.6558     2.8453   -51.1069  -999.2500  -999.2500
  164.5000     2.7248   459.6757     2.9227   -51.4016  -999.2500  -999.2500
  165.0000     2.7549   429.7136     3.0753   -51.8451  -999.2500  -999.2500
  165.5000     2.7574   406.4879     3.3782   -52.1398  -999.2500  -999.2500
  166.0000     2.7538   378.7713     3.6070   -52.4345  -999.2500  -999.2500
  166.5000     3.2635   323.3600     3.9155   -52.5804  -999.2500  -999.2500
  167.0000     3.5348   276.1823     4.1489   -52.7262  -999.2500  -999.2500
  167.5000     3.6824   253.6676     4.4403   -52.7232  -999.2500  -999.2500
  168.0000     3.6377   247.6946     4.4425   -52.5708  -999.2500  -999.2500
  168.5000     3.5930   250.2993     4.4447   -52.5679  -999.2500  -999.2500
  169.0000     3.5334   259.6216     4.3712   -52.4167  -999.2500  -999.2500
  169.5000     3.4737   268.5816     4.2236   -52.2644  -999.2500  -999.2500
  170.0000     3.4290   283.5296     4.0002   -52.1127  -999.2500  -999.2500
  170.5000     3.3544   305.2142     3.7769   -51.8122  -999.2500  -999.2500
  171.0000     3.2499   331.3897     3.6282   -51.5116  -999.2500  -999.2500
  171.5000     3.1305   358.3138     3.4054   -51.0623  -999.2500  -999.2500
  172.0000     3.0111   384.4894     3.2572   -50.7617  -999.2500  -999.2500
  172.5000     2.9215   424.8865     3.1842   -50.6100  -999.2500  -999.2500
  173.0000     2.8469   448.0681     3.1113   -50.3094  -999.2500  -999.2500
  173.5000     2.7873   456.2796     3.1135   -50.4553  -999.2500  -999.2500
  174.0000     2.8331   457.0061     3.1914   -51.0516  -999.2500  -999.2500
  174.5000     2.9535   442.9045     3.2688   -51.5055  -999.2500  -999.2500
  175.0000     3.0294   413.1734     3.3462   -51.9346  -999.2500  -999.2500
  175.5000     3.0869   370.8566     3.4236   -52.2293  -999.2500  -999.2500
  176.0000     3.1169   342.3914     3.5188   -52.2257  -999.2500  -999.2500
  176.5000     3.2964   317.6688     3.8040   -52.0739  -999.2500  -999.2500
  177.0000     3.8646   280.2216     4.1070   -51.6246  -999.2500  -999.2500
  177.5000     4.2833   246.5170     4.4851   -51.1752  -999.2500  -999.2500
  178.0000     4.4478   217.3033     4.9385   -51.1723  -999.2500  -999.2500
  178.5000     4.5676   202.3112     5.2414   -51.6158  -999.2500  -999.2500
  179.0000     4.7023   197.0497     5.4692   -52.5058  -999.2500  -999.2500
  179.5000     4.8070   196.2792     5.7722   -52.5028  -999.2500  -999.2500
  180.0000     4.8969   194.7601     5.9248   -51.9047  -999.2500  -999.2500
  180.5000     5.0016   190.9804     6.0774   -51.4553  -999.2500  -999.2500
  181.0000     5.1217   182.6099     6.2305   -51.3036  -999.2500  -999.2500
  181.5000     5.3492   176.4845     6.3079   -51.3006  -999.2500  -999.2500
  182.0000     5.5468   167.7204     6.3853   -51.4465  -999.2500  -999.2500
  182.5000     5.9141   162.4588     6.4627   -51.4435  -999.2500  -999.2500
  183.0000     6.1683   157.9458     6.5401   -51.5895  -999.2500  -999.2500
  183.5000     6.3329   154.9297     6.5423   -51.8835  -999.2500  -999.2500
  184.0000     6.3928   153.4107     6.5689   -52.0301  -999.2500  -999.2500
  184.5000     6.3780   153.3886     6.6220   -52.1760  -999.2500  -999.2500
  185.0000     6.3632   155.3892     6.6242   -52.4706  -999.2500  -999.2500
  185.5000     6.3484   157.8356     6.6264   -52.6165  -999.2500  -999.2500
  186.0000     6.3187   160.0591     6.6286   -52.9112  -999.2500  -999.2500
  186.5000     6.2889   162.2825     6.5556   -53.0571  -999.2500  -999.2500
  187.0000     6.2592   163.7575     6.4827   -53.0764  -999.2500  -999.2500
  187.5000     6.2444   165.2325     6.4850   -52.9017  -999.2500  -999.2500
  188.0000     6.2146   166.7075     6.4119   -52.7500  -999.2500  -999.2500
  188.5000     6.1998   167.4339     6.4143   -52.4494  -999.2500  -999.2500
  189.0000     6.2019   168.1604     6.3411   -52.4464  -999.2500  -999.2500
  189.5000     6.2301   168.8869     6.3439   -52.5924  -999.2500  -999.2500
  190.0000     6.2302   169.6133     6.2707   -52.7579  -999.2500  -999.2500
  190.5000     6.2005   169.5858     6.2732   -52.8842  -999.2500  -999.2500
  191.0000     6.1707   169.5638     6.2754   -52.7317  -999.2500  -999.2500
  191.5000     6.1260   169.5417     6.3528   -52.5800  -999.2500  -999.2500
  192.0000     6.0813   169.5197     6.3550   -52.3879  -999.2500  -999.2500
  192.5000     6.0516   168.7492     6.5076   -52.1277  -999.2500  -999.2500
  193.0000     6.0667   167.9786     6.5850   -51.8272  -999.2500  -999.2500
  193.5000     6.1117   166.4571     6.7376   -51.5266  -999.2500  -999.2500
  194.0000     6.3659   164.1317     6.7489   -51.2261  -999.2500  -999.2500
  194.5000     6.5903   161.0579     6.8177   -51.0744  -999.2500  -999.2500
  195.0000     6.7250   156.6575     6.9703   -50.9226  -999.2500  -999.2500
  195.5000     6.8009   149.8989     7.0477   -51.0685  -999.2500  -999.2500
  196.0000     6.9078   138.6493     7.2755   -50.9167  -999.2500  -999.2500
  196.5000     7.0270   128.8967     7.5785   -50.9137  -999.2500  -999.2500
  197.0000     7.1142   122.8867     8.0318   -51.0595  -999.2500  -999.2500
  197.5000     7.1592   119.8706     8.2594   -51.3537  -999.2500  -999.2500
  198.0000     7.1594   118.3516     8.3370   -51.5003  -999.2500  -999.2500
  198.5000     7.0997   118.3296     8.3392   -51.6462  -999.2500  -999.2500
  199.0000     7.0251   119.0569     8.2662   -51.9409  -999.2500  -999.2500
  199.5000     6.9356   121.2795     8.1181   -51.9372  -999.2500  -999.2500
  200.0000     6.8311   124.2515     7.8947   -51.7855  -999.2500  -999.2500
  200.5000     6.7117   128.8924     7.6659   -51.6337  -999.2500  -999.2500
  201.0000     6.5324   143.2032     7.2757   -51.4820  -999.2500  -999.2500
  201.5000     6.1141   194.5392     6.6963   -51.1815  -999.2500  -999.2500
  202.0000     5.6422   228.1998     6.0211   -51.0297  -999.2500  -999.2500
  202.5000     4.9965   261.1119     4.9700   -50.8755  -999.2500  -999.2500
  203.0000     4.2918   338.1856     4.2196   -50.7078  -999.2500  -999.2500
  203.5000     3.8885   392.0558     3.5444   -50.4043  -999.2500  -999.2500
