~VERSION INFORMATION
 VERS.                2.0:   CWLS LOG ASCII STANDARD - VERSION 2.0
 WRAP.                 NO:   ONE LINE PER DEPTH STEP
~WELL INFORMATION
#MNEM.UNIT      DATA TYPE    INFORMATION
#----------   ------------   ------------------------------
 STRT.F           28.5000:   START DEPTH
 STOP.F          625.0000:   STOP DEPTH
 STEP.F            0.5000:   STEP LENGTH
 NULL.          -999.2500:   NO VALUE
 COMP. FENIX & SCISSON INC:   COMPANY
 WELL.    NPR ##3 13-SX-3:   WELL
 FLD .             TEAPOT:   FIELD
 LOC .       S3 T38N R78W:   LOCATION
 CNTY.            NATRONA:   COUNTY
 STAT.            WYOMING:   STATE
 CTRY. UNITED STATES OF AMERICA:   COUNTRY
 SRVC.       Schlumberger:   SERVICE COMPANY
 DATE.        25-FEB-1977:   LOGDATE
 API .       490251028400:   API NUMBER
~CURVE INFORMATION
#MNEM.UNIT       API CODE    CURVE DESCRIPTION
#----------   ------------   ------------------------------
 DEPT.F                  :   
 SPR .MV     07 010 01 00:   SPONTANEOUS POTENTIAL
 ILD .OHMM   07 120 46 00:   INDUCTION LOG DEEP
 LL8 .OHMM   07 220 08 00:   LATEROLOG-8 RES.
 ILM .OHMM   07 120 44 00:   INDUCTION LOG MEDIUM
 GRD .GAPI   45 310 01 00:   GAMMA RAY FROM DENSITY LOG
 CALD.IN     45 280 60 00:   CALIPER
 RHOB.G/C3   45 350 01 00:   BULK DENSITY
 CORR.G/C3   45 356 01 00:   DENSITY CORRECTION
 DPOR.DEC    45 890 12 00:   DENSITY POROSITY SANDSTONE
~PARAMETER INFORMATION
#MNEM.UNIT          VALUE    DESCRIPTION
#----------   ------------   ------------------------------
 PD  .                 GL:   PERMANENT DATUM
 EPD .F              5227:   ELEVATION PERMANENT DATUM
 LMF .                 GL:   LOG MEASURED FROM
 DMF .                 GL:   DRILLING MEASURED FROM
 EKB .F              5232:   KELLING BUSHING
 EGL .F              5227:   GROUND LEVEL
 DATE.          2-25-1977:   RUN DATE
 RUN .                  1:   RUN NUMBER
 DD  .F               629:   DEPTH DRILLER
 DL  .F               626:   DEPTH LOGGER
 BLI .F               620:   BOTTOM LOG INTERVAL
 TLI .F                40:   TOP LOG INTERVAL
 CS  .IN            8.625:   CASING SIZE
 CBD .F                40:   CASING BOTTOM DRILLER
 CBL .F                40:   CASING BOTTOM LOGGER
 BS  .IN            7.875:   BIT SIZE
 BSD .F               629:   BIT SIZE AT DEPTH
 DFT .                KCL:   DRILLING FLUID TYPE
 DFD .                8.8:   DRILLING FLUID DENSITY
 DFV .                 45:   DRILLING FLUID VISCOSITY
 DFPH.                  8:   DRILLING FLUID PH
 DFL .                8.2:   DRILLING FLUID LOSS
 MSS .                PIT:   MUD SAMPLE SOURCE
 RMS .OHMM           .508:   RESISTIVITY MUD SAMPLE
 MST .F                60:   MUD SAMPLE TEMPERATURE
 RMF .OHMM           .419:   RESISTIVITY MUD FILTRATE SAMPLE
 MFST.F                58:   MUD FILTRATE SAMPLE TEMPERATURE
 MFSS.                  M:   MUD FILTRATE SAMPLE SOURCE
 RMB .OHMM            .41:   RESISTIVITY MUD AT BHT
 BHT .F                75:   BOTTOM HOLE TEMPERATURE
 TCS .HRS            1700:   TIME CURCULATED STOPPED
 TLAB.HRS            2130:   TIME LOGGER AT BOTTOM
 MRT .F                75:   MAXIMUM RECORDED TEMPERATURE
 LUN .               5642:   LOGGING UNIT NUMBER
 LUL .               CSPR:   LOGGING UNIT LOCATION
 ENGI.             MARTIN:   RECORDING ENGINEER
 CLNT.            A2DTECH:   CLIENT CODE
 ORIG.       2", 5" PRINT:   ORIGIN OF DATA
 UWI .       490251028400:   UNIQUE WELL ID
 DICO. A2D Technologies, Inc.:   DIGITIZING COMPANY
~OTHER INFORMATION
~A   DEPT      SPR        ILD        LL8        ILM         GRD      CALD         RHOB     CORR       DPOR   
# ...
  247.5000   -50.4690    10.7788     9.8583    10.3413   101.1813     8.2125     2.4461     0.0056     0.1185
  248.0000   -51.4310    10.6521     9.9287    10.2277   102.2419     8.2117     2.4396     0.0056     0.1199
  248.5000   -50.9322    10.6145     9.9827    10.1156   102.1314     8.2108     2.4331     0.0052     0.1213
  249.0000   -49.9810    10.6151    10.0423     9.9499   100.8097     8.2100     2.4327     0.0048     0.1209
  249.5000   -48.6271    10.6152     9.8188     9.9853    99.4887     8.2091     2.4404     0.0044     0.1194
  250.0000   -46.4648    10.6152     9.5773    10.0561    98.1561     8.2083     2.4415     0.0040     0.1190
  250.5000   -45.0770    10.6152     9.4092    10.1275    96.8284     8.2074     2.4339     0.0055     0.1207
  251.0000   -47.6494    10.6151     9.7707    10.1993    95.6482     8.2066     2.4289     0.0071     0.1224
  251.5000   -48.7737    10.6155     9.4116    10.2717    95.6927     8.2057     2.4381     0.0088     0.1204
  252.0000   -48.4354    10.6164     9.5230    10.3446    97.3593     8.1881     2.4470     0.0104     0.1168
  252.5000   -48.1127    10.6128     9.7094    10.4179   100.2871     8.1678     2.4557     0.0121     0.1133
  253.0000   -48.7103    10.7980     9.8994    10.4918   102.1198     8.1475     2.4645     0.0130     0.1097
  253.5000   -49.4518    10.8722     9.9499    10.5663   101.7258     8.1272     2.4696     0.0130     0.1070
  254.0000   -49.1890    10.9474     9.8581    10.6152   101.3536     8.1068     2.4670     0.0120     0.1083
  254.5000   -48.7924    11.0231    10.0449    10.3950   101.8059     8.0859     2.4641     0.0069     0.1074
  255.0000   -47.7517    11.1176    10.0410    10.2068   102.6794     8.0682     2.4606     0.0019     0.1125
  255.5000   -46.5213    10.8742     9.8037    10.0220   103.3559     8.1397     2.4514    -0.0028     0.1178
  256.0000   -45.2167    10.5815     9.5612     9.8405   102.8630     8.2156     2.4431    -0.0003     0.1261
  256.5000   -43.6074    10.3872     9.2984     9.6623   102.4175     8.2651     2.4349     0.0003     0.1335
  257.0000   -43.3466    10.1778     9.0005     9.5885   103.7039     8.2556     2.4266    -0.0010     0.1367
  257.5000   -44.9029     9.8592     8.6912     9.2326   105.1361     8.2469     2.4211    -0.0022     0.1400
  258.0000   -47.0078     9.4339     8.3482     8.9025   105.2073     8.2383     2.4164    -0.0034     0.1433
  258.5000   -48.7557     9.0284     7.8947     8.5843   104.5392     8.2296     2.4118    -0.0021     0.1453
  259.0000   -48.8891     8.6404     7.1934     8.2774   103.0469     8.2210     2.4079     0.0015     0.1469
  259.5000   -49.0511     8.3466     6.8102     7.9716   101.6136     8.2123     2.4127     0.0051     0.1454
  260.0000   -49.2203     8.4320     7.5503     8.0838   100.1881     8.2037     2.4204     0.0086     0.1426
  260.5000   -49.2237     8.5379     8.3466     8.2022    98.7546     8.1950     2.4280     0.0098     0.1399
  261.0000   -49.1374     8.6451     8.3245     8.3208    97.7492     8.1864     2.4313     0.0106     0.1372
  261.5000   -48.9350     8.7536     8.2894     8.4407    98.8744     8.1777     2.4273     0.0115     0.1345
  262.0000   -48.1391     8.8636     8.2698     8.5624   100.3151     8.1693     2.4357     0.0123     0.1356
  262.5000   -45.5278     8.9749     8.3370     8.6789   101.0871     8.1440     2.4025     0.0133     0.1373
  263.0000   -42.9900     9.0876     8.4019     8.7504   100.8171     8.1086     2.4179     0.0212     0.1287
  263.5000   -41.1426     9.2017     8.5024     8.8225   100.7045     8.0731     2.4365     0.0305     0.1242
  264.0000   -42.8214     9.2652     8.6326     8.8952   104.9790     8.0377     2.4310     0.0386     0.1285
  264.5000   -44.4860     9.3028     8.7571     8.9686   109.5365     8.0022     2.4549     0.0487     0.1235
  265.0000   -45.7170     9.3405     8.8228     9.0426   111.5054     7.9991     2.4529     0.0435     0.1213
  265.5000   -45.4358     9.3781     8.6009     9.1170   110.7276     8.0220     2.4474     0.0332     0.1270
  266.0000   -44.8823     9.4132     8.5814     9.1720   108.4189     8.0450     2.4430     0.0229     0.1325
  266.5000   -44.3740     9.4603     8.9875     9.2062   106.2052     8.0683     2.4460     0.0125     0.1299
  267.0000   -44.1952     9.5057     8.8228     9.2405   104.1688     8.0915     2.4490     0.0100     0.1226
  267.5000   -45.1126     9.5534     9.0662     9.2749   103.0517     8.1147     2.4479     0.0134     0.1250
  268.0000   -46.0666     9.6019     9.5661     9.3095   104.1448     8.1379     2.4454     0.0169     0.1277
  268.5000   -45.2922     9.6505    10.1356     9.3442   106.1067     8.1611     2.4573     0.0137     0.1227
  269.0000   -43.9672     9.6994    10.0862     9.3791   107.9393     8.1844     2.4730     0.0092     0.1173
  269.5000   -41.5585     9.7486     9.9499     9.4140   106.9714     8.2074     2.4887     0.0098     0.1119
  270.0000   -40.3819     9.7980    10.0832     9.4491   105.6682     8.2255     2.5113     0.0132     0.1050
  270.5000   -41.6818     9.8477    10.3365     9.4844   104.4053     8.2216     2.4982     0.0130     0.1085
  271.0000   -44.0405     9.8976    10.5981     9.5003   103.8364     8.2184     2.4698     0.0090     0.1137
  271.5000   -45.9607     9.9499    10.7159     9.4772   103.4246     8.2151     2.4607     0.0050     0.1188
  272.0000   -46.4221     9.7577     9.7463     9.3314   103.7142     8.2119     2.4518     0.0010     0.1239
  272.5000   -46.3061     9.5612     9.0899     9.1878   103.9784     8.2087     2.4397    -0.0027     0.1290
  273.0000   -45.9714     9.3686     8.8228     9.0465   103.7621     8.2054     2.4301    -0.0052     0.1341
  273.5000   -45.6372     9.3262     8.8228     8.9875   103.6494     8.2022     2.4218    -0.0087     0.1373
  274.0000   -45.3004     9.4265     8.8228     8.9875   103.8333     8.1990     2.4239    -0.0073     0.1401
  274.5000   -44.8040     9.5003     8.8680     8.9875   103.7202     8.1958     2.4255    -0.0056     0.1382
  275.0000   -44.0377     9.3262     8.9205     9.0094   101.5857     8.1925     2.4228    -0.0040     0.1389
  275.5000   -43.2772     9.4290     8.9999     9.0639   100.1459     8.1895     2.4226    -0.0015     0.1380
  276.0000   -42.5101     9.5589     9.0800     9.1193   104.0032     8.1860     2.4275     0.0004     0.1346
  276.5000   -41.5578     9.6919     9.1592     9.1747   107.0714     8.1333     2.4325     0.0024     0.1312
  277.0000   -39.7588     9.7670     9.3262     9.2403   109.2330     8.0731     2.4374     0.0045     0.1295
  277.5000   -41.3877     9.6224     9.1719     9.1654   108.1093     8.0127     2.4424     0.0067     0.1307
  278.0000   -42.7493     9.5207     8.9882     9.0756   105.2922     7.9535     2.4474     0.0011     0.1319
  278.5000   -42.5700     9.4203     8.8083     8.9864   102.4788     7.9203     2.4476    -0.0060     0.1325
  279.0000   -43.7246     9.3257     8.6320     8.8981   100.9265     7.9996     2.4476    -0.0004     0.1276
  279.5000   -44.2298     9.3257     8.4242     8.8108   101.8126     8.0762     2.4472     0.0052     0.1256
  280.0000   -44.4370     9.3262     8.2698     8.7242   103.7530     8.1531     2.4441     0.0010     0.1277
  280.5000   -44.4498     9.2546     8.3209     8.6612   105.7263     8.1670     2.4409     0.0083     0.1298
  281.0000   -44.3435     9.2117     8.3694     8.7224   106.7593     8.1365     2.4377     0.0122     0.1318
  281.5000   -43.9863     9.1689     8.4242     8.7809   105.6655     8.1056     2.4345     0.0047     0.1324
  282.0000   -43.5330     9.1264     8.3751     8.8217   104.1501     8.0725     2.4313    -0.0026     0.1319
  282.5000   -43.1400     9.0840     8.2260     8.8255   104.2646     8.1043     2.4301    -0.0104     0.1365
  283.0000   -42.1158     9.0419     7.9843     8.5229   103.6583     8.1560     2.4450    -0.0017     0.1313
  283.5000   -40.9659     8.9999     7.7496     8.3332   102.8538     8.2080     2.4520     0.0103     0.1230
