~VERSION INFORMATION
 VERS.                2.0:   CWLS LOG ASCII STANDARD - VERSION 2.0
 WRAP.                 NO:   ONE LINE PER DEPTH STEP
~WELL INFORMATION
#MNEM.UNIT      DATA TYPE    INFORMATION
#----------   ------------   ------------------------------
 STRT.F           29.0000:   START DEPTH
 STOP.F          500.0000:   STOP DEPTH
 STEP.F            0.5000:   STEP LENGTH
 NULL.          -999.2500:   NO VALUE
 COMP.    FENIX & SCISSON:   COMPANY
 WELL.        NPR #48-S-3:   WELL
 FLD .             TEAPOT:   FIELD
 LOC .       S3 T38N R78W:   LOCATION
 CNTY.            NATRONA:   COUNTY
 STAT.            WYOMING:   STATE
 CTRY. UNITED STATES OF AMERICA:   COUNTRY
 SRVC.              Welex:   SERVICE COMPANY
 DATE.        24-APR-1977:   LOGDATE
 API .       490251034900:   API NUMBER
~CURVE INFORMATION
#MNEM.UNIT       API CODE    CURVE DESCRIPTION
#----------   ------------   ------------------------------
 DEPT.F                  :   
 SPR .MV     07 010 01 00:   SPONTANEOUS POTENTIAL
 ILD .OHMM   07 120 46 00:   INDUCTION LOG DEEP
 ILM .OHMM   07 120 44 00:   INDUCTION LOG MEDIUM
 SGRD.OHMM   07 221 05 00:   SHALLOW SHORT GUARD RESISTIVITY
 GRD .GAPI   45 310 01 00:   GAMMA RAY FROM DENSITY LOG
 CALD.IN     45 280 60 00:   CALIPER FROM DENSITY LOG
 CORR.G/C3   45 356 01 00:   DENSITY CORRECTION
 RHOB.G/C3   45 350 01 00:   BULK DENSITY
 DPHI.DEC    45 890 12 00:   DENSITY POROSITY SANDSTONE
~PARAMETER INFORMATION
#MNEM.UNIT          VALUE    DESCRIPTION
#----------   ------------   ------------------------------
 PD  .                 GL:   PERMANENT DATUM
 EPD .F              5199:   ELEVATION PERMANENT DATUM
 LMF .                 GL:   LOG MEASURED FROM
 DMF .                 GL:   DRILLING MEASURED FROM
 EGL .F              5199:   GROUND LEVEL
 DATE.        24-APR-1977:   RUN DATE
 RUN .                  1:   RUN NUMBER
 DD  .F               500:   DEPTH DRILLER
 DL  .F               499:   DEPTH LOGGER
 BLI .F               497:   BOTTOM LOG INTERVAL
 TLI .F                30:   TOP LOG INTERVAL
 CS  .IN            8.625:   CASING SIZE
 BS  .IN               12:   BIT SIZE
 BSD .F               500:   BIT SIZE AT DEPTH
 DFT .             KCLMUD:   DRILLING FLUID TYPE
 DFD .                8.9:   DRILLING FLUID DENSITY
 TCS .HRS               1:   TIME CURCULATED STOPPED
 MRT .F                70:   MAXIMUM RECORDED TEMPERATURE
 ENGI.          T. JOYNER:   RECORDING ENGINEER
 WITN.            R. LYON:   WITNESSED BY
 CLNT.            A2DTECH:   CLIENT CODE
 ORIG.           5" PRINT:   ORIGIN OF DATA
 UWI .       490251034900:   UNIQUE WELL ID
 DICO. A2D Technologies, Inc.:   DIGITIZING COMPANY
~OTHER INFORMATION
~A   DEPT      SPR        ILD        ILM       SGRD        GRD         CALD      CORR        RHOB     DPHI   
# ...
  394.0000   -23.3403    17.7927    19.0985    24.0047    97.9464     7.7280     0.0079     2.3923     0.1589
  394.5000   -23.3238    17.3267    18.7201    24.0265    98.5318     7.7271     0.0078     2.3996     0.1525
  395.0000   -23.3074    16.7566    18.3536    23.0621    99.1194     7.7264     0.0077     2.4003     0.1504
  395.5000   -23.4434    15.9827    18.1237    22.6159    99.7070     7.7408     0.0076     2.3973     0.1507
  396.0000   -23.5753    15.4568    18.1414    21.8722    99.6985     7.7700     0.0075     2.3927     0.1528
  396.5000   -23.8514    15.0478    18.2851    22.5050    98.7958     7.7691     0.0074     2.3890     0.1552
  397.0000   -24.1317    14.6577    18.3029    24.1356    96.6987     7.7682     0.0073     2.3882     0.1577
  397.5000   -24.2677    14.3729    17.9447    23.6623    94.9018     7.7675     0.0072     2.3919     0.1580
  398.0000   -24.5439    13.9964    17.5934    22.8801    94.1481     7.7667    -0.0026     2.3949     0.1571
  398.5000   -24.8282    13.9116    17.6106    22.4314    94.1396     7.7812    -0.0042     2.3971     0.1550
  399.0000   -25.2528    13.6450    17.8733    22.1388    94.8762     7.7803    -0.0013     2.3993     0.1520
  399.5000   -25.3888    13.5624    18.2658    22.0064    95.9523     7.7795    -0.0006     2.4008     0.1515
  400.0000   -25.7259    13.5775    18.4291    20.9914    97.6907     7.7788     0.0000     2.4007     0.1512
  400.5000   -26.3977    13.4015    18.7046    22.1972    97.3920     7.7878    -0.0006     2.3995     0.1513
  401.0000   -26.3858    13.3230    19.0950    22.3649    99.1803     7.7937    -0.0017     2.3984     0.1517
  401.5000   -26.5224    13.2393    19.2461    22.5303    97.9881     7.8087    -0.0011     2.3983     0.1512
  402.0000   -26.8190    13.0710    18.7392    21.7827    95.7526     7.8087    -0.0012     2.3997     0.1492
  402.5000   -27.1069    12.9917    18.3722    20.6249    92.9210     7.8087    -0.0013     2.4011     0.1471
  403.0000   -27.3946    12.8238    18.0081    20.6377    90.5365     7.8087    -0.0014     2.4033     0.1445
  403.5000   -27.6621    12.7434    18.0299    21.2288    89.0462     7.7937    -0.0015     2.4062     0.1425
  404.0000   -27.6498    12.5813    18.0473    21.3891    90.0894     7.7937    -0.0017     2.4069     0.1414
  404.5000   -27.7869    12.5045    18.0648    21.2551    92.6229     7.7937    -0.0033     2.4068     0.1405
  405.0000   -28.0689    12.4291    18.0823    21.2683    94.4113     7.7937    -0.0057     2.4067     0.1406
  405.5000   -28.2084    12.4393    18.3518    20.9896    95.0075     7.7788    -0.0065     2.4044     0.1419
  406.0000   -28.4903    12.2783    18.6254    20.8581    93.0700     7.7638    -0.0074     2.4006     0.1442
  406.5000   -28.7753    12.2038    18.7727    20.7242    91.4307     7.7489    -0.0082     2.3900     0.1507
  407.0000   -29.0602    12.1298    19.0526    20.5976    92.1759     7.7489    -0.0083     2.3802     0.1577
  407.5000   -29.3481    12.1401    19.2034    20.4686    94.2623     7.7489    -0.0085     2.3794     0.1628
  408.0000   -29.6300    12.0662    18.8273    20.3398    96.3487     7.7489    -0.0086     2.3823     0.1599
  408.5000   -29.7666    12.1601    18.3314    20.3529    93.9642     7.7489    -0.0087     2.3830     0.1594
  409.0000   -29.7548    12.1702    17.9724    20.2254    94.8584     7.7489    -0.0095     2.3807     0.1615
  409.5000   -29.8943    12.1802    17.7385    20.3782    97.9881     7.7339    -0.0096     2.3821     0.1634
  410.0000   -29.8795    12.1903    17.5160    20.2501    99.7765     7.7190    -0.0098     2.3850     0.1605
  410.5000   -30.1645    12.2004    17.4079    20.2631    99.3119     7.7712    -0.0100     2.3878     0.1591
  411.0000   -30.1526    12.2106    17.3047    20.4161   100.1915     7.7893    -0.0102     2.3909     0.1534
  411.5000   -30.2922    12.2207    17.3257    20.4288   101.3692     7.8021    -0.0096     2.3923     0.1532
  412.0000   -30.5741    12.2308    17.2188    20.4414   102.5469     7.8298    -0.0090     2.3937     0.1524
  412.5000   -30.8620    12.2410    17.0028    20.4541   103.8736     7.8271    -0.0077     2.3974     0.1509
  413.0000   -30.9956    12.1665    16.8979    20.4668   104.0110     7.8249    -0.0071     2.4018     0.1480
  413.5000   -31.1322    12.1765    16.6819    20.3384   103.8445     7.8227    -0.0066     2.4077     0.1418
  414.0000   -31.4201    12.0192    16.3592    20.3512   103.3828     7.8205    -0.0052     2.4136     0.1371
  414.5000   -31.4053    12.0292    16.1463    20.2236   101.7260     7.7735    -0.0047     2.4195     0.1336
  415.0000   -31.5418    11.9562    16.0505    20.2362   103.2017     7.7709    -0.0049     2.4262     0.1309
  415.5000   -31.5300    11.9660    15.9553    19.9711   104.8265     7.7687    -0.0036     2.4329     0.1286
  416.0000   -31.9633    11.8934    15.7552    19.9835   105.5600     7.7665    -0.0030     2.4381     0.1263
  416.5000   -32.1028    11.8212    15.6580    19.8583   102.7110     7.7643    -0.0024     2.4432     0.1245
  417.0000   -32.3878    11.7495    15.4579    19.7339   103.1435     7.7621    -0.0019     2.4469     0.1234
  417.5000   -32.6727    11.7616    15.2604    19.7462   104.3212     7.7753    -0.0006     2.4498     0.1228
  418.0000   -32.8092    11.6878    14.8620    19.4874   104.9057     7.7726    -0.0015     2.4520     0.1220
  418.5000   -32.9458    11.6999    14.5710    19.3653   106.3756     7.7858    -0.0025     2.4542     0.1221
  419.0000   -33.2278    11.7096    14.1872    19.2379   107.8513     7.7986    -0.0034     2.4556     0.1221
  419.5000   -33.5127    11.6385    14.0025    18.7314   108.1377     7.8113    -0.0036     2.4563     0.1228
  420.0000   -33.7976    11.6481    13.7316    18.4777   101.2380     7.8087    -0.0038     2.4509     0.1231
  420.5000   -33.9347    11.5774    13.7449    18.3702    98.5579     7.8043    -0.0019     2.4453     0.1216
  421.0000   -34.0712    11.5870    13.6601    18.5092    97.3459     7.7860    -0.0001     2.4387     0.1236
  421.5000   -34.2077    11.5143    13.6767    18.6614    98.0674     7.7821     0.0008     2.4281     0.1282
  422.0000   -34.1955    11.5262    13.6899    18.9340    99.8321     7.7944    -0.0008     2.4392     0.1271
  422.5000   -34.3324    11.4538    13.7031    19.4777   103.6846     7.7898    -0.0015     2.4459     0.1215
  423.0000   -34.4686    11.4657    13.7164    20.0193   102.3236     7.7858    -0.0030     2.4465     0.1213
  423.5000   -34.6054    11.4751    13.7297    20.0314   100.5115     7.7819    -0.0038     2.4449     0.1226
  424.0000   -34.8901    11.4846    13.6450    19.6135    97.9543     7.7786    -0.0038     2.4380     0.1251
  424.5000   -35.0266    11.4941    13.5640    19.2220    98.8288     7.7746    -0.0053     2.4267     0.1291
  425.0000   -35.3116    11.5036    13.4836    18.8596   102.6799     7.7706    -0.0068     2.4116     0.1351
  425.5000   -35.4481    11.3550    13.4999    18.5903   104.0015     7.7671    -0.0068     2.4152     0.1373
  426.0000   -35.5906    11.2838    13.4199    18.4959   104.2798     7.7634    -0.0068     2.4226     0.1329
  426.5000   -35.8696    11.2153    13.1571    18.3800   103.9541     7.7594    -0.0068     2.4277     0.1315
  427.0000   -36.0178    11.0727    13.1698    18.1420   103.9305     7.7561    -0.0068     2.4284     0.1319
  427.5000   -36.3057    11.0032    13.1826    17.9043   104.0637     7.7522    -0.0068     2.4283     0.1317
  428.0000   -36.5760    10.9364    13.1953    17.9154   104.6322     7.7645    -0.0060     2.4289     0.1306
  428.5000   -36.8609    10.8700    13.1139    17.8031   105.5028     7.7755    -0.0045     2.4340     0.1286
  429.0000   -37.1459    10.7296    13.0361    17.6916   106.0792     7.7709    -0.0045     2.4399     0.1266
  429.5000   -37.2824    10.6645    12.9588    17.5781   106.8046     7.7832    -0.0045     2.4458     0.1228
  430.0000   -37.5644    10.5289    12.8820    17.4679   108.1222     7.7792    -0.0045     2.4517     0.1221
