~VERSION INFORMATION
 VERS.                2.0:   CWLS LOG ASCII STANDARD - VERSION 2.0
 WRAP.                 NO:   ONE LINE PER DEPTH STEP
~WELL INFORMATION
#MNEM.UNIT      DATA TYPE    INFORMATION
#----------   ------------   ------------------------------
 STRT.F            0.0000:   START DEPTH
 STOP.F          814.0000:   STOP DEPTH
 STEP.F            0.5000:   STEP LENGTH
 NULL.          -999.2500:   NO VALUE
 COMP.   FLUOR DANIEL INC:   COMPANY
 WELL. NAVAL PETROLEUM RESERVE 3 SHX- #1-34:   WELL
 FLD .          N.P.R. #3:   FIELD
 LOC .      S34 T39N R78W:   LOCATION
 CNTY.            NATRONA:   COUNTY
 STAT.            WYOMING:   STATE
 CTRY. UNITED STATES OF AMERICA:   COUNTRY
 SRVC.      Western Atlas:   SERVICE COMPANY
 DATE.        24-JAN-1995:   LOGDATE
 API .       490252269400:   API NUMBER
~CURVE INFORMATION
#MNEM.UNIT       API CODE    CURVE DESCRIPTION
#----------   ------------   ------------------------------
 DEPT.F                  :   
 GRR .GAPI   07 310 01 00:   GAMMA RAY FROM RES. LOG.
 RILD.OHMM   07 120 46 00:   INDUCTION LOG DEEP RESISTIVITY
 RILM.OHMM   07 120 44 00:   INDUCTION LOG MEDIUM RESISTIVITY
~PARAMETER INFORMATION
#MNEM.UNIT          VALUE    DESCRIPTION
#----------   ------------   ------------------------------
 PD  .                 GL:   PERMANENT DATUM
 EPD .F              5089:   ELEVATION PERMANENT DATUM
 LMF .                 KB:   LOG MEASURED FROM
 DAPD.F                10:   FEET ABOVE PERMANENT DATUM
 DMF .                 KB:   DRILLING MEASURED FROM
 EKB .F              5099:   KELLING BUSHING
 EDF .F              5098:   DRILLING FLOOR
 EGL .F              5089:   GROUND LEVEL
 DATE.        24-JAN-1995:   RUN DATE
 RUN .                  1:   RUN NUMBER
 DD  .F               826:   DEPTH DRILLER
 DL  .F               824:   DEPTH LOGGER
 BLI .F               817:   BOTTOM LOG INTERVAL
 CS  .IN            9.625:   CASING SIZE
 CBD .F                95:   CASING BOTTOM DRILLER
 CBL .F                94:   CASING BOTTOM LOGGER
 BS  .IN             8.75:   BIT SIZE
 BSD .F               826:   BIT SIZE AT DEPTH
 DFT .                AIR:   DRILLING FLUID TYPE
 MRT .F                90:   MAXIMUM RECORDED TEMPERATURE
 LUN .            HL 6321:   LOGGING UNIT NUMBER
 LUL .         FT. MORGAN:   LOGGING UNIT LOCATION
 ENGI.  MARSHALL BENFIELD:   RECORDING ENGINEER
 WITN.        GARY STRONG:   WITNESSED BY
 CLNT.            A2DTECH:   CLIENT CODE
 ORIG.           5" PRINT:   ORIGIN OF DATA
 UWI .       490252269400:   UNIQUE WELL ID
 DICO. A2D Technologies, Inc.:   DIGITIZING COMPANY
~OTHER INFORMATION
~A    DEPT      GRR      RILD       RILM   
# ...
  273.0000   130.7879     6.8741     7.0416
  273.5000   131.3385     6.8480     7.0416
  274.0000   131.1344     6.9566     7.1122
  274.5000   129.3772     7.0574     7.1781
  275.0000   126.4115     7.1596     7.2446
  275.5000   123.4273     7.2395     7.3117
  276.0000   120.4032     7.1977     7.3745
  276.5000   122.2149     7.1341     7.4429
  277.0000   123.8384     7.0710     7.3107
  277.5000   124.5414     7.0085     7.2236
  278.0000   125.0993     6.9466     7.1375
  278.5000   126.4239     6.8852     7.0525
  279.0000   127.2107     6.8243     6.9685
  279.5000   126.4698     6.7640     6.8854
  280.0000   125.7441     6.7042     6.8034
  280.5000   123.8364     6.6449     6.7223
  281.0000   119.9931     6.6006     6.6619
  281.5000   116.1780     6.5593     6.6116
  282.0000   112.8510     6.5116     6.5536
  282.5000   114.5331     6.4643     6.4961
  283.0000   118.9565     6.4173     6.4392
  283.5000   123.8178     6.3706     6.3827
  284.0000   127.9547     6.3243     6.3268
  284.5000   128.3634     6.2783     6.2713
  285.0000   127.9349     6.2327     6.2163
  285.5000   129.7235     6.1873     6.1618
  286.0000   133.0772     6.2447     6.1304
  286.5000   134.3164     6.2447     6.2558
  287.0000   128.3301     6.3537     6.3381
  287.5000   122.5029     6.4287     6.4216
  288.0000   122.0684     6.5046     6.5061
  288.5000   129.2181     6.5814     6.5917
  289.0000   129.7776     6.6592     6.6785
  289.5000   128.0049     6.7378     6.7664
  290.0000   126.1710     6.8174     6.8554
  290.5000   123.4067     6.8980     6.9457
  291.0000   119.9445     6.9794     7.0371
  291.5000   118.2293     7.0416     7.1069
  292.0000   121.1449     7.0416     7.1069
  292.5000   122.9204     6.9342     6.9986
  293.0000   122.0953     6.8623     6.9260
  293.5000   121.2098     6.7912     6.8542
  294.0000   121.1174     6.7207     6.7831
  294.5000   124.1082     6.6511     6.7128
  295.0000   126.6324     6.5821     6.6431
  295.5000   127.2946     6.5137     6.5741
  296.0000   128.9873     6.4464     6.5062
  296.5000   129.8670     6.4197     6.4793
  297.0000   126.5412     6.4198     6.4872
  297.5000   124.7986     6.4438     6.5036
  298.0000   127.9825     6.4601     6.5201
  298.5000   132.1403     6.4764     6.5371
  299.0000   135.8112     6.6006     6.6577
  299.5000   134.3203     6.7097     6.7739
  300.0000   131.4857     6.8434     6.9069
  300.5000   124.4475     6.9799     7.0446
  301.0000   117.5028     7.1192     7.1853
  301.5000   117.0248     7.2618     7.3283
  302.0000   119.5672     7.3745     7.4429
  302.5000   122.1268     7.4429     7.5120
  303.0000   121.3464     7.2820     7.3496
  303.5000   118.3288     7.1551     7.2215
  304.0000   119.0705     7.0304     7.0957
  304.5000   121.7291     6.9079     6.9720
  305.0000   124.4102     6.7875     6.8505
  305.5000   127.0950     6.6692     6.7311
  306.0000   129.8252     6.5529     6.6138
  306.5000   128.8645     6.4387     6.4985
  307.0000   127.1945     6.3612     6.4202
  307.5000   123.5881     6.4286     6.4854
  308.0000   120.7250     6.5224     6.5760
  308.5000   126.5285     6.6175     6.6679
  309.0000   132.3519     6.7140     6.7611
  309.5000   134.7851     6.8497     6.8491
  310.0000   127.4753     6.8489     6.9327
  310.5000   122.0815     6.9168     6.9741
  311.0000   120.9186     6.9572     7.0157
  311.5000   119.7176     6.9980     7.0574
  312.0000   117.4781     7.0389     7.0995
  312.5000   116.1315     7.0802     7.1419
  313.0000   117.7570     7.1217     7.1845
  313.5000   119.2550     7.1634     7.2274
  314.0000   118.5135     7.2054     7.2705
  314.5000   117.7829     7.2476     7.3138
  315.0000   121.2709     7.2901     7.3575
  315.5000   124.6821     7.3067     7.3745
  316.0000   122.1457     7.2156     7.2825
  316.5000   119.5944     7.1517     7.2181
  317.0000   122.3557     7.0885     7.1543
  317.5000   125.6001     7.0259     7.0911
  318.0000   126.5599     6.9638     7.0285
  318.5000   125.2058     6.9023     6.9664
  319.0000   124.7371     6.8414     6.9049
  319.5000   123.7762     6.7810     6.8439
  320.0000   121.6872     6.7211     6.7835
  320.5000   120.9365     6.6614     6.7236
  321.0000   120.9225     6.6001     6.6619
  321.5000   120.9262     6.6005     6.6619
  322.0000   120.9283     6.6298     6.6852
  322.5000   120.7870     6.6785     6.7241
  323.0000   119.8315     6.7276     6.7632
  323.5000   118.9165     6.7770     6.8026
  324.0000   119.1028     6.8267     6.8422
  324.5000   122.3401     6.8769     6.8820
  325.0000   125.1881     6.9274     6.9220
  325.5000   125.8904     6.9768     6.9623
  326.0000   126.0794     6.9768     6.9768
  326.5000   127.1329     6.9625     6.9768
  327.0000   128.8002     6.9511     6.9768
  327.5000   129.2707     6.9397     6.9768
  328.0000   127.1868     6.9283     6.9767
  328.5000   126.7956     6.9120     6.9775
  329.0000   127.9385     6.9166     6.9752
  329.5000   127.8983     6.9745     6.9768
  330.0000   125.9724     7.0216     7.0875
  330.5000   124.0611     7.0746     7.1403
  331.0000   123.2993     7.1275     7.1936
  331.5000   125.6709     7.1807     7.2473
  332.0000   128.1737     7.2342     7.3014
  332.5000   127.1992     7.2882     7.3559
  333.0000   126.0829     7.3272     7.3952
  333.5000   124.9554     7.4034     7.4721
  334.0000   124.5238     7.4804     7.5498
  334.5000   125.5882     7.5581     7.6292
  335.0000   126.8862     7.6367     7.7048
  335.5000   128.1743     7.7247     7.7948
  336.0000   129.8887     7.7221     7.8012
  336.5000   131.7861     7.7549     7.8268
  337.0000   131.9830     7.7804     7.8526
  337.5000   131.3100     7.8060     7.8784
  338.0000   133.3574     7.8315     7.9043
  338.5000   135.8217     7.8557     7.9303
  339.0000   138.2892     7.8671     7.9401
  339.5000   140.2436     7.9873     8.0860
  340.0000   141.9132     8.0916     8.2465
  340.5000   142.2905     8.1972     8.4101
  341.0000   139.8566     8.3043     8.5770
  341.5000   137.3664     8.4705     8.7472
  342.0000   134.8782     8.6212     8.9208
  342.5000   132.5944     8.8004     9.0978
  343.0000   132.0345     8.9833     9.2786
  343.5000   130.7139     9.1700     9.4625
  344.0000   128.6511     9.3606     9.6903
  344.5000   125.9093     9.5552     9.9609
  345.0000   122.6795     9.7538    10.2391
  345.5000   119.3967    10.0029    10.5251
  346.0000   115.0989    10.0295    10.5730
  346.5000   109.6609    10.0958    10.3653
  347.0000   108.1459    10.0029    10.1299
  347.5000   115.1295     9.8783     9.8999
  348.0000   123.1980     9.6570     9.6751
  348.5000   130.7668     9.4407     9.4554
  349.0000   130.1092     9.2292     9.2903
  349.5000   129.3641     9.0364     9.1202
  350.0000   129.5715     8.9533     9.0364
  350.5000   129.7462     8.9533     9.0364
  351.0000   130.7535     8.9195     9.0022
  351.5000   134.8948     8.8731     8.9554
  352.0000   137.9321     8.8269     8.9090
  352.5000   138.6588     8.7887     8.8710
  353.0000   138.2191     8.7894     8.8710
  353.5000   136.8005     8.7086     8.7894
  354.0000   133.8049     8.7004     8.7894
  354.5000   130.8633     8.6664     8.7583
  355.0000   128.9022     8.6325     8.7335
  355.5000   127.9428     8.5987     8.7086
  356.0000   126.9977     8.5651     8.6838
  356.5000   126.8646     8.5316     8.6591
  357.0000   127.8647     8.4982     8.6345
  357.5000   129.4136     8.4650     8.6099
  358.0000   130.9777     8.4319     8.5854
  358.5000   132.5434     8.3989     8.5610
  359.0000   133.7305     8.3155     8.5366
  359.5000   134.4554     8.3473     8.5123
  360.0000   135.1814     8.3735     8.4881
  360.5000   135.7823     8.3927     8.4705
  361.0000   135.3514     8.3926     8.4705
  361.5000   135.0343     8.3677     8.4454
  362.0000   136.6360     8.3189     8.3961
  362.5000   140.3511     8.2705     8.3472
  363.0000   138.9874     8.2373     8.3137
  363.5000   136.9429     8.1594     8.2390
