~VERSION INFORMATION
 VERS.                2.0:   CWLS LOG ASCII STANDARD - VERSION 2.0
 WRAP.                 NO:   ONE LINE PER DEPTH STEP
~WELL INFORMATION
#MNEM.UNIT      DATA TYPE    INFORMATION
#----------   ------------   ------------------------------
 STRT.F           27.0000:   START DEPTH
 STOP.F          566.0000:   STOP DEPTH
 STEP.F            0.5000:   STEP LENGTH
 NULL.          -999.2500:   NO VALUE
 COMP.    FENIX & SCISSON:   COMPANY
 WELL. S-3 NPR #3 #86-S-3:   WELL
 FLD .             TEAPOT:   FIELD
 LOC .       S3 T38N R78W:   LOCATION
 CNTY.            NATRONA:   COUNTY
 STAT.            WYOMING:   STATE
 CTRY. UNITED STATES OF AMERICA:   COUNTRY
 SRVC.       Schlumberger:   SERVICE COMPANY
 DATE.        08-APR-1977:   LOGDATE
 API .       490251032900:   API NUMBER
~CURVE INFORMATION
#MNEM.UNIT       API CODE    CURVE DESCRIPTION
#----------   ------------   ------------------------------
 DEPT.F                  :   
 CALD.IN     45 280 60 00:   CALIPER FROM DENSITY LOG
 GRD .GAPI   45 310 01 00:   GAMMA RAY FROM DENSITY LOG
 CORR.G/C3   45 356 01 00:   DENSITY CORRECTION
 RHOB.G/C3   45 350 01 00:   BULK DENSITY
 DPHI.DEC    45 890 12 00:   DENSITY POROSITY SANDSTONE
 SPR .MV     07 010 01 00:   SPONTANEOUS POTENTIAL
 ILD .OHMM   07 120 46 00:   INDUCTION LOG DEEP
 ILM .OHMM   07 120 44 00:   INDUCTION LOG MEDIUM
 LL8 .OHMM   07 220 08 00:   LATEROLOG-8 RES.
~PARAMETER INFORMATION
#MNEM.UNIT          VALUE    DESCRIPTION
#----------   ------------   ------------------------------
 PD  .                 GL:   PERMANENT DATUM
 EPD .F              5147:   ELEVATION PERMANENT DATUM
 LMF .                 KB:   LOG MEASURED FROM
 DMF .                 KB:   DRILLING MEASURED FROM
 EGL .F              5147:   GROUND LEVEL
 DATE.        08-APR-1977:   RUN DATE
 RUN .                  1:   RUN NUMBER
 DD  .F               570:   DEPTH DRILLER
 DL  .F               567:   DEPTH LOGGER
 BLI .F               566:   BOTTOM LOG INTERVAL
 TLI .F                27:   TOP LOG INTERVAL
 CS  .IN            8.625:   CASING SIZE
 CBD .F                40:   CASING BOTTOM DRILLER
 CBL .F                33:   CASING BOTTOM LOGGER
 BS  .IN            7.875:   BIT SIZE
 BSD .F               570:   BIT SIZE AT DEPTH
 DFT .                KCL:   DRILLING FLUID TYPE
 DFD .                8.6:   DRILLING FLUID DENSITY
 DFV .                 31:   DRILLING FLUID VISCOSITY
 DFPH.                9.5:   DRILLING FLUID PH
 DFL .                8.6:   DRILLING FLUID LOSS
 MSS .           FLOWLINE:   MUD SAMPLE SOURCE
 RMS .OHMM          0.306:   RESISTIVITY MUD SAMPLE
 MST .F                78:   MUD SAMPLE TEMPERATURE
 RMF .OHMM          0.230:   RESISTIVITY MUD FILTRATE SAMPLE
 MFST.F                78:   MUD FILTRATE SAMPLE TEMPERATURE
 MFSS.               MEAS:   MUD FILTRATE SAMPLE SOURCE
 RMB .OHMM          0.341:   RESISTIVITY MUD AT BHT
 BHT .F                70:   BOTTOM HOLE TEMPERATURE
 TCS .HRS              20:   TIME CURCULATED STOPPED
 MRT .F                70:   MAXIMUM RECORDED TEMPERATURE
 LUN .               5642:   LOGGING UNIT NUMBER
 LUL .               CSPR:   LOGGING UNIT LOCATION
 ENGI.             MARTIN:   RECORDING ENGINEER
 WITN.               LYON:   WITNESSED BY
 CLNT.            A2DTECH:   CLIENT CODE
 ORIG.       2", 5" PRINT:   ORIGIN OF DATA
 UWI .       490251032900:   UNIQUE WELL ID
 DICO. A2D Technologies, Inc.:   DIGITIZING COMPANY
~OTHER INFORMATION
~A   DEPT     CALD         GRD      CORR       RHOB       DPHI        SPR        ILD        ILM        LL8   
   27.0000  -999.2500    91.0682  -999.2500  -999.2500  -999.2500  -999.2500  -999.2500  -999.2500  -999.2500
   27.5000  -999.2500    95.5599  -999.2500  -999.2500  -999.2500  -999.2500  -999.2500  -999.2500  -999.2500
   28.0000  -999.2500    98.8127  -999.2500  -999.2500  -999.2500  -999.2500  -999.2500  -999.2500  -999.2500
   28.5000  -999.2500    96.0484  -999.2500  -999.2500  -999.2500  -999.2500  -999.2500  -999.2500  -999.2500
   29.0000  -999.2500    94.2808  -999.2500  -999.2500  -999.2500  -999.2500  -999.2500  -999.2500  -999.2500
   29.5000  -999.2500    92.8112  -999.2500  -999.2500  -999.2500  -999.2500  -999.2500  -999.2500  -999.2500
   30.0000  -999.2500    90.8945  -999.2500  -999.2500  -999.2500  -999.2500  -999.2500  -999.2500  -999.2500
   30.5000  -999.2500    87.7856  -999.2500  -999.2500  -999.2500  -999.2500  -999.2500  -999.2500  -999.2500
   31.0000  -999.2500    86.6141  -999.2500  -999.2500  -999.2500  -999.2500  -999.2500  -999.2500  -999.2500
   31.5000  -999.2500    87.3882  -999.2500  -999.2500  -999.2500  -999.2500  -999.2500  -999.2500  -999.2500
   32.0000  -999.2500    90.8526  -999.2500  -999.2500  -999.2500  -999.2500  -999.2500  -999.2500  -999.2500
   32.5000  -999.2500    93.2738  -999.2500  -999.2500  -999.2500  -999.2500  -999.2500  -999.2500  -999.2500
   33.0000  -999.2500    95.3413  -999.2500  -999.2500  -999.2500  -999.2500  -999.2500  -999.2500  -999.2500
   33.5000  -999.2500    94.2534  -999.2500  -999.2500  -999.2500  -999.2500  -999.2500  -999.2500  -999.2500
   34.0000     8.0297    90.3152    -0.1617     2.3334     0.1766    -9.0993  -999.2500    28.6233  1170.7057
   34.5000     8.0321    91.0820    -0.1376     2.2051     0.2345    -8.4910  -999.2500    29.6338     4.0418
   35.0000     8.0815    89.9147    -0.0861     2.2029     0.2630    -9.8700    33.1219    34.0454     1.0092
   35.5000     8.1286    90.5316    -0.0234     2.2256     0.2702   -15.8877    27.8640    22.4577     0.8157
   36.0000     8.1584    95.6194     0.0394     2.2475     0.2554   -26.4865    16.5848    14.4087  1957.2391
   36.5000     8.1755   105.0291     0.0245     2.2934     0.1647   -37.4399    11.8171    11.8664  1971.3978
   37.0000     8.1927   110.8620     0.0478     2.4054     0.1437   -45.3903    12.8421    12.7194  1971.9453
   37.5000     8.2247   114.0124     0.0431     2.4266     0.1358   -53.4908     6.2973    11.3056  1879.0874
   38.0000     8.2567   115.3744     0.0371     2.4267     0.1352   -57.6875     1.5036     2.2310     7.7053
   38.5000     8.2888   114.5009     0.0251     2.4207     0.1420   -60.3826     2.0166     2.4080     8.1003
   39.0000     8.3059   111.2430     0.0061     2.4103     0.1525   -63.2279     2.9490     3.5512     8.4465
   39.5000     8.3081   108.2831     0.0120     2.3924     0.1594   -65.0222     5.2847     4.5271     8.8689
   40.0000     8.3104   106.9625     0.0063     2.3895     0.1614   -66.5161   137.9257     4.7526     9.3123
   40.5000     8.3126   106.6800     0.0033     2.3905     0.1533   -67.7098    25.4028     7.3574     9.6433
   41.0000     8.3297   109.0904     0.0102     2.4023     0.1277   -68.4549     6.3644     8.0521     9.9171
   41.5000     8.3319   110.0053     0.0351     2.4175     0.1145   -69.6466     5.7221     7.2069    10.1987
   42.0000     8.3342   107.7906     0.0502     2.4457     0.1054   -70.3898     5.7627     6.4058     9.8541
   42.5000     8.3060   104.5326     0.0585     2.4899     0.1012   -71.2832     5.6450     6.1027     9.1334
   43.0000     8.3088   102.4669     0.0631     2.4953     0.1008   -71.5778     5.4434     5.9360     8.8855
   43.5000     8.3110    96.0793     0.0595     2.4984     0.1023   -72.0207     5.2327     5.8954     8.6456
   44.0000     8.2978    93.7155     0.0197     2.5067     0.1086   -72.0113    11.2814    12.2128     8.6480
   44.5000     8.2857    95.8227     0.0205     2.4820     0.1181   -72.0037    12.9580    13.1819     8.6504
   45.0000     8.2724   100.6124     0.0251     2.4243     0.1262   -72.1482    11.5501    11.7982     8.8346
   45.5000     8.2603   105.2531     0.0267     2.4341     0.1308   -72.5892     7.8116     7.8367     9.1486
   46.0000     8.2626   108.8506     0.0253     2.4342     0.1309   -72.5817     7.6616     7.8373     9.7401
   46.5000     8.2493   111.1068     0.0216     2.4313     0.1357   -73.1747     7.8777     7.8924    10.2982
   47.0000     8.2521   112.3198     0.0157     2.4187     0.1387   -73.7678     7.9357     8.0032    10.8131
   47.5000     8.2543   112.3597     0.0098     2.4150     0.1423   -74.9614     8.0452     8.0594    10.8161
   48.0000     8.2566   110.5728     0.0030     2.4234     0.1323   -76.1551     7.8796     8.0043    10.5226
   48.5000     8.2588   110.4322     0.0182     2.4317     0.1271   -77.3487     7.6659     7.8400    10.1677
   49.0000     8.2455   111.6575     0.0243     2.4311     0.1292   -77.4932     7.4586     7.5733     9.6889
   49.5000     8.2329   112.4234     0.0228     2.4244     0.1385   -76.1324     7.2560     7.3666     9.1689
   50.0000     8.2509   112.4441     0.0214     2.4170     0.1432   -74.0228     7.0589     7.1654     8.7979
   50.5000     8.2385   111.4181     0.0199     2.4201     0.1402   -73.1143     6.9149     6.9700     8.6193
   51.0000     8.2425   111.8911     0.0080     2.4142     0.1435   -72.6563     6.8681     6.9705     8.5024
   51.5000     8.2458   112.6569     0.0126     2.4135     0.1430   -72.4986     6.9168     7.0195     8.4461
   52.0000     8.2334   111.9325     0.0180     2.4181     0.1361   -72.3409     7.0141     7.0199     8.4490
   52.5000     8.2375   108.9725     0.0211     2.4234     0.1341   -72.3334     7.0638     7.1680     8.5693
   53.0000     8.2556   106.9068     0.0105     2.4236     0.1375   -72.1421     7.2130     7.2184     8.7517
   53.5000     8.2887   107.2256     0.0109     2.4220     0.1391   -71.7189     7.3145     7.4220     9.1893
   54.0000     8.2174   108.1404     0.0130     2.4290     0.1295   -71.4111     7.4690     7.5786     9.6488
   54.5000     8.1454   107.7140     0.0123     2.4351     0.1273   -71.2534     7.6797     7.6850     9.9918
   55.0000     8.1039   105.4993     0.0140     2.4367     0.1270   -70.6452     7.8419     7.9017     9.7889
   55.5000     8.1378   106.5880     0.0215     2.4368     0.1302   -70.6376     7.8974     8.0684     9.1995
   56.0000     8.1858   109.7338     0.0156     2.4422     0.1311   -71.8313     8.1202     8.1251     8.8887
   56.5000     8.2487   110.0328     0.0209     2.4573     0.1220   -72.4262     8.1213     8.2391     8.7076
   57.0000     8.2818   110.0537     0.0248     2.4754     0.1142   -72.7171     8.2928     8.2971     8.7712
   57.5000     8.2850   108.7330     0.0218     2.4651     0.1232   -73.0117     8.2940     8.3554     8.9580
   58.0000     8.2726   105.7724     0.0159     2.4417     0.1273   -73.1524     8.3527     8.4727     9.4713
   58.5000     8.2767   107.7357     0.0114     2.4306     0.1324   -73.5953     8.3539     8.4733     9.9448
   59.0000     8.2642   112.3764     0.0063     2.4126     0.1246   -74.1884     8.3550     8.4739     9.9476
   59.5000     8.2683   115.5267     0.0123     2.4300     0.1236   -74.6313     8.3562     8.4744     9.6783
   60.0000     8.2716   117.4848     0.0184     2.4428     0.1344   -74.7758     8.3574     8.5340     9.4163
   60.5000     8.2748   118.5487     0.0140     2.4339     0.1410   -75.0666     8.3585     8.4755     9.1614
   61.0000     8.2624   118.7133     0.0118     2.4197     0.1421   -75.3613     8.3020     8.4762     9.1640
   61.5000     8.2507   116.9508     0.0081     2.4206     0.1436   -75.5020     8.2459     8.3599     9.1665
   62.0000     8.2548   114.4379     0.0142     2.4229     0.1427   -75.7947     8.1337     8.2454     9.2970
   62.5000     8.2424   114.0064     0.0135     2.4245     0.1387   -75.9392     8.0787     8.0762     9.4950
   63.0000     8.2316   116.1187     0.0128     2.4261     0.1321   -75.9298     7.9687     8.0768     9.4976
