~VERSION INFORMATION
 VERS.                2.0:   CWLS LOG ASCII STANDARD - VERSION 2.0
 WRAP.                 NO:   ONE LINE PER DEPTH STEP
~WELL INFORMATION
#MNEM.UNIT      DATA TYPE    INFORMATION
#----------   ------------   ------------------------------
 STRT.F           30.0000:   START DEPTH
 STOP.F          602.0000:   STOP DEPTH
 STEP.F            0.5000:   STEP LENGTH
 NULL.          -999.2500:   NO VALUE
 COMP. FENIX & SCISSON U.S NAVY:   COMPANY
 WELL.   S-3 NPR #3 #51-3:   WELL
 FLD .             TEAPOT:   FIELD
 LOC .       S3 T38N R78W:   LOCATION
 CNTY.            NATRONA:   COUNTY
 STAT.            WYOMING:   STATE
 CTRY. UNITED STATES OF AMERICA:   COUNTRY
 SRVC.              Welex:   SERVICE COMPANY
 DATE.        08-MAR-1977:   LOGDATE
 API .       490251030800:   API NUMBER
~CURVE INFORMATION
#MNEM.UNIT       API CODE    CURVE DESCRIPTION
#----------   ------------   ------------------------------
 DEPT.F                  :   
 SPR .MV     07 010 01 00:   SPONTANEOUS POTENTIAL
 ILD .OHMM   07 120 46 00:   INDUCTION LOG DEEP
 ILM .OHMM   07 120 44 00:   INDUCTION LOG MEDIUM
 SGRD.OHMM   07 221 05 00:   SHALLOW SHORT GUARD RESISTIVITY
 CALD.IN     45 280 60 00:   CALIPER FROM DENSITY LOG
 CORR.G/C3   45 356 01 00:   DENSITY CORRECTION
 RHOB.G/C3   45 350 01 00:   BULK DENSITY
 DPHI.DEC    45 890 12 00:   DENSITY POROSITY SANDSTONE
 GRD .GAPI   45 310 01 00:   GAMMA RAY FROM DENSITY LOG
~PARAMETER INFORMATION
#MNEM.UNIT          VALUE    DESCRIPTION
#----------   ------------   ------------------------------
 PD  .                 GL:   PERMANENT DATUM
 EPD .F              5140:   ELEVATION PERMANENT DATUM
 LMF .                 GL:   LOG MEASURED FROM
 DAPD.F                  :   FEET ABOVE PERMANENT DATUM
 DMF .                 GL:   DRILLING MEASURED FROM
 EKB .F                  :   KELLING BUSHING
 EDF .F                  :   DRILLING FLOOR
 EGL .F              5140:   GROUND LEVEL
 DATE.             3-8-77:   RUN DATE
 RUN .                  1:   RUN NUMBER
 DD  .F               611:   DEPTH DRILLER
 DL  .F               555:   DEPTH LOGGER
 BLI .F               553:   BOTTOM LOG INTERVAL
 TLI .F                40:   TOP LOG INTERVAL
 CS  .IN            8.625:   CASING SIZE
 CBD .F                40:   CASING BOTTOM DRILLER
 CBL .F                40:   CASING BOTTOM LOGGER
 BS  .IN            7.875:   BIT SIZE
 BSD .F               611:   BIT SIZE AT DEPTH
 DFT .           CHEM GEL:   DRILLING FLUID TYPE
 DFD .                8.6:   DRILLING FLUID DENSITY
 DFV .                 42:   DRILLING FLUID VISCOSITY
 DFPH.                  8:   DRILLING FLUID PH
 DFL .                3.2:   DRILLING FLUID LOSS
 MSS .           FLOWLINE:   MUD SAMPLE SOURCE
 RMS .OHMM           1.49:   RESISTIVITY MUD SAMPLE
 MST .F                48:   MUD SAMPLE TEMPERATURE
 RMF .OHMM           1.07:   RESISTIVITY MUD FILTRATE SAMPLE
 MFST.F                48:   MUD FILTRATE SAMPLE TEMPERATURE
 RMC .OHMM           2.34:   RESISTIVITY MUD CAKE
 MCST.F                48:   MUD CAKE SAMPLE TEMPERATURE
 MFSS.           MEASURED:   MUD FILTRATE SAMPLE SOURCE
 MCSS.           MEASURED:   MUD CAKE SAMPLE SOURCE
 RMB .OHMM           1.19:   RESISTIVITY MUD AT BHT
 BHT .F                60:   BOTTOM HOLE TEMPERATURE
 TCS .HRS               2:   TIME CURCULATED STOPPED
 TLAB.HRS                :   TIME LOGGER AT BOTTOM
 MRT .F                60:   MAXIMUM RECORDED TEMPERATURE
 LUN .               0716:   LOGGING UNIT NUMBER
 LUL .             VERNAL:   LOGGING UNIT LOCATION
 ENGI.           CALLAHAN:   RECORDING ENGINEER
 WITN.         STUEBINGER:   WITNESSED BY
 CLNT.            A2DTECH:   CLIENT CODE
 ORIG.       2", 5" PRINT:   ORIGIN OF DATA
 UWI .       490251030800:   UNIQUE WELL ID
 DICO. A2D Technologies, Inc.:   DIGITIZING COMPANY
 OS  .                   :   OTHER SERVICES
 PWI .                   :   PRIMARY WELL IDENTIFIER
 R1  .                   :   REMARKS 1
 R2  .                   :   REMARKS 2
 LSRV.                   :   LOG MNEMONIC
~OTHER INFORMATION
~A   DEPT      SPR        ILD        ILM       SGRD       CALD       CORR       RHOB       DPHI        GRD   
# ...
  139.5000   -34.0491    10.8922    12.4719    14.5702     7.8744     0.0232     2.5107     0.0863   124.8053
  140.0000   -34.0541    10.8879    12.4670    14.5630     7.8742     0.0352     2.5295     0.0797   124.6524
  140.5000   -34.2095    10.8836    12.4621    14.5572     7.8741     0.0488     2.5481     0.0679   125.4062
  141.0000   -34.2156    10.8793    12.4559    14.8569     7.8739     0.0638     2.5633     0.0541   126.4622
  141.5000   -33.9203    10.8750    12.3651    14.6468     7.8738     0.0577     2.5663     0.0484   126.7628
  142.0000   -33.9254    10.8696    12.1063    14.2410     7.8737     0.0457     2.5242     0.0634   126.2960
  142.5000   -33.7790    10.7903    11.9351    14.1369     7.8585     0.0306     2.4986     0.0899   125.0979
  143.0000   -33.7853    10.7860    12.0133    14.1301     7.8584     0.0486     2.4986     0.0944   125.2475
  143.5000   -33.7916    10.7818    12.0083    14.1245     7.8732     0.0561     2.5001     0.0836   125.3975
  144.0000   -33.9468    10.7775    12.0026    14.1189     7.8730     0.0681     2.5016     0.0857   126.4530
  144.5000   -34.2521    10.6978    11.9151    14.1133     7.8579     0.0756     2.5023     0.0860   128.2643
  145.0000   -34.7076    10.6198    11.6656    14.1076     7.8428     0.0741     2.5031     0.0851   129.0181
  145.5000   -34.5623    10.4696    11.5806    13.3407     7.7676     0.0635     2.5046     0.0860   129.0166
  146.0000   -34.4173    10.3932    11.5759    13.4281     7.6904     0.0770     2.5053     0.0887   128.2595
  146.5000   -34.4236    10.3174    11.5703    14.3853     7.6178     0.0861     2.5053     0.0869   127.8049
  147.0000   -34.4286    10.3131    11.5657    14.7835     7.6027     0.0755     2.5053     0.0827   128.1056
  147.5000   -34.4337    10.3798    11.5611    14.2648     7.6025     0.0514     2.5038     0.0881   129.4636
  148.0000   -34.4387    10.3041    11.5566    13.8778     7.6174     0.0332     2.5015     0.1007   130.9727
  148.5000   -34.4437    10.3000    11.4654    14.0672     7.6472     0.0227     2.4970     0.1022   132.1797
  149.0000   -34.4489    10.2249    11.2311    13.8668     7.7386     0.0106     2.4900     0.1028   132.7966
  149.5000   -34.3049    10.1502    11.0723    13.2972     7.9163     0.0061     2.4842     0.1053   133.3853
  150.0000   -34.1598    10.0759    11.0505    13.2002     7.9311     0.0030     2.4819     0.1077   132.2831
  150.5000   -34.0134    10.0710    10.9341    13.0125     7.9154     0.0062     2.4806     0.1049   132.9245
  151.0000   -33.8695     9.9967    10.9064    13.0990     7.9008    -0.0031     2.4781     0.1062   135.4985
  151.5000   -34.0248     9.9142    10.9020    13.2764     7.8862     0.0044     2.4841     0.0972   135.9517
  152.0000   -33.8796     9.6463    10.8977    13.5483     7.8694     0.0149     2.5082     0.0963   135.0453
  152.5000   -33.8859     9.5092    10.8182    13.6431     7.8690     0.0118     2.4879     0.1035   133.8369
  153.0000   -34.0411     9.3093    10.5917    13.9176     7.8685     0.0042     2.4683     0.1092   132.6224
  153.5000   -34.4966     9.1137    10.2780    13.4373     7.8681    -0.0033     2.4540     0.1152   133.0997
  154.0000   -34.8019     8.9841     9.6718    13.1557     7.8677    -0.0079     2.4426     0.1202   132.4773
  154.5000   -34.3565     8.9179     9.4693    12.5282     7.8671    -0.0034     2.4404     0.1237   129.6073
  155.0000   -34.0612     8.9128     9.4655    11.8482     7.8667     0.0026     2.4494     0.1222   129.3051
  155.5000   -34.6681     8.9086     9.5936    11.3614     7.8663     0.0085     2.4599     0.1168   130.2115
  156.0000   -34.5230     8.9044     9.6564    11.0394     7.8658     0.0100     2.4704     0.1129   129.7583
  156.5000   -34.0763     8.9003     9.7196    10.8892     7.8654     0.0100     2.4756     0.1096   128.0725
  157.0000   -34.3829     8.8961     9.7832    10.8849     7.8650     0.0098     2.4693     0.1100   125.3776
  157.5000   -34.8396     8.8920     9.7783    10.8805     7.8644     0.0068     2.4538     0.1180   124.1692
  158.0000   -34.6932     8.9496     9.8422    10.8761     7.8640     0.0068     2.4478     0.1216   123.2628
  158.5000   -34.5481     9.0076     9.9754    11.4118     7.8787     0.0083     2.4628     0.1180   121.2991
  159.0000   -34.7046     9.0659    10.2513    13.3768     7.8932     0.0127     2.4718     0.1117   121.1299
  159.5000   -35.0099     9.3151    10.5348    13.2571     7.9076     0.0172     2.4710     0.1120   122.9728
  160.0000   -35.3153     9.5723    10.7504    12.4705     7.9072     0.0218     2.4867     0.1048   124.1692
  160.5000   -35.3215     9.8366    10.7462    12.4655     7.9067     0.0262     2.4913     0.1033   124.3202
  161.0000   -35.3265     9.8320    10.6678    13.5403     7.9062     0.0291     2.4694     0.1112   123.5650
  161.5000   -35.1802     9.8262    10.4445    13.3487     7.9058     0.0321     2.4867     0.1085   123.1118
  162.0000   -35.1865     9.8217    10.2258    12.8003     7.9054     0.0366     2.5010     0.1010   123.4139
  162.5000   -34.8912     9.8171    10.2216    12.3597     7.9049     0.0079     2.4596     0.1114   124.3202
  163.0000   -34.7461     9.8125    10.5034    11.9341     7.9044     0.0003     2.4498     0.1202   125.6012
  163.5000   -34.4508     9.8079    10.7194    12.0112     7.9040     0.0078     2.4656     0.1163   127.0393
  164.0000   -34.3057     9.8033    10.7906    13.1374     7.9035     0.0138     2.4776     0.1109   128.7009
  164.5000   -35.0627     9.7986    10.7109    13.5023     7.9181     0.0137     2.4873     0.1082   130.5136
  165.0000   -35.3681     9.7930    10.4143    12.9463     7.9177     0.0092     2.4978     0.1046   131.4199
  165.5000   -35.5233     9.8576    10.4101    12.4144     7.9172     0.0212     2.5077     0.0988   130.9607
  166.0000   -35.3794     9.9204    10.6232    12.3238     7.9318     0.0362     2.5136     0.0899   132.6828
  166.5000   -35.3844     9.9157    10.8428    12.4032     7.9312     0.0136     2.5008     0.0839   133.8369
  167.0000   -35.3894     9.9111    10.7627    13.1969     7.9308     0.0075     2.4955     0.0947   131.8731
  167.5000   -35.3945     9.9064    10.7584    13.0993     7.9454     0.0029     2.4857     0.0951   130.2115
  168.0000   -35.3995     9.9007    10.8288    12.6484     7.9299     0.0029     2.4772     0.1002   131.7221
  168.5000   -35.2544     9.8961    10.9753    12.7312     7.9295     0.0164     2.4926     0.1017   131.1178
  169.0000   -35.2607     9.8914    10.6703    13.4510     7.9140     0.0194     2.4976     0.0960   128.5499
  169.5000   -35.1143     9.8868    10.4469    13.2558     7.9136     0.0027     2.4841     0.1005   129.6073
  170.0000   -34.8190     9.8822    10.5153    13.1626     7.9131     0.0012     2.4547     0.1167   130.9668
  170.5000   -34.6739     9.8776    10.7327    12.7095     7.9127     0.0027     2.4570     0.1177   131.1178
  171.0000   -34.2297     9.8729    10.8769    12.0197     7.9123     0.0237     2.4675     0.1143   130.9668
  171.5000   -33.9345     9.8672    10.9480    12.0984     7.9118     0.0146     2.4909     0.1087   129.6073
  172.0000   -33.9408     9.8626    10.8670    12.4332     7.9113     0.0307     2.5118     0.0924   129.1541
  172.5000   -33.9458     9.7900    10.7878    12.6893     7.9109     0.0432     2.5103     0.0843   130.0604
  173.0000   -34.1010     9.7854    10.7091    12.8610     7.9104     0.0310     2.5005     0.0864   129.9094
  173.5000   -34.2562     9.7809    10.7049    12.6777     7.9100     0.0205     2.5162     0.0880   128.3988
  174.0000   -34.5616     9.7088    10.7751    12.3264     7.9096     0.0430     2.5335     0.0835   128.2477
  174.5000   -34.8681     9.7032    10.9965    12.7556     7.9091     0.0415     2.5310     0.0729   129.6073
  175.0000   -34.8731     9.6986    10.9793    13.2914     7.9086     0.0339     2.5244     0.0763   130.2115
  175.5000   -34.8781     9.6941    10.5398    13.3798     7.9082     0.0368     2.5169     0.0808   130.3625
