~VERSION INFORMATION
 VERS.                2.0:   CWLS LOG ASCII STANDARD - VERSION 2.0
 WRAP.                 NO:   ONE LINE PER DEPTH STEP
~WELL INFORMATION
#MNEM.UNIT      DATA TYPE    INFORMATION
#----------   ------------   ------------------------------
 STRT.F           32.0000:   START DEPTH
 STOP.F          812.0000:   STOP DEPTH
 STEP.F            0.5000:   STEP LENGTH
 NULL.          -999.2500:   NO VALUE
 COMP. FENIX & SCISSON INC:   COMPANY
 WELL.       75 SX #15-15:   WELL
 FLD .             TEAPOT:   FIELD
 LOC .      S15 T38N R78W:   LOCATION
 CNTY.            NATRONA:   COUNTY
 STAT.            WYOMING:   STATE
 CTRY. UNITED STATES OF AMERICA:   COUNTRY
 SRVC.              Welex:   SERVICE COMPANY
 DATE.        28-FEB-1977:   LOGDATE
 API .       490251030100:   API NUMBER
~CURVE INFORMATION
#MNEM.UNIT       API CODE    CURVE DESCRIPTION
#----------   ------------   ------------------------------
 DEPT.F                  :   
 SPR .MV     07 010 01 00:   SPONTANEOUS POTENTIAL
 ILD .OHMM   07 120 46 00:   INDUCTION LOG DEEP
 SGRD.OHMM   07 220 05 00:   SHALLOW RESISTIVITY
 ILM .OHMM   07 120 44 00:   INDUCTION LOG MEDIUM
 GRD .GAPI   45 310 01 00:   GAMMA RAY FROM DENSITY LOG
 CALD.IN     45 280 60 00:   CALIPER FROM DENSITY LOG
 RHOB.G/C3   45 350 01 00:   BULK DENSITY
 DPHI.DEC    45 890 12 00:   DENSITY POROSITY SANDSTONE
 CORR.G/C3   45 356 01 00:   DENSITY CORRECTION
~PARAMETER INFORMATION
#MNEM.UNIT          VALUE    DESCRIPTION
#----------   ------------   ------------------------------
 PD  .                 GL:   PERMANENT DATUM
 EPD .F              5264:   ELEVATION PERMANENT DATUM
 LMF .                 GL:   LOG MEASURED FROM
 DMF .                 GL:   DRILLING MEASURED FROM
 EGL .F              5264:   GROUND LEVEL
 DATE.          2-28-1977:   RUN DATE
 RUN .                  1:   RUN NUMBER
 DD  .F               830:   DEPTH DRILLER
 DL  .F               814:   DEPTH LOGGER
 BLI .F               812:   BOTTOM LOG INTERVAL
 TLI .F                42:   TOP LOG INTERVAL
 CS  .IN            8.625:   CASING SIZE
 CBD .F                40:   CASING BOTTOM DRILLER
 CBL .F                42:   CASING BOTTOM LOGGER
 BS  .IN            7.875:   BIT SIZE
 BSD .F               830:   BIT SIZE AT DEPTH
 DFT .           CHEM-GEL:   DRILLING FLUID TYPE
 DFD .                9.3:   DRILLING FLUID DENSITY
 DFV .                 38:   DRILLING FLUID VISCOSITY
 DFPH.               10.5:   DRILLING FLUID PH
 DFL .               16.2:   DRILLING FLUID LOSS
 MSS .          FLOW LINE:   MUD SAMPLE SOURCE
 RMS .OHMM           0.44:   RESISTIVITY MUD SAMPLE
 MST .F                62:   MUD SAMPLE TEMPERATURE
 RMF .OHMM            .38:   RESISTIVITY MUD FILTRATE SAMPLE
 MFST.F                62:   MUD FILTRATE SAMPLE TEMPERATURE
 RMC .OHMM           0.79:   RESISTIVITY MUD CAKE
 MCST.F                62:   MUD CAKE SAMPLE TEMPERATURE
 MFSS.           MEASURED:   MUD FILTRATE SAMPLE SOURCE
 MCSS.           MEASURED:   MUD CAKE SAMPLE SOURCE
 RMB .OHMM           .368:   RESISTIVITY MUD AT BHT
 BHT .F                74:   BOTTOM HOLE TEMPERATURE
 TCS .HRS               3:   TIME CURCULATED STOPPED
 MRT .F                74:   MAXIMUM RECORDED TEMPERATURE
 LUN .               8611:   LOGGING UNIT NUMBER
 LUL .           GILLETTE:   LOGGING UNIT LOCATION
 ENGI.               DOAK:   RECORDING ENGINEER
 WITN.               JAPP:   WITNESSED BY
 CLNT.            A2DTECH:   CLIENT CODE
 ORIG.       2", 5" PRINT:   ORIGIN OF DATA
 UWI .       490251030100:   UNIQUE WELL ID
 DICO. A2D Technologies, Inc.:   DIGITIZING COMPANY
~OTHER INFORMATION
~A   DEPT      SPR        ILD       SGRD        ILM         GRD        CALD       RHOB       DPHI      CORR  
# ...
  579.5000   -46.3118     5.6701    10.0650     6.0678   128.5888     7.7795     2.4335     0.1239     0.0139
  580.0000   -46.4574     5.4693    10.0700     5.9098   132.4203     7.7825     2.4253     0.1263     0.0150
  580.5000   -46.6021     5.2756     9.4482     5.6939   131.8997     7.7854     2.4169     0.1286     0.0162
  581.0000   -46.7493     5.0887     9.0047     5.4859   135.1744     7.7884     2.4139     0.1289     0.0173
  581.5000   -46.6827     4.9085     8.2991     5.2851   138.6553     7.7913     2.4126     0.1324     0.0185
  582.0000   -46.4812     4.7347     5.2933     5.0912   142.4052     7.7942     2.4080     0.1411     0.0168
  582.5000   -46.2765     4.5607     4.3554     4.9062   140.6776     7.7971     2.3981     0.1499     0.0132
  583.0000   -46.0721     4.6829     8.6185     4.8198   137.1132     7.8001     2.3859     0.1579     0.0094
  583.5000   -45.8679     4.8465    10.4479     5.2971   134.8488     7.8030     2.3977     0.1462     0.0048
  584.0000   -45.6637     5.0026    10.1159     5.7324   136.2462     7.8059     2.4156     0.1352     0.0054
  584.5000   -45.4596     5.2811     9.5846     5.9973   135.5824     7.8088     2.4340     0.1241     0.0058
  585.0000   -45.2554     5.5553     8.8017     6.0764   134.9923     7.8118     2.4512     0.1159     0.0061
  585.5000   -45.0512     5.8423     7.2951     6.2416   135.0364     7.8147     2.4486     0.1141     0.0065
  586.0000   -44.8470     6.1441     9.8467     6.5382   133.3854     7.8175     2.4453     0.1185     0.0069
  586.5000   -44.6422     6.4615    10.5305     6.8507   131.4425     7.8130     2.4421     0.1214     0.0072
  587.0000   -44.4368     6.7954    10.6259     7.1779   129.4620     7.8007     2.4457     0.1183     0.0076
  587.5000   -44.4397     7.1462    10.7249     7.5204   127.5426     7.7883     2.4547     0.1130     0.0080
  588.0000   -44.4742     7.4995    10.9887     7.8793   128.1389     7.7760     2.4629     0.1078     0.0083
  588.5000   -44.5087     7.6548    11.4109     8.2230   126.9758     7.7636     2.4680     0.1050     0.0087
  589.0000   -44.5427     7.8068    11.8448     8.3244   123.6246     7.7512     2.4732     0.1019     0.0092
  589.5000   -44.5768     7.9619    12.2188     8.4396   130.1726     7.7389     2.4783     0.0988     0.0101
  590.0000   -44.6108     8.1476    11.9175     8.5316   132.4608     7.7267     2.4835     0.0957     0.0110
  590.5000   -44.6448     8.1253    11.7769     8.5316   131.6687     7.7281     2.4829     0.0965     0.0119
  591.0000   -44.6788     8.0984    12.1253     8.5316   133.5400     7.7473     2.4786     0.0991     0.0128
  591.5000   -44.7129     8.0716    12.2188     8.5316   134.3961     7.7664     2.4742     0.1016     0.0121
  592.0000   -44.7470     8.0448    12.0518     8.5315   132.0898     7.7855     2.4699     0.1041     0.0111
  592.5000   -44.7812     8.0184    11.9958     8.5311   128.8390     7.8046     2.4655     0.1067     0.0101
  593.0000   -44.8075     7.9991    12.3802     8.5315   123.0643     7.8239     2.4681     0.1062     0.0091
  593.5000   -44.7778     8.0644    12.6774     8.5287   117.0511     7.8430     2.4754     0.1035     0.0081
  594.0000   -44.7489     8.1163    12.3988     8.8129   120.6674     7.8572     2.4768     0.1010     0.0071
  594.5000   -44.7200     8.1684    12.0318     9.0332   125.4225     7.8428     2.4641     0.1077     0.0060
  595.0000   -44.6912     8.2210    11.6756     9.2590   128.6535     7.8289     2.4514     0.1181     0.0051
  595.5000   -44.6620     8.2738    11.5619     9.4905   131.8486     7.8151     2.4488     0.1143     0.0086
  596.0000   -44.6333     8.3271    11.9475     9.7277   131.7540     7.8012     2.4626     0.1072     0.0145
  596.5000   -44.6276     8.3806    12.5073     9.9708   123.2739     7.7874     2.4763     0.1001     0.0236
  597.0000   -44.7225     8.4534    13.0933    10.1632   116.7952     7.7735     2.4866     0.0930     0.0273
  597.5000   -44.8148     8.3875    13.9005    10.1632   115.9438     7.7597     2.4932     0.0894     0.0300
  598.0000   -44.9072     8.2882    13.7134    10.0662   123.9760     7.7458     2.4997     0.0862     0.0328
  598.5000   -44.9995     8.0812    13.3949    10.0671   131.3783     7.7464     2.4991     0.0854     0.0323
  599.0000   -45.0918     7.6910    13.5000    10.0726   132.7873     7.7587     2.4935     0.0896     0.0317
  599.5000   -45.1845     7.3194    13.6287     9.4332   129.4792     7.7711     2.4898     0.0937     0.0311
  600.0000   -45.2761     6.9656    13.6468     8.6532   128.0362     7.7836     2.4869     0.1008     0.0263
  600.5000   -45.3700     6.6287    12.7923     7.9377   134.6366     7.7967     2.4590     0.1144     0.0196
  601.0000   -45.1615     6.3092     8.4136     7.2813   142.3608     7.7869     2.4218     0.1302     0.0128
  601.5000   -44.7269     6.0678     4.4364     6.4719   150.2174     7.7703     2.3841     0.1461     0.0061
  602.0000   -44.2861     6.2767     8.5332     6.8312   142.5769     7.7536     2.3679     0.1675    -0.0007
  602.5000   -43.8312     6.4545    15.2026     7.4383   127.7652     7.7369     2.4134     0.1471     0.0016
  603.0000   -43.5472     6.8169    14.8035     8.0990   121.9727     7.7202     2.4690     0.1125     0.0085
  603.5000   -43.2620     7.2282    14.5556     8.8192   116.2254     7.7035     2.4912     0.0949     0.0155
  604.0000   -42.9743     7.7724    14.7853     9.6035   113.4046     7.6869     2.5025     0.0879     0.0226
  604.5000   -42.6867     8.3696    15.0232    10.4544   116.4610     7.6704     2.5101     0.0823     0.0297
  605.0000   -42.3990     9.0126    15.2416    11.6715   118.6934     7.6633     2.5072     0.0831     0.0310
  605.5000   -42.1114     9.7050    15.2416    11.6362   116.6436     7.6724     2.5039     0.0850     0.0306
  606.0000   -41.8237    10.0053    15.0391    11.5619   115.6277     7.6813     2.4898     0.0889     0.0226
  606.5000   -41.5366    10.1663    14.8272    12.6774   119.5835     7.6902     2.4760     0.0977     0.0152
  607.0000   -41.2714    10.3299    14.6183    12.3895   122.3904     7.6995     2.4648     0.1065     0.0080
  607.5000   -40.4963    10.5569    14.4123    12.1134   125.2294     7.7113     2.4678     0.1078     0.0069
  608.0000   -39.6816    10.9627    14.2092    11.8434   126.2887     7.7238     2.4706     0.1038     0.0117
  608.5000   -38.8675    11.3775    14.1589    11.7769   121.8593     7.7363     2.4744     0.0999     0.0165
  609.0000   -38.0553    11.8095    14.9519    12.1303   116.4465     7.7488     2.4821     0.0959     0.0214
  609.5000   -37.2434    12.2576    15.5249    12.7575   117.4263     7.7613     2.4895     0.0920     0.0262
  610.0000   -36.4188    12.7225    18.7728    13.4172   111.7922     7.7738     2.4926     0.0887     0.0310
  610.5000   -35.5634    13.2063    20.7970    14.1110   103.4395     7.7863     2.4728     0.1139     0.0354
  611.0000   -34.6805    13.7710    21.3508    15.3868    95.6548     7.7990     2.4598     0.1189     0.0380
  611.5000   -33.7929    14.4833    21.8260    16.9813    89.5220     7.8010     2.4558     0.1207     0.0406
  612.0000   -32.8712    15.2325    19.9070    18.7551    83.3516     7.7797     2.4516     0.1226     0.0431
  612.5000   -32.0232    16.0105    18.4489    19.7218    80.3666     7.7654     2.4476     0.1244     0.0457
  613.0000   -31.1414    16.4034    17.0228    18.1386    79.1601     7.7202     2.4326     0.1313     0.0459
  613.5000   -30.2549    16.2440    17.8086    17.1299    80.8546     7.6751     2.4095     0.1398     0.0443
  614.0000   -29.3699    16.1376    18.3244    16.5588    83.9362     7.6296     2.3863     0.1484     0.0427
  614.5000   -28.4503    16.0318    15.4892    16.5588    84.7975     7.5841     2.3732     0.1568     0.0411
  615.0000   -28.2427    15.9268    14.5556    16.5585    79.1874     7.5385     2.3719     0.1642     0.0395
  615.5000   -28.2428    15.8224    17.3392    16.5586    78.5371     7.4928     2.3737     0.1620     0.0379
