~VERSION INFORMATION
 VERS.                2.0:   CWLS LOG ASCII STANDARD - VERSION 2.0
 WRAP.                 NO:   ONE LINE PER DEPTH STEP
~WELL INFORMATION
#MNEM.UNIT      DATA TYPE    INFORMATION
#----------   ------------   ------------------------------
 STRT.F            0.0000:   START DEPTH
 STOP.F          701.0000:   STOP DEPTH
 STEP.F            0.5000:   STEP LENGTH
 NULL.          -999.2500:   NO VALUE
 COMP. U S NAVY-INTEX OIL:   COMPANY
 WELL. RES 3 TEAPOT DOM #22-S-2:   WELL
 FLD .             TEAPOT:   FIELD
 LOC .       S2 T38N R78W:   LOCATION
 CNTY.            NATRONA:   COUNTY
 STAT.            WYOMING:   STATE
 CTRY. UNITED STATES OF AMERICA:   COUNTRY
 SRVC.      NL McCullough:   SERVICE COMPANY
 DATE.        23-AUG-1961:   LOGDATE
 API .       490250647200:   API NUMBER
~CURVE INFORMATION
#MNEM.UNIT       API CODE    CURVE DESCRIPTION
#----------   ------------   ------------------------------
 DEPT.F                  :   
 GRN .GAPI   35 310 01 00:   GAMMA RAY
 NEUT.NAPI   35 330 01 00:   NEUTRON
~PARAMETER INFORMATION
#MNEM.UNIT          VALUE    DESCRIPTION
#----------   ------------   ------------------------------
 PD  .                 GL:   PERMANENT DATUM
 EPD .F              5115:   ELEVATION PERMANENT DATUM
 LMF .                 KB:   LOG MEASURED FROM
 DAPD.F                 6:   FEET ABOVE PERMANENT DATUM
 DMF .                 KB:   DRILLING MEASURED FROM
 EKB .F              5121:   KELLING BUSHING
 EGL .F              5115:   GROUND LEVEL
 DATE.          8-23-1961:   RUN DATE
 RUN .                  1:   RUN NUMBER
 DL  .F               676:   DEPTH LOGGER
 BLI .F               674:   BOTTOM LOG INTERVAL
 TLI .F               450:   TOP LOG INTERVAL
 DFT .                OIL:   DRILLING FLUID TYPE
 TCS .HRS              30:   TIME CURCULATED STOPPED
 ENGI.            JACKSON:   RECORDING ENGINEER
 WITN.             HUDSON:   WITNESSED BY
 CLNT.            A2DTECH:   CLIENT CODE
 ORIG.           5" PRINT:   ORIGIN OF DATA
 UWI .       490250647200:   UNIQUE WELL ID
 DICO. A2D Technologies, Inc.:   DIGITIZING COMPANY
~OTHER INFORMATION
~A    DEPT       GRN     NEUT   
# ...
  243.0000     5.7751   491.6145
  243.5000     5.7479   487.7434
  244.0000     5.6791   478.5536
  244.5000     5.7509   469.3495
  245.0000     5.8896   460.2304
  245.5000     5.9511   451.0044
  246.0000     5.9814   441.1436
  246.5000     6.0195   435.1882
  247.0000     6.0057   435.5623
  247.5000     5.9862   435.2136
  248.0000     5.9638   434.8887
  248.5000     5.9451   434.7469
  249.0000     5.9253   434.4673
  249.5000     5.9569   434.1656
  250.0000     5.9932   434.0572
  250.5000     6.0282   433.1912
  251.0000     6.0587   431.5894
  251.5000     6.0134   431.0513
  252.0000     5.9688   423.0906
  252.5000     5.9214   408.3851
  253.0000     5.8838   407.0535
  253.5000     5.8897   414.5968
  254.0000     5.8943   422.4902
  254.5000     5.9007   415.0210
  255.0000     5.9065   398.9094
  255.5000     5.9124   384.3317
  256.0000     5.9186   368.0187
  256.5000     5.9279   372.1551
  257.0000     5.9449   381.6751
  257.5000     5.9605   391.0009
  258.0000     5.9767   400.3116
  258.5000     5.9975   409.0009
  259.0000     5.9697   419.1311
  259.5000     5.8835   414.4276
  260.0000     5.8024   407.3661
  260.5000     5.7173   386.9809
  261.0000     5.6767   363.1770
  261.5000     5.6923   360.2523
  262.0000     5.7141   357.9371
  262.5000     5.7309   356.4975
  263.0000     5.7734   354.6430
  263.5000     5.8315   352.9649
  264.0000     5.8866   350.7841
  264.5000     5.9415   350.2935
  265.0000     5.9956   355.7802
  265.5000     6.0504   388.8555
  266.0000     6.0442   419.9138
  266.5000     6.0176   452.1822
  267.0000     5.9922   475.8451
  267.5000     5.9646   471.2194
  268.0000     5.9642   471.2232
  268.5000     5.9616   483.2978
  269.0000     5.9584   490.8814
  269.5000     5.8747   486.7758
  270.0000     5.7859   482.8470
  270.5000     5.7514   478.7833
  271.0000     5.7192   470.1502
  271.5000     5.6895   454.1050
  272.0000     5.6585   437.8860
  272.5000     5.6265   413.5094
  273.0000     5.6027   419.3470
  273.5000     5.6068   443.1932
  274.0000     5.6622   464.9901
  274.5000     5.7126   486.9214
  275.0000     5.7695   509.3708
  275.5000     5.7476   528.8119
  276.0000     5.5530   544.7349
  276.5000     5.3607   560.7884
  277.0000     5.1471   581.7676
  277.5000     5.0643   568.7374
  278.0000     5.1860   535.9904
  278.5000     5.2883   505.6116
  279.0000     5.3919   475.9937
  279.5000     5.5004   445.6360
  280.0000     5.6048   428.8960
  280.5000     5.7098   418.5327
  281.0000     5.8206   408.2939
  281.5000     5.8539   401.5000
  282.0000     5.8218   396.1496
  282.5000     5.7945   390.7667
  283.0000     5.7779   385.1259
  283.5000     5.6849   380.0488
  284.0000     5.5384   374.2056
  284.5000     5.5673   378.7861
  285.0000     5.6798   384.4893
  285.5000     5.7758   390.5811
  286.0000     5.8784   396.3942
  286.5000     5.8225   402.2332
  287.0000     5.7128   408.2947
  287.5000     5.7454   413.9466
  288.0000     5.7958   419.3535
  288.5000     5.8491   416.1399
  289.0000     5.9003   412.6031
  289.5000     5.9261   409.0274
  290.0000     5.9535   406.5470
  290.5000     5.9777   413.7874
  291.0000     6.0001   418.9815
  291.5000     5.9804   412.1117
  292.0000     5.9621   406.0144
  292.5000     5.9370   399.1484
  293.0000     5.9216   392.5192
  293.5000     5.9144   389.5386
  294.0000     6.0843   396.9531
  294.5000     6.2293   404.0356
  295.0000     6.3340   411.4680
  295.5000     6.2916   419.2950
  296.0000     6.2489   425.8125
  296.5000     6.2265   430.3790
  297.0000     6.2459   435.3893
  297.5000     6.2620   440.4296
  298.0000     6.2778   445.3481
  298.5000     6.2945   450.3383
  299.0000     6.3108   455.3111
  299.5000     6.3271   460.2885
  300.0000     6.3439   465.2757
  300.5000     6.3605   470.2301
  301.0000     6.3750   475.2647
  301.5000     6.4079   480.2075
  302.0000     6.4560   485.0961
  302.5000     6.5014   490.4711
  303.0000     6.5491   489.7677
  303.5000     6.5665   485.2188
  304.0000     6.5641   481.0364
  304.5000     6.5700   477.0430
  305.0000     6.5173   472.5072
  305.5000     6.4324   467.6523
  306.0000     6.3539   463.5104
  306.5000     6.2750   458.5189
  307.0000     6.1990   471.0721
  307.5000     6.1093   486.9195
  308.0000     6.0685   503.5333
  308.5000     6.0206   518.9449
  309.0000     5.9772   535.0636
  309.5000     5.9317   535.3359
  310.0000     5.8816   534.8851
  310.5000     5.8010   533.6525
  311.0000     5.7112   526.5686
  311.5000     5.6173   519.5667
  312.0000     5.5327   512.3455
  312.5000     5.4510   504.7708
  313.0000     5.5757   498.0095
  313.5000     5.7037   493.0697
  314.0000     5.8400   508.3646
  314.5000     5.9734   521.5356
  315.0000     6.1061   532.2385
  315.5000     6.2219   532.8970
  316.0000     6.2521   538.3957
  316.5000     6.2782   552.6923
  317.0000     6.3048   566.8918
  317.5000     6.3306   582.8203
  318.0000     6.4138   585.1424
  318.5000     6.4595   567.8660
  319.0000     6.4478   552.3268
  319.5000     6.4359   536.5243
  320.0000     6.3890   520.5747
  320.5000     6.2651   504.8560
  321.0000     6.1346   488.3764
  321.5000     6.0542   482.6918
  322.0000     6.0872   486.0468
  322.5000     6.1542   489.8910
  323.0000     6.2172   480.5067
  323.5000     6.2834   463.0551
  324.0000     6.3544   446.4642
  324.5000     6.3613   438.7939
  325.0000     6.2987   434.6467
  325.5000     6.2394   430.9571
  326.0000     6.1833   426.2007
  326.5000     6.1286   433.7404
  327.0000     6.0639   442.6588
  327.5000     6.1685   450.5623
  328.0000     6.4436   444.4384
  328.5000     6.4746   434.1504
  329.0000     6.3571   423.1968
  329.5000     6.2318   412.6296
  330.0000     6.2833   401.9944
  330.5000     6.3912   391.2329
  331.0000     6.4919   380.5771
  331.5000     6.5889   370.0709
  332.0000     6.6921   358.9737
  332.5000     6.7867   348.7957
  333.0000     6.8986   340.9604
  333.5000     6.9244   357.0845
  334.0000     6.9438   371.2062
  334.5000     6.9605   386.6085
  335.0000     6.8194   398.1701
  335.5000     6.6539   400.0446
  336.0000     6.4842   402.0168
  336.5000     6.3162   411.0425
  337.0000     6.1508   434.4827
  337.5000     5.9870   457.3828
  338.0000     5.9171   480.8663
  338.5000     5.8464   503.8498
  339.0000     5.7833   526.8633
  339.5000     5.7256   551.8439
  340.0000     5.7616   557.4068
  340.5000     5.7955   542.7846
  341.0000     5.8335   530.2182
  341.5000     5.8699   517.5253
  342.0000     5.9060   507.5467
  342.5000     5.9432   500.3484
  343.0000     5.9798   491.1624
  343.5000     6.0140   496.7616
  344.0000     6.0777   510.6715
  344.5000     6.2150   505.2631
  345.0000     6.2864   491.4678
  345.5000     6.2231   477.9627
  346.0000     6.1635   465.7731
  346.5000     6.1019   452.9987
  347.0000     6.0402   460.1650
  347.5000     5.9751   472.0764
  348.0000     5.9358   484.7560
  348.5000     5.9282   497.2232
  349.0000     5.9183   509.1389
  349.5000     5.9722   521.1651
  350.0000     6.0927   517.2109
  350.5000     6.2166   512.8306
  351.0000     6.2315   507.6693
  351.5000     6.1486   503.1277
  352.0000     6.0724   498.0315
  352.5000     6.0343   493.1646
  353.0000     6.0211   481.1559
  353.5000     6.0089   469.9897
  354.0000     5.9904   458.2552
  354.5000     5.9688   453.6086
  355.0000     5.9482   467.1590
  355.5000     5.9280   481.8378
  356.0000     5.9074   505.1147
  356.5000     5.8864   490.8088
  357.0000     5.8664   456.7808
  357.5000     5.8435   447.8199
  358.0000     5.8424   435.3382
  358.5000     5.8621   422.4532
  359.0000     5.8927   409.6605
  359.5000     5.9253   405.8990
  360.0000     6.0836   413.2817
  360.5000     6.2701   419.6429
  361.0000     6.4526   426.0795
  361.5000     6.6383   432.6214
  362.0000     6.7384   438.9025
  362.5000     6.8329   446.0137
  363.0000     6.9172   443.9395
  363.5000     6.8282   436.0714
  364.0000     6.7382   428.8481
