~VERSION INFORMATION
 VERS.                2.0:   CWLS LOG ASCII STANDARD - VERSION 2.0
 WRAP.                 NO:   ONE LINE PER DEPTH STEP
~WELL INFORMATION
#MNEM.UNIT      DATA TYPE    INFORMATION
#----------   ------------   ------------------------------
 STRT.F          672.0000:   START DEPTH
 STOP.F         2343.5000:   STOP DEPTH
 STEP.F            0.5000:   STEP LENGTH
 NULL.          -999.2500:   NO VALUE
 COMP. FENIX & SCISSON INC:   COMPANY
 WELL.   23 SHX-33 #23-33:   WELL
 FLD .             TEAPOT:   FIELD
 LOC .      S33 T39N R78W:   LOCATION
 CNTY.            NATRONA:   COUNTY
 STAT.            WYOMING:   STATE
 CTRY. UNITED STATES OF AMERICA:   COUNTRY
 SRVC.            Unknown:   SERVICE COMPANY
 DATE.        01-MAY-1978:   LOGDATE
 API .       490251062700:   API NUMBER
~CURVE INFORMATION
#MNEM.UNIT       API CODE    CURVE DESCRIPTION
#----------   ------------   ------------------------------
 DEPT.F                  :   
 IL  .OHMM   05 120 00 00:   INDUCTION LOG
 CIL .MMHO   05 110 00 00:   CONDUCTIVITY INDUCTION LOG
 CALD.IN     45 280 60 00:   CALIPER FROM DENSITY LOG
 GRD .GAPI   45 310 01 00:   GAMMA RAY FROM DENSITY LOG
 DPHI.DEC    45 890 12 00:   DENSITY POROSITY SANDSTONE
 RHOB.G/C3   45 350 01 00:   BULK DENSITY
 CORR.G/C3   45 356 01 00:   DENSITY CORRECTION
~PARAMETER INFORMATION
#MNEM.UNIT          VALUE    DESCRIPTION
#----------   ------------   ------------------------------
 PD  .                 GL:   PERMANENT DATUM
 EPD .F              5163:   ELEVATION PERMANENT DATUM
 LMF .                 KB:   LOG MEASURED FROM
 DAPD.F                10:   FEET ABOVE PERMANENT DATUM
 DMF .                 KB:   DRILLING MEASURED FROM
 EKB .F              5173:   KELLING BUSHING
 EGL .F              5163:   GROUND LEVEL
 DATE.           5-1-1978:   RUN DATE
 RUN .                  1:   RUN NUMBER
 DD  .F              2331:   DEPTH DRILLER
 DL  .F              2260:   DEPTH LOGGER
 BLI .F              2250:   BOTTOM LOG INTERVAL
 TLI .F               690:   TOP LOG INTERVAL
 CS  .IN            9.625:   CASING SIZE
 CBD .F               683:   CASING BOTTOM DRILLER
 CBL .F               690:   CASING BOTTOM LOGGER
 BS  .IN             8.75:   BIT SIZE
 BSD .F              2331:   BIT SIZE AT DEPTH
 DFT .                OIL:   DRILLING FLUID TYPE
 BHT .F               104:   BOTTOM HOLE TEMPERATURE
 TCS .HRS               5:   TIME CURCULATED STOPPED
 MRT .F               104:   MAXIMUM RECORDED TEMPERATURE
 LUN .               2958:   LOGGING UNIT NUMBER
 LUL .               CASP:   LOGGING UNIT LOCATION
 ENGI.             MILLER:   RECORDING ENGINEER
 WITN.           MCGINLEY:   WITNESSED BY
 CLNT.            A2DTECH:   CLIENT CODE
 ORIG.       2", 5" PRINT:   ORIGIN OF DATA
 UWI .       490251062700:   UNIQUE WELL ID
 DICO. A2D Technologies, Inc.:   DIGITIZING COMPANY
~OTHER INFORMATION
~A   DEPT       IL        CIL       CALD         GRD      DPHI       RHOB       CORR   
# ...
 2264.5000  -999.2500  -999.2500  -999.2500   111.7330    -0.0167     2.5634     0.0893
 2265.0000  -999.2500  -999.2500  -999.2500   113.3873    -0.0138     2.5749     0.0910
 2265.5000  -999.2500  -999.2500  -999.2500   112.1777    -0.0102     2.5734     0.0887
 2266.0000  -999.2500  -999.2500  -999.2500   111.0854    -0.0098     2.5652     0.0860
 2266.5000  -999.2500  -999.2500  -999.2500   110.8655    -0.0099     2.5596     0.0833
 2267.0000  -999.2500  -999.2500  -999.2500   110.6176    -0.0103     2.5583     0.0832
 2267.5000  -999.2500  -999.2500  -999.2500   106.9685    -0.0107     2.5563     0.0839
 2268.0000  -999.2500  -999.2500  -999.2500   104.2801    -0.0111     2.5550     0.0846
 2268.5000  -999.2500  -999.2500  -999.2500   105.1587    -0.0114     2.5542     0.0853
 2269.0000  -999.2500  -999.2500  -999.2500   105.2736    -0.0127     2.5593     0.0860
 2269.5000  -999.2500  -999.2500  -999.2500   105.3270    -0.0141     2.5648     0.0867
 2270.0000  -999.2500  -999.2500  -999.2500   106.3363    -0.0154     2.5702     0.0870
 2270.5000  -999.2500  -999.2500  -999.2500   107.3700    -0.0166     2.5709     0.0867
 2271.0000  -999.2500  -999.2500  -999.2500   108.4548    -0.0146     2.5718     0.0860
 2271.5000  -999.2500  -999.2500  -999.2500   108.4581    -0.0123     2.5753     0.0854
 2272.0000  -999.2500  -999.2500  -999.2500   107.3939    -0.0101     2.5686     0.0848
 2272.5000  -999.2500  -999.2500  -999.2500   106.2746    -0.0088     2.5592     0.0841
 2273.0000  -999.2500  -999.2500  -999.2500   107.4390    -0.0094     2.5522     0.0835
 2273.5000  -999.2500  -999.2500  -999.2500   108.6326    -0.0090     2.5561     0.0829
 2274.0000  -999.2500  -999.2500  -999.2500   109.2466    -0.0069     2.5578     0.0822
 2274.5000  -999.2500  -999.2500  -999.2500   107.5576    -0.0051     2.5526     0.0816
 2275.0000  -999.2500  -999.2500  -999.2500   105.2933    -0.0068     2.5482     0.0811
 2275.5000  -999.2500  -999.2500  -999.2500   103.2164    -0.0093     2.5479     0.0825
 2276.0000  -999.2500  -999.2500  -999.2500   105.6868    -0.0118     2.5533     0.0835
 2276.5000  -999.2500  -999.2500  -999.2500   108.6695    -0.0127     2.5603     0.0840
 2277.0000  -999.2500  -999.2500  -999.2500   111.3986    -0.0082     2.5677     0.0846
 2277.5000  -999.2500  -999.2500  -999.2500   112.8530    -0.0096     2.5618     0.0851
 2278.0000  -999.2500  -999.2500  -999.2500   112.4873    -0.0119     2.5538     0.0857
 2278.5000  -999.2500  -999.2500  -999.2500   112.7698    -0.0141     2.5587     0.0863
 2279.0000  -999.2500  -999.2500  -999.2500   113.0657    -0.0162     2.5629     0.0870
 2279.5000  -999.2500  -999.2500  -999.2500   111.3518    -0.0170     2.5657     0.0848
 2280.0000  -999.2500  -999.2500  -999.2500   109.4596    -0.0174     2.5668     0.0843
 2280.5000  -999.2500  -999.2500  -999.2500   108.0322    -0.0174     2.5662     0.0838
 2281.0000  -999.2500  -999.2500  -999.2500   109.4297    -0.0170     2.5708     0.0834
 2281.5000  -999.2500  -999.2500  -999.2500   110.2450    -0.0167     2.5760     0.0829
 2282.0000  -999.2500  -999.2500  -999.2500   110.1821    -0.0130     2.5742     0.0824
 2282.5000  -999.2500  -999.2500  -999.2500   110.1305    -0.0031     2.5710     0.0820
 2283.0000  -999.2500  -999.2500  -999.2500   110.0776    -0.0039     2.5579     0.0815
 2283.5000  -999.2500  -999.2500  -999.2500   110.1800    -0.0052     2.5409     0.0810
 2284.0000  -999.2500  -999.2500  -999.2500   110.4228    -0.0067     2.5452     0.0810
 2284.5000  -999.2500  -999.2500  -999.2500   110.6608    -0.0063     2.5512     0.0814
 2285.0000  -999.2500  -999.2500  -999.2500   110.9254    -0.0059     2.5560     0.0817
 2285.5000  -999.2500  -999.2500  -999.2500   111.0545    -0.0071     2.5482     0.0821
 2286.0000  -999.2500  -999.2500  -999.2500   114.5851    -0.0091     2.5495     0.0825
 2286.5000  -999.2500  -999.2500  -999.2500   114.7190    -0.0087     2.5581     0.0828
 2287.0000  -999.2500  -999.2500  -999.2500   114.9866    -0.0075     2.5581     0.0832
 2287.5000  -999.2500  -999.2500  -999.2500   115.3583    -0.0063     2.5568     0.0836
 2288.0000  -999.2500  -999.2500  -999.2500   114.7916    -0.0051     2.5556     0.0839
 2288.5000  -999.2500  -999.2500  -999.2500   109.1171    -0.0051     2.5499     0.0843
 2289.0000  -999.2500  -999.2500  -999.2500   102.9286    -0.0051     2.5501     0.0847
 2289.5000  -999.2500  -999.2500  -999.2500    97.7777    -0.0060     2.5497     0.0850
 2290.0000  -999.2500  -999.2500  -999.2500    98.4359    -0.0074     2.5492     0.0850
 2290.5000  -999.2500  -999.2500  -999.2500   100.7052    -0.0089     2.5492     0.0850
 2291.0000  -999.2500  -999.2500  -999.2500   104.0802    -0.0103     2.5501     0.0850
 2291.5000  -999.2500  -999.2500  -999.2500   107.3297    -0.0117     2.5556     0.0850
 2292.0000  -999.2500  -999.2500  -999.2500   108.9829    -0.0131     2.5610     0.0850
 2292.5000  -999.2500  -999.2500  -999.2500   110.5571    -0.0134     2.5664     0.0850
 2293.0000  -999.2500  -999.2500  -999.2500   111.1842    -0.0121     2.5715     0.0850
 2293.5000  -999.2500  -999.2500  -999.2500   111.1030    -0.0108     2.5680     0.0850
 2294.0000  -999.2500  -999.2500  -999.2500   110.3919    -0.0094     2.5629     0.0850
 2294.5000  -999.2500  -999.2500  -999.2500   109.2933    -0.0090     2.5578     0.0850
 2295.0000  -999.2500  -999.2500  -999.2500   108.3157    -0.0099     2.5527     0.0850
 2295.5000  -999.2500  -999.2500  -999.2500   108.9134    -0.0106     2.5553     0.0850
 2296.0000  -999.2500  -999.2500  -999.2500   109.4334    -0.0082     2.5602     0.0850
 2296.5000  -999.2500  -999.2500  -999.2500   108.6812    -0.0073     2.5593     0.0850
 2297.0000  -999.2500  -999.2500  -999.2500   107.4755    -0.0094     2.5563     0.0850
 2297.5000  -999.2500  -999.2500  -999.2500   105.1675    -0.0095     2.5576     0.0850
 2298.0000  -999.2500  -999.2500  -999.2500   102.7348    -0.0067     2.5622     0.0850
 2298.5000  -999.2500  -999.2500  -999.2500   102.0989    -0.0068     2.5597     0.0850
 2299.0000  -999.2500  -999.2500  -999.2500   103.4196    -0.0070     2.5561     0.0850
 2299.5000  -999.2500  -999.2500  -999.2500   105.8985    -0.0066     2.5560     0.0850
 2300.0000  -999.2500  -999.2500  -999.2500   107.2216    -0.0050     2.5552     0.0850
 2300.5000  -999.2500  -999.2500  -999.2500   105.2051    -0.0041     2.5521     0.0850
 2301.0000  -999.2500  -999.2500  -999.2500   105.6319    -0.0057     2.5503     0.0850
 2301.5000  -999.2500  -999.2500  -999.2500   108.0466    -0.0075     2.5529     0.0850
 2302.0000  -999.2500  -999.2500  -999.2500   110.1088    -0.0058     2.5554     0.0850
 2302.5000  -999.2500  -999.2500  -999.2500   109.8741    -0.0049     2.5569     0.0851
 2303.0000  -999.2500  -999.2500  -999.2500   109.9817    -0.0083     2.5537     0.0852
 2303.5000  -999.2500  -999.2500  -999.2500   109.8821    -0.0117     2.5491     0.0854
 2304.0000  -999.2500  -999.2500  -999.2500   107.7263    -0.0152     2.5558     0.0856
 2304.5000  -999.2500  -999.2500  -999.2500   105.4410    -0.0158     2.5623     0.0857
 2305.0000  -999.2500  -999.2500  -999.2500   104.9255    -0.0126     2.5688     0.0859
 2305.5000  -999.2500  -999.2500  -999.2500   105.4350    -0.0093     2.5750     0.0860
 2306.0000  -999.2500  -999.2500  -999.2500   107.0661    -0.0067     2.5653     0.0862
 2306.5000  -999.2500  -999.2500  -999.2500   108.1101    -0.0057     2.5551     0.0864
 2307.0000  -999.2500  -999.2500  -999.2500   105.5212    -0.0051     2.5539     0.0865
 2307.5000  -999.2500  -999.2500  -999.2500   102.8107    -0.0077     2.5530     0.0867
 2308.0000  -999.2500  -999.2500  -999.2500   101.5571    -0.0106     2.5519     0.0869
 2308.5000  -999.2500  -999.2500  -999.2500   104.4509    -0.0106     2.5603     0.0870
 2309.0000  -999.2500  -999.2500  -999.2500   108.5903    -0.0112     2.5660     0.0872
 2309.5000  -999.2500  -999.2500  -999.2500   109.8878    -0.0118     2.5608     0.0874
