~VERSION INFORMATION
 VERS.                2.0:   CWLS LOG ASCII STANDARD - VERSION 2.0
 WRAP.                 NO:   ONE LINE PER DEPTH STEP
~WELL INFORMATION
#MNEM.UNIT      DATA TYPE    INFORMATION
#----------   ------------   ------------------------------
 STRT.F           15.0000:   START DEPTH
 STOP.F         5640.0000:   STOP DEPTH
 STEP.F            0.5000:   STEP LENGTH
 NULL.          -999.2500:   NO VALUE
 COMP.       F D SERV INC:   COMPANY
 WELL. NAVAL PETROLEUM RESERVE 3 SX-1 #43-10:   WELL
 FLD .         N.P.R. #.3:   FIELD
 LOC .      S10 T38N R78W:   LOCATION
 CNTY.            NATRONA:   COUNTY
 STAT.            WYOMING:   STATE
 CTRY. UNITED STATES OF AMERICA:   COUNTRY
 SRVC.      Dresser Atlas:   SERVICE COMPANY
 DATE.        05-JUL-1986:   LOGDATE
 API .       490251101800:   API NUMBER
~CURVE INFORMATION
#MNEM.UNIT       API CODE    CURVE DESCRIPTION
#----------   ------------   ------------------------------
 DEPT.F                  :   
 GRR .GAPI   07 310 01 00:   GAMMA RAY
 ILD .OHMM   07 120 46 00:   INDUCTION LOG DEEP
 ILM .OHMM   07 120 44 00:   INDUCTION LOG MEDIUM
 CALS.IN     60 280 50 00:   CALIPER FROM SONIC LOG
 GRS .GAPI   60 310 01 00:   GAMMA RAY FROM SONIC LOG
 AC  .US/F   60 520 00 00:   ACCOUSTIC
~PARAMETER INFORMATION
#MNEM.UNIT          VALUE    DESCRIPTION
#----------   ------------   ------------------------------
 PD  .                 GL:   PERMANENT DATUM
 EPD .F              5205:   ELEVATION PERMANENT DATUM
 LMF .                 KB:   LOG MEASURED FROM
 DAPD.F                 5:   FEET ABOVE PERMANENT DATUM
 DMF .                 KB:   DRILLING MEASURED FROM
 EKB .F              5210:   KELLING BUSHING
 EGL .F              5205:   GROUND LEVEL
 DATE.        05-JUL-1986:   RUN DATE
 RUN .                  1:   RUN NUMBER
 DD  .F               560:   DEPTH DRILLER
 DL  .F               560:   DEPTH LOGGER
 BLI .F               550:   BOTTOM LOG INTERVAL
 TLI .F                15:   TOP LOG INTERVAL
 CS  .IN            8.625:   CASING SIZE
 CBD .F                47:   CASING BOTTOM DRILLER
 CBL .F                47:   CASING BOTTOM LOGGER
 BS  .IN            7.875:   BIT SIZE
 BSD .F               560:   BIT SIZE AT DEPTH
 DFT .                AIR:   DRILLING FLUID TYPE
 BHT .F                83:   BOTTOM HOLE TEMPERATURE
 TCS .HRS            2100:   TIME CURCULATED STOPPED
 TLAB.HRS            2230:   TIME LOGGER AT BOTTOM
 MRT .F                83:   MAXIMUM RECORDED TEMPERATURE
 LUN .               7609:   LOGGING UNIT NUMBER
 LUL .           GILLETTE:   LOGGING UNIT LOCATION
 ENGI.              BAURT:   RECORDING ENGINEER
 CLNT.            A2DTECH:   CLIENT CODE
 ORIG. 1" 2" 2.5", 5" PRINT:   ORIGIN OF DATA
 UWI .       490251101800:   UNIQUE WELL ID
 DICO. A2D Technologies, Inc.:   DIGITIZING COMPANY
 R2  . HEADER NOT CLEARLY VISIBLE:   REMARKS 2
~OTHER INFORMATION
~A   DEPT       GRR       ILD        ILM       CALS        GRS         AC   
# ...
 3395.0000  -999.2500  -999.2500  -999.2500    10.4061   137.2121    99.2080
 3395.5000  -999.2500  -999.2500  -999.2500    10.4215   134.1890    95.4366
 3396.0000  -999.2500  -999.2500  -999.2500    10.4370   129.9524    91.6651
 3396.5000  -999.2500  -999.2500  -999.2500    10.4524   128.1386    89.1757
 3397.0000  -999.2500  -999.2500  -999.2500    10.4831   132.9944    89.0241
 3397.5000  -999.2500  -999.2500  -999.2500    10.5440   137.8487    90.6681
 3398.0000  -999.2500  -999.2500  -999.2500    10.6200   144.5853    97.9969
 3398.5000  -999.2500  -999.2500  -999.2500    10.6355   156.9527   108.9313
 3399.0000  -999.2500  -999.2500  -999.2500    10.6206   161.8070   111.1176
 3399.5000  -999.2500  -999.2500  -999.2500    10.5881   171.5098   110.1365
 3400.0000  -999.2500  -999.2500  -999.2500    10.4546   169.0899   104.4042
 3400.5000  -999.2500  -999.2500  -999.2500    10.4549   152.1275    94.2232
 3401.0000  -999.2500  -999.2500  -999.2500    10.4552   134.5576    89.4721
 3401.5000  -999.2500  -999.2500  -999.2500    10.4555   124.3080    89.0196
 3402.0000  -999.2500  -999.2500  -999.2500    10.4558   114.5708    90.0000
 3402.5000  -999.2500  -999.2500  -999.2500    10.4561   121.8494    92.9348
 3403.0000  -999.2500  -999.2500  -999.2500    10.4564   127.9158    98.5973
 3403.5000  -999.2500  -999.2500  -999.2500    10.4567   133.6792   102.2926
 3404.0000  -999.2500  -999.2500  -999.2500    10.4418   139.4427   103.4238
 3404.5000  -999.2500  -999.2500  -999.2500    10.4118   147.3273   100.7089
 3405.0000  -999.2500  -999.2500  -999.2500    10.3818   146.6463    97.7677
 3405.5000  -999.2500  -999.2500  -999.2500    10.3518   143.4010    93.6199
 3406.0000  -999.2500  -999.2500  -999.2500    10.3521   140.9827    91.4027
 3406.5000  -999.2500  -999.2500  -999.2500    10.3373   142.5036    91.8854
 3407.0000  -999.2500  -999.2500  -999.2500    10.3224   146.7519    93.5445
 3407.5000  -999.2500  -999.2500  -999.2500    10.3075   148.8790    94.4495
 3408.0000  -999.2500  -999.2500  -999.2500    10.2927   150.7030    94.6757
 3408.5000  -999.2500  -999.2500  -999.2500    10.2779   151.0121    94.7511
 3409.0000  -999.2500  -999.2500  -999.2500    10.2327   150.7147    94.8265
 3409.5000  -999.2500  -999.2500  -999.2500    10.1876   147.9947    95.2790
 3410.0000  -999.2500  -999.2500  -999.2500    10.1727   144.6673    96.0332
 3410.5000  -999.2500  -999.2500  -999.2500    10.1731   141.3398    95.6561
 3411.0000  -999.2500  -999.2500  -999.2500    10.1734   140.4363    94.9020
 3411.5000  -999.2500  -999.2500  -999.2500    10.1737   140.4425    94.1478
 3412.0000  -999.2500  -999.2500  -999.2500    10.1739   138.6315    93.5445
 3412.5000  -999.2500  -999.2500  -999.2500    10.1742   131.6676    93.3937
 3413.0000  -999.2500  -999.2500  -999.2500    10.1594   124.4008    95.6561
 3413.5000  -999.2500  -999.2500  -999.2500    10.1294   124.7096    98.0694
 3414.0000  -999.2500  -999.2500  -999.2500    10.1145   128.0488    99.1252
 3414.5000  -999.2500  -999.2500  -999.2500    10.1149   130.4789    98.1448
 3415.0000  -999.2500  -999.2500  -999.2500    10.1152   130.4443    95.1282
 3415.5000  -999.2500  -999.2500  -999.2500    10.1155   126.5527    90.7542
 3416.0000  -999.2500  -999.2500  -999.2500    10.1309   122.0131    86.9229
 3416.5000  -999.2500  -999.2500  -999.2500    10.1464   120.5023    86.1538
 3417.0000  -999.2500  -999.2500  -999.2500    10.1619   120.8126    87.8130
 3417.5000  -999.2500  -999.2500  -999.2500    10.1773   126.2730    90.3017
 3418.0000  -999.2500  -999.2500  -999.2500    10.1927   135.6728    94.2232
 3418.5000  -999.2500  -999.2500  -999.2500    10.2233   156.4333    97.5415
 3419.0000  -999.2500  -999.2500  -999.2500    10.2696   174.7769   101.4162
 3419.5000  -999.2500  -999.2500  -999.2500    10.3604   176.2979   105.0830
 3420.0000  -999.2500  -999.2500  -999.2500    10.4061   175.9992   105.9125
 3420.5000  -999.2500  -999.2500  -999.2500    10.3609   177.5217   103.4238
 3421.0000  -999.2500  -999.2500  -999.2500    10.0885   179.0427    99.4268
 3421.5000  -999.2500  -999.2500  -999.2500     9.8161   174.8061    92.8658
 3422.0000  -999.2500  -999.2500  -999.2500     9.7103   161.9898    86.1538
 3422.5000  -999.2500  -999.2500  -999.2500     9.6651   136.0314    83.8726
 3423.0000  -999.2500  -999.2500  -999.2500     9.6655    97.5524    85.1735
 3423.5000  -999.2500  -999.2500  -999.2500     9.6810    90.8901    87.7376
 3424.0000  -999.2500  -999.2500  -999.2500     9.6812    96.3519    89.5475
 3424.5000  -999.2500  -999.2500  -999.2500     9.6815   102.1154    90.9804
 3425.0000  -999.2500  -999.2500  -999.2500     9.6818   107.2727    91.3575
 3425.5000  -999.2500  -999.2500  -999.2500     9.6670   109.3998    91.3575
 3426.0000  -999.2500  -999.2500  -999.2500     9.6521   107.5889    90.7340
 3426.5000  -999.2500  -999.2500  -999.2500     9.6373   106.0796    89.9246
 3427.0000  -999.2500  -999.2500  -999.2500     9.6376   104.8719    89.2458
 3427.5000  -999.2500  -999.2500  -999.2500     9.6227   104.5747    88.9442
 3428.0000  -999.2500  -999.2500  -999.2500     9.6078   104.5820    88.1900
 3428.5000  -999.2500  -999.2500  -999.2500     9.5779   105.5049    87.5113
 3429.0000  -999.2500  -999.2500  -999.2500     9.5787   107.3224    87.1342
 3429.5000  -999.2500  -999.2500  -999.2500     9.5937   108.2374    87.1342
 3430.0000  -999.2500  -999.2500  -999.2500     9.5788   103.6978    87.1342
 3430.5000  -999.2500  -999.2500  -999.2500     9.5791   100.6733    87.1342
 3431.0000  -999.2500  -999.2500  -999.2500     9.5794    98.8610    87.2097
 3431.5000  -999.2500  -999.2500  -999.2500     9.5797   100.0789    87.3605
 3432.0000  -999.2500  -999.2500  -999.2500     9.5800   100.3878    87.5867
 3432.5000  -999.2500  -999.2500  -999.2500     9.5651    94.9406    87.8130
 3433.0000  -999.2500  -999.2500  -999.2500     9.5503    94.3389    87.4359
 3433.5000  -999.2500  -999.2500  -999.2500     9.5507    93.7401    86.6817
 3434.0000  -999.2500  -999.2500  -999.2500     9.5358    92.5339    86.3047
 3434.5000  -999.2500  -999.2500  -999.2500     9.5361    90.7215    86.5309
 3435.0000  -999.2500  -999.2500  -999.2500     9.5061    90.7274    88.7179
 3435.5000  -999.2500  -999.2500  -999.2500     9.4761    94.5615    89.9246
 3436.0000  -999.2500  -999.2500  -999.2500     9.4612   104.0739    90.2262
 3436.5000  -999.2500  -999.2500  -999.2500     9.4616   105.8979    89.4721
 3437.0000  -999.2500  -999.2500  -999.2500     9.4466   103.1765    88.1146
 3437.5000  -999.2500  -999.2500  -999.2500     9.4470    96.2126    86.4555
 3438.0000  -999.2500  -999.2500  -999.2500     9.4473    93.7928    85.5505
 3438.5000  -999.2500  -999.2500  -999.2500     9.4476    93.4969    84.8718
 3439.0000  -999.2500  -999.2500  -999.2500     9.4479    94.1415    84.7964
 3439.5000  -999.2500  -999.2500  -999.2500     9.4482    95.9344    85.3792
 3440.0000  -999.2500  -999.2500  -999.2500     9.4485    97.4554    86.3594
 3440.5000  -999.2500  -999.2500  -999.2500     9.4034    98.6734    87.5113
 3441.0000  -999.2500  -999.2500  -999.2500     9.3884    99.2853    87.8130
 3441.5000  -999.2500  -999.2500  -999.2500     9.3888    99.8972    87.8884
 3442.0000  -999.2500  -999.2500  -999.2500     9.3891   102.6303    87.8884
 3442.5000  -999.2500  -999.2500  -999.2500     9.3742   104.7576    87.6621
 3443.0000  -999.2500  -999.2500  -999.2500     9.3594   105.0677    87.1342
 3443.5000  -999.2500  -999.2500  -999.2500     9.3597   102.9524    86.6063
 3444.0000  -999.2500  -999.2500  -999.2500     9.3448    95.0794    86.0784
 3444.5000  -999.2500  -999.2500  -999.2500     9.3299    89.9337    85.9276
 3445.0000  -999.2500  -999.2500  -999.2500     9.3000    89.6364    86.1038
 3445.5000  -999.2500  -999.2500  -999.2500     9.2852    90.8582    86.9834
 3446.0000  -999.2500  -999.2500  -999.2500     9.2703    92.7273    87.5867
 3446.5000  -999.2500  -999.2500  -999.2500     9.2707    96.9283    87.8884
