~VERSION INFORMATION
 VERS.                2.0:   CWLS LOG ASCII STANDARD - VERSION 2.0
 WRAP.                 NO:   ONE LINE PER DEPTH STEP
~WELL INFORMATION
#MNEM.UNIT      DATA TYPE    INFORMATION
#----------   ------------   ------------------------------
 STRT.F           32.0000:   START DEPTH
 STOP.F          812.0000:   STOP DEPTH
 STEP.F            0.5000:   STEP LENGTH
 NULL.          -999.2500:   NO VALUE
 COMP. FENIX & SCISSON INC:   COMPANY
 WELL.       75 SX #15-15:   WELL
 FLD .             TEAPOT:   FIELD
 LOC .      S15 T38N R78W:   LOCATION
 CNTY.            NATRONA:   COUNTY
 STAT.            WYOMING:   STATE
 CTRY. UNITED STATES OF AMERICA:   COUNTRY
 SRVC.              Welex:   SERVICE COMPANY
 DATE.        28-FEB-1977:   LOGDATE
 API .       490251030100:   API NUMBER
~CURVE INFORMATION
#MNEM.UNIT       API CODE    CURVE DESCRIPTION
#----------   ------------   ------------------------------
 DEPT.F                  :   
 SPR .MV     07 010 01 00:   SPONTANEOUS POTENTIAL
 ILD .OHMM   07 120 46 00:   INDUCTION LOG DEEP
 SGRD.OHMM   07 220 05 00:   SHALLOW RESISTIVITY
 ILM .OHMM   07 120 44 00:   INDUCTION LOG MEDIUM
 GRD .GAPI   45 310 01 00:   GAMMA RAY FROM DENSITY LOG
 CALD.IN     45 280 60 00:   CALIPER FROM DENSITY LOG
 RHOB.G/C3   45 350 01 00:   BULK DENSITY
 DPHI.DEC    45 890 12 00:   DENSITY POROSITY SANDSTONE
 CORR.G/C3   45 356 01 00:   DENSITY CORRECTION
~PARAMETER INFORMATION
#MNEM.UNIT          VALUE    DESCRIPTION
#----------   ------------   ------------------------------
 PD  .                 GL:   PERMANENT DATUM
 EPD .F              5264:   ELEVATION PERMANENT DATUM
 LMF .                 GL:   LOG MEASURED FROM
 DMF .                 GL:   DRILLING MEASURED FROM
 EGL .F              5264:   GROUND LEVEL
 DATE.          2-28-1977:   RUN DATE
 RUN .                  1:   RUN NUMBER
 DD  .F               830:   DEPTH DRILLER
 DL  .F               814:   DEPTH LOGGER
 BLI .F               812:   BOTTOM LOG INTERVAL
 TLI .F                42:   TOP LOG INTERVAL
 CS  .IN            8.625:   CASING SIZE
 CBD .F                40:   CASING BOTTOM DRILLER
 CBL .F                42:   CASING BOTTOM LOGGER
 BS  .IN            7.875:   BIT SIZE
 BSD .F               830:   BIT SIZE AT DEPTH
 DFT .           CHEM-GEL:   DRILLING FLUID TYPE
 DFD .                9.3:   DRILLING FLUID DENSITY
 DFV .                 38:   DRILLING FLUID VISCOSITY
 DFPH.               10.5:   DRILLING FLUID PH
 DFL .               16.2:   DRILLING FLUID LOSS
 MSS .          FLOW LINE:   MUD SAMPLE SOURCE
 RMS .OHMM           0.44:   RESISTIVITY MUD SAMPLE
 MST .F                62:   MUD SAMPLE TEMPERATURE
 RMF .OHMM            .38:   RESISTIVITY MUD FILTRATE SAMPLE
 MFST.F                62:   MUD FILTRATE SAMPLE TEMPERATURE
 RMC .OHMM           0.79:   RESISTIVITY MUD CAKE
 MCST.F                62:   MUD CAKE SAMPLE TEMPERATURE
 MFSS.           MEASURED:   MUD FILTRATE SAMPLE SOURCE
 MCSS.           MEASURED:   MUD CAKE SAMPLE SOURCE
 RMB .OHMM           .368:   RESISTIVITY MUD AT BHT
 BHT .F                74:   BOTTOM HOLE TEMPERATURE
 TCS .HRS               3:   TIME CURCULATED STOPPED
 MRT .F                74:   MAXIMUM RECORDED TEMPERATURE
 LUN .               8611:   LOGGING UNIT NUMBER
 LUL .           GILLETTE:   LOGGING UNIT LOCATION
 ENGI.               DOAK:   RECORDING ENGINEER
 WITN.               JAPP:   WITNESSED BY
 CLNT.            A2DTECH:   CLIENT CODE
 ORIG.       2", 5" PRINT:   ORIGIN OF DATA
 UWI .       490251030100:   UNIQUE WELL ID
 DICO. A2D Technologies, Inc.:   DIGITIZING COMPANY
~OTHER INFORMATION
~A   DEPT      SPR        ILD       SGRD        ILM         GRD        CALD       RHOB       DPHI      CORR  
# ...
   68.5000   -14.1990     4.7217     8.6105     4.4561   117.0760     7.8028     2.4027     0.1456     0.0318
   69.0000   -14.4636     4.6932     8.3877     4.4301   119.0740     7.8051     2.3932     0.1492     0.0297
   69.5000   -14.6587     4.6653     8.2020     4.4042   113.0081     7.8130     2.3915     0.1505     0.0276
   70.0000   -14.8551     4.6375     8.0716     4.3576   107.9072     7.8211     2.3897     0.1518     0.0272
   70.5000   -15.0531     4.6098     8.4560     4.3015   111.5578     7.8291     2.3879     0.1531     0.0276
   71.0000   -15.2491     4.5821     8.3195     4.2462   114.9747     7.8377     2.3861     0.1544     0.0280
   71.5000   -15.2704     4.5371     8.1443     4.1916   116.6999     7.8202     2.3843     0.1558     0.0284
   72.0000   -15.2706     4.4235     7.9727     4.1377   116.1393     7.7956     2.3829     0.1571     0.0290
   72.5000   -15.2693     4.3134     7.7625     4.0847   114.5982     7.7708     2.3816     0.1584     0.0309
   73.0000   -15.1741     4.2060     7.4431     4.0321   113.0355     7.7450     2.3803     0.1596     0.0329
   73.5000   -14.6942     4.0498     7.1414     3.9253   111.4337     7.7500     2.3790     0.1597     0.0348
   74.0000   -13.8935     3.8604     6.8509     3.7792   111.4338     7.7640     2.3783     0.1598     0.0367
   74.5000   -13.0936     3.6799     6.5724     3.6385   111.5912     7.7782     2.3802     0.1598     0.0387
   75.0000   -12.2931     3.5078     6.1806     3.5031   110.9121     7.7924     2.3794     0.1599     0.0407
   75.5000   -11.6102     3.3437     6.2792     3.3727   110.2600     7.7995     2.3627     0.1683     0.0379
   76.0000   -11.3588     3.1874     6.4735     3.2472   109.5829     7.8004     2.3467     0.1776     0.0347
   76.5000   -11.0869     3.0383     6.5922     3.1264   110.2484     7.8011     2.3308     0.1868     0.0314
   77.0000   -10.4834     2.8962     4.6734     3.0101   112.0203     7.8019     2.3149     0.1961     0.0281
   77.5000    -9.2960     2.7600     3.5785     2.8968   119.1146     7.8026     2.2989     0.2053     0.0249
   78.0000    -8.0512     2.6237     4.2086     2.8254   126.0760     7.8034     2.2831     0.2146     0.0215
   78.5000    -6.8045     2.5998     4.9094     2.9263   129.1673     7.8041     2.2737     0.2237     0.0213
   79.0000    -5.5584     2.9082     3.5240     3.0767   126.4720     7.8049     2.2839     0.2111     0.0217
   79.5000    -4.4411     3.1566     4.5715     3.2861   123.2527     7.8057     2.3059     0.1987     0.0222
   80.0000    -4.3303     3.4262     6.2625     3.5098   119.3478     7.8064     2.3316     0.1834     0.0227
   80.5000    -4.1918     3.7188     8.2318     3.7492   111.1657     7.8072     2.3577     0.1657     0.0241
   81.0000    -4.0519     4.0364     8.2991     4.0084   108.1650     7.8079     2.3839     0.1547     0.0261
   81.5000    -3.9119     4.3811     7.9664     4.1874   111.2641     7.8087     2.3919     0.1522     0.0282
   82.0000    -3.7719     4.7542     7.5636     4.3758   113.2973     7.8095     2.3967     0.1498     0.0303
   82.5000    -3.6315     5.1655     7.3626     4.5915   114.3665     7.8102     2.4025     0.1473     0.0324
   83.0000    -3.4947     5.4394     8.2724     4.8382   115.5247     7.8110     2.4088     0.1449     0.0345
   83.5000    -3.4273     5.6700     8.9495     5.0981   115.1520     7.8117     2.4151     0.1408     0.0366
   84.0000    -3.3630     5.9071     9.1693     5.3720   110.6831     7.8125     2.4214     0.1363     0.0355
   84.5000    -3.2983     6.1557     9.2872     5.6606   107.8884     7.8132     2.4264     0.1335     0.0340
   85.0000    -3.2335     6.3391     9.4065     5.9647   105.6634     7.8140     2.4216     0.1341     0.0325
   85.5000    -3.1684     6.4928     9.6523     6.2851   107.2243     7.8148     2.4233     0.1338     0.0309
   86.0000    -3.0984     6.6501    10.1632     6.6228   109.6949     7.8155     2.4272     0.1323     0.0293
   86.5000    -3.2672     6.8114    10.1270     6.9785   112.1170     7.8163     2.4310     0.1307     0.0301
   87.0000    -3.4747     6.9771    10.0700     7.3534   114.5393     7.8170     2.4326     0.1298     0.0318
   87.5000    -3.6811     7.2273    10.3800     7.7096   117.3141     7.8178     2.4319     0.1305     0.0335
   88.0000    -3.8978     7.2026    10.8448     7.7841   121.7381     7.8185     2.4310     0.1313     0.0353
   88.5000    -4.3721     7.1535    11.2486     7.8529   126.1818     7.8185     2.4313     0.1310     0.0370
   89.0000    -4.8606     7.1047    10.8142     7.5559   127.2481     7.8158     2.4318     0.1306     0.0388
   89.5000    -5.3572     6.8594    10.4057     7.3116   123.7442     7.8132     2.4294     0.1326     0.0369
   90.0000    -6.1123     6.6032    10.0145     7.0752   117.8099     7.8106     2.4226     0.1355     0.0348
   90.5000    -6.9834     6.3772     9.6381     6.8464   111.7822     7.8080     2.4158     0.1384     0.0327
   91.0000    -7.8558     6.1318     9.2758     6.6250   110.1534     7.8054     2.4090     0.1413     0.0306
   91.5000    -8.6919     5.8511     8.9271     6.4108   111.7472     7.8028     2.4060     0.1441     0.0290
   92.0000    -9.2719     5.5831     8.5915     6.2036   112.6517     7.8001     2.4076     0.1434     0.0305
   92.5000    -9.8321     5.3274     8.2685     6.0031   112.9341     7.8034     2.4114     0.1408     0.0319
   93.0000   -10.3917     5.0835     7.9577     5.8091   113.4845     7.8100     2.4058     0.1384     0.0319
   93.5000   -10.9516     4.8507     7.6586     5.5610   115.0628     7.8167     2.3907     0.1507     0.0275
   94.0000   -11.5114     4.6286     7.4307     5.2240   116.5628     7.8234     2.3756     0.1620     0.0232
   94.5000   -12.0749     4.4165     7.4711     4.9072   116.9896     7.8301     2.3606     0.1733     0.0189
   95.0000   -12.6513     4.2122     7.4995     4.6081   115.6515     7.8369     2.3482     0.1797     0.0150
   95.5000   -12.8822     4.0844     3.8285     4.3168   116.3906     7.8390     2.3348     0.1832     0.0163
   96.0000   -13.1008     4.2687     4.4847     4.4663   116.7146     7.8361     2.3344     0.1863     0.0176
   96.5000   -13.3798     4.4138     5.9558     4.6358   115.0928     7.8321     2.3620     0.1663     0.0191
   97.0000   -13.9088     4.5638     7.7809     4.8106   111.5339     7.8281     2.3962     0.1489     0.0265
   97.5000   -14.5372     4.7189     7.9288     4.9915   110.1945     7.8241     2.4305     0.1314     0.0342
   98.0000   -15.4486     4.8793     7.9623     5.1792   109.9379     7.8200     2.4474     0.1250     0.0412
   98.5000   -16.3547     5.0451     7.9960     5.3740   109.6323     7.8213     2.4493     0.1233     0.0420
   99.0000   -17.2627     5.2166     8.0299     5.5760   108.9312     7.8242     2.4511     0.1230     0.0431
   99.5000   -18.1709     5.3939     8.0638     5.7857   107.8559     7.8272     2.4526     0.1226     0.0441
  100.0000   -18.9785     5.5772     8.0979     6.0678   106.2472     7.8301     2.4520     0.1221     0.0452
  100.5000   -19.7303     5.7416     8.1485     5.9658   104.6472     7.8331     2.4496     0.1226     0.0462
  101.0000   -20.4871     5.5710     8.0783     5.8252   104.9976     7.8365     2.4467     0.1233     0.0473
  101.5000   -21.2464     5.4244     7.8881     5.6879   105.5080     7.8341     2.4438     0.1238     0.0483
  102.0000   -21.9996     5.2817     7.7019     5.5538   104.4110     7.8205     2.4430     0.1245     0.0494
  102.5000   -23.0351     5.1427     7.5202     5.4229   103.4557     7.8210     2.4398     0.1274     0.0505
  103.0000   -24.1853     5.0074     7.3429     5.2951   105.6381     7.8224     2.4198     0.1369     0.0482
  103.5000   -25.3469     4.8757     7.1702     5.1309   107.7987     7.8236     2.3996     0.1465     0.0445
  104.0000   -26.5075     4.5284     6.9658     4.9388   109.1455     7.8247     2.3812     0.1560     0.0408
  104.5000   -27.6677     4.0572     6.9699     4.7539   109.6551     7.8259     2.3629     0.1655     0.0370
