~VERSION INFORMATION
 VERS.                2.0:   CWLS LOG ASCII STANDARD - VERSION 2.0
 WRAP.                 NO:   ONE LINE PER DEPTH STEP
~WELL INFORMATION
#MNEM.UNIT      DATA TYPE    INFORMATION
#----------   ------------   ------------------------------
 STRT.F           57.5000:   START DEPTH
 STOP.F         4049.0000:   STOP DEPTH
 STEP.F            0.5000:   STEP LENGTH
 NULL.          -999.2500:   NO VALUE
 COMP. LAWRENCE/ALLISON INC:   COMPANY
 WELL.     NPR #3` #13-11:   WELL
 FLD .             NPR #3:   FIELD
 LOC .      S11 T38N R78W:   LOCATION
 CNTY.            NATRONA:   COUNTY
 STAT.            WYOMING:   STATE
 CTRY. UNITED STATES OF AMERICA:   COUNTRY
 SRVC.      Dresser Atlas:   SERVICE COMPANY
 DATE.        13-MAR-1986:   LOGDATE
 API .       490251106500:   API NUMBER
~CURVE INFORMATION
#MNEM.UNIT       API CODE    CURVE DESCRIPTION
#----------   ------------   ------------------------------
 DEPT.F                  :   
 CALR.IN     07 280 01 00:   CALIPER FROM RESISTIVITY
 GRR .GAPI   07 310 01 00:   GAMMA RAY FROM RESISTIVITY
 RILD.OHMM   07 120 46 00:   RESISTIVITY INDUCTION LOG DEEP
 RILM.OHMM   07 120 44 00:   RESISTIVITY INDUCTION LOG MEDIUM
 RFOC.OHMM   07 220 04 00:   RESISTIVITY FOCUSED LOG
 SPR .MV     07 010 01 00:   SPONTANEOUS POTENTIAL FROM RES.
 PORD.DEC    45 890 12 00:   POROSITY DENSITY SANDSTONE
 CNC .DEC    42 890 03 00:   COMPENSATED NEUTRON POROSITY SANDSTONE
 CORR.G/C3   45 356 01 00:   DENSITY CORRECTION
 DEN .G/C3   45 350 01 00:   COMPENSATED BULK DENSTIY
 DT  .US/F   60 520 00 00:   INTERVAL TRANSIT TIME
~PARAMETER INFORMATION
#MNEM.UNIT          VALUE    DESCRIPTION
#----------   ------------   ------------------------------
 PD  .                 GL:   PERMANENT DATUM
 EPD .F              5176:   ELEVATION PERMANENT DATUM
 LMF .                 KB:   LOG MEASURED FROM
 DAPD.F              11.8:   FEET ABOVE PERMANENT DATUM
 DMF .                 KB:   DRILLING MEASURED FROM
 EKB .F            5187.8:   KELLING BUSHING
 EGL .F              5176:   GROUND LEVEL
 DATE.        13-MAR-1986:   RUN DATE
 RUN .                  1:   RUN NUMBER
 DD  .F              4051:   DEPTH DRILLER
 DL  .F              4051:   DEPTH LOGGER
 BLI .F              4049:   BOTTOM LOG INTERVAL
 TLI .F               564:   TOP LOG INTERVAL
 CS  .IN            8.625:   CASING SIZE
 CBD .F               564:   CASING BOTTOM DRILLER
 CBL .F               564:   CASING BOTTOM LOGGER
 BS  .IN            7.875:   BIT SIZE
 BSD .F              4051:   BIT SIZE AT DEPTH
 DFT .          POLY- KCL:   DRILLING FLUID TYPE
 DFD .                8.9:   DRILLING FLUID DENSITY
 DFV .                 36:   DRILLING FLUID VISCOSITY
 DFPH.                8.5:   DRILLING FLUID PH
 DFL .               13.5:   DRILLING FLUID LOSS
 MSS .           FLOWLINE:   MUD SAMPLE SOURCE
 RMS .OHMM           .275:   RESISTIVITY MUD SAMPLE
 MST .F                55:   MUD SAMPLE TEMPERATURE
 RMF .OHMM           .206:   RESISTIVITY MUD FILTRATE SAMPLE
 MFST.F                55:   MUD FILTRATE SAMPLE TEMPERATURE
 RMC .OHMM           .344:   RESISTIVITY MUD CAKE
 MCST.F                55:   MUD CAKE SAMPLE TEMPERATURE
 MFSS.               CALC:   MUD FILTRATE SAMPLE SOURCE
 MCSS.               CALC:   MUD CAKE SAMPLE SOURCE
 RMB .OHMM           .092:   RESISTIVITY MUD AT BHT
 BHT .F               164:   BOTTOM HOLE TEMPERATURE
 TCS .HRS            0400:   TIME CURCULATED STOPPED
 MRT .F               164:   MAXIMUM RECORDED TEMPERATURE
 LUN .               6274:   LOGGING UNIT NUMBER
 LUL .           GILLETTE:   LOGGING UNIT LOCATION
 ENGI.             MILLER:   RECORDING ENGINEER
 WITN.             STRONG:   WITNESSED BY
 CLNT.            A2DTECH:   CLIENT CODE
 ORIG.         2.5" PRINT:   ORIGIN OF DATA
 UWI .       490251106500:   UNIQUE WELL ID
 DICO. A2D Technologies, Inc.:   DIGITIZING COMPANY
~OTHER INFORMATION
~A   DEPT     CALR         GRR      RILD       RILM       RFOC        SPR       PORD        CNC       CORR        DEN         DT   
# ...
 3107.5000     8.1644   102.9290     3.5721     3.7715     4.0769   -31.4950     0.1295     0.2369    -0.0038     2.4406    84.3110
 3108.0000     8.1639   102.3063     3.5237     3.6671     3.9839   -31.1951     0.1263     0.2429     0.0132     2.4406    84.1625
 3108.5000     8.1635   102.2277     3.5195     3.6156     3.9828   -30.8963     0.1252     0.2472     0.0186     2.4406    84.0025
 3109.0000     8.1677   105.9688     3.4693     3.5648     4.1145   -30.5976     0.1259     0.2369     0.0086     2.4405    83.7059
 3109.5000     8.1932   107.1871     3.3757     3.5147     4.2079   -30.2999     0.1276     0.2302     0.0034     2.4405    83.7249
 3110.0000     8.1927   107.1773     3.3712     3.4174     4.1853   -30.3060     0.1264     0.2393     0.0098     2.4405    84.0262
 3110.5000     8.2228   107.7816     3.3231     3.3694     4.0695   -30.0072     0.1252     0.2411     0.0123     2.4405    84.4834
 3111.0000     8.2564   108.9993     3.2758     3.2308     3.9773   -29.4036     0.1258     0.2387    -0.0005     2.4404    85.5339
 3111.5000     8.3136   112.0576     3.2290     3.0550     3.9214   -29.4097     0.1270     0.2471    -0.0123     2.4404    86.4375
 3112.0000     8.3160   115.7293     3.1830     3.0121     3.8464   -29.4158     0.1264     0.2538    -0.0150     2.4419    86.8916
 3112.5000     8.3433   121.2416     3.1377     3.0115     3.7595   -29.4219     0.1233     0.2547    -0.0025     2.4464    87.1951
 3113.0000     8.3757   120.0053     3.0539     2.9692     3.6874   -29.4280     0.1209     0.2501     0.0094     2.4509    87.4986
 3113.5000     8.4035   117.5421     3.0106     2.8870     3.6355   -29.4341     0.1197     0.2453     0.0212     2.4524    87.6514
 3114.0000     8.4031   114.4654     2.9640     2.8464     3.5844   -29.4402     0.1179     0.2416     0.0178     2.4523    87.6537
 3114.5000     8.4332   109.5482     2.8814     2.7293     3.5526   -29.4463     0.1173     0.2422     0.0149     2.4523    87.9572
 3115.0000     8.4327   105.2445     2.8011     2.6910     3.5516   -29.4524     0.1173     0.2489     0.0178     2.4492    88.2607
 3115.5000     8.4323   111.3702     2.7231     2.6165     3.5506   -29.4585     0.1203     0.2538     0.0178     2.4447    88.4136
 3116.0000     8.4318   113.8150     2.6512     2.5797     3.4821   -29.4646     0.1263     0.2586     0.0177     2.4386    88.8676
 3116.5000     8.4313   114.4202     2.5736     2.5792     3.3392   -29.4707     0.1269     0.2610     0.0176     2.4386    90.0747
 3117.0000     8.4003   115.0235     2.5058     2.5430     3.2468   -29.1719     0.1269     0.2634     0.0146     2.4385    90.8300
 3117.5000     8.3998   115.6278     2.4623     2.5425     3.1570   -29.1780     0.1263     0.2644     0.0085     2.4370    91.7359
 3118.0000     8.3382   116.8455     2.4015     2.5419     3.0697   -28.8780     0.1275     0.2672     0.0024     2.4309    92.0394
 3118.5000     8.3072   118.0633     2.3964     2.5414     3.0433   -29.1902     0.1317     0.2756     0.0023     2.4279    91.7405
 3119.0000     8.3067   118.0540     2.3664     2.5057     3.1452   -29.1963     0.1341     0.2882     0.0143     2.4294    91.4415
 3119.5000     8.3063   117.4313     2.3654     2.5052     3.1883   -29.5073     0.1335     0.2938     0.0203     2.4308    91.2929
 3120.0000     8.3058   114.9681     2.3644     2.4700     3.1963   -29.5122     0.1317     0.2735     0.0202     2.4338    91.2955
 3120.5000     8.3053   111.8914     2.3680     2.4353     3.1514   -29.8232     0.1268     0.2530     0.0262     2.4429    91.5990
 3121.0000     8.3049   110.0417     2.3956     2.4348     3.1070   -29.8293     0.1220     0.2497     0.0292     2.4463    91.7518
 3121.5000     8.3044   110.6459     2.3898     2.4343     3.0979   -29.8354     0.1226     0.2500     0.0321     2.4413    91.3023
 3122.0000     8.3040   117.9986     2.3605     2.4338     3.1663   -29.8415     0.1280     0.2551     0.0291     2.4337    91.0034
 3122.5000     8.3035   114.3084     2.3222     2.4333     3.1654   -29.6671     0.1316     0.2659     0.0169     2.4276    91.1563
 3123.0000     8.3030   111.8452     2.2623     2.3991     3.0434   -29.5488     0.1364     0.2772     0.0108     2.4216    91.7609
 3123.5000     8.3026   114.2900     2.2564     2.3986     2.9759   -29.5549     0.1388     0.2832     0.0198     2.4170    93.1186
 3124.0000     8.3021   126.5507     2.2243     2.3783     2.9270   -29.2561     0.1407     0.2847     0.0198     2.4155    93.4221
 3124.5000     8.3016   125.9279     2.1672     2.3127     2.9671   -29.2622     0.1416     0.2799     0.0167     2.4139    92.9427
 3125.0000     8.3012   119.1702     2.1364     2.2990     3.0078   -29.2683     0.1428     0.2744    -0.0045     2.4124    92.2590
 3125.5000     8.3007   119.7761     2.1305     2.2803     3.0313   -29.2744     0.1434     0.2699    -0.0051     2.4100    91.6006
 3126.0000     8.3003   122.2193     2.1052     2.2663     3.0130   -29.5854     0.1446     0.2667    -0.0077     2.4061    91.4056
 3126.5000     8.3304   124.6640     2.1043     2.2658     2.9706   -29.7677     0.1473     0.2680    -0.0228     2.3986    91.8574
 3127.0000     8.3299   128.9492     2.0744     2.2653     2.8486   -30.2544     0.1515     0.2710    -0.0289     2.3926    92.4598
 3127.5000     8.3295   130.3937     2.0789     2.2966     2.7862   -30.5183     0.1557     0.2730    -0.0199     2.3911    92.7611
 3128.0000     8.3290   128.9308     2.1018     2.3133     2.8020   -30.5244     0.1557     0.2659    -0.0109     2.3963    92.9879
 3128.5000     8.3591   122.7866     2.1303     2.3450     2.8404   -30.3562     0.1482     0.2613    -0.0103     2.4120    92.7675
 3129.0000     8.3281   117.8694     2.1709     2.3772     2.9195   -30.2317     0.1425     0.2635    -0.0141     2.4212    92.4708
 3129.5000     8.3276   112.9522     2.2689     2.4611     2.9596   -30.2378     0.1357     0.2679    -0.0081     2.4256    92.3923
 3130.0000     8.2966   111.4723     2.3978     2.5470     2.9821   -30.2439     0.1303     0.2705     0.0009     2.4315    92.0281
 3130.5000     8.2961   112.6862     2.5342     2.7490     2.9813   -30.2500     0.1246     0.2610     0.0099     2.4390    91.2410
 3131.0000     8.2957   114.8738     2.7840     3.0500     3.0221   -30.2561     0.1198     0.2553     0.0249     2.4471    89.2309
 3131.5000     8.2952   116.6960     2.9922     3.3130     3.0822   -29.9573     0.1150     0.2500     0.0611     2.4581    85.9773
 3132.0000     8.2947   116.4995     3.1968     3.7301     3.2900   -30.1341     0.1077     0.2358     0.0620     2.4754    83.1272
 3132.5000     8.3249   113.4305     3.3784     3.8091     4.5191   -30.4447     0.0993     0.2251     0.0429     2.4891    80.3466
 3133.0000     8.3244   113.2333     3.5210     3.8909     5.0518   -30.7552     0.0952     0.2251    -0.0025     2.4905    79.9077
 3133.5000     8.3546   116.4187     3.7210     3.9446     4.7487   -31.0655     0.0958     0.2249    -0.0177     2.4839    81.3109
 3134.0000     8.3647   131.8435     3.9323     4.1049     4.0587   -31.2073     0.1078     0.2224    -0.0056     2.4629    83.2546
 3134.5000     8.2924   138.8620     4.0985     4.3383     3.8132   -31.2134     0.1151     0.2236     0.0578     2.4526    84.1314
 3135.0000     8.2002   124.6281     4.3918     4.5484     4.1925   -31.2195     0.1175     0.2271     0.0788     2.4631    82.7586
 3135.5000     8.1692   101.9266     4.6569     4.8064     4.7844   -31.0584     0.1072     0.2294     0.0123     2.4833    81.2233
 3136.0000     8.1687    96.5647     4.9734     5.1637     5.4719   -30.9268     0.0969     0.2251     0.0032     2.4967    79.7692
 3136.5000     8.1683    97.1891     5.1834     5.4881     5.3279   -30.9329     0.0933     0.2066     0.0001     2.4993    79.1351
 3137.0000     8.1679    98.4029     5.3652     5.8001     5.1737   -30.6341     0.0927     0.2025    -0.0030     2.4999    78.8383
 3137.5000     8.1674    99.0031     5.4380     5.9300     5.2054   -30.1701     0.0903     0.2030    -0.0030     2.5026    78.2091
