~VERSION INFORMATION
 VERS.                2.0:   CWLS LOG ASCII STANDARD - VERSION 2.0
 WRAP.                 NO:   ONE LINE PER DEPTH STEP
~WELL INFORMATION
#MNEM.UNIT      DATA TYPE    INFORMATION
#----------   ------------   ------------------------------
 STRT.F          250.0000:   START DEPTH
 STOP.F         1798.0000:   STOP DEPTH
 STEP.F            0.5000:   STEP LENGTH
 NULL.          -999.2500:   NO VALUE
 COMP. BROWN JOHN E&C INC:   COMPANY
 WELL. NPR 3 STX-10 #57-10:   WELL
 FLD .  TEAPOT DOME NPR 3:   FIELD
 LOC .      S10 T38N R78W:   LOCATION
 CNTY.            NATRONA:   COUNTY
 STAT.            WYOMING:   STATE
 CTRY. UNITED STATES OF AMERICA:   COUNTRY
 SRVC.           BIRDWELL:   SERVICE COMPANY
 DATE.        24-FEB-1979:   LOGDATE
 API .       490251096900:   API NUMBER
~CURVE INFORMATION
#MNEM.UNIT       API CODE    CURVE DESCRIPTION
#----------   ------------   ------------------------------
 DEPT.F                  :   
 GRD .GAPI   45 310 01 00:   GAMMA RAY FROM DENSITY LOG
 CALD.IN     45 280 60 00:   CALIPER
 RHOB.G/C3   45 350 01 00:   BULK DENSITY
 DPHI.DEC    45 890 12 00:   DENSITY POROSITY SANDSTONE
 CORR.G/C3   45 356 01 00:   DENSITY CORRECTION
~PARAMETER INFORMATION
#MNEM.UNIT          VALUE    DESCRIPTION
#----------   ------------   ------------------------------
 PD  .                 GL:   PERMANENT DATUM
 EPD .F              5201:   ELEVATION PERMANENT DATUM
 LMF .                 KB:   LOG MEASURED FROM
 DAPD.F                10:   FEET ABOVE PERMANENT DATUM
 DMF .                 KB:   DRILLING MEASURED FROM
 EKB .F              5211:   KELLING BUSHING
 EGL .F              5201:   GROUND LEVEL
 RUN .                  1:   RUN NUMBER
 DD  .F              1802:   DEPTH DRILLER
 DL  .F              1793:   DEPTH LOGGER
 BLI .F              1793:   BOTTOM LOG INTERVAL
 TLI .F               250:   TOP LOG INTERVAL
 CS  .IN            9.625:   CASING SIZE
 CBD .F               500:   CASING BOTTOM DRILLER
 CBL .F               490:   CASING BOTTOM LOGGER
 BS  .IN             8.75:   BIT SIZE
 BSD .F              1802:   BIT SIZE AT DEPTH
 DFT .                OIL:   DRILLING FLUID TYPE
 BHT .F                90:   BOTTOM HOLE TEMPERATURE
 TCS .HRS               4:   TIME CURCULATED STOPPED
 MRT .F                90:   MAXIMUM RECORDED TEMPERATURE
 LUN .               3029:   LOGGING UNIT NUMBER
 LUL .             CASPER:   LOGGING UNIT LOCATION
 ENGI.            ROLLINS:   RECORDING ENGINEER
 WITN.              AMEND:   WITNESSED BY
 CLNT.            A2DTECH:   CLIENT CODE
 ORIG.       2", 5" PRINT:   ORIGIN OF DATA
 UWI .       490251096900:   UNIQUE WELL ID
 DICO. A2D Technologies, Inc.:   DIGITIZING COMPANY
~OTHER INFORMATION
~A   DEPT       GRD        CALD       RHOB       DPHI      CORR  
# ...
 1104.0000   113.7773     9.1864     2.5442    -0.0010     0.2602
 1104.5000   117.9745     9.1544     2.5553    -0.0069     0.2537
 1105.0000   116.5133     9.1223     2.5651    -0.0077     0.2388
 1105.5000   112.5840     9.0904     2.5661    -0.0033     0.1981
 1106.0000   114.1013     9.0583     2.5562     0.0037     0.1606
 1106.5000   117.8630     9.0261     2.5446     0.0087     0.1506
 1107.0000   121.6244     8.9949     2.5332     0.0104     0.1419
 1107.5000   125.3549     8.9937     2.5217     0.0174     0.1229
 1108.0000   128.6025     8.9938     2.5102     0.0242     0.0963
 1108.5000   128.5966     8.9944     2.4987     0.0309     0.0697
 1109.0000   127.9232     9.0158     2.4914     0.0348     0.0515
 1109.5000   125.7613     9.0387     2.4912     0.0382     0.0450
 1110.0000   123.6196     9.0616     2.4927     0.0405     0.0384
 1110.5000   121.4780     9.0844     2.4943     0.0385     0.0322
 1111.0000   119.3352     9.1072     2.4959     0.0360     0.0227
 1111.5000   117.1924     9.1300     2.4966     0.0335     0.0132
 1112.0000   115.0430     9.1528     2.4957     0.0329     0.0038
 1112.5000   112.8840     9.1756     2.4886     0.0393     0.0037
 1113.0000   111.0708     9.1984     2.4801     0.0444     0.0130
 1113.5000   113.1666     9.2212     2.4716     0.0477     0.0223
 1114.0000   115.2323     9.2441     2.4681     0.0477     0.0315
 1114.5000   117.2747     9.2669     2.4764     0.0391     0.0407
 1115.0000   119.5976     9.2897     2.4863     0.0332     0.0499
 1115.5000   117.9048     9.3125     2.4962     0.0319     0.0591
 1116.0000   114.7633     9.3244     2.5062     0.0301     0.0683
 1116.5000   111.6178     9.3344     2.5134     0.0259     0.0775
 1117.0000   109.3569     9.3443     2.5090     0.0243     0.0869
 1117.5000   110.7548     9.3545     2.4950     0.0400     0.0962
 1118.0000   112.0810     9.3574     2.4880     0.0339     0.1303
 1118.5000   112.1883     9.3188     2.5220     0.0133     0.1820
 1119.0000   111.5642     9.2733     2.5719    -0.0072     0.2343
 1119.5000   111.0546     9.2273     2.5877    -0.0258     0.2876
 1120.0000   113.7765     9.1814     2.6037    -0.0325     0.3049
 1120.5000   116.6190     9.1355     2.6108    -0.0284     0.2919
 1121.0000   118.8460     9.0897     2.5985    -0.0210     0.2751
 1121.5000   117.1586     9.0441     2.5782    -0.0152     0.2584
 1122.0000   115.5427     9.0133     2.5853    -0.0183     0.2408
 1122.5000   113.9562     9.0007     2.6001    -0.0245     0.2114
 1123.0000   113.0606     8.9864     2.6046    -0.0183     0.1633
 1123.5000   116.7005     8.9720     2.5941    -0.0065     0.1089
 1124.0000   121.0652     8.9571     2.5370     0.0053     0.0545
 1124.5000   119.7960     8.9661     2.4849     0.0425     0.0047
 1125.0000   117.8389     8.9831     2.4761     0.0470     0.0022
 1125.5000   119.8807     9.0004     2.4676     0.0505     0.0003
 1126.0000   121.1760     9.0176     2.4646     0.0498    -0.0018
 1126.5000   119.2186     9.0349     2.4723     0.0492     0.0058
 1127.0000   117.7552     9.0513     2.4752     0.0478     0.0177
 1127.5000   116.2831     9.0899     2.4684     0.0441     0.0397
 1128.0000   114.8194     9.1431     2.4751     0.0370     0.0612
 1128.5000   114.3440     9.1953     2.4976     0.0283     0.0827
 1129.0000   115.1303     9.3200     2.5196     0.0196     0.1042
 1129.5000   115.1304     9.4810     2.5313     0.0132     0.1240
 1130.0000   114.0450     9.5524     2.5212     0.0190     0.1230
 1130.5000   112.8864     9.4946     2.5115     0.0233     0.1213
 1131.0000   115.2195     9.4376     2.5220     0.0156     0.1198
 1131.5000   118.1982     9.3794     2.5279     0.0226     0.1183
 1132.0000   121.1751     9.3495     2.5086     0.0334     0.1181
 1132.5000   123.4893     9.3379     2.4942     0.0388     0.1513
 1133.0000   122.0457     9.3265     2.5090     0.0191     0.1856
 1133.5000   120.7114     9.3152     2.5448     0.0002     0.2199
 1134.0000   121.3065     9.3038     2.5808    -0.0220     0.2456
 1134.5000   125.6896     9.2923     2.5930    -0.0171     0.2308
 1135.0000   127.0824     9.2808     2.5744    -0.0092     0.2120
 1135.5000   124.9195     9.2589     2.5556    -0.0014     0.1930
 1136.0000   121.7596     9.2280     2.5413     0.0064     0.1746
 1136.5000   118.6091     9.1971     2.5482     0.0074     0.1667
 1137.0000   116.4781     9.1661     2.5549     0.0083     0.1594
 1137.5000   120.3223     9.1352     2.5426     0.0091     0.1392
 1138.0000   123.7116     9.1042     2.5267     0.0163     0.1111
 1138.5000   127.0905     9.0732     2.5105     0.0282     0.0829
 1139.0000   129.5795     9.0422     2.4945     0.0400     0.0546
 1139.5000   121.6665     9.0112     2.4785     0.0501     0.0271
 1140.0000   114.4542     8.9803     2.4711     0.0513     0.0409
 1140.5000   108.0027     8.9493     2.4960     0.0318     0.0653
 1141.0000   110.5494     8.9175     2.5067     0.0272     0.0694
 1141.5000   113.7380     8.9598     2.5008     0.0295     0.0580
 1142.0000   110.8060     9.0313     2.4881     0.0383     0.0402
 1142.5000   109.0694     9.1032     2.4753     0.0471     0.0224
 1143.0000   113.5596     9.1750     2.4623     0.0561     0.0042
 1143.5000   117.0607     9.2474     2.4573     0.0532    -0.0006
 1144.0000   121.8901     9.2737     2.4658     0.0479     0.0127
 1144.5000   120.5299     9.2711     2.4809     0.0425     0.0295
 1145.0000   117.8126     9.2683     2.4839     0.0451     0.0464
 1145.5000   120.6310     9.2654     2.4703     0.0501     0.0633
 1146.0000   118.5889     9.2626     2.4659     0.0509     0.0802
 1146.5000   115.7492     9.2596     2.5134     0.0254     0.0979
 1147.0000   113.1961     9.2567     2.5500     0.0016     0.0933
 1147.5000   115.2751     9.2414     2.5470     0.0012     0.0802
 1148.0000   117.9760     9.2159     2.5330     0.0071     0.0663
 1148.5000   120.6634     9.1903     2.5183     0.0154     0.0619
 1149.0000   123.3753     9.1646     2.5036     0.0237     0.0657
 1149.5000   125.9485     9.1389     2.4889     0.0320     0.1032
 1150.0000   123.9605     9.1134     2.4793     0.0396     0.1440
 1150.5000   121.3700     9.0879     2.4764     0.0454     0.1849
 1151.0000   118.7969     9.0862     2.4787     0.0285     0.2258
 1151.5000   116.2303     9.1099     2.5233     0.0091     0.2665
 1152.0000   113.5538     9.1336     2.5625    -0.0056     0.2991
 1152.5000   112.7671     9.1574     2.5630     0.0028     0.2485
 1153.0000   113.7981     9.1813     2.5367     0.0126     0.1788
 1153.5000   116.3639     9.2051     2.5151     0.0220     0.1310
 1154.0000   122.7016     9.2289     2.4903     0.0032     0.1130
 1154.5000   128.8947     9.2528     2.5589     0.0115     0.0949
 1155.0000   133.8781     9.2765     2.5226     0.0257     0.0772
 1155.5000   132.8743     9.2980     2.4946     0.0399     0.0655
 1156.0000   128.2989     9.3062     2.4656     0.0541     0.0639
 1156.5000   122.7966     9.3149     2.4503     0.0617     0.0872
 1157.0000   117.3116     9.3237     2.4493     0.0621     0.1193
 1157.5000   112.3609     9.3324     2.4580     0.0466     0.1518
 1158.0000   111.6458     9.3411     2.4935     0.0304     0.1844
 1158.5000   116.8454     9.3499     2.5243     0.0192     0.2139
 1159.0000   123.6055     9.3586     2.5091     0.0295     0.2097
 1159.5000   129.8206     9.3673     2.4922     0.0437     0.1922
 1160.0000   126.1727     9.3761     2.4815     0.0427     0.1799
 1160.5000   120.9491     9.3848     2.4895     0.0300     0.1857
 1161.0000   118.2985     9.3940     2.5009     0.0285     0.1933
 1161.5000   119.7236     9.3914     2.5123     0.0300     0.2010
 1162.0000   121.5886     9.3842     2.5185     0.0315     0.2086
 1162.5000   119.3801     9.3769     2.5140     0.0329     0.2163
 1163.0000   114.4882     9.3696     2.5077     0.0337     0.2240
 1163.5000   109.9583     9.3623     2.5035     0.0264     0.2318
 1164.0000   108.8973     9.3550     2.5575     0.0176     0.2352
 1164.5000   111.1240     9.3477     2.5402     0.0089     0.1944
