~VERSION INFORMATION
 VERS.                2.0:   CWLS LOG ASCII STANDARD - VERSION 2.0
 WRAP.                 NO:   ONE LINE PER DEPTH STEP
~WELL INFORMATION
#MNEM.UNIT      DATA TYPE    INFORMATION
#----------   ------------   ------------------------------
 STRT.F           83.0000:   START DEPTH
 STOP.F         3044.0000:   STOP DEPTH
 STEP.F            0.5000:   STEP LENGTH
 NULL.          -999.2500:   NO VALUE
 COMP.   TESORO PETROLEUM:   COMPANY
 WELL.  NPR # 3  AX #81-4:   WELL
 FLD .        TEAPOT DOME:   FIELD
 LOC .       S4 T38N R78W:   LOCATION
 CNTY.            NATRONA:   COUNTY
 STAT.            WYOMING:   STATE
 CTRY. UNITED STATES OF AMERICA:   COUNTRY
 SRVC.       Schlumberger:   SERVICE COMPANY
 DATE.        31-JUL-1969:   LOGDATE
 API .       490251002700:   API NUMBER
~CURVE INFORMATION
#MNEM.UNIT       API CODE    CURVE DESCRIPTION
#----------   ------------   ------------------------------
 DEPT.F                  :   
 CILD.MMHO   05 110 46 00:   CONDUCTIVITY INDUCTION LOG DEEP
 ILD .OHMM   05 120 46 00:   INDUCTION LOG DEEP
 SN  .OHMM   05 040 16 00:   SHORT NORMAL 16"
 SPR .MV     05 010 01 00:   SPONTANEOUS POTENTIAL FROM RES.
 CALD.IN     45 280 60 00:   CALIPER FROM DENSITY
 DPHI.DEC    45 890 12 00:   DENSITY POROSITY SANDSTONE
 GRD .GAPI   45 310 01 00:   GAMMA RAY FROM DENSITY LOG
 RHOB.G/C3   45 350 01 00:   BULK DENSITY
 DRHO.G/C3   45 356 01 00:   DENSITY CORRECTION
~PARAMETER INFORMATION
#MNEM.UNIT          VALUE    DESCRIPTION
#----------   ------------   ------------------------------
 PD  .                 GL:   PERMANENT DATUM
 EPD .F              5170:   ELEVATION PERMANENT DATUM
 LMF .                 KB:   LOG MEASURED FROM
 DAPD.F                13:   FEET ABOVE PERMANENT DATUM
 DMF .                 KB:   DRILLING MEASURED FROM
 EKB .F              5183:   KELLING BUSHING
 EGL .F              5170:   GROUND LEVEL
 DATE.            7-31-69:   RUN DATE
 RUN .                  2:   RUN NUMBER
 DD  .F              3047:   DEPTH DRILLER
 DL  .F              3044:   DEPTH LOGGER
 BLI .F              3043:   BOTTOM LOG INTERVAL
 TLI .F               626:   TOP LOG INTERVAL
 CS  .IN            10.75:   CASING SIZE
 CBD .F               625:   CASING BOTTOM DRILLER
 CBL .F               626:   CASING BOTTOM LOGGER
 BS  .IN             6.25:   BIT SIZE
 BSD .F              3047:   BIT SIZE AT DEPTH
 DFT .      FRESH GEL MUD:   DRILLING FLUID TYPE
 DFD .                9.7:   DRILLING FLUID DENSITY
 DFV .                 50:   DRILLING FLUID VISCOSITY
 DFPH.                9.5:   DRILLING FLUID PH
 DFL .                  8:   DRILLING FLUID LOSS
 MSS .          FLOW LINE:   MUD SAMPLE SOURCE
 RMS .OHMM           1.35:   RESISTIVITY MUD SAMPLE
 MST .F                74:   MUD SAMPLE TEMPERATURE
 RMF .OHMM            .81:   RESISTIVITY MUD FILTRATE SAMPLE
 MFST.F                74:   MUD FILTRATE SAMPLE TEMPERATURE
 MFSS.                  M:   MUD FILTRATE SAMPLE SOURCE
 RMB .OHMM            .83:   RESISTIVITY MUD AT BHT
 BHT .F               121:   BOTTOM HOLE TEMPERATURE
 TCS .HRS               4:   TIME CURCULATED STOPPED
 MRT .F               121:   MAXIMUM RECORDED TEMPERATURE
 LUN .               4507:   LOGGING UNIT NUMBER
 LUL .               CSPR:   LOGGING UNIT LOCATION
 ENGI.               MIXA:   RECORDING ENGINEER
 WITN.                MAY:   WITNESSED BY
 CLNT.            A2DTECH:   CLIENT CODE
 ORIG.     1", 2.5" PRINT:   ORIGIN OF DATA
 UWI .       490251002700:   UNIQUE WELL ID
 DICO. A2D Technologies, Inc.:   DIGITIZING COMPANY
~OTHER INFORMATION
~A   DEPT      CILD       ILD         SN        SPR       CALD       DPHI        GRD       RHOB       DRHO   
# ...
 2054.0000   107.0671     9.3777    12.7337   -21.6049     9.0823     0.0984   146.2471     2.4837     0.0214
 2054.5000   105.4684     9.4255    12.9197   -21.7534     9.0815     0.1048   148.6582     2.4844     0.0232
 2055.0000   102.3020     9.5885    13.2477   -21.9136     9.0806     0.1017   145.0452     2.4846     0.0232
 2055.5000   100.6622     9.7514    13.5756   -21.9136     9.0797     0.0983   145.6490     2.4801     0.0202
 2056.0000    98.7856     9.9143    13.8630   -21.9136     9.0788     0.1003   142.6635     2.4706     0.0121
 2056.5000    95.8396    10.1499    14.0756   -21.7107     9.0779     0.1097   135.7040     2.4623     0.0088
 2057.0000    94.2005    10.3158    14.3497   -21.3884     9.0770     0.1127   133.6052     2.4678     0.0077
 2057.5000    93.4732    10.3173    14.4548   -21.0660     9.0761     0.1087   135.1572     2.4836     0.0095
 2058.0000    95.5964    10.2265    14.3241   -20.7438     9.0752     0.1006   138.4277     2.4941     0.0139
 2058.5000    98.2034    10.1656    14.0023   -20.3704     9.0743     0.0967   136.6858     2.4870     0.0199
 2059.0000    99.7969    10.0617    13.8411   -20.3704     9.0734     0.0902   131.4487     2.4960     0.0242
 2059.5000   100.6404    10.0139    13.5330   -20.3704     9.0725     0.0837   129.5493     2.5051     0.0252
 2060.0000   101.4406     9.8968    13.2245   -20.3704     9.0716     0.0852   133.1314     2.5096     0.0257
 2060.5000   102.1373     9.8622    13.2275   -20.3704     9.0707     0.0934   135.0947     2.4975     0.0246
 2061.0000   102.1142     9.7092    13.2305   -20.3704     9.0699     0.1018   132.8622     2.4827     0.0219
 2061.5000   102.0910     9.7107    13.2336   -20.4009     9.0690     0.0952   129.9697     2.4863     0.0182
 2062.0000   102.0679     9.7122    13.2368   -20.6790     9.0681     0.1000   124.0300     2.4917     0.0168
 2062.5000   102.0448     9.7137    13.2399   -20.6790     9.0670     0.1090   121.5738     2.4738     0.0158
 2063.0000   102.0176     9.7152    13.2430   -20.6790     9.0661     0.1000   122.0312     2.4907     0.0146
 2063.5000   101.9955     9.7167    13.2821   -20.6790     9.0951     0.1024   118.5650     2.4900     0.0138
 2064.0000   101.9734     9.7183    13.4050   -20.6790     9.0943     0.0993   119.7713     2.4848     0.0141
 2064.5000   101.9513     9.7429    13.4081   -20.6790     9.0934     0.0928   126.3992     2.4853     0.0154
 2065.0000   100.3858     9.8762    13.4112   -20.6790     9.0925     0.1000   130.0151     2.4841     0.0166
 2065.5000   100.3627     9.8777    13.3519   -20.6790     9.0916     0.0958   129.4142     2.4907     0.0188
 2066.0000   100.4990     9.8793    13.3307   -20.6790     9.0907     0.0881   123.6852     2.5168     0.0219
 2066.5000   102.3251     9.8314    13.3449   -20.6790     9.0899     0.0800   116.9676     2.5427     0.0256
 2067.0000   105.8393     9.7276    13.2679   -20.6790     9.0890     0.0723   112.7220     2.5321     0.0295
 2067.5000   111.4238     9.6039    13.2710   -20.6790     9.0881     0.0730   110.1428     2.5231     0.0349
 2068.0000   118.5798     9.2136    13.1786   -20.4713     9.0872     0.0820   113.1085     2.5075     0.0417
 2068.5000   121.3022     8.7311    13.0193   -20.3704     9.0863     0.0847   118.1619     2.5063     0.0508
 2069.0000   120.2623     8.4131    12.6424   -20.3704     9.0854     0.0805   121.3905     2.5206     0.0459
 2069.5000   118.8941     8.4310    12.3893   -20.3704     9.0845     0.0844   120.2970     2.5027     0.0287
 2070.0000   115.6377     8.4985    12.3520   -20.3704     9.0836     0.0897   118.1429     2.4847     0.0181
 2070.5000   112.3813     8.7041    12.3557   -20.3704     9.0827     0.0855   116.7786     2.5027     0.0126
 2071.0000   109.1259     9.1371    12.6702   -20.3704     9.0818     0.0976   119.6532     2.4985     0.0093
 2071.5000   104.9047     9.8530    13.9193   -20.3704     9.0809     0.1114   126.3822     2.4608     0.0073
 2072.0000    97.9541    10.7829    15.0126   -20.6873     9.0800     0.1144   133.5868     2.4821     0.0061
 2072.5000    90.9601    12.2216    15.6386   -20.9877     9.0790     0.1048   139.7234     2.4984     0.0051
 2073.0000    84.4705    12.9971    16.4384   -20.9877     9.0781     0.0880   144.0992     2.4947     0.0054
 2073.5000    76.8401    13.6178    16.9036   -20.9877     9.0474     0.0978   145.5658     2.4820     0.0126
 2074.0000    73.7315    14.0837    17.0882   -21.0504     9.0466     0.1030   143.8978     2.4793     0.0187
 2074.5000    73.7094    14.0851    17.4162   -21.2963     9.0457     0.0982   140.8872     2.4907     0.0262
 2075.0000    73.6874    14.0867    17.6791   -21.2963     9.0448     0.0886   138.4790     2.5042     0.0326
 2075.5000    73.6651    14.0882    17.6822   -21.2963     9.0439     0.0825   139.6853     2.5043     0.0366
 2076.0000    73.6420    14.0898    17.6854   -21.4136     9.0430     0.0928   143.3012     2.4908     0.0366
 2076.5000    73.6188    14.0913    17.6885   -21.6049     9.0421     0.1048   143.1162     2.4814     0.0305
 2077.0000    73.5957    14.0602    17.6916   -21.6049     9.0412     0.1036   138.7014     2.4832     0.0225
 2077.5000    73.5725    13.9002    17.6292   -21.6049     9.0403     0.1036   130.6847     2.4852     0.0159
 2078.0000    73.5494    13.7404    17.5421   -21.6049     9.0394     0.1080   123.4912     2.4712     0.0115
 2078.5000    73.5262    13.5806    17.5452   -21.6049     9.0385     0.1111   115.1080     2.4627     0.0081
 2079.0000    73.5031    13.4799    17.5483   -21.6049     9.0376     0.1109   111.9852     2.4763     0.0068
 2079.5000    73.4799    13.6127    17.5514   -21.6049     9.0367     0.1007   114.3963     2.4913     0.0299
 2080.0000    73.4568    13.9371    17.6532   -21.6049     9.0358     0.0932   116.8074     2.5033     0.0430
 2080.5000    73.4336    14.1037    17.9239   -21.6049     9.0349     0.0944   119.2184     2.4985     0.0459
 2081.0000    73.4105    14.1053    18.2518   -21.6049     9.0130     0.0952   121.6295     2.4869     0.0423
 2081.5000    73.3873    14.1068    18.5797   -21.6049     9.0033     0.0898   121.5224     2.5010     0.0357
 2082.0000    73.3642    14.1084    18.8137   -21.6049     9.0022     0.0737   118.9972     2.5176     0.0233
 2082.5000    73.3410    14.2150    18.8167   -21.6049     9.0014     0.0707   116.5586     2.5261     0.0201
 2083.0000    73.3179    14.1545    18.8196   -21.6049     9.0304     0.0832   115.0088     2.5151     0.0189
 2083.5000    73.2947    14.1130    18.6669   -21.6049     9.0295     0.0948   117.9671     2.4930     0.0189
 2084.0000    73.2675    14.1148    18.5141   -21.6049     9.0287     0.0998   122.3295     2.4833     0.0192
 2084.5000    73.2454    13.6519    17.7285   -21.6049     9.0258     0.1042   124.8574     2.4916     0.0207
 2085.0000    76.3097    13.1890    17.1093   -21.6049     8.9970     0.1033   125.7681     2.4918     0.0279
 2085.5000    79.3740    12.8809    16.9654   -21.6725     8.9961     0.0999   124.3951     2.4784     0.0372
 2086.0000    82.4478    12.2632    16.9688   -21.9136     8.9952     0.1033   124.3435     2.4660     0.0453
 2086.5000    85.5027    11.8003    17.0009   -22.0086     8.9943     0.1086   125.9314     2.4646     0.0504
 2087.0000    85.3268    11.9757    17.1308   -22.2222     9.0031     0.1102   128.4586     2.4755     0.0536
 2087.5000    83.6864    12.3001    17.0496   -22.2222     9.0224     0.1089   129.4804     2.4533     0.0549
 2088.0000    81.4505    12.6243    16.7767   -22.2222     9.0215     0.1116   127.4533     2.4532     0.0684
 2088.5000    76.9493    12.9194    16.8392   -21.9233     9.0349     0.1090   122.9938     2.4678     0.1210
 2089.0000    74.1381    13.0464    17.2674   -21.4419     9.0812     0.1089   119.7980     2.3959     0.1825
 2089.5000    74.0537    13.0056    17.5266   -21.1196     9.1257     0.1270   117.4385     2.4184     0.2101
 2090.0000    76.6715    12.8947    17.6921   -20.7974     9.1562     0.1307   120.4520     2.4334     0.1823
