~VERSION INFORMATION
 VERS.                2.0:   CWLS LOG ASCII STANDARD - VERSION 2.0
 WRAP.                 NO:   ONE LINE PER DEPTH STEP
~WELL INFORMATION
#MNEM.UNIT      DATA TYPE    INFORMATION
#----------   ------------   ------------------------------
 STRT.F            0.5000:   START DEPTH
 STOP.F         3087.0000:   STOP DEPTH
 STEP.F            0.5000:   STEP LENGTH
 NULL.          -999.2500:   NO VALUE
 COMP. DEPARTMENT OF ENERGY:   COMPANY
 WELL.    NPR-3 #201-A-29:   WELL
 FLD . TEAPOT NAVAL RESERVE:   FIELD
 LOC .      S29 T39N R78W:   LOCATION
 CNTY.            NATRONA:   COUNTY
 STAT.            WYOMING:   STATE
 CTRY. UNITED STATES OF AMERICA:   COUNTRY
 SRVC.      NL McCullough:   SERVICE COMPANY
 DATE.        24-JUN-1965:   LOGDATE
 API .       490251144400:   API NUMBER
~CURVE INFORMATION
#MNEM.UNIT       API CODE    CURVE DESCRIPTION
#----------   ------------   ------------------------------
 DEPT.F                  :   
 GRR .GAPI   30 310 01 00:   GAMMA RAY
 CALI.IN     30 280 01 00:   CALIPER
~PARAMETER INFORMATION
#MNEM.UNIT          VALUE    DESCRIPTION
#----------   ------------   ------------------------------
 PD  .                 GL:   PERMANENT DATUM
 LMF .                 GL:   LOG MEASURED FROM
 EDF .F              5012:   DRILLING FLOOR
 DATE.        24-JUN-1965:   RUN DATE
 RUN .                  1:   RUN NUMBER
 DD  .F              2782:   DEPTH DRILLER
 DL  .F              2772:   DEPTH LOGGER
 BLI .F              2770:   BOTTOM LOG INTERVAL
 TLI .F              2300:   TOP LOG INTERVAL
 CS  .IN            6.625:   CASING SIZE
 CBD .F              2756:   CASING BOTTOM DRILLER
 ENGI.         COWLTHORPE:   RECORDING ENGINEER
 WITN.             HUDSON:   WITNESSED BY
 CLNT.            A2DTECH:   CLIENT CODE
 ORIG.           5" PRINT:   ORIGIN OF DATA
 UWI .       490251144400:   UNIQUE WELL ID
 DICO. A2D Technologies, Inc.:   DIGITIZING COMPANY
~OTHER INFORMATION
~A    DEPT     GRR         CALI 
# ...
 2552.0000    71.8872     6.7393
 2552.5000    70.6795     6.7403
 2553.0000    70.8591     6.7412
 2553.5000    70.9191     6.7421
 2554.0000    68.4153     6.7431
 2554.5000    69.6066     6.7440
 2555.0000    67.7860     6.7435
 2555.5000    65.6639     6.7426
 2556.0000    69.8136     6.7417
 2556.5000    65.8821     6.7408
 2557.0000    65.6565     6.7398
 2557.5000    65.5771     6.7389
 2558.0000    63.9615     6.7380
 2558.5000    67.4729     6.7371
 2559.0000    66.4503     6.7361
 2559.5000    67.2214     6.7352
 2560.0000    66.5596     6.7343
 2560.5000    66.6408     6.7333
 2561.0000    64.0252     6.7324
 2561.5000    64.9883     6.7315
 2562.0000    65.3742     6.7306
 2562.5000    63.1297     6.7296
 2563.0000    63.3503     6.7287
 2563.5000    62.7220     6.7278
 2564.0000    60.4617     6.7269
 2564.5000    63.5957     6.7259
 2565.0000    62.8960     6.7250
 2565.5000    62.6468     6.7248
 2566.0000    64.5420     6.7276
 2566.5000    63.1999     6.7304
 2567.0000    65.4629     6.7331
 2567.5000    67.9520     6.7359
 2568.0000    66.2030     6.7386
 2568.5000    68.2699     6.7414
 2569.0000    67.8939     6.7441
 2569.5000    69.2437     6.7469
 2570.0000    70.9175     6.7496
 2570.5000    71.8521     6.7523
 2571.0000    70.8863     6.7551
 2571.5000    70.2803     6.7578
 2572.0000    69.7805     6.7606
 2572.5000    69.3281     6.7633
 2573.0000    68.7357     6.7629
 2573.5000    66.9025     6.7602
 2574.0000    66.8685     6.7575
 2574.5000    64.7809     6.7548
 2575.0000    65.5328     6.7521
 2575.5000    64.8600     6.7494
 2576.0000    65.8702     6.7466
 2576.5000    65.2985     6.7443
 2577.0000    66.0616     6.7456
 2577.5000    68.7772     6.7469
 2578.0000    68.6428     6.7482
 2578.5000    69.1480     6.7495
 2579.0000    68.1655     6.7507
 2579.5000    69.7407     6.7520
 2580.0000    69.4810     6.7533
 2580.5000    66.2109     6.7545
 2581.0000    66.7218     6.7558
 2581.5000    70.0194     6.7571
 2582.0000    71.7615     6.7583
 2582.5000    70.7508     6.7596
 2583.0000    68.1867     6.7609
 2583.5000    65.5696     6.7621
 2584.0000    62.8141     6.7634
 2584.5000    61.9075     6.7628
 2585.0000    63.1319     6.7589
 2585.5000    64.8000     6.7551
 2586.0000    68.4900     6.7512
 2586.5000    66.1844     6.7473
 2587.0000    65.2549     6.7442
 2587.5000    67.7207     6.7442
 2588.0000    68.1221     6.7442
 2588.5000    67.2797     6.7442
 2589.0000    66.2875     6.7442
 2589.5000    65.2634     6.7442
 2590.0000    66.5082     6.7442
 2590.5000    66.8809     6.7442
 2591.0000    65.3373     6.7442
 2591.5000    65.3451     6.7442
 2592.0000    66.1957     6.7442
 2592.5000    66.0508     6.7442
 2593.0000    66.0260     6.7442
 2593.5000    67.4145     6.7442
 2594.0000    66.8047     6.7442
 2594.5000    66.2425     6.7442
 2595.0000    65.6489     6.7442
 2595.5000    64.9736     6.7442
 2596.0000    63.9960     6.7442
 2596.5000    61.7425     6.7442
 2597.0000    62.3018     6.7442
 2597.5000    62.1791     6.7442
 2598.0000    59.7543     6.7442
 2598.5000    61.9631     6.7442
 2599.0000    61.7775     6.7442
 2599.5000    62.1409     6.7442
 2600.0000    62.9631     6.7442
 2600.5000    63.7831     6.7442
 2601.0000    64.6341     6.7442
 2601.5000    64.7992     6.7442
 2602.0000    64.8851     6.7442
 2602.5000    67.4098     6.7442
 2603.0000    65.4097     6.7442
 2603.5000    64.0662     6.7442
 2604.0000    63.6288     6.7442
 2604.5000    66.0348     6.7442
 2605.0000    66.5000     6.7442
 2605.5000    66.6378     6.7442
 2606.0000    66.2984     6.7442
 2606.5000    66.9275     6.7442
 2607.0000    67.6125     6.7442
 2607.5000    68.3760     6.7442
 2608.0000    68.4628     6.7442
 2608.5000    66.8383     6.7442
 2609.0000    66.7642     6.7442
 2609.5000    67.3734     6.7442
 2610.0000    68.3845     6.7442
 2610.5000    68.0771     6.7442
 2611.0000    67.0430     6.7442
 2611.5000    66.3705     6.7442
 2612.0000    67.9471     6.7442
 2612.5000    67.9072     6.7442
 2613.0000    65.6270     6.7442
 2613.5000    65.0225     6.7442
 2614.0000    65.7622     6.7442
 2614.5000    65.5110     6.7442
 2615.0000    66.2090     6.7442
 2615.5000    66.3861     6.7442
 2616.0000    66.4136     6.7442
 2616.5000    65.9425     6.7442
 2617.0000    64.0084     6.7442
 2617.5000    64.8546     6.7442
 2618.0000    64.5259     6.7442
 2618.5000    65.6280     6.7442
 2619.0000    67.2348     6.7442
 2619.5000    67.4961     6.7442
 2620.0000    67.3693     6.7442
 2620.5000    68.1738     6.7442
 2621.0000    68.9615     6.7442
 2621.5000    66.9136     6.7442
 2622.0000    64.5535     6.7442
 2622.5000    63.5572     6.7442
 2623.0000    63.3862     6.7442
 2623.5000    62.8118     6.7442
 2624.0000    63.4651     6.7442
 2624.5000    62.1044     6.7442
 2625.0000    62.6834     6.7442
 2625.5000    61.6117     6.7442
 2626.0000    60.6343     6.7442
 2626.5000    62.9914     6.7442
 2627.0000    63.1560     6.7442
 2627.5000    65.0103     6.7442
 2628.0000    64.6596     6.7442
 2628.5000    63.9551     6.7442
 2629.0000    67.0899     6.7442
 2629.5000    65.9859     6.7442
 2630.0000    66.2745     6.7442
 2630.5000    64.5663     6.7442
 2631.0000    65.2548     6.7442
 2631.5000    65.7701     6.7442
 2632.0000    64.4055     6.7442
 2632.5000    65.5499     6.7442
 2633.0000    60.6210     6.7442
 2633.5000    67.9501     6.7442
 2634.0000    68.1349     6.7442
 2634.5000    66.7799     6.7442
 2635.0000    68.9456     6.7442
 2635.5000    67.5780     6.7442
 2636.0000    67.5114     6.7442
 2636.5000    67.5520     6.7442
 2637.0000    66.2149     6.7442
 2637.5000    67.9751     6.7442
 2638.0000    65.6493     6.7442
 2638.5000    67.3797     6.7442
 2639.0000    66.5334     6.7442
 2639.5000    66.1456     6.7442
 2640.0000    64.8437     6.7442
 2640.5000    69.5454     6.7448
 2641.0000    66.5850     6.7457
 2641.5000    68.4892     6.7466
 2642.0000    66.2174     6.7475
 2642.5000    69.3356     6.7484
 2643.0000    67.6047     6.7493
 2643.5000    67.6093     6.7502
 2644.0000    67.8299     6.7511
 2644.5000    66.8579     6.7520
 2645.0000    66.2417     6.7529
 2645.5000    65.9182     6.7537
 2646.0000    67.0578     6.7546
 2646.5000    66.8865     6.7555
 2647.0000    67.8913     6.7564
 2647.5000    68.8766     6.7573
 2648.0000    69.5578     6.7582
 2648.5000    63.5928     6.7591
 2649.0000    68.7739     6.7600
 2649.5000    68.2514     6.7609
 2650.0000    68.2337     6.7618
 2650.5000    67.6400     6.7627
 2651.0000    68.5989     6.7636
 2651.5000    67.5545     6.7642
 2652.0000    70.5921     6.7642
 2652.5000    65.9345     6.7642
 2653.0000    65.1822     6.7642
 2653.5000    63.4503     6.7642
 2654.0000    60.4406     6.7642
 2654.5000    63.4042     6.7642
 2655.0000    65.7986     6.7642
 2655.5000    64.0705     6.7642
 2656.0000    65.2544     6.7642
 2656.5000    63.8222     6.7642
 2657.0000    64.4915     6.7642
 2657.5000    63.7343     6.7642
 2658.0000    63.7052     6.7642
 2658.5000    63.8962     6.7642
 2659.0000    66.1171     6.7642
 2659.5000    64.0830     6.7642
 2660.0000    61.2252     6.7642
 2660.5000    60.1187     6.7642
 2661.0000    63.7919     6.7642
 2661.5000    65.0010     6.7642
 2662.0000    65.1179     6.7642
 2662.5000    60.3387     6.7641
 2663.0000    56.2715     6.7631
 2663.5000    59.7795     6.7622
 2664.0000    54.6115     6.7613
 2664.5000    54.5174     6.7604
 2665.0000    54.0237     6.7595
 2665.5000    53.5106     6.7586
 2666.0000    47.8041     6.7576
 2666.5000    43.1152     6.7567
 2667.0000    44.4020     6.7558
 2667.5000    41.2394     6.7549
 2668.0000    41.8009     6.7540
 2668.5000    41.4238     6.7531
 2669.0000    42.8261     6.7522
 2669.5000    44.9118     6.7513
 2670.0000    48.4439     6.7504
 2670.5000    48.0376     6.7495
 2671.0000    53.0185     6.7485
 2671.5000    52.0537     6.7476
 2672.0000    51.5357     6.7467
 2672.5000    54.0369     6.7458
 2673.0000    51.4720     6.7449
