~VERSION INFORMATION
 VERS.                2.0:   CWLS LOG ASCII STANDARD - VERSION 2.0
 WRAP.                 NO:   ONE LINE PER DEPTH STEP
~WELL INFORMATION
#MNEM.UNIT      DATA TYPE    INFORMATION
#----------   ------------   ------------------------------
 STRT.F            6.0000:   START DEPTH
 STOP.F         4020.0000:   STOP DEPTH
 STEP.F            0.5000:   STEP LENGTH
 NULL.          -999.2500:   NO VALUE
 COMP. LAWRENCE/ALLISON INC:   COMPANY
 WELL.       66 JX #33-33:   WELL
 FLD .              NPR-3:   FIELD
 LOC .      S33 T39N R78W:   LOCATION
 CNTY.            NATRONA:   COUNTY
 STAT.            WYOMING:   STATE
 CTRY. UNITED STATES OF AMERICA:   COUNTRY
 SRVC.      Dresser Atlas:   SERVICE COMPANY
 DATE.        02-DEC-1983:   LOGDATE
 API .       490251095100:   API NUMBER
~CURVE INFORMATION
#MNEM.UNIT       API CODE    CURVE DESCRIPTION
#----------   ------------   ------------------------------
 DEPT.F                  :   
 CALD.IN     45 280 60 00:   CALIPER
 CNC .DEC    42 890 03 00:   NEUTRON POROSITY SANDSTONE
 PORD.DEC    45 890 12 00:   POROSITY DENSITY SANDSTONE
 DEN .G/C3   45 350 01 00:   COMPENSATED BULK DENSTIY
 CORR.G/C3   45 356 01 00:   DENSITY CORRECTION
 RFOC.OHMM   07 220 04 00:   RESISTIVITY FOCUSED LOG
 RILD.OHMM   07 120 46 00:   INDUCTION LOG DEEP RESISTIVITY
 RILM.OHMM   07 120 44 00:   INDUCTION LOG MEDIUM RESISTIVITY
 GRR .GAPI   07 310 01 00:   GAMMA RAY FROM RES. LOG.
 DT  .US/F   60 520 00 00:   INTERVAL TRANSIT TIME
 SPR .MV     07 010 01 00:   SPONTANEOUS POTENTIAL
~PARAMETER INFORMATION
#MNEM.UNIT          VALUE    DESCRIPTION
#----------   ------------   ------------------------------
 PD  .                 GL:   PERMANENT DATUM
 EPD .F              5141:   ELEVATION PERMANENT DATUM
 LMF .                 KB:   LOG MEASURED FROM
 DAPD.F                10:   FEET ABOVE PERMANENT DATUM
 DMF .                 KB:   DRILLING MEASURED FROM
 EKB .F              5151:   KELLING BUSHING
 EGL .F              5141:   GROUND LEVEL
 DATE.            12-2-83:   RUN DATE
 RUN .                  1:   RUN NUMBER
 DD  .F              4025:   DEPTH DRILLER
 DL  .F              4020:   DEPTH LOGGER
 BLI .F              4018:   BOTTOM LOG INTERVAL
 TLI .F                10:   TOP LOG INTERVAL
 CS  .IN            8.625:   CASING SIZE
 CBD .F               718:   CASING BOTTOM DRILLER
 CBL .F               722:   CASING BOTTOM LOGGER
 BS  .IN            7.875:   BIT SIZE
 BSD .F              4025:   BIT SIZE AT DEPTH
 DFT .            GEL/KCL:   DRILLING FLUID TYPE
 DFD .                  9:   DRILLING FLUID DENSITY
 DFV .                 45:   DRILLING FLUID VISCOSITY
 DFPH.                8.5:   DRILLING FLUID PH
 DFL .                 12:   DRILLING FLUID LOSS
 MSS .           FLOWLINE:   MUD SAMPLE SOURCE
 RMS .OHMM            .37:   RESISTIVITY MUD SAMPLE
 MST .F                88:   MUD SAMPLE TEMPERATURE
 RMF .OHMM            .29:   RESISTIVITY MUD FILTRATE SAMPLE
 MFST.F                88:   MUD FILTRATE SAMPLE TEMPERATURE
 RMC .OHMM            .46:   RESISTIVITY MUD CAKE
 MCST.F                88:   MUD CAKE SAMPLE TEMPERATURE
 MFSS.               MEAS:   MUD FILTRATE SAMPLE SOURCE
 MCSS.               CALC:   MUD CAKE SAMPLE SOURCE
 RMB .OHMM            .26:   RESISTIVITY MUD AT BHT
 BHT .F               127:   BOTTOM HOLE TEMPERATURE
 TCS .HRS               4:   TIME CURCULATED STOPPED
 MRT .F               127:   MAXIMUM RECORDED TEMPERATURE
 LUN .               6264:   LOGGING UNIT NUMBER
 LUL .              WLSTN:   LOGGING UNIT LOCATION
 ENGI.            PANASUK:   RECORDING ENGINEER
 WITN.              SCOTT:   WITNESSED BY
 CLNT.            A2DTECH:   CLIENT CODE
 ORIG.       2", 5" PRINT:   ORIGIN OF DATA
 UWI .       490251095100:   UNIQUE WELL ID
 DICO. A2D Technologies, Inc.:   DIGITIZING COMPANY
~OTHER INFORMATION
~A    DEPT    CALD        CNC       PORD        DEN       CORR       RFOC       RILD       RILM          GRR       DT        SPR   
# ...
 3086.5000     8.0188     0.2650     0.1418     2.4184     0.0330     3.0482     2.2351     2.3495   140.8982    92.9519   -35.9570
 3087.0000     8.0204     0.2661     0.1432     2.4137     0.0134     3.0328     2.1443     2.3013   143.6736    93.4549   -36.0332
 3087.5000     8.0220     0.2747     0.1450     2.4108    -0.0120     2.9982     2.0572     2.2077   145.1097    93.9007   -35.9352
 3088.0000     8.0236     0.2811     0.1474     2.4041    -0.0248     2.9704     1.9736     2.1348   145.7470    94.1583   -35.6491
 3088.5000     8.0252     0.2875     0.1552     2.3943    -0.0012     2.9356     1.8934     2.0643   149.7083    94.3267   -35.3758
 3089.0000     8.0222     0.2939     0.1624     2.3847     0.0290     2.8699     1.8164     1.9962   158.0368    94.5637   -35.0578
 3089.5000     8.0117     0.2954     0.1655     2.3786     0.0319     2.5000     1.7426     1.9303   166.4386    96.0813   -34.7575
 3090.0000     8.0013     0.2930     0.1604     2.3947     0.0234     2.5937     1.6718     1.8666   169.3101    97.5953   -34.3862
 3090.5000     7.9908     0.3058     0.1474     2.4081     0.0146     2.3657     1.6038     1.8050   167.1347    99.1042   -34.0894
 3091.0000     7.9804     0.3162     0.1480     2.4057     0.0157     2.7918     1.5387     1.7455   165.0263    99.2545   -34.4704
 3091.5000     7.9700     0.3162     0.1506     2.4019     0.0202     2.7602     1.5041     1.6879   165.3644    98.7515   -34.8194
 3092.0000     7.9595     0.2998     0.1494     2.4009     0.0229     2.5721     1.4797     1.6074   172.5659    98.6468   -34.8270
 3092.5000     7.9491     0.2720     0.1346     2.4246     0.0197     2.3235     1.5071     1.6823   182.6326    99.9622   -34.8312
 3093.0000     7.9387     0.2376     0.1033     2.4666     0.0160     2.0990     1.6593     1.8291   195.7091   101.5099   -34.8351
 3093.5000     7.9282     0.2031     0.0723     2.5111     0.0368     1.9681     1.8854     2.1215   194.2358   102.6834   -34.9520
 3094.0000     7.9178     0.1804     0.0602     2.5464     0.0712     2.2593     2.1868     2.5867   187.0547   102.5383   -35.1171
 3094.5000     7.9074     0.1610     0.0752     2.5472     0.0893     3.6532     2.6241     3.1539   150.4491    94.3044   -35.2273
 3095.0000     7.8970     0.1614     0.0994     2.4916     0.0590     5.9096     3.2645     4.0211   116.3922    84.2809   -35.2255
 3095.5000     7.8865     0.1631     0.1248     2.4482     0.0202    11.9469     4.0894     5.2856    91.0434    78.0895   -35.1735
 3096.0000     7.8759     0.1648     0.1501     2.4045     0.0108    14.7626     5.4157     6.9477    76.0060    72.6092   -35.1188
 3096.5000     7.8657     0.1646     0.1729     2.3635     0.0160    15.8817     7.1721     9.1326    63.2888    73.1011   -35.0622
 3097.0000     7.8878     0.1614     0.1902     2.3377     0.0186    16.9473     9.4983    12.0045    52.2695    74.4639   -35.0120
 3097.5000     7.9208     0.1581     0.1874     2.3361     0.0102    18.9656    11.5284    15.3160    44.4611    75.6212   -34.9490
 3098.0000     7.9850     0.1550     0.1810     2.3798     0.0016    20.7706    12.2812    15.1944    40.9016    75.8216   -34.9098
 3098.5000     8.0473     0.1779     0.1319     2.4275     0.0145    22.7473    11.8374    14.4934    38.8327    74.9227   -34.8249
 3099.0000     8.1096     0.2041     0.0902     2.4761     0.0300    24.9123    10.8516    11.9469    45.4085    73.4855   -35.0372
 3099.5000     8.1653     0.2302     0.0782     2.5200     0.0456    26.1164     9.4028     9.1730    54.2025    72.0484   -35.5461
 3100.0000     8.1648     0.2474     0.0786     2.5066     0.0361    16.8180     8.0646     6.7968    80.0689    71.5130   -36.0042
 3100.5000     8.1633     0.2555     0.0953     2.4880     0.0269    10.5859     6.7328     4.8938   103.6806    73.8176   -36.4821
 3101.0000     8.1620     0.2626     0.1058     2.4746     0.0272     7.1607     5.6210     4.5951   127.2950    76.8897   -36.7009
 3101.5000     8.1607     0.2622     0.1053     2.4749     0.0169     5.4376     4.6927     4.2025   141.0246    82.1581   -36.7994
 3102.0000     8.1595     0.2531     0.1046     2.4759     0.0028     4.4697     4.1088     3.6456   143.5678    87.4266   -36.8957
 3102.5000     8.1582     0.2466     0.1038     2.4792    -0.0113     4.5082     3.7545     3.7476   140.9242    92.9559   -37.0077
 3103.0000     8.1569     0.2462     0.1003     2.4841    -0.0211     4.6006     3.5737     3.7996   138.1180    94.5805   -36.9261
 3103.5000     8.1557     0.2445     0.0967     2.4893    -0.0175     4.6979     3.5011     3.9012   134.3765    94.4753   -36.6697
 3104.0000     8.1544     0.2381     0.0962     2.4885    -0.0063     4.9787     3.4817     4.0056   128.0679    93.3611   -36.4585
 3104.5000     8.1531     0.2266     0.1050     2.4737    -0.0028     5.6799     3.5277     4.1127   120.7795    90.5628   -36.3812
 3105.0000     8.1519     0.2186     0.1142     2.4629    -0.0120     6.1594     3.6690     4.1881   115.3526    86.9430   -36.2840
 3105.5000     8.1506     0.2131     0.1138     2.4631    -0.0281     5.6543     3.8159     4.2392   117.5232    84.7752   -36.2184
 3106.0000     8.1493     0.2098     0.1043     2.4764    -0.0362     5.0377     3.9687     4.2835   119.3334    83.3122   -36.2373
 3106.5000     8.1478     0.2104     0.0948     2.4967    -0.0152     4.8938     4.0712     4.3278   118.9097    83.1997   -36.1387
 3107.0000     8.1480     0.2155     0.0853     2.5167     0.0055     5.2004     4.1088     4.3731   118.9039    82.9158   -35.8514
 3107.5000     8.1756     0.2205     0.0798     2.5148     0.0240     5.6699     4.0975     4.4214   120.0191    82.4102   -35.5920
 3108.0000     8.1803     0.2320     0.0856     2.5095     0.0243     5.6279     4.0857     4.3414   120.6615    81.9016   -35.2886
 3108.5000     8.1732     0.2450     0.0866     2.5106     0.0224     5.4650     4.0712     4.2600   122.9421    82.0512   -35.3833
 3109.0000     8.1664     0.2519     0.0817     2.5153     0.0205     5.5037     4.0712     4.1806   126.1810    82.5110   -35.6674
 3109.5000     8.1599     0.2437     0.0778     2.5220     0.0212     5.4650     4.0712     4.1468   128.8604    83.0664   -35.9234
 3110.0000     8.1533     0.2243     0.0734     2.5288     0.0356     4.9328     4.0823     4.2565   131.8885    83.8701   -35.9679
 3110.5000     8.1467     0.2058     0.0682     2.5357     0.0499     4.3420     4.0966     4.3718   133.2584    84.6738   -35.7169
 3111.0000     8.1402     0.2003     0.0650     2.5407     0.0644     4.3023     4.1109     4.4903   131.1088    85.5411   -35.5070
 3111.5000     8.1336     0.1970     0.0670     2.5396     0.0664     4.8919     4.1253     4.5885   126.5341    85.2305   -35.2704
 3112.0000     8.1271     0.2020     0.0725     2.5327     0.0402     5.6903     4.1398     4.5885   121.4780    84.3988   -35.0549
 3112.5000     8.1205     0.2106     0.0780     2.5230    -0.0065     6.1030     4.1543     4.5246   116.4046    82.1468   -34.8147
 3113.0000     8.1140     0.2193     0.0835     2.5133    -0.0009     5.8741     4.1689     4.4450   113.3186    81.1523   -34.6484
 3113.5000     8.1071     0.2279     0.0890     2.5041     0.0539     5.5940     4.1835     4.3677   113.6194    81.3317   -34.5431
 3114.0000     8.1213     0.2365     0.1004     2.4884     0.0499     5.3283     4.1982     4.2608   115.1706    82.4081   -34.3354
 3114.5000     8.1490     0.2401     0.1143     2.4690     0.0089     5.0762     4.2129     4.3036   118.8195    83.7575   -34.1833
 3115.0000     8.1770     0.2338     0.1178     2.4573    -0.0520     4.9353     4.2277     4.3450   122.2875    84.7595   -33.8021
 3115.5000     8.2044     0.2293     0.1113     2.4631    -0.0487     4.9406     4.2425     4.3868   126.5130    85.2645   -33.4458
 3116.0000     8.2016     0.2293     0.1005     2.4813    -0.0229     4.9358     4.2573     4.4375   125.8968    85.3407   -33.0371
 3116.5000     8.1971     0.2260     0.0897     2.4993    -0.0014     5.1411     4.3453     4.4691   122.2321    84.7244   -32.8315
