~VERSION INFORMATION
 VERS.                2.0:   CWLS LOG ASCII STANDARD - VERSION 2.0
 WRAP.                 NO:   ONE LINE PER DEPTH STEP
~WELL INFORMATION
#MNEM.UNIT      DATA TYPE    INFORMATION
#----------   ------------   ------------------------------
 STRT.F           32.0000:   START DEPTH
 STOP.F          501.0000:   STOP DEPTH
 STEP.F            0.5000:   STEP LENGTH
 NULL.          -999.2500:   NO VALUE
 COMP.    FENIX & SCISSON:   COMPANY
 WELL.    NPR "SX" #75-10:   WELL
 FLD .             TEAPOT:   FIELD
 LOC .      S10 T38N R78W:   LOCATION
 CNTY.            NATRONA:   COUNTY
 STAT.            WYOMING:   STATE
 CTRY. UNITED STATES OF AMERICA:   COUNTRY
 SRVC.              Welex:   SERVICE COMPANY
 DATE.        08-MAR-1977:   LOGDATE
 API .       490251029200:   API NUMBER
~CURVE INFORMATION
#MNEM.UNIT       API CODE    CURVE DESCRIPTION
#----------   ------------   ------------------------------
 DEPT.F                  :   
 SPR .MV     07 010 01 00:   SPONTANEOUS POTENTIAL
 ILD .OHMM   07 120 46 00:   INDUCTION LOG DEEP
 ILM .OHMM   07 120 44 00:   INDUCTION LOG MEDIUM
 SGRD.OHMM   07 221 05 00:   SHALLOW SHORT GUARD RESISTIVITY
 GRD .GAPI   45 310 01 00:   GAMMA RAY FROM DENSITY LOG
 CALD.IN     45 280 60 00:   CALIPER FROM DENSITY LOG
 CORR.G/C3   45 356 01 00:   DENSITY CORRECTION
 RHOB.G/C3   45 350 01 00:   BULK DENSITY
 DPHI.DEC    45 890 12 00:   DENSITY POROSITY SANDSTONE
~PARAMETER INFORMATION
#MNEM.UNIT          VALUE    DESCRIPTION
#----------   ------------   ------------------------------
 PD  .                 GL:   PERMANENT DATUM
 EPD .F              5184:   ELEVATION PERMANENT DATUM
 LMF .                 GL:   LOG MEASURED FROM
 DAPD.F                GL:   FEET ABOVE PERMANENT DATUM
 EGL .F              5184:   GROUND LEVEL
 DATE.          03-8-1977:   RUN DATE
 RUN .                  1:   RUN NUMBER
 DD  .F               510:   DEPTH DRILLER
 DL  .F               505:   DEPTH LOGGER
 BLI .F               503:   BOTTOM LOG INTERVAL
 TLI .F                35:   TOP LOG INTERVAL
 CS  .IN            8.625:   CASING SIZE
 CBD .F                42:   CASING BOTTOM DRILLER
 CBL .F                43:   CASING BOTTOM LOGGER
 BS  .IN            7.875:   BIT SIZE
 BSD .F               510:   BIT SIZE AT DEPTH
 DFT .            KCL MUD:   DRILLING FLUID TYPE
 DFD .                8.6:   DRILLING FLUID DENSITY
 DFV .                 36:   DRILLING FLUID VISCOSITY
 DFPH.                9.5:   DRILLING FLUID PH
 DFL .                  2:   DRILLING FLUID LOSS
 MSS .           FLOWLINE:   MUD SAMPLE SOURCE
 RMS .OHMM            .49:   RESISTIVITY MUD SAMPLE
 MST .F                56:   MUD SAMPLE TEMPERATURE
 RMF .OHMM            .42:   RESISTIVITY MUD FILTRATE SAMPLE
 MFST.F                56:   MUD FILTRATE SAMPLE TEMPERATURE
 RMC .OHMM            .62:   RESISTIVITY MUD CAKE
 MCST.F                56:   MUD CAKE SAMPLE TEMPERATURE
 MFSS.               MEAS:   MUD FILTRATE SAMPLE SOURCE
 MCSS.               MEAS:   MUD CAKE SAMPLE SOURCE
 RMB .OHMM            .44:   RESISTIVITY MUD AT BHT
 BHT .F                62:   BOTTOM HOLE TEMPERATURE
 TCS .HRS               2:   TIME CURCULATED STOPPED
 MRT .F                62:   MAXIMUM RECORDED TEMPERATURE
 LUN .               8611:   LOGGING UNIT NUMBER
 LUL .           GILLETTE:   LOGGING UNIT LOCATION
 ENGI.            C. DOAK:   RECORDING ENGINEER
 WITN.           S. BURNE:   WITNESSED BY
 CLNT.            A2DTECH:   CLIENT CODE
 ORIG.        2" 5" PRINT:   ORIGIN OF DATA
 UWI .       490251029200:   UNIQUE WELL ID
 DICO. A2D Technologies, Inc.:   DIGITIZING COMPANY
~OTHER INFORMATION
~A   DEPT      SPR        ILD        ILM       SGRD         GRD        CALD      CORR        RHOB     DPHI   
# ...
  251.0000   -41.8136     4.6893     6.4664     8.7303   130.3649     7.8668     0.0650     2.4232     0.1301
  251.5000   -41.9729     4.4935     5.9607     8.5239   129.9356     7.7942     0.0621     2.4248     0.1298
  252.0000   -42.2815     4.4041     4.9692     7.2423   128.1651     7.8110     0.0533     2.4324     0.1279
  252.5000   -42.4408     4.4029     4.7324     5.4935   126.8416     7.8726     0.0458     2.4437     0.1231
  253.0000   -42.4508     4.4630     5.1381     5.0212   129.5419     7.9491     0.0490     2.4633     0.1168
  253.5000   -42.2905     4.5238     5.6173     6.2180   132.2423     8.0404     0.0522     2.4708     0.1083
  254.0000   -41.7271     4.6493     6.0570     7.2365   134.3465     8.0722     0.0523     2.4702     0.1056
  254.5000   -41.5879     4.7833     6.4559     8.2169   136.0037     8.0890     0.0524     2.4680     0.1065
  255.0000   -41.2969     5.0131     6.9929     8.7759   135.5744     8.1059     0.0526     2.4680     0.1071
  255.5000   -41.1577     5.1878     7.2355     8.8354   135.8902     8.0928     0.0527     2.4711     0.1055
  256.0000   -40.8717     5.4433     7.1316     8.7121   136.5042     8.0799     0.0528     2.4697     0.1082
  256.5000   -40.7325     5.6330     7.0797     8.6504   135.3297     8.0669     0.0530     2.4592     0.1157
  257.0000   -40.5933     5.6705     7.3234     8.7086   131.4727     8.0242     0.0486     2.4540     0.1147
  257.5000   -40.7551     5.5139     7.3701     8.7712   129.5531     8.0111     0.0457     2.4564     0.1141
  258.0000   -41.0637     5.2890     6.9698     8.9489   129.1217     7.9684     0.0474     2.4565     0.1156
  258.5000   -41.3722     5.0381     6.5467     8.8240   131.5261     8.0002     0.0475     2.4520     0.1203
  259.0000   -41.8300     4.8996     5.9408     8.5229   131.5440     8.0618     0.0476     2.4431     0.1230
  259.5000   -42.2881     4.7649     5.1723     7.7897   132.4907     8.1233     0.0447     2.4371     0.1266
  260.0000   -42.4496     4.6338     4.4416     5.9087   135.6434     8.1402     0.0419     2.4342     0.1254
  260.5000   -42.4596     4.5376     4.1148     4.0653   136.5157     8.1267     0.0435     2.4494     0.1199
  261.0000   -42.1712     4.5364     4.7861     4.9016   136.1879     8.1138     0.0482     2.4691     0.1130
  261.5000   -41.8827     4.5349     5.6061     6.7326   133.9615     8.0859     0.0498     2.4931     0.0998
  262.0000   -41.4450     4.6286     5.7599     8.5123   131.4332     8.0734     0.0560     2.5035     0.0868
  262.5000   -41.1443     4.7570     5.9180     8.9943   128.4398     8.0903     0.0561     2.5036     0.0856
  263.0000   -40.7213     4.9568     6.0385     7.4114   128.4917     8.0922     0.0562     2.5005     0.0859
  263.5000   -40.5821     5.2009     6.3778     7.6174   129.9201     8.1240     0.0549     2.4976     0.0870
  264.0000   -40.4404     5.4214     7.1895     9.1766   130.6830     8.1408     0.0505     2.4954     0.0888
  264.5000   -40.3036     5.6859     7.4153     8.9867   130.9989     8.1428     0.0476     2.4933     0.0909
  265.0000   -40.3137     5.9248     7.3088    10.1034   130.5696     8.1000     0.0461     2.4910     0.0938
  265.5000   -40.1745     6.0895     7.4064    10.2423   129.5442     8.0721     0.0418     2.4872     0.0962
  266.0000   -40.1851     6.3013     7.9312     8.9809   128.5187     8.0294     0.0390     2.4800     0.0989
  266.5000   -40.1971     6.4760     8.0928    10.1673   126.1520     8.0313     0.0391     2.4763     0.1010
  267.0000   -40.3563     6.6556     8.0269    10.1578   127.8092     8.0482     0.0409     2.4794     0.0994
  267.5000   -40.8141     6.7931     7.8631     9.9544   128.1250     8.0650     0.0454     2.4787     0.1006
  268.0000   -40.9734     6.9330     8.0788    10.2311   129.3351     8.0967     0.0487     2.4750     0.1018
  268.5000   -41.1328     6.9796     8.4741    10.3005   132.6315     8.1136     0.0549     2.4826     0.1005
  269.0000   -41.1453     6.9773     8.8275    10.2270   133.2410     8.1155     0.0563     2.4879     0.0945
  269.5000   -41.0035     6.9755     9.0133     9.9465   130.5807     8.1021     0.0550     2.4887     0.0951
  270.0000   -40.8643     6.9736     8.6933     9.8081   124.4882     8.1045     0.0506     2.4791     0.0998
  270.5000   -40.4291     6.9717     8.5725    10.0803   126.7415     8.0911     0.0447     2.4814     0.1001
  271.0000   -40.1406     6.9694     8.7471    10.3605   130.4851     8.0781     0.0449     2.4777     0.1013
  271.5000   -39.6995     6.9196     9.0493    10.5752   130.7965     8.0805     0.0450     2.4755     0.1010
  272.0000   -38.9692     6.9178     9.4267    10.6469   127.8381     8.0974     0.0482     2.4854     0.0955
  272.5000   -38.5290     6.9160     9.7524    10.6442   128.7501     8.1142     0.0513     2.4899     0.0943
  273.0000   -37.9445     6.9621     9.0892    10.2028   132.6427     8.1311     0.0545     2.4960     0.0907
  273.5000   -37.5068     6.9602     8.1412     8.9528   131.0211     8.0883     0.0576     2.5043     0.0852
  274.0000   -37.3659     7.0065     7.9154     8.5287   127.0151     8.0600     0.0592     2.5081     0.0840
  274.5000   -37.2284     7.0532     8.1326     8.7054   126.8794     8.0177     0.0594     2.5142     0.0792
  275.0000   -37.0891     7.0023     8.7089     9.3905   126.3055     8.0345     0.0595     2.5195     0.0770
  275.5000   -37.2509     6.9523     9.1982    10.2702   124.3859     8.0514     0.0596     2.5166     0.0773
  276.0000   -37.4102     6.9026     9.6482    10.8513   125.8940     8.0682     0.0613     2.5024     0.0849
  276.5000   -37.5695     6.7593     9.7770    11.3979   128.4070     8.0851     0.0629     2.4950     0.0896
  277.0000   -37.8781     6.5677     9.1192    11.3052   131.8474     8.1019     0.0631     2.4950     0.0898
  277.5000   -38.0374     6.1754     8.4483    11.7000   134.6051     8.1187     0.0632     2.4891     0.1053
  278.0000   -38.3682     5.8420     8.0457    12.1924   134.7927     8.1053     0.0588     2.4682     0.1145
  278.5000   -38.6570     5.6423     7.4537    12.2750   135.5195     8.1077     0.0514     2.4360     0.1255
  279.0000   -38.9655     5.5251     5.6923     9.1829   134.1960     8.0943     0.0470     2.3978     0.1397
  279.5000   -39.2740     5.4857     5.4964     4.6668   133.4843     8.0967     0.0396     2.3738     0.1583
  280.0000   -39.4333     5.4465     5.8044     3.9809   128.9967     8.0987     0.0322     2.4129     0.1395
  280.5000   -39.7419     5.5590     6.5233     5.0330   122.6294     8.0852     0.0444     2.4610     0.1208
  281.0000   -39.9015     5.6734     7.3311    11.6027   118.7679     8.0722     0.0551     2.5136     0.0830
  281.5000   -40.0630     5.8711     8.0148    13.1361   120.8766     8.0593     0.0598     2.5114     0.0791
  282.0000   -40.2223     6.1178     9.0074    13.0425   124.1731     8.0617     0.0599     2.5152     0.0811
  282.5000   -40.2323     6.4191     9.9933    13.0459   121.8064     8.0786     0.0600     2.5123     0.0796
  283.0000   -40.2423     6.6891    10.7642    13.3095   122.8674     8.0954     0.0586     2.5026     0.0865
  283.5000   -40.2524     7.1318    11.1376    13.5853   124.0775     8.0973     0.0588     2.4982     0.0873
  284.0000   -40.2627     7.5694    11.2087    13.7722   122.7540     8.1137     0.0680     2.5057     0.0843
  284.5000   -40.1232     7.9971    11.2013    13.8648   119.2067     8.1007     0.0726     2.5125     0.0801
  285.0000   -40.1357     8.3332    11.1953    13.5772   115.7836     8.1032     0.0773     2.5209     0.0755
  285.5000   -39.9940     8.5642    11.1894    12.7520   113.8595     8.1051     0.0774     2.5218     0.0752
  286.0000   -40.0066     8.8017    11.1820    12.8419   114.7715     8.1071     0.0806     2.5120     0.0797
  286.5000   -39.5688     9.1149    11.4098    13.3830   111.0680     8.0792     0.0867     2.5046     0.0812
  287.0000   -39.1184     9.7563    11.8857    12.7484   103.3362     8.0960     0.0899     2.5031     0.0820
