~VERSION INFORMATION
 VERS.                2.0:   CWLS LOG ASCII STANDARD - VERSION 2.0
 WRAP.                 NO:   ONE LINE PER DEPTH STEP
~WELL INFORMATION
#MNEM.UNIT      DATA TYPE    INFORMATION
#----------   ------------   ------------------------------
 STRT.F           15.0000:   START DEPTH
 STOP.F          531.0000:   STOP DEPTH
 STEP.F            0.1000:   STEP LENGTH
 NULL.          -999.2500:   NO VALUE
 COMP. LAWRENCE/ALLISON INC:   COMPANY
 WELL.   NPR 3 #42-61SX10:   WELL
 FLD .          N.P.R. #3:   FIELD
 LOC .      S10 T38N R78W:   LOCATION
 CNTY.            NATRONA:   COUNTY
 STAT.            WYOMING:   STATE
 CTRY. UNITED STATES OF AMERICA:   COUNTRY
 SRVC.           Gearhart:   SERVICE COMPANY
 DATE.        06-JUL-1986:   LOGDATE
 API .       490251109500:   API NUMBER
~CURVE INFORMATION
#MNEM.UNIT       API CODE    CURVE DESCRIPTION
#----------   ------------   ------------------------------
 DEPT.F                  :   
 GRR .GAPI   07 310 01 00:   GAMMA RAY
 RILD.OHMM   07 120 46 00:   INDUCTION LOG DEEP
 RILM.OHMM   07 120 44 00:   INDUCTION LOG MEDIUM
~PARAMETER INFORMATION
#MNEM.UNIT          VALUE    DESCRIPTION
#----------   ------------   ------------------------------
 PD  .                 GL:   PERMANENT DATUM
 EPD .F              5196:   ELEVATION PERMANENT DATUM
 LMF .                 KB:   LOG MEASURED FROM
 DAPD.F                 5:   FEET ABOVE PERMANENT DATUM
 DMF .                 KB:   DRILLING MEASURED FROM
 EKB .F              5201:   KELLING BUSHING
 EGL .F              5196:   GROUND LEVEL
 DATE.        06-JUL-1986:   RUN DATE
 RUN .                  1:   RUN NUMBER
 DD  .F               548:   DEPTH DRILLER
 DL  .F               541:   DEPTH LOGGER
 BLI .F               531:   BOTTOM LOG INTERVAL
 TLI .F                15:   TOP LOG INTERVAL
 CS  .IN            8.625:   CASING SIZE
 CBD .F                47:   CASING BOTTOM DRILLER
 CBL .F                47:   CASING BOTTOM LOGGER
 BS  .IN            7.875:   BIT SIZE
 BSD .F               548:   BIT SIZE AT DEPTH
 DFT .                AIR:   DRILLING FLUID TYPE
 BHT .F                82:   BOTTOM HOLE TEMPERATURE
 TCS .HRS            2000:   TIME CURCULATED STOPPED
 TLAB.HRS            2130:   TIME LOGGER AT BOTTOM
 MRT .F                82:   MAXIMUM RECORDED TEMPERATURE
 LUN .               7609:   LOGGING UNIT NUMBER
 LUL .           GILLETTE:   LOGGING UNIT LOCATION
 ENGI.              BAUER:   RECORDING ENGINEER
 WITN.           JENNINGS:   WITNESSED BY
 CLNT.            A2DTECH:   CLIENT CODE
 ORIG.           5" PRINT:   ORIGIN OF DATA
 UWI .       490251109500:   UNIQUE WELL ID
 DICO. A2D Technologies, Inc.:   DIGITIZING COMPANY
~OTHER INFORMATION
~A   DEPT      GRR       RILD       RILM   
# ...
  360.8000    68.2813    30.4395    30.4469
  360.9000    68.8743    30.4390    30.6634
  361.0000    69.3008    30.4386    30.6648
  361.1000    69.8104    30.5614    30.6665
  361.2000    70.2062    30.6524    30.6682
  361.3000    70.3963    30.6519    30.7060
  361.4000    70.3951    30.6515    30.8877
  361.5000    70.3937    30.6510    30.8898
  361.6000    70.3927    30.6506    30.8912
  361.7000    70.3914    30.6502    30.8929
  361.8000    70.2701    30.7388    30.9673
  361.9000    69.8729    30.8654    31.1141
  362.0000    69.1257    30.8650    31.1158
  362.1000    68.5544    30.8645    31.1179
  362.2000    68.1014    30.8641    31.1193
  362.3000    67.4132    30.8637    31.1211
  362.4000    66.8979    30.8633    31.1228
  362.5000    66.6412    30.8628    31.1246
  362.6000    66.3582    30.8624    31.1263
  362.7000    65.7990    30.8619    31.1281
  362.8000    65.5658    30.8615    31.1298
  362.9000    65.3091    30.8611    31.1315
  363.0000    65.0524    30.8607    31.1333
  363.1000    64.7957    30.8602    31.0988
  363.2000    64.5716    30.8598    30.9190
  363.3000    64.5703    30.8593    30.9207
  363.4000    64.5692    30.8589    30.7782
  363.5000    64.7562    30.8585    30.7079
  363.6000    65.1488    30.8581    30.7096
  363.7000    65.7471    30.8019    30.6755
  363.8000    66.4736    30.6412    30.4982
  363.9000    67.0058    30.6407    30.4999
  364.0000    67.7375    30.6403    30.5016
  364.1000    68.5026    30.5125    30.3966
  364.2000    69.2678    30.4249    30.2916
  364.3000    69.9383    30.4245    30.2580
  364.4000    70.4480    30.4241    30.0831
  364.5000    70.9679    30.4236    30.0851
  364.6000    71.4675    30.2605    29.9461
  364.7000    71.7767    30.2098    29.8777
  364.8000    71.8803    30.2094    29.8097
  364.9000    71.8791    30.1528    29.6717
  365.0000    71.8779    29.9971    29.6737
  365.1000    71.8766    29.9966    29.6757
  365.2000    71.8752    29.8349    29.5386
  365.3000    71.8742    29.7858    29.4711
  365.4000    71.8730    29.6945    29.4727
  365.5000    71.8717    29.5765    29.4400
  365.6000    71.8705    29.5545    29.2698
  365.7000    71.8622    29.3685    29.1008
  365.8000    71.5625    29.2095    28.9328
  365.9000    71.5615    29.0385    28.7657
  366.0000    71.3975    28.8684    28.6663
  366.1000    71.2537    28.6993    28.6013
  366.2000    71.1894    28.5097    28.2698
  366.3000    70.9460    28.1539    28.1066
  366.4000    70.9446    28.0006    28.0752
  366.5000    70.9435    27.8367    27.9786
  366.6000    70.7733    27.6737    27.8819
  366.7000    70.6357    27.5652    27.8835
  366.8000    70.5653    27.5649    27.8851
  366.9000    70.3279    27.5644    27.7241
  367.0000    70.3266    27.4136    27.6931
  367.1000    70.1006    27.3707    27.6946
  367.2000    70.0189    27.3703    27.6316
  367.3000    69.8925    27.3700    27.5040
  367.4000    69.6358    27.3696    27.5055
  367.5000    69.4046    27.3692    27.5074
  367.6000    69.4032    27.3688    27.3803
  367.7000    69.1711    27.3684    27.3177
  367.8000    69.0956    27.2815    27.3193
  367.9000    68.9631    27.1761    27.3208
  368.0000    68.7064    27.1757    27.3223
  368.1000    68.4497    27.1753    27.1330
  368.2000    68.1746    27.1749    27.1342
  368.3000    68.1734    27.1745    27.0408
  368.4000    67.9850    27.0874    26.9475
  368.5000    67.8657    26.9835    26.9175
  368.6000    67.8644    26.9597    26.7619
  368.7000    67.9009    26.7938    26.6074
  368.8000    68.1673    26.7935    26.5777
  368.9000    68.6527    26.6757    26.4862
  369.0000    68.9690    26.6052    26.3332
  369.1000    69.3667    26.5500    26.1811
  369.2000    69.8764    26.4182    26.0297
  369.3000    70.3861    26.4178    26.0312
  369.4000    70.9081    26.2702    25.9112
  369.5000    71.4056    26.2321    25.7615
  369.6000    71.7159    26.1465    25.6127
  369.7000    71.9701    26.0477    25.4647
  369.8000    72.2243    26.0233    25.3175
  369.9000    72.4786    25.8646    25.1713
  370.0000    72.7328    25.8643    25.1432
  370.1000    72.7314    25.7491    24.9693
  370.2000    72.9360    25.5984    24.6802
  370.3000    73.0345    25.5023    24.4226
  370.4000    73.1391    25.4777    24.2814
  370.5000    73.3374    25.3231    24.1132
  370.6000    73.3301    25.1802    24.0018
  370.7000    73.0294    25.1451    23.8632
  370.8000    72.8167    25.0617    23.7253
  370.9000    72.5600    24.9684    23.6154
  371.0000    72.1913    24.9435    23.6170
  371.1000    71.7412    24.7929    23.4534
  371.2000    71.4846    24.6523    23.3450
  371.3000    71.1900    24.6186    23.2917
  371.4000    70.9712    24.6183    23.2386
  371.5000    70.7145    24.5645    23.1313
  371.6000    70.4578    24.4452    23.1326
  371.7000    70.2011    24.4449    23.1339
  371.8000    69.9445    24.4445    23.0273
  371.9000    69.6560    24.3336    22.9747
  372.0000    69.4310    24.2727    22.9224
  372.1000    69.3484    24.2724    22.8165
  372.2000    69.5955    24.2720    22.8178
  372.3000    70.2539    24.2717    22.8193
  372.4000    71.2501    24.2714    22.8204
  372.5000    72.0915    24.2710    22.8217
  372.6000    72.5504    24.2707    22.7697
  372.7000    73.2402    24.2703    22.6643
  372.8000    74.0054    24.2700    22.6658
  372.9000    74.6902    24.2696    22.6671
  373.0000    75.2304    24.2693    22.7748
  373.1000    76.0536    24.2690    22.8293
  373.2000    76.5248    24.2686    22.8306
  373.3000    77.0345    24.2683    22.8319
  373.4000    77.5442    24.2679    22.8332
  373.5000    77.8809    24.2676    22.8345
  373.6000    77.8797    24.2673    22.8358
  373.7000    77.8784    24.2669    22.8370
  373.8000    77.6350    24.3508    22.8383
  373.9000    77.5707    24.4373    22.8396
  374.0000    77.2846    24.4370    22.8409
  374.1000    76.8649    24.4366    22.8424
  374.2000    76.6082    24.4363    22.8435
  374.3000    76.3444    24.4359    22.8447
  374.4000    76.0948    24.4356    22.8997
  374.5000    75.8382    24.4353    23.0083
  374.6000    75.5815    24.4349    23.0095
  374.7000    75.3248    24.4346    23.0108
  374.8000    75.0681    24.4342    23.0121
  374.9000    74.8104    24.4339    23.0134
  375.0000    74.8089    24.4335    23.0688
  375.1000    74.6034    24.4332    23.1782
  375.2000    74.5014    24.4329    23.1795
  375.3000    74.3953    24.4325    23.1810
  375.4000    74.1936    24.4322    23.2909
  375.5000    74.1924    24.4318    23.3467
  375.6000    74.1909    24.4315    23.3480
  375.7000    74.6113    24.4311    23.3767
  375.8000    75.2818    24.4308    23.5151
  375.9000    76.2689    24.4305    23.5167
  376.0000    77.3618    24.4301    23.6282
  376.1000    77.8828    24.4298    23.6848
  376.2000    78.7638    24.4294    23.6861
  376.3000    79.4130    24.4291    23.7152
  376.4000    80.0113    24.4287    23.8556
  376.5000    80.6381    24.4284    23.8570
  376.6000    81.2690    24.4280    23.8583
  376.7000    81.5407    24.4277    23.8597
  376.8000    82.1153    24.4274    23.9170
  376.9000    82.3371    24.4270    24.0304
  377.0000    82.5913    24.4267    24.0318
  377.1000    82.8456    24.4263    24.0334
  377.2000    83.0998    24.4259    24.0345
  377.3000    83.3308    24.4257    24.0358
  377.4000    83.3293    24.4253    24.0372
  377.5000    83.3282    24.4250    24.0385
  377.6000    83.3270    24.4246    24.0399
  377.7000    83.3258    24.4243    24.0412
  377.8000    83.3246    24.4239    24.0426
  377.9000    83.2938    24.4236    24.0439
  378.0000    83.0167    24.3343    24.0453
  378.1000    83.0156    24.2519    24.0466
  378.2000    82.8291    24.2516    24.0480
  378.3000    82.7078    24.2512    24.0493
  378.4000    82.7066    24.2508    24.0507
  378.5000    82.6697    24.1334    24.0520
  378.6000    82.3987    24.0805    24.0534
  378.7000    82.3976    24.0801    24.0547
  378.8000    82.2050    24.0798    24.0561
  378.9000    82.0898    24.0751    23.8894
