~VERSION INFORMATION
 VERS.                2.0:   CWLS LOG ASCII STANDARD - VERSION 2.0
 WRAP.                 NO:   ONE LINE PER DEPTH STEP
~WELL INFORMATION
#MNEM.UNIT      DATA TYPE    INFORMATION
#----------   ------------   ------------------------------
 STRT.F          376.0000:   START DEPTH
 STOP.F         2400.0000:   STOP DEPTH
 STEP.F            0.5000:   STEP LENGTH
 NULL.          -999.2500:   NO VALUE
 COMP. LAWRENCE/ALLISON INC:   COMPANY
 WELL.        55 X #15-15:   WELL
 FLD .            WILDCAT:   FIELD
 LOC .      S15 T38N R78W:   LOCATION
 CNTY.            NATRONA:   COUNTY
 STAT.            WYOMING:   STATE
 CTRY. UNITED STATES OF AMERICA:   COUNTRY
 SRVC.            Unknown:   SERVICE COMPANY
 DATE.        12-APR-1988:   LOGDATE
 API .       490251119800:   API NUMBER
~CURVE INFORMATION
#MNEM.UNIT       API CODE    CURVE DESCRIPTION
#----------   ------------   ------------------------------
 DEPT.F                  :   
 GR  .GAPI   30 310 01 00:   GAMMA RAY
 TGAS.UNITS  91 830 01 00:   TOTAL GAS UNIT
 ROP .FT/HR  91 810 01 00:   RATE OF DRILLING PENETRATION
~PARAMETER INFORMATION
#MNEM.UNIT          VALUE    DESCRIPTION
#----------   ------------   ------------------------------
 PD  .                 GL:   PERMANENT DATUM
 EPD .F              5293:   ELEVATION PERMANENT DATUM
 LMF .                 GL:   LOG MEASURED FROM
 DMF .                 KB:   DRILLING MEASURED FROM
 EKB .F              5304:   KELLING BUSHING
 EGL .F              5293:   GROUND LEVEL
 DATE.        12-APR-1988:   RUN DATE
 RUN .                  1:   RUN NUMBER
 DD  .F              2400:   DEPTH DRILLER
 DL  .F               851:   DEPTH LOGGER
 BLI .F               846:   BOTTOM LOG INTERVAL
 TLI .F               372:   TOP LOG INTERVAL
 CS  .IN                7:   CASING SIZE
 CBL .F               890:   CASING BOTTOM LOGGER
 BSD .F              2400:   BIT SIZE AT DEPTH
 DFT .              WATER:   DRILLING FLUID TYPE
 TCS .HRS               1:   TIME CURCULATED STOPPED
 ENGI.          BANGERTER:   RECORDING ENGINEER
 WITN.             NORHAN:   WITNESSED BY
 CLNT.            A2DTECH:   CLIENT CODE
 ORIG.           5" PRINT:   ORIGIN OF DATA
 UWI .       490251119800:   UNIQUE WELL ID
 DICO. A2D Technologies, Inc.:   DIGITIZING COMPANY
~OTHER INFORMATION
~A   DEPT        GR      TGAS        ROP   
# ...
 1923.0000  -999.2500     4.0519     0.3932
 1923.5000  -999.2500     4.0574     0.3938
 1924.0000  -999.2500     4.0630     0.4038
 1924.5000  -999.2500     4.0686     0.4043
 1925.0000  -999.2500     4.0741     0.4050
 1925.5000  -999.2500     4.0797     0.4056
 1926.0000  -999.2500     4.0853     0.4060
 1926.5000  -999.2500     4.0909     0.3971
 1927.0000  -999.2500     4.0964     0.3978
 1927.5000  -999.2500     4.1021     0.3983
 1928.0000  -999.2500     4.1078     0.3989
 1928.5000  -999.2500     4.1146     0.3901
 1929.0000  -999.2500     4.1201     0.3906
 1929.5000  -999.2500     4.1248     0.3912
 1930.0000  -999.2500     4.1305     0.3917
 1930.5000  -999.2500     4.1362     0.3923
 1931.0000  -999.2500     4.1424     0.3928
 1931.5000  -999.2500     4.1480     0.3934
 1932.0000  -999.2500     4.1536     0.3940
 1932.5000  -999.2500     4.1591     0.3946
 1933.0000  -999.2500     4.1647     0.4046
 1933.5000  -999.2500     4.1703     0.4052
 1934.0000  -999.2500     4.1760     0.4151
 1934.5000  -999.2500     4.1828     0.4157
 1935.0000  -999.2500     4.1884     0.4257
 1935.5000  -999.2500     4.1940     0.4356
 1936.0000  -999.2500     4.1995     0.4362
 1936.5000  -999.2500     4.2051     0.4462
 1937.0000  -999.2500     4.2107     0.4467
 1937.5000  -999.2500     4.2163     0.4473
 1938.0000  -999.2500     3.8415     0.4478
 1938.5000  -999.2500     3.4695     0.4484
 1939.0000  -999.2500     3.4751     0.4490
 1939.5000  -999.2500     3.4807     0.4495
 1940.0000  -999.2500     3.4863     0.4501
 1940.5000  -999.2500     3.4920     0.4412
 1941.0000  -999.2500     3.4988     0.4418
 1941.5000  -999.2500     3.5043     0.4425
 1942.0000  -999.2500     3.1310     0.4430
 1942.5000  -999.2500     3.1365     0.4435
 1943.0000  -999.2500     3.1421     0.4441
 1943.5000  -999.2500     3.5261     0.4447
 1944.0000  -999.2500     3.5322     0.4452
 1944.5000  -999.2500     3.5378     0.4552
 1945.0000  -999.2500     3.5433     0.4558
 1945.5000  -999.2500     3.1699     0.4563
 1946.0000  -999.2500     3.1756     0.4569
 1946.5000  -999.2500     3.2216     0.4574
 1947.0000  -999.2500     3.1867     0.4580
 1947.5000  -999.2500     3.1937     0.4586
 1948.0000  -999.2500     3.1992     0.4592
 1948.5000  -999.2500     3.2048     0.4598
 1949.0000  -999.2500     3.2104     0.4604
 1949.5000  -999.2500     3.5935     0.4609
 1950.0000  -999.2500     3.6005     0.4615
 1950.5000  -999.2500     3.2257     0.4714
 1951.0000  -999.2500     3.2327     0.4720
 1951.5000  -999.2500     3.2382     0.4819
 1952.0000  -999.2500     3.2438     0.4919
 1952.5000  -999.2500     3.2495     0.4925
 1953.0000  -999.2500     3.2552     0.4930
 1953.5000  -999.2500     3.2619     0.4936
 1954.0000  -999.2500     3.2675     0.4942
 1954.5000  -999.2500     3.2731     0.4853
 1955.0000  -999.2500     3.2786     0.4859
 1955.5000  -999.2500     3.2842     0.4770
 1956.0000  -999.2500     3.2898     0.4589
 1956.5000  -999.2500     3.2954     0.4594
 1957.0000  -999.2500     2.9206     0.4599
 1957.5000  -999.2500     2.9276     0.4605
 1958.0000  -999.2500     2.5541     0.4611
 1958.5000  -999.2500     2.1808     0.4616
 1959.0000  -999.2500     2.1865     0.4622
 1959.5000  -999.2500     1.8130     0.4627
 1960.0000  -999.2500     1.4396     0.4633
 1960.5000  -999.2500     1.0676     0.4639
 1961.0000  -999.2500     1.0732     0.4644
 1961.5000  -999.2500     1.0788     0.4650
 1962.0000  -999.2500     1.0844     0.4655
 1962.5000  -999.2500     1.0899     0.4661
 1963.0000  -999.2500     1.0955     0.4667
 1963.5000  -999.2500     1.1011     0.4673
 1964.0000  -999.2500     1.1067     0.4679
 1964.5000  -999.2500     1.1122     0.4684
 1965.0000  -999.2500     1.1179     0.4690
 1965.5000  -999.2500     1.1236     0.4696
 1966.0000  -999.2500     1.1303     0.4701
 1966.5000  -999.2500     0.7570     0.4801
 1967.0000  -999.2500     0.7625     0.4806
 1967.5000  -999.2500     1.1471     0.4906
 1968.0000  -999.2500     1.1526     0.5100
 1968.5000  -999.2500     1.1582     0.5294
 1969.0000  -999.2500     1.1638     0.5394
 1969.5000  -999.2500     1.1694     0.5493
 1970.0000  -999.2500     1.1749     0.5499
 1970.5000  -999.2500     1.1805     0.5505
 1971.0000  -999.2500     1.1861     0.5511
 1971.5000  -999.2500     1.5707     0.5611
 1972.0000  -999.2500     1.5776     0.5711
 1972.5000  -999.2500     1.5831     0.5905
 1973.0000  -999.2500     1.5887     0.6099
 1973.5000  -999.2500     1.2139     0.6293
 1974.0000  -999.2500     0.8406     0.6486
 1974.5000  -999.2500     0.4686     0.6302
 1975.0000  -999.2500     0.4741     0.5838
 1975.5000  -999.2500     0.8587     0.5467
 1976.0000  -999.2500     0.8642     0.5190
 1976.5000  -999.2500     0.8698     0.4913
 1977.0000  -999.2500     0.8754     0.4731
 1977.5000  -999.2500     1.2600     0.4642
 1978.0000  -999.2500     1.2657     0.4648
 1978.5000  -999.2500     1.2724     0.4655
 1979.0000  -999.2500     1.2780     0.4472
 1979.5000  -999.2500     1.2836     0.4477
 1980.0000  -999.2500     1.2892     0.4483
 1980.5000  -999.2500     1.2947     0.4583
 1981.0000  -999.2500     1.3003     0.4588
 1981.5000  -999.2500     1.3059     0.4688
 1982.0000  -999.2500     0.9311     0.4694
 1982.5000  -999.2500     0.5591     0.4793
 1983.0000  -999.2500     0.5647     0.4799
 1983.5000  -999.2500     0.9493     0.4993
 1984.0000  -999.2500     0.9549     0.5187
 1984.5000  -999.2500     0.9618     0.5286
 1985.0000  -999.2500     0.9673     0.5386
 1985.5000  -999.2500     0.9729     0.5392
 1986.0000  -999.2500     0.5995     0.5286
 1986.5000  -999.2500     0.6051     0.5027
 1987.0000  -999.2500     0.0000     0.4750
 1987.5000  -999.2500     0.0000     0.4660
 1988.0000  -999.2500     0.0000     0.4572
 1988.5000  -999.2500     0.0000     0.4579
 1989.0000  -999.2500     0.0000     0.4584
 1989.5000  -999.2500     0.0000     0.4684
 1990.0000  -999.2500     0.0000     0.4690
 1990.5000  -999.2500     0.0000     0.4695
 1991.0000  -999.2500     0.0000     0.4701
 1991.5000  -999.2500     0.0000     0.4706
 1992.0000  -999.2500     0.0000     0.4712
 1992.5000  -999.2500     0.0000     0.4718
 1993.0000  -999.2500     0.0000     0.4817
 1993.5000  -999.2500     0.0000     0.4917
 1994.0000  -999.2500     0.0000     0.5018
 1994.5000  -999.2500     0.0000     0.5306
 1995.0000  -999.2500     0.0000     0.5500
 1995.5000  -999.2500     0.0000     0.5600
 1996.0000  -999.2500     0.0000     0.5605
 1996.5000  -999.2500     0.0000     0.5611
 1997.0000  -999.2500     0.0000     0.5616
 1997.5000  -999.2500     0.0000     0.5621
 1998.0000  -999.2500     0.0000     0.5627
 1998.5000  -999.2500     0.0000     0.5633
 1999.0000  -999.2500     0.0000     0.5638
 1999.5000  -999.2500     0.0000     0.5644
 2000.0000  -999.2500     0.0000     0.5650
 2000.5000  -999.2500     0.0000     0.5655
 2001.0000  -999.2500     0.0000     0.5661
 2001.5000  -999.2500     0.0000     0.5474
 2002.0000  -999.2500     0.0000     0.5573
 2002.5000  -999.2500     0.0000     0.5577
 2003.0000  -999.2500     0.0000     0.5581
 2003.5000  -999.2500     0.0000     0.5585
 2004.0000  -999.2500     0.0000     0.5589
 2004.5000  -999.2500     0.0000     0.5499
 2005.0000  -999.2500     0.0000     0.5504
 2005.5000  -999.2500     0.0000     0.5509
 2006.0000  -999.2500     0.0000     0.5513
 2006.5000  -999.2500     0.0000     0.5611
 2007.0000  -999.2500     0.0000     0.5615
 2007.5000  -999.2500     0.0000     0.5619
 2008.0000  -999.2500     0.0000     0.5624
 2008.5000  -999.2500     0.0000     0.5722
 2009.0000  -999.2500     0.0000     0.5726
 2009.5000  -999.2500     0.0000     0.5824
 2010.0000  -999.2500     0.0000     0.6111
 2010.5000  -999.2500     0.0000     0.6495
 2011.0000  -999.2500     0.0000     0.6882
 2011.5000  -999.2500     0.0000     0.7160
 2012.0000  -999.2500     0.0000     0.7070
 2012.5000  -999.2500     0.0000     0.6698
 2013.0000  -999.2500     0.0000     0.6231
 2013.5000  -999.2500     0.0000     0.5952
