~VERSION INFORMATION
 VERS.                2.0:   CWLS LOG ASCII STANDARD - VERSION 2.0
 WRAP.                 NO:   ONE LINE PER DEPTH STEP
~WELL INFORMATION
#MNEM.UNIT      DATA TYPE    INFORMATION
#----------   ------------   ------------------------------
 STRT.F           29.0000:   START DEPTH
 STOP.F          500.0000:   STOP DEPTH
 STEP.F            0.5000:   STEP LENGTH
 NULL.          -999.2500:   NO VALUE
 COMP.    FENIX & SCISSON:   COMPANY
 WELL.        NPR #48-S-3:   WELL
 FLD .             TEAPOT:   FIELD
 LOC .       S3 T38N R78W:   LOCATION
 CNTY.            NATRONA:   COUNTY
 STAT.            WYOMING:   STATE
 CTRY. UNITED STATES OF AMERICA:   COUNTRY
 SRVC.              Welex:   SERVICE COMPANY
 DATE.        24-APR-1977:   LOGDATE
 API .       490251034900:   API NUMBER
~CURVE INFORMATION
#MNEM.UNIT       API CODE    CURVE DESCRIPTION
#----------   ------------   ------------------------------
 DEPT.F                  :   
 SPR .MV     07 010 01 00:   SPONTANEOUS POTENTIAL
 ILD .OHMM   07 120 46 00:   INDUCTION LOG DEEP
 ILM .OHMM   07 120 44 00:   INDUCTION LOG MEDIUM
 SGRD.OHMM   07 221 05 00:   SHALLOW SHORT GUARD RESISTIVITY
 GRD .GAPI   45 310 01 00:   GAMMA RAY FROM DENSITY LOG
 CALD.IN     45 280 60 00:   CALIPER FROM DENSITY LOG
 CORR.G/C3   45 356 01 00:   DENSITY CORRECTION
 RHOB.G/C3   45 350 01 00:   BULK DENSITY
 DPHI.DEC    45 890 12 00:   DENSITY POROSITY SANDSTONE
~PARAMETER INFORMATION
#MNEM.UNIT          VALUE    DESCRIPTION
#----------   ------------   ------------------------------
 PD  .                 GL:   PERMANENT DATUM
 EPD .F              5199:   ELEVATION PERMANENT DATUM
 LMF .                 GL:   LOG MEASURED FROM
 DMF .                 GL:   DRILLING MEASURED FROM
 EGL .F              5199:   GROUND LEVEL
 DATE.        24-APR-1977:   RUN DATE
 RUN .                  1:   RUN NUMBER
 DD  .F               500:   DEPTH DRILLER
 DL  .F               499:   DEPTH LOGGER
 BLI .F               497:   BOTTOM LOG INTERVAL
 TLI .F                30:   TOP LOG INTERVAL
 CS  .IN            8.625:   CASING SIZE
 BS  .IN               12:   BIT SIZE
 BSD .F               500:   BIT SIZE AT DEPTH
 DFT .             KCLMUD:   DRILLING FLUID TYPE
 DFD .                8.9:   DRILLING FLUID DENSITY
 TCS .HRS               1:   TIME CURCULATED STOPPED
 MRT .F                70:   MAXIMUM RECORDED TEMPERATURE
 ENGI.          T. JOYNER:   RECORDING ENGINEER
 WITN.            R. LYON:   WITNESSED BY
 CLNT.            A2DTECH:   CLIENT CODE
 ORIG.           5" PRINT:   ORIGIN OF DATA
 UWI .       490251034900:   UNIQUE WELL ID
 DICO. A2D Technologies, Inc.:   DIGITIZING COMPANY
~OTHER INFORMATION
~A   DEPT      SPR        ILD        ILM       SGRD        GRD         CALD      CORR        RHOB     DPHI   
# ...
  175.0000   -55.2670     5.3024     6.4498    10.4424   117.9579     7.9207     0.0060     2.4281     0.1315
  175.5000   -54.9508     5.4563     6.7618    11.3576   115.7124     7.9206     0.0060     2.4401     0.1288
  176.0000   -54.6379     5.6147     6.9581    11.2874   113.3919     7.9205     0.0059     2.4476     0.1241
  176.5000   -54.4734     5.8177     7.1107    11.6984   115.5455     7.9203     0.0059     2.4520     0.1180
  177.0000   -54.1605     5.9892     7.2667    11.9551   119.7098     7.9202     0.0051     2.4580     0.1135
  177.5000   -53.9960     6.2565     7.3750    12.2173   122.5329     7.9200     0.0051     2.4621     0.1111
  178.0000   -53.8315     6.5251     7.4848    12.3109   124.0146     7.9199     0.0051     2.4692     0.1090
  178.5000   -53.6670     6.8011     7.5963    11.9865   125.3542     7.9197     0.0043     2.4782     0.1061
  179.0000   -53.6509     6.9985     7.7095    12.0842   127.1249     7.9196     0.0035     2.4857     0.1025
  179.5000   -53.6347     7.1028     7.8244    12.2641   129.0538     7.9194     0.0035     2.4850     0.0980
  180.0000   -53.6186     7.1589     7.8319    12.6202   130.0898     7.9193     0.0034     2.4782     0.0974
  180.5000   -53.6024     7.3159     7.8937    12.6322   126.2043     7.9042     0.0027     2.4669     0.1031
  181.0000   -53.5863     7.4249     8.0113    12.7320   123.5132     7.9040     0.0026     2.4662     0.1091
  181.5000   -53.5701     7.5355     8.0747    13.0113   121.2691     7.9039     0.0011     2.4722     0.1115
  182.0000   -53.7064     7.5427     8.1385    13.1142   120.2173     7.8888     0.0011     2.4774     0.1112
  182.5000   -53.6862     7.6023     8.2597    12.9464   119.4486     7.8886     0.0003     2.4842     0.1091
  183.0000   -53.6701     7.6095     8.3828    12.8694   118.2606     7.8885     0.0003     2.4879     0.1067
  183.5000   -53.6539     7.7229     8.5667    13.1549   117.2088     7.8734     0.0002     2.4782     0.1049
  184.0000   -53.6378     7.7302     8.5749    13.7286   116.4572     7.8882     0.0010     2.4819     0.1026
  184.5000   -53.7700     7.7913     8.6426    13.8305   122.8549     7.8880     0.0009     2.4781     0.1014
  185.0000   -53.9022     7.8529     8.7715    13.2664   124.3517     7.8879     0.0017     2.4721     0.1071
  185.5000   -54.0455     7.9149     8.8409    13.1113   122.1787     7.8877     0.0024     2.4811     0.1080
  186.0000   -54.3150     7.8679     8.9108    13.2180   121.4878     7.8876     0.0023     2.4879     0.1040
  186.5000   -54.4708     7.8756     8.9915    13.5080   123.5657     7.8874     0.0008     2.4837     0.1071
  187.0000   -54.7278     7.8848     9.0542    13.6147   121.7666     7.8873     0.0000     2.4721     0.1158
  187.5000   -55.0044     7.8923     9.0628    13.8175   121.6112     7.8871    -0.0008     2.4534     0.1218
  188.0000   -55.1407     7.8435     8.9448    13.9267   127.4141     7.8720    -0.0030     2.4399     0.1254
  188.5000   -55.2729     7.8529     8.8325    13.6538   125.1679     7.8719    -0.0053     2.4301     0.1281
  189.0000   -55.4051     7.8062     8.7175    13.2941   120.6884     7.8718    -0.0061     2.4256     0.1296
  189.5000   -55.3849     7.8137     8.6060    12.8546   112.9156     7.8716    -0.0076     2.4193     0.1305
  190.0000   -55.5212     7.7654     8.4374    12.6871   115.9001     7.8714    -0.0092     2.4099     0.1350
  190.5000   -55.5010     7.6679     8.2721    12.5248   119.9153     7.8863    -0.0092     2.3971     0.1404
  191.0000   -55.4848     7.6205     8.0560    12.4534   124.2287     7.8861    -0.0092     2.3896     0.1440
  191.5000   -55.6171     7.4712     7.8982    12.2941   126.3072     7.9009    -0.0093     2.4039     0.1446
  192.0000   -55.6009     7.2761     7.6038    12.1365   120.4843     7.9007    -0.0093     2.4129     0.1405
  192.5000   -55.7372     7.0843     7.2330    11.8988   123.3073     7.9006    -0.0086     2.4151     0.1380
  193.0000   -55.8694     6.8976     6.9457    11.7487   126.4284     7.9004    -0.0071     2.4151     0.1351
  193.5000   -56.0016     6.7159     6.6239    11.5985   127.3161     7.9003    -0.0064     2.4128     0.1345
  194.0000   -56.2789     6.4047     6.3170    11.3712   123.4306     7.9001    -0.0056     2.4098     0.1372
  194.5000   -56.5588     6.0622     5.9827    10.9953   122.8259     7.9000    -0.0042     2.4068     0.1411
  195.0000   -56.9877     5.6544     5.6662    10.4135   123.4135     7.8849    -0.0034     2.4023     0.1444
  195.5000   -57.4167     5.2032     5.2927     9.7946   124.5950     7.8847    -0.0012     2.3978     0.1474
  196.0000   -57.8456     4.6144     4.8423     9.2764   125.9277     7.8846    -0.0004     2.3933     0.1509
  196.5000   -58.2789     4.0783     4.4583     8.6052   127.8565     7.8695     0.0017     2.3888     0.1585
  197.0000   -58.5658     3.6800     4.1629     7.8729   128.7421     7.8694     0.0024     2.3806     0.1642
  197.5000   -59.0010     3.2750     3.8862     7.2030   128.6885     7.8692     0.0024     2.3663     0.1705
  198.0000   -59.2647     2.9551     3.6239     6.6358   122.9106     7.8690     0.0024     2.3431     0.1879
  198.5000   -59.5413     2.7413     3.3502     6.0293   119.1763     7.8689     0.0016     2.3170     0.2056
  199.0000   -59.5252     2.5784     3.1730     5.5162   115.5909     7.8687    -0.0007     2.2936     0.2162
  199.5000   -59.5090     2.4760     3.0681     4.7752   111.1114     7.8686    -0.0015     2.2802     0.2260
  200.0000   -59.4515     2.4269     3.0281     4.1913   110.2086     7.8685    -0.0022     2.2622     0.2317
  200.5000   -58.9003     2.4640     3.3635     3.9779   111.7831     7.8637    -0.0015     2.2584     0.2341
  201.0000   -58.5808     2.5899     3.6087     4.6025   113.0316     7.8589    -0.0038     2.2659     0.2308
  201.5000   -58.2723     2.7598     3.8737     5.3983   113.4732     7.8541    -0.0038     2.2834     0.2149
  202.0000   -57.9638     2.9599     4.2091     6.7377   113.7669     7.8230    -0.0038     2.3224     0.1808
  202.5000   -57.8037     3.2218     4.5227     7.5298   113.9116     7.8079    -0.0031     2.3857     0.1530
  203.0000   -57.4952     3.5811     4.8869     8.0180   116.1428     7.8078    -0.0016     2.4111     0.1399
  203.5000   -57.1867     4.0336     5.2743     9.2754   121.9506     7.8076    -0.0009     2.4238     0.1333
  204.0000   -56.7299     4.5119     5.5811    10.8044   125.5472     7.8075     0.0006     2.4298     0.1306
  204.5000   -56.4214     4.9724     5.9305    11.2691   123.1341     7.8223     0.0015     2.4320     0.1292
  205.0000   -56.1128     5.4034     6.1872    11.2768   123.2789     7.8221     0.0021     2.4365     0.1268
  205.5000   -55.9525     5.6391     6.3664    11.1279   123.8696     7.8220     0.0021     2.4426     0.1240
  206.0000   -55.9407     5.9515     6.4608    10.8322   124.3124     7.8218     0.0013     2.4529     0.1205
  206.5000   -55.9288     5.9986     6.5115    10.5462   125.2022     7.8216     0.0021     2.4664     0.1154
  207.0000   -55.9169     6.0044     6.4710    10.4790   126.6882     7.8215     0.0020     2.4746     0.1121
  207.5000   -56.0541     5.8868     6.3892    10.5607   129.2174     7.8363     0.0020     2.4723     0.1121
  208.0000   -56.1907     5.7715     6.2636    10.7149   128.1698     7.8362     0.0020     2.4633     0.1145
  208.5000   -56.4727     5.6584     6.0982    10.8713   127.2713     7.8360     0.0020     2.4483     0.1181
  209.0000   -56.6122     5.4337     5.9372    11.0301   127.5887     7.8508     0.0012     2.4333     0.1218
  209.5000   -57.0426     5.2541     5.7804    11.1892   128.1557     7.8507    -0.0003     2.4211     0.1298
  210.0000   -57.4760     5.0455     5.6667    10.4517   128.4505     7.8655    -0.0011     2.4100     0.1370
  210.5000   -57.9093     4.8787     5.5927     9.0472   128.5952     7.8653    -0.0018     2.4033     0.1444
  211.0000   -58.0489     4.7502     5.5208     7.8315   128.8889     7.8502    -0.0033     2.3995     0.1495
