~VERSION INFORMATION
 VERS.                2.0:   CWLS LOG ASCII STANDARD - VERSION 2.0
 WRAP.                 NO:   ONE LINE PER DEPTH STEP
~WELL INFORMATION
#MNEM.UNIT      DATA TYPE    INFORMATION
#----------   ------------   ------------------------------
 STRT.F           46.5000:   START DEPTH
 STOP.F          435.0000:   STOP DEPTH
 STEP.F            0.5000:   STEP LENGTH
 NULL.          -999.2500:   NO VALUE
 COMP. BROWN JOHN E&C INC:   COMPANY
 WELL. NPR 3 64-63 X 10 #64-10:   WELL
 FLD .             TEAPOT:   FIELD
 LOC .      S10 T38N R78W:   LOCATION
 CNTY.            NATRONA:   COUNTY
 STAT.            WYOMING:   STATE
 CTRY. UNITED STATES OF AMERICA:   COUNTRY
 SRVC.       Schlumberger:   SERVICE COMPANY
 DATE.        17-SEP-1980:   LOGDATE
 API .       490251132300:   API NUMBER
~CURVE INFORMATION
#MNEM.UNIT       API CODE    CURVE DESCRIPTION
#----------   ------------   ------------------------------
 DEPT.F                  :   
 GRR .GAPI   07 310 01 00:   GAMMA RAY FROM RES. LOG.
 ILD .OHMM   07 120 46 00:   INDUCTION LOG DEEP
 ILM .OHMM   07 120 44 00:   INDUCTION LOG MEDIUM
~PARAMETER INFORMATION
#MNEM.UNIT          VALUE    DESCRIPTION
#----------   ------------   ------------------------------
 PD  .                 GL:   PERMANENT DATUM
 EPD .F              5184:   ELEVATION PERMANENT DATUM
 LMF .                 KB:   LOG MEASURED FROM
 DAPD.F                10:   FEET ABOVE PERMANENT DATUM
 DMF .                 KB:   DRILLING MEASURED FROM
 EKB .F              5184:   KELLING BUSHING
 EDF .F              5183:   DRILLING FLOOR
 EGL .F              5184:   GROUND LEVEL
 DATE.        11-SEP-1980:   RUN DATE
 RUN .                  1:   RUN NUMBER
 DD  .F               455:   DEPTH DRILLER
 DL  .F               456:   DEPTH LOGGER
 BLI .F               446:   BOTTOM LOG INTERVAL
 TLI .F                48:   TOP LOG INTERVAL
 CS  .IN            8.625:   CASING SIZE
 CBD .F                52:   CASING BOTTOM DRILLER
 CBL .F                48:   CASING BOTTOM LOGGER
 BS  .IN            7.875:   BIT SIZE
 BSD .F               455:   BIT SIZE AT DEPTH
 DFT .           AIR/FOAM:   DRILLING FLUID TYPE
 MSS .           MUD TANK:   MUD SAMPLE SOURCE
 MFSS.               MEAS:   MUD FILTRATE SAMPLE SOURCE
 MCSS.               CALC:   MUD CAKE SAMPLE SOURCE
 TCS .HRS            1300:   TIME CURCULATED STOPPED
 TLAB.HRS            1400:   TIME LOGGER AT BOTTOM
 LUN .               8168:   LOGGING UNIT NUMBER
 LUL .           GILLETTE:   LOGGING UNIT LOCATION
 ENGI.          M. FISHER:   RECORDING ENGINEER
 WITN.        GARY STRONG:   WITNESSED BY
 CLNT.            A2DTECH:   CLIENT CODE
 ORIG.      2" , 5" PRINT:   ORIGIN OF DATA
 UWI .       490251132300:   UNIQUE WELL ID
 DICO. A2D Technologies, Inc.:   DIGITIZING COMPANY
~OTHER INFORMATION
~A   DEPT      GRR        ILD        ILM   
# ...
  319.5000   100.8131    16.9824    15.5751
  320.0000    97.5311    17.0441    15.8306
  320.5000    94.5167    17.1398    16.0885
  321.0000    95.4551    17.2750    16.3505
  321.5000    96.5797    17.4139    16.6168
  322.0000    97.7103    17.5788    16.8875
  322.5000    97.4543    17.7452    17.1625
  323.0000    96.1805    17.8910    17.2365
  323.5000    93.6889    17.8223    17.2365
  324.0000    91.2037    17.3829    16.8093
  324.5000    89.6164    16.9558    16.3750
  325.0000    89.6270    16.5390    15.9519
  325.5000    88.9855    16.1327    15.5882
  326.0000    87.3432    15.7365    15.0385
  326.5000    86.3375    15.3500    14.5081
  327.0000    86.8475    14.9935    13.9965
  327.5000    88.7225    14.6427    13.5364
  328.0000    90.5842    14.3178    13.3272
  328.5000    92.3989    14.0001    13.0970
  329.0000    93.3673    13.6628    12.8017
  329.5000    92.1147    13.6628    12.8033
  330.0000    90.9073    14.2107    12.2065
  330.5000    90.8493    14.8548    11.4512
  331.0000    90.8588    15.9744    12.5927
  331.5000    90.5129    17.2378    14.9217
  332.0000    88.4561    19.0345    17.6538
  332.5000    83.6258    21.7874    20.2050
  333.0000    77.1132    24.9384    23.6703
  333.5000    72.4686    29.4102    27.7687
  334.0000    71.0912    35.7221    32.5766
  334.5000    71.6172    41.6773    37.8399
  335.0000    72.6652    42.9922    42.0972
  335.5000    71.6993    44.4810    41.3240
  336.0000    70.0720    44.1232    40.4980
  336.5000    71.4915    43.5979    39.7849
  337.0000    74.8548    43.0874    39.7849
  337.5000    78.4893    42.5828    39.7389
  338.0000    78.7555    41.9598    39.6077
  338.5000    76.0719    41.3058    39.4708
  339.0000    73.4164    40.6621    38.7623
  339.5000    73.7494    39.9168    37.6663
  340.0000    74.9520    38.7584    36.6013
  340.5000    74.6145    37.6336    35.5664
  341.0000    74.2162    36.5415    34.6077
  341.5000    73.8037    35.4810    33.9057
  342.0000    74.7375    34.4513    33.0984
  342.5000    75.8412    33.4515    32.3100
  343.0000    76.4907    32.7442    31.5401
  343.5000    75.9380    31.8982    30.7888
  344.0000    75.4679    31.0740    30.0554
  344.5000    78.1072    30.3062    29.3395
  345.0000    81.0729    29.7619    28.6406
  345.5000    81.1204    29.2274    27.8827
  346.0000    79.0786    28.7024    27.5098
  346.5000    77.0548    28.1870    27.1419
  347.0000    78.5156    27.6886    26.8984
  347.5000    80.3972    27.6886    26.8281
  348.0000    81.0401    27.6886    26.7579
  348.5000    79.7810    27.6886    26.6782
  349.0000    78.4950    27.7131    26.7906
  349.5000    78.3151    27.7491    26.9219
  350.0000    81.4513    27.7856    27.0538
  350.5000    84.6463    27.8222    27.1864
  351.0000    87.0788    27.8588    27.3196
  351.5000    87.0125    27.8956    27.4336
  352.0000    85.2938    27.9321    27.2304
  352.5000    83.5919    27.9472    27.0208
  353.0000    81.8792    27.5548    26.8129
  353.5000    80.3115    27.2763    26.6068
  354.0000    80.7265    27.0789    26.4023
  354.5000    82.7341    26.9253    26.1993
  355.0000    84.6555    26.7726    25.9979
  355.5000    84.3782    26.6230    25.7981
  356.0000    80.6881    26.4681    25.5311
  356.5000    76.4569    25.8910    24.9978
  357.0000    73.3169    24.9236    24.4350
  357.5000    75.7111    23.9962    23.6856
  358.0000    80.4210    23.1033    22.6975
  358.5000    84.8337    22.2436    21.7482
  359.0000    86.6065    21.4160    20.8406
  359.5000    87.0441    20.8813    20.1742
  360.0000    89.4668    20.4892    19.7537
  360.5000    92.5448    20.1044    19.3395
  361.0000    94.3553    19.7268    18.9174
  361.5000    91.9290    19.5855    18.8788
  362.0000    86.3482    19.5208    18.8440
  362.5000    81.1222    19.4581    18.8079
  363.0000    80.4693    19.3955    18.7716
  363.5000    81.7943    19.3329    18.7353
  364.0000    82.7396    19.2705    18.6991
  364.5000    81.7204    19.2084    18.6630
  365.0000    79.8570    19.1464    18.6270
  365.5000    78.8033    19.0759    18.5912
  366.0000    79.7333    18.9408    18.5062
  366.5000    81.4348    18.8066    18.3242
  367.0000    82.7923    18.6733    18.1440
  367.5000    82.9859    18.5238    17.9657
  368.0000    83.5063    18.3056    17.7892
  368.5000    85.0937    18.0900    17.5490
  369.0000    85.6480    17.7810    17.2739
  369.5000    86.1560    17.4597    17.0770
  370.0000    86.6501    17.1443    16.7885
  370.5000    88.6232    16.8346    16.5254
  371.0000    90.4368    16.5305    16.2663
  371.5000    90.1425    16.3429    16.0113
  372.0000    88.1343    16.1953    15.7975
  372.5000    85.8652    16.0489    15.6484
  373.0000    83.6456    15.9039    15.5008
  373.5000    83.4826    15.7602    15.3545
  374.0000    85.2167    15.6178    15.1664
  374.5000    86.1160    15.4767    14.9286
  375.0000    85.3431    15.3369    14.8018
  375.5000    85.0674    15.1991    14.6943
  376.0000    86.8089    15.1321    14.5813
  376.5000    88.5075    15.1335    14.5813
  377.0000    90.0320    15.1334    14.6037
  377.5000    89.9090    15.1335    14.6640
  378.0000    88.6032    15.1337    14.7247
  378.5000    88.5430    15.1335    14.7858
  379.0000    89.4967    15.1335    14.8548
  379.5000    90.3877    15.0259    14.6823
  380.0000    89.5257    14.7997    14.4848
  380.5000    88.8703    14.5769    14.3127
  381.0000    90.5439    14.3575    14.3712
  381.5000    92.2221    14.1414    14.4237
  382.0000    93.6490    14.0367    14.4464
  382.5000    92.7251    14.0035    14.3190
  383.0000    91.8240    13.9704    14.2266
  383.5000    90.9256    13.9373    14.1353
  384.0000    90.0713    13.8562    14.0491
  384.5000    90.3375    13.7176    13.9176
  385.0000    92.1512    13.5803    13.7944
  385.5000    94.2385    13.4445    13.6723
  386.0000    95.4295    13.3100    13.5513
  386.5000    91.9849    13.1768    13.4315
  387.0000    88.0840    13.0424    13.3120
  387.5000    88.1196    13.0829    13.2320
  388.0000    90.9113    13.1243    13.1644
  388.5000    93.6577    13.1659    13.2174
  389.0000    93.2632    13.2075    13.2697
  389.5000    91.8929    13.2493    13.3222
  390.0000    91.0433    13.2871    13.3749
  390.5000    92.0399    13.1812    13.4112
  391.0000    92.8940    13.0854    13.3212
  391.5000    92.7151    12.9967    13.2531
  392.0000    92.5447    12.9137    13.1854
  392.5000    93.2019    12.8312    13.1180
  393.0000    94.4826    12.7493    13.0510
  393.5000    95.7690    12.6679    12.9851
  394.0000    97.0490    12.5870    12.9209
  394.5000    97.6358    12.5066    12.7388
  395.0000    97.3310    12.4082    12.5665
  395.5000    96.9883    12.2665    12.4030
  396.0000    98.9254    12.1263    12.2535
  396.5000   101.6566    11.9878    12.1058
  397.0000   103.4695    11.8508    11.9599
  397.5000   102.7192    11.7154    11.8158
  398.0000   100.7446    11.5816    11.6733
  398.5000    98.7729    11.3723    11.5327
  399.0000    96.7863    11.1507    11.3931
  399.5000    96.6665    10.9334    11.2563
  400.0000    99.3988    10.7204    10.9937
  400.5000   102.0636    10.5115    10.7208
  401.0000   103.7393    10.3070    10.4546
  401.5000   103.2498    10.1058    10.2569
  402.0000   101.7739     9.9089    10.1117
  402.5000    99.5738     9.2504     9.6666
  403.0000    97.3697     8.4147     9.0361
  403.5000    95.6056     7.5191     8.1381
  404.0000    97.4531     6.7188     7.1497
  404.5000   108.3660     6.0037     6.0276
  405.0000   119.1804     5.8103     4.9152
  405.5000   129.8135     5.8622     5.0262
  406.0000   130.0344     5.9088     5.2134
  406.5000   118.0116     5.9922     5.9412
  407.0000   109.1943     6.1201     6.7705
  407.5000   103.6077     6.6408     7.1517
  408.0000   100.5733     7.2622     7.8282
  408.5000   101.3573     8.6060     8.8274
  409.0000   102.4418     9.5553     9.7265
  409.5000   103.5305    10.0203    10.3975
  410.0000   104.0195    10.3544    10.5844
