~VERSION INFORMATION
 VERS.                2.0:   CWLS LOG ASCII STANDARD - VERSION 2.0
 WRAP.                 NO:   ONE LINE PER DEPTH STEP
~WELL INFORMATION
#MNEM.UNIT      DATA TYPE    INFORMATION
#----------   ------------   ------------------------------
 STRT.F          131.0000:   START DEPTH
 STOP.F         1085.0000:   STOP DEPTH
 STEP.F            0.5000:   STEP LENGTH
 NULL.          -999.2500:   NO VALUE
 COMP. U S NAVY-INTEX OIL:   COMPANY
 WELL.     UPR #3 #66-S-2:   WELL
 FLD .             TEAPOT:   FIELD
 LOC .       S2 T38N R78W:   LOCATION
 CNTY.            NATRONA:   COUNTY
 STAT.            WYOMING:   STATE
 CTRY. UNITED STATES OF AMERICA:   COUNTRY
 SRVC.       Schlumberger:   SERVICE COMPANY
 DATE.        18-JUL-1964:   LOGDATE
 API .       490250641300:   API NUMBER
~CURVE INFORMATION
#MNEM.UNIT       API CODE    CURVE DESCRIPTION
#----------   ------------   ------------------------------
 DEPT.F                  :   
 ASN .OHMM   05 041 16 00:   AMPLIFIED SHORT NORMAL 16"
 CILD.MMHO   05 110 46 00:   CONDUCTIVITY INDUCTION LOG DEEP
 ILD .OHMM   05 120 46 00:   INDUCTION LOG DEEP
 SPR .MV     05 010 01 00:   SPONTANEOUS POTENTIAL FROM RES.
 GR  .GAPI   30 310 01 00:   GAMMA RAY
 CALS.IN     60 280 50 00:   CALIPER FROM SONIC LOG
 DT  .US/F   60 520 33 00:   INTERVAL TRANSIT TIME
~PARAMETER INFORMATION
#MNEM.UNIT          VALUE    DESCRIPTION
#----------   ------------   ------------------------------
 PD  .                 GL:   PERMANENT DATUM
 EPD .F              5204:   ELEVATION PERMANENT DATUM
 LMF .                 KB:   LOG MEASURED FROM
 DAPD.F                 5:   FEET ABOVE PERMANENT DATUM
 DMF .                 KB:   DRILLING MEASURED FROM
 EKB .F              5209:   KELLING BUSHING
 EGL .F              5204:   GROUND LEVEL
 DATE.          7-18-1964:   RUN DATE
 RUN .                  1:   RUN NUMBER
 DD  .F              1085:   DEPTH DRILLER
 DL  .F              1086:   DEPTH LOGGER
 BLI .F              1085:   BOTTOM LOG INTERVAL
 TLI .F               131:   TOP LOG INTERVAL
 CS  .IN            8.625:   CASING SIZE
 CBD .F                10:   CASING BOTTOM DRILLER
 BS  .IN             6.75:   BIT SIZE
 BSD .F              5204:   BIT SIZE AT DEPTH
 DFT .                GEL:   DRILLING FLUID TYPE
 DFD .                9.5:   DRILLING FLUID DENSITY
 DFV .                 47:   DRILLING FLUID VISCOSITY
 DFL .                 10:   DRILLING FLUID LOSS
 MSS .           FLOWLINE:   MUD SAMPLE SOURCE
 RMS .OHMM           2.58:   RESISTIVITY MUD SAMPLE
 MST .F                93:   MUD SAMPLE TEMPERATURE
 RMF .OHMM           2.27:   RESISTIVITY MUD FILTRATE SAMPLE
 MFST.F                93:   MUD FILTRATE SAMPLE TEMPERATURE
 MFSS.                 FP:   MUD FILTRATE SAMPLE SOURCE
 TCS .HRS             1.5:   TIME CURCULATED STOPPED
 LUN .               3527:   LOGGING UNIT NUMBER
 LUL .              CSPR.:   LOGGING UNIT LOCATION
 ENGI.            WINKLER:   RECORDING ENGINEER
 WITN.          JORGENSEN:   WITNESSED BY
 CLNT.            A2DTECH:   CLIENT CODE
 ORIG.    1" , 2.5" PRINT:   ORIGIN OF DATA
 UWI .       490250641300:   UNIQUE WELL ID
 DICO. A2D Technologies, Inc.:   DIGITIZING COMPANY
~OTHER INFORMATION
~A   DEPT      ASN       CILD        ILD        SPR         GR       CALS         DT   
  131.0000  -999.2500  -999.2500  -999.2500  -999.2500  -999.2500  -999.2500  -999.2500
  131.5000     6.8634   200.8208     4.3144   -49.3105  -999.2500  -999.2500  -999.2500
  132.0000     6.8371   193.7349     4.7044   -49.4000  -999.2500  -999.2500  -999.2500
  132.5000     6.8107   187.2239     5.2568   -49.5110  -999.2500  -999.2500  -999.2500
  133.0000     6.7844   181.0190     5.4861   -49.5103  -999.2500  -999.2500  -999.2500
  133.5000     6.8059   176.0994     5.7391   -49.5603  -999.2500  -999.2500  -999.2500
  134.0000     6.8777   174.6668     5.9921   -49.8030  -999.2500  -999.2500  -999.2500
  134.5000     6.9495   173.4588     6.2450   -49.8021  -999.2500  -999.2500  -999.2500
  135.0000     6.9438   173.1175     6.4745   -49.8015  -999.2500  -999.2500  -999.2500
  135.5000     7.0033   173.0949     6.6004   -49.6314  -999.2500  -999.2500  -999.2500
  136.0000     7.0698   173.0723     6.6013   -49.6314  -999.2500  -999.2500  -999.2500
  136.5000     7.1102   173.0497     6.4976   -49.8809  -999.2500  -999.2500  -999.2500
  137.0000     6.9782   173.0271     6.4539   -50.0928  -999.2500  -999.2500  -999.2500
  137.5000     6.7369   173.0034     6.4546   -50.0919  -999.2500  -999.2500  -999.2500
  138.0000     6.5905   172.9819     6.4916   -50.0910  -999.2500  -999.2500  -999.2500
  138.5000     6.6204   173.9859     6.6319   -49.8902  -999.2500  -999.2500  -999.2500
  139.0000     6.6799   174.4428     6.9033   -49.6392  -999.2500  -999.2500  -999.2500
  139.5000     6.7410   173.8103     7.1379   -49.3882  -999.2500  -999.2500  -999.2500
  140.0000     6.8323   172.4900     7.2966   -49.1373  -999.2500  -999.2500  -999.2500
  140.5000     6.9217   171.1697     7.4235   -48.9110  -999.2500  -999.2500  -999.2500
  141.0000     6.9973   169.8341     7.5503   -48.9102  -999.2500  -999.2500  -999.2500
  141.5000     7.0752   166.7958     7.6249   -48.9096  -999.2500  -999.2500  -999.2500
  142.0000     7.1846   165.7028     7.4995   -48.9088  -999.2500  -999.2500  -999.2500
  142.5000     7.1391   165.2485     7.3550   -48.9081  -999.2500  -999.2500  -999.2500
  143.0000     7.0707   165.8835     7.1419   -48.9074  -999.2500  -999.2500  -999.2500
  143.5000     6.9818   167.1586     6.8062   -48.9623  -999.2500  -999.2500  -999.2500
  144.0000     6.8722   168.9156     6.4286   -49.2118  -999.2500  -999.2500  -999.2500
  144.5000     6.7520   172.7862     6.0898   -49.4933  -999.2500  -999.2500  -999.2500
  145.0000     6.6514   177.1807     5.8704   -49.4926  -999.2500  -999.2500  -999.2500
  145.5000     6.5063   181.6490     5.8713   -49.4919  -999.2500  -999.2500  -999.2500
  146.0000     6.4221   188.6445     5.8720   -49.6216  -999.2500  -999.2500  -999.2500
  146.5000     6.3220   194.9975     5.9696   -49.8711  -999.2500  -999.2500  -999.2500
  147.0000     6.2462   198.6747     6.0965   -50.0781  -999.2500  -999.2500  -999.2500
  147.5000     6.2039   199.9498     6.3263   -50.0772  -999.2500  -999.2500  -999.2500
  148.0000     6.1822   201.1460     6.6766   -50.0763  -999.2500  -999.2500  -999.2500
  148.5000     6.2417   193.5896     6.9356   -50.0757  -999.2500  -999.2500  -999.2500
  149.0000     6.4559   184.2118     7.3647   -50.0750  -999.2500  -999.2500  -999.2500
  149.5000     6.9906   176.6918     7.6938   -50.0743  -999.2500  -999.2500  -999.2500
  150.0000     7.5148   170.1807     7.9861   -50.0735  -999.2500  -999.2500  -999.2500
  150.5000     7.9050   164.2143     8.1109   -50.0431  -999.2500  -999.2500  -999.2500
  151.0000     8.1774   159.0010     8.0702   -49.7779  -999.2500  -999.2500  -999.2500
  151.5000     8.3494   153.7876     7.9448   -49.7772  -999.2500  -999.2500  -999.2500
  152.0000     8.4628   148.2516     7.8155   -49.5843  -999.2500  -999.2500  -999.2500
  152.5000     7.9145   145.7957     7.6941   -49.4816  -999.2500  -999.2500  -999.2500
  153.0000     7.6538   145.1958     7.5687   -49.3765  -999.2500  -999.2500  -999.2500
  153.5000     7.5797   148.3761     7.4433   -49.1860  -999.2500  -999.2500  -999.2500
  154.0000     7.5383   152.3594     7.3180   -49.1686  -999.2500  -999.2500  -999.2500
  154.5000     7.5174   154.9322     7.1926   -48.8904  -999.2500  -999.2500  -999.2500
  155.0000     7.5178   157.3293     7.0585   -48.8897  -999.2500  -999.2500  -999.2500
  155.5000     7.5477   158.6365     6.7791   -48.7098  -999.2500  -999.2500  -999.2500
  156.0000     7.4876   160.1163     6.7798   -48.5941  -999.2500  -999.2500  -999.2500
  156.5000     7.3500   162.2113     6.6911   -48.6848  -999.2500  -999.2500  -999.2500
  157.0000     7.1858   164.7841     6.5657   -48.8869  -999.2500  -999.2500  -999.2500
  157.5000     7.0422   167.3569     6.4844   -48.8860  -999.2500  -999.2500  -999.2500
  158.0000     6.9191   170.3615     6.4851   -48.8852  -999.2500  -999.2500  -999.2500
  158.5000     6.8098   174.0085     6.4859   -48.8846  -999.2500  -999.2500  -999.2500
  159.0000     6.7645   176.5813     6.6356   -48.8838  -999.2500  -999.2500  -999.2500
  159.5000     6.7146   179.5373     6.7382   -48.8831  -999.2500  -999.2500  -999.2500
  160.0000     6.6785   177.3092     6.9444   -48.8824  -999.2500  -999.2500  -999.2500
  160.5000     6.6723   174.6913     7.1408   -48.8471  -999.2500  -999.2500  -999.2500
  161.0000     6.7171   171.3856     7.3016   -48.5867  -999.2500  -999.2500  -999.2500
  161.5000     6.8429   167.9493     7.5433   -48.3451  -999.2500  -999.2500  -999.2500
  162.0000     6.9894   165.3313     7.6816   -48.2912  -999.2500  -999.2500  -999.2500
  162.5000     7.1363   162.7134     7.7970   -48.1373  -999.2500  -999.2500  -999.2500
  163.0000     7.2959   159.8017     7.8318   -47.9956  -999.2500  -999.2500  -999.2500
  163.5000     7.4228   157.4774     7.7633   -47.9949  -999.2500  -999.2500  -999.2500
  164.0000     7.5310   156.7470     7.5913   -47.9941  -999.2500  -999.2500  -999.2500
  164.5000     7.6568   155.9890     7.3398   -47.9933  -999.2500  -999.2500  -999.2500
  165.0000     7.7900   155.1958     7.0883   -47.9926  -999.2500  -999.2500  -999.2500
  165.5000     7.7902   155.4920     6.7940   -47.9919  -999.2500  -999.2500  -999.2500
  166.0000     7.5609   156.8775     6.7946   -48.1314  -999.2500  -999.2500  -999.2500
  166.5000     7.2454   159.6444     6.7134   -48.2846  -999.2500  -999.2500  -999.2500
  167.0000     6.9905   162.0231     6.6473   -48.2838  -999.2500  -999.2500  -999.2500
  167.5000     6.8459   165.5873     6.6481   -48.2917  -999.2500  -999.2500  -999.2500
  168.0000     6.7219   168.6747     6.6627   -48.5764  -999.2500  -999.2500  -999.2500
  168.5000     6.6086   171.8223     6.7984   -48.7907  -999.2500  -999.2500  -999.2500
  169.0000     6.6089   175.6927     7.0337   -48.8691  -999.2500  -999.2500  -999.2500
  169.5000     6.6438   179.4051     7.1921   -48.8684  -999.2500  -999.2500  -999.2500
  170.0000     6.7327   182.0774     7.3909   -48.8676  -999.2500  -999.2500  -999.2500
  170.5000     6.9335   162.4729     7.5946   -48.8669  -999.2500  -999.2500  -999.2500
  171.0000     7.3083   164.5331     7.6949   -48.8662  -999.2500  -999.2500  -999.2500
  171.5000     7.8234   167.1059     7.6880   -48.5712  -999.2500  -999.2500  -999.2500
  172.0000     7.9460   168.4337     7.3989   -48.3686  -999.2500  -999.2500  -999.2500
  172.5000     7.1531   167.9970     7.2923   -48.2757  -999.2500  -999.2500  -999.2500
  173.0000     7.3011   166.6767     7.1669   -48.1608  -999.2500  -999.2500  -999.2500
  173.5000     7.8170   165.3539     6.9797   -47.9098  -999.2500  -999.2500  -999.2500
  174.0000     7.7177   168.3397     6.7674   -47.6853  -999.2500  -999.2500  -999.2500
  174.5000     7.2031   177.0155     6.6420   -47.6845  -999.2500  -999.2500  -999.2500
  175.0000     6.7900   181.2249     6.5105   -47.4510  -999.2500  -999.2500  -999.2500
  175.5000     6.7078   181.8298     6.3912   -47.5779  -999.2500  -999.2500  -999.2500
  176.0000     6.4947   182.2691     6.2659   -47.6824  -999.2500  -999.2500  -999.2500
