~VERSION INFORMATION
 VERS.                2.0:   CWLS LOG ASCII STANDARD - VERSION 2.0
 WRAP.                 NO:   ONE LINE PER DEPTH STEP
~WELL INFORMATION
#MNEM.UNIT      DATA TYPE    INFORMATION
#----------   ------------   ------------------------------
 STRT.F           10.0000:   START DEPTH
 STOP.F          570.0000:   STOP DEPTH
 STEP.F            0.5000:   STEP LENGTH
 NULL.          -999.2500:   NO VALUE
 COMP. BROWN JOHN E&C INC:   COMPANY
 WELL.   STX 10 #85-14-10:   WELL
 FLD .             TEAPOT:   FIELD
 LOC .      S10 T38N R78W:   LOCATION
 CNTY.            NATRONA:   COUNTY
 STAT.            WYOMING:   STATE
 CTRY. UNITED STATES OF AMERICA:   COUNTRY
 SRVC.           Gearhart:   SERVICE COMPANY
 DATE.        29-JUN-1986:   LOGDATE
 API .       490251108400:   API NUMBER
~CURVE INFORMATION
#MNEM.UNIT       API CODE    CURVE DESCRIPTION
#----------   ------------   ------------------------------
 DEPT.F                  :   
 LL  .OHMM   07 220 00 00:   LATEROLOG RES.
 RILD.OHMM   07 120 46 00:   INDUCTION LOG DEEP RESISTIVITY
 RILM.OHMM   07 120 44 00:   INDUCTION LOG MEDIUM RESISTIVITY
 SPR .MV     07 010 01 00:   SPONTANEOUS POTENTIAL
 GRR .GAPI   07 310 01 00:   GAMMA RAY FROM RES. LOG.
~PARAMETER INFORMATION
#MNEM.UNIT          VALUE    DESCRIPTION
#----------   ------------   ------------------------------
 PD  .                 GL:   PERMANENT DATUM
 EPD .F              5191:   ELEVATION PERMANENT DATUM
 LMF .                 KB:   LOG MEASURED FROM
 DAPD.F                 5:   FEET ABOVE PERMANENT DATUM
 DMF .                 KB:   DRILLING MEASURED FROM
 EKB .F              5196:   KELLING BUSHING
 EGL .F              5191:   GROUND LEVEL
 DATE.          6-29-1986:   RUN DATE
 RUN .                  1:   RUN NUMBER
 DD  .F               579:   DEPTH DRILLER
 DL  .F               572:   DEPTH LOGGER
 BLI .F               570:   BOTTOM LOG INTERVAL
 CS  .IN            8.625:   CASING SIZE
 CBD .F                47:   CASING BOTTOM DRILLER
 CBL .F                46:   CASING BOTTOM LOGGER
 BS  .IN            7.875:   BIT SIZE
 BSD .F               579:   BIT SIZE AT DEPTH
 DFT .                MUD:   DRILLING FLUID TYPE
 DFD .                8.9:   DRILLING FLUID DENSITY
 DFV .                 32:   DRILLING FLUID VISCOSITY
 DFPH.                  9:   DRILLING FLUID PH
 MSS .           FLOWLINE:   MUD SAMPLE SOURCE
 RMS .OHMM            1.3:   RESISTIVITY MUD SAMPLE
 MST .F                62:   MUD SAMPLE TEMPERATURE
 RMF .OHMM             .9:   RESISTIVITY MUD FILTRATE SAMPLE
 MFST.F                63:   MUD FILTRATE SAMPLE TEMPERATURE
 RMC .OHMM            1.5:   RESISTIVITY MUD CAKE
 MCST.F                63:   MUD CAKE SAMPLE TEMPERATURE
 MFSS.               MEAS:   MUD FILTRATE SAMPLE SOURCE
 MCSS.               MEAS:   MUD CAKE SAMPLE SOURCE
 RMB .OHMM            1.3:   RESISTIVITY MUD AT BHT
 BHT .F                64:   BOTTOM HOLE TEMPERATURE
 TCS .HRS            1300:   TIME CURCULATED STOPPED
 TLAB.HRS            1600:   TIME LOGGER AT BOTTOM
 MRT .F                64:   MAXIMUM RECORDED TEMPERATURE
 LUN .               7609:   LOGGING UNIT NUMBER
 LUL .           GILLETTE:   LOGGING UNIT LOCATION
 ENGI.             WAGNER:   RECORDING ENGINEER
 WITN.            JENNING:   WITNESSED BY
 CLNT.            A2DTECH:   CLIENT CODE
 ORIG.      2" & 5" PRINT:   ORIGIN OF DATA
 UWI .       490251108400:   UNIQUE WELL ID
 DICO. A2D Technologies, Inc.:   DIGITIZING COMPANY
~OTHER INFORMATION
~A   DEPT       LL       RILD       RILM        SPR         GRR  
# ...
  498.0000     9.9864    11.4519    11.1091   -52.9356    85.9122
  498.5000     9.8857    11.2360    10.9562   -56.2749    84.7085
  499.0000     9.8692    11.0242    10.8054   -56.4107    87.7901
  499.5000     9.8539    10.9622    10.6566   -56.6365    91.2269
  500.0000     9.8382    10.9471    10.5099   -57.3775    93.3988
  500.5000     9.8224    10.7974    10.3652   -59.4343    95.2531
  501.0000     9.8066    10.6499    10.2226   -60.0795    95.5236
  501.5000     9.7506    10.5043    10.0805   -60.8337    93.7358
  502.0000     9.6781    10.4113     9.9788   -64.7210    89.7793
  502.5000     9.6062    10.3394     9.9027   -65.9323    85.8125
  503.0000     9.5350    10.2680     9.8282   -66.2244    84.4859
  503.5000     9.4643    10.1970     9.7543   -67.3128    89.0490
  504.0000     9.3941    10.1266     9.6810   -66.0887    93.9912
  504.5000     9.3244    10.0800     9.6082   -64.7486    96.9834
  505.0000     9.2552    10.0800     9.5316   -65.6485    94.0309
  505.5000     9.1879    10.0800     9.3865   -64.7708    90.5442
  506.0000     9.0377     9.9270     9.2345   -62.4845    91.1835
  506.5000     8.8810     9.7675     9.0849   -60.2750    94.3229
  507.0000     8.7213     9.6105     8.9378   -58.4550    95.6046
  507.5000     8.6027     9.4561     8.7931   -56.9670    95.0903
  508.0000     8.6710     9.3041     8.6507   -54.6922    95.5619
  508.5000     8.7617     9.1534     8.5107   -51.3545    98.2606
  509.0000     8.8532     9.0047     8.3729   -47.3644   100.9747
  509.5000     8.9295     8.8584     8.2556   -46.7289   100.6096
  510.0000     8.9315     8.7133     8.1702   -50.7434    98.6189
  510.5000     8.9341     8.6141     8.0856   -53.6311    96.2045
  511.0000     8.5981     8.4912     8.0020   -56.5383    97.0928
  511.5000     8.1886     8.2559     7.8004   -57.2899    98.7887
  512.0000     7.6514     7.9756     7.5733   -53.3261    98.4317
  512.5000     7.1494     7.7066     7.3527   -54.3049    95.2641
  513.0000     6.6815     7.5501     7.1394   -55.1654    92.1228
  513.5000     6.4980     7.6612     7.0075   -54.0823    92.1569
  514.0000     6.8801     7.7557     7.0075   -55.1409    93.0963
  514.5000     7.3682     7.8512     7.2063   -55.0403    95.3246
  515.0000     7.8917     7.9476     7.3381   -54.3716    98.7232
  515.5000     8.3985     8.1181     7.6527   -57.0697   102.0871
  516.0000     8.8600     8.4436     8.0430   -59.9717   102.0809
  516.5000     9.3481     8.7821     8.4438   -61.4122    98.4753
  517.0000     9.7355     9.1342     8.8082   -58.9584    95.0198
  517.5000    10.0053     9.5004     9.1763   -58.9539    93.0032
  518.0000    10.2697     9.7782     9.5599   -59.9846    92.2935
  518.5000    10.4831     9.9320     9.9595   -51.0542    91.7405
  519.0000    10.6917    10.0881    10.2956   -52.2579    92.2618
  519.5000    10.9045    10.2747    10.3993   -53.1297    93.6205
  520.0000    11.0648    10.3739    10.5041   -54.5437    96.7631
  520.5000    11.0648    10.3582    10.6598   -57.1862    99.6391
  521.0000    10.9487    10.4578    10.7597   -59.1771    97.8163
  521.5000    10.8158    10.3839    10.8604   -59.2109    96.0509
  522.0000    10.6846    10.3417    10.6753   -59.2297    94.2017
  522.5000    10.5549    10.2992    10.5511   -59.9182    92.6891
  523.0000    10.4629    10.2359    10.4284   -60.6868    94.1656
  523.5000    10.3659    10.1115    10.3071   -59.1331    95.6605
  524.0000    10.3110     9.9904    10.1872   -57.1398    97.3750
  524.5000    10.2018     9.8705    10.0687   -59.5526    99.1295
  525.0000    10.0850     9.7520     9.9516   -59.9792    98.9102
  525.5000    10.1887     9.6357     9.8938   -58.4951    95.6659
  526.0000    10.2692     9.5147     9.8470   -57.0430    92.0227
  526.5000    10.2244     9.3688     9.7553   -56.1033    88.5679
  527.0000    10.1744     9.2235     9.6644   -56.8221    88.8617
  527.5000     9.8501     9.0808     9.5316   -58.3474    89.6252
  528.0000     9.5382     8.9400     9.2090   -59.8103    90.7952
  528.5000     9.2362     8.6860     8.7693   -60.6827    91.7204
  529.0000     8.7872     8.3308     8.3506   -60.2334    91.7026
  529.5000     8.2690     7.8726     7.9519   -59.6109    91.7003
  530.0000     7.8135     7.4097     7.5501   -61.6232    91.7021
  530.5000     7.3832     6.7079     7.0561   -63.2927    91.6887
  531.0000     6.9766     5.8769     6.5664   -64.4818    92.3927
  531.5000     6.3111     5.1489     5.9387   -65.4140    93.3984
  532.0000     5.6262     4.5111     5.0908   -66.8473    94.4365
  532.5000     4.9365     3.9314     4.3653   -68.4177    93.2574
  533.0000     4.0537     3.6943     3.8420   -66.2239    91.4432
  533.5000     3.3287     3.4625     3.4509   -66.2065    91.8438
  534.0000     2.5132     3.3241     3.0996   -66.0640    93.6993
  534.5000     2.8011     3.2627     2.8370   -63.1156    94.7313
  535.0000     3.3840     3.2627     2.8370   -60.1231    89.0694
  535.5000     4.0883     3.4540     3.1612   -60.2480    83.1033
  536.0000     4.9391     3.7524     3.4310   -62.7138    79.0188
  536.5000     5.9647     4.2442     3.7238   -64.7459    82.2386
  537.0000     6.6088     4.8089     4.1750   -66.8037    86.7900
  537.5000     6.8785     5.4485     4.7205   -67.1306    91.5069
  538.0000     7.0488     6.1723     5.3380   -66.7125    93.0201
  538.5000     7.2237     6.9253     6.0354   -64.6184    93.7132
  539.0000     7.4029     7.4870     6.8143   -66.2617    93.7327
  539.5000     7.5867     8.0944     7.2688   -68.2083    93.4241
  540.0000     7.7185     8.4717     7.7478   -68.2039    91.5301
  540.5000     7.8399     8.8024     8.0007   -66.7424    89.6144
  541.0000     7.9634     8.9311     8.2049   -67.4019    90.2416
  541.5000     8.0881     8.8765     8.3654   -68.3423    92.5054
  542.0000     8.1356     8.8243     8.5229   -67.8625    94.7724
  542.5000     8.1706     8.7728     8.4700   -68.0001    95.6423
  543.0000     8.2055     8.7216     8.4194   -70.6896    94.3117
  543.5000     8.2404     8.6832     8.3690   -70.9238    92.9701
  544.0000     8.2878     8.5709     8.3189   -69.9089    94.2815
  544.5000     8.2819     8.5337     8.2692   -70.0498    97.0170
  545.0000     8.2729     8.4966     8.2197   -72.5872    98.6331
  545.5000     8.2639     8.4597     8.1706   -73.7580    96.6860
  546.0000     8.2549     8.4230     8.1344   -74.4278    95.0321
  546.5000     8.2459     8.3864     8.1197   -74.1685    96.3408
  547.0000     8.2370     8.3500     8.1056   -75.6388    97.4078
  547.5000     8.2280     8.3138     8.0915   -74.0567    95.9850
  548.0000     8.2192     8.2881     8.0773   -73.2211    93.9937
  548.5000     8.2087     8.3503     8.0574   -74.2835    94.5106
  549.0000     8.2149     8.3991     8.1106   -74.8623  -999.2500
  549.5000     8.1129     8.4486     8.2164   -75.1628  -999.2500
  550.0000     8.0770     8.4965     8.3237   -74.5185  -999.2500
  550.5000     8.0592     8.5828     8.4323   -74.0191  -999.2500
  551.0000     8.2161     8.6997     8.5423   -78.3046  -999.2500
  551.5000     8.3389     8.8195     8.6538   -82.7249  -999.2500
  552.0000     8.4635     8.9295     8.7667   -82.6546  -999.2500
  552.5000     8.6027     8.8896     8.8488   -83.0642  -999.2500
  553.0000     8.5250     8.7580     8.7939   -84.7008  -999.2500
  553.5000     8.4395     8.6284     8.7162   -88.7072  -999.2500
  554.0000     8.3549     8.5006     8.6403   -92.9506  -999.2500
  554.5000     8.2711     8.3748     8.5707   -89.4537  -999.2500
  555.0000     8.1882     8.2606     8.4648   -92.2726  -999.2500
  555.5000     8.1061     8.1705     8.3602   -93.3321  -999.2500
  556.0000     7.9844     8.0814     8.2325   -86.6933  -999.2500
  556.5000     7.9870     7.9844     8.0511   -89.6536  -999.2500
  557.0000     7.6114     7.7371     7.8735   -87.0298  -999.2500
  557.5000     7.3408     7.4713     7.7002   -82.4404  -999.2500
  558.0000     7.1368     7.3419     7.4767   -87.2795  -999.2500
  558.5000     7.3731     7.5080     7.4801   -90.7610  -999.2500
