~VERSION INFORMATION
 VERS.                2.0:   CWLS LOG ASCII STANDARD - VERSION 2.0
 WRAP.                 NO:   ONE LINE PER DEPTH STEP
~WELL INFORMATION
#MNEM.UNIT      DATA TYPE    INFORMATION
#----------   ------------   ------------------------------
 STRT.F           30.0000:   START DEPTH
 STOP.F          691.0000:   STOP DEPTH
 STEP.F            0.5000:   STEP LENGTH
 NULL.          -999.2500:   NO VALUE
 COMP. U.S. DEPARTMENT OF ENERGY:   COMPANY
 WELL. NAVAL PETROLEUM RESERVE #3 #77-S-34:   WELL
 FLD .        TEAPOT DOME:   FIELD
 LOC .      S34 T39N R78W:   LOCATION
 CNTY.            NATRONA:   COUNTY
 STAT.            WYOMING:   STATE
 CTRY. UNITED STATES OF AMERICA:   COUNTRY
 SRVC.              Welex:   SERVICE COMPANY
 DATE.        26-APR-1977:   LOGDATE
 API .       490251034700:   API NUMBER
~CURVE INFORMATION
#MNEM.UNIT       API CODE    CURVE DESCRIPTION
#----------   ------------   ------------------------------
 DEPT.F                  :   
 CALD.IN     45 280 60 00:   CALIPER FROM DENSITY LOG
 CORR.G/C3   45 356 01 00:   DENSITY CORRECTION
 DPHI.DEC    45 890 12 00:   DENSITY POROSITY SANDSTONE
 RHOB.G/C3   45 350 01 00:   BULK DENSITY
 GRD .GAPI   45 310 01 00:   GAMMA RAY FROM DENSITY LOG
 ILD .OHMM   07 120 46 00:   INDUCTION LOG DEEP
 ILM .OHMM   07 120 44 00:   INDUCTION LOG MEDIUM
 SGRD.OHMM   07 220 05 00:   SHALLOW GUARD RESISTIVITY
 SPR .MV     07 010 01 00:   SPONTANEOUS POTENTIAL FROM RES.
~PARAMETER INFORMATION
#MNEM.UNIT          VALUE    DESCRIPTION
#----------   ------------   ------------------------------
 PD  .                 GL:   PERMANENT DATUM
 EPD .F              5075:   ELEVATION PERMANENT DATUM
 LMF .                 GL:   LOG MEASURED FROM
 DMF .                 GL:   DRILLING MEASURED FROM
 EGL .F              5075:   GROUND LEVEL
 DATE.          4-26-1977:   RUN DATE
 RUN .                  1:   RUN NUMBER
 DD  .F               700:   DEPTH DRILLER
 DL  .F               693:   DEPTH LOGGER
 BLI .F               691:   BOTTOM LOG INTERVAL
 TLI .F                35:   TOP LOG INTERVAL
 CS  .IN            8.625:   CASING SIZE
 CBD .F                40:   CASING BOTTOM DRILLER
 CBL .F                39:   CASING BOTTOM LOGGER
 BS  .IN            7.875:   BIT SIZE
 BSD .F               700:   BIT SIZE AT DEPTH
 DFT .            KCL MUD:   DRILLING FLUID TYPE
 DFD .                9.5:   DRILLING FLUID DENSITY
 DFV .                 35:   DRILLING FLUID VISCOSITY
 DFPH.               10.5:   DRILLING FLUID PH
 DFL .                 12:   DRILLING FLUID LOSS
 MSS .           FLOWLINE:   MUD SAMPLE SOURCE
 RMS .OHMM            .32:   RESISTIVITY MUD SAMPLE
 MST .F                66:   MUD SAMPLE TEMPERATURE
 RMF .OHMM            .28:   RESISTIVITY MUD FILTRATE SAMPLE
 MFST.F                66:   MUD FILTRATE SAMPLE TEMPERATURE
 RMC .OHMM            .49:   RESISTIVITY MUD CAKE
 MCST.F                66:   MUD CAKE SAMPLE TEMPERATURE
 RMB .OHMM            .28:   RESISTIVITY MUD AT BHT
 BHT .F                74:   BOTTOM HOLE TEMPERATURE
 TCS .HRS             1.5:   TIME CURCULATED STOPPED
 MRT .F                74:   MAXIMUM RECORDED TEMPERATURE
 LUN .               8611:   LOGGING UNIT NUMBER
 LUL .           GILLETTE:   LOGGING UNIT LOCATION
 ENGI.            C. DOAK:   RECORDING ENGINEER
 WITN.       MR. ROB LYON:   WITNESSED BY
 CLNT.            A2DTECH:   CLIENT CODE
 ORIG.           5" PRINT:   ORIGIN OF DATA
 UWI .       490251034700:   UNIQUE WELL ID
 DICO. A2D Technologies, Inc.:   DIGITIZING COMPANY
~OTHER INFORMATION
~A   DEPT       CALD      CORR      DPHI         RHOB       GRD       ILD        ILM       SGRD        SPR   
# ...
  614.0000     7.8595     0.0262     0.1944     2.3450    90.5503    12.8651    14.4464    15.3832   -32.5440
  614.5000     7.8472     0.0292     0.1941     2.3480    92.7939    12.8695    14.1520    14.9444   -32.5426
  615.0000     7.8414     0.0306     0.1863     2.3542    93.9911    12.6018    13.8635    15.1623   -32.5408
  615.5000     7.8179     0.0306     0.1815     2.3667    95.6368    12.3438    13.8644    15.3737   -32.5394
  616.0000     7.8182     0.0306     0.1785     2.3735    97.5818    12.3438    13.8653    15.4810   -32.5380
  616.5000     7.8185     0.0305     0.1794     2.3772    98.0313    12.1748    13.8662    15.4820   -32.6861
  617.0000     7.8188     0.0305     0.1870     2.3608    95.7909    12.0911    13.8673    15.4830   -32.8341
  617.5000     7.8042     0.0275     0.1929     2.3563    98.4829    12.0081    13.9641    14.6538   -33.1317
  618.0000     7.8045     0.0259     0.1899     2.3570    99.9791    11.8436    13.9650    15.2731   -33.7278
  618.5000     7.8048     0.0229     0.1896     2.3541    99.8310    11.5215    13.7748    14.0625   -34.0253
  619.0000     7.8074     0.0229     0.1947     2.3488    98.4875    11.0546    13.4742    14.0615   -34.3229
  619.5000     7.8204     0.0231     0.2031     2.3399    97.7415    10.5897    13.1281    14.8614   -34.6204
  620.0000     7.8207     0.0258     0.1920     2.3425    97.2945    10.1769    12.9495    13.8730   -34.7685
  620.5000     7.8209     0.0276     0.1791     2.3675    96.8470     9.9686    13.1300    12.9501   -35.0657
  621.0000     7.8293     0.0303     0.1675     2.3937    95.5040     9.7646    13.3130    13.9708   -35.2138
  621.5000     7.8365     0.0317     0.1441     2.4162    93.4128     9.6975    13.3141    13.9717   -35.5301
  622.0000     7.8517     0.0347     0.1384     2.4356    91.4710     9.6975    13.4997    13.6870   -35.9579
  622.5000     7.8520     0.0347     0.1366     2.4441    92.6682     9.6975    13.5939    13.5937   -36.2558
  623.0000     7.8523     0.0347     0.1355     2.4469    96.8670     9.7646    13.7834    14.0712   -36.7025
  623.5000     7.8377     0.0346     0.1358     2.4469    98.6505     9.7646    13.9781    14.5653   -37.0000
  624.0000     7.8349     0.0331     0.1357     2.4469    97.6056     9.9001    14.2685    14.4583   -37.2975
  624.5000     7.8233     0.0299     0.1316     2.4514    95.6638     9.9686    14.4674    14.2693   -37.5951
  625.0000     7.7937     0.0255     0.1322     2.4559    96.2631    10.0376    14.6691    14.6691   -37.8923
  625.5000     7.7940     0.0225     0.1361     2.4521    98.9827    10.1769    14.6700    15.0799   -38.0404
  626.0000     7.7944     0.0210     0.1414     2.4387   101.9465    10.2473    14.4610    14.6710   -38.5032
  626.5000     7.7947     0.0187     0.1444     2.4432   102.5454    10.3182    14.1752    14.3719   -38.7849
  627.0000     7.7949     0.0164     0.1381     2.4454   100.3051    10.3182    13.9824    15.0831   -38.9329
  627.5000     7.7952     0.0149     0.1432     2.4305    98.6622    10.3182    13.8873    15.3989   -38.9312
  628.0000     7.7955     0.0163     0.1516     2.4215    98.0658    10.2473    13.7928    14.4743   -38.7803
  628.5000     7.7959     0.0178     0.1531     2.4208    99.8613    10.1769    13.6052    13.7938   -38.7785
  629.0000     7.7980     0.0223     0.1468     2.4275   101.6564    10.1769    13.5125    14.0830   -38.9269
  629.5000     7.8114     0.0268     0.1402     2.4365   102.2557    10.1769    13.6068    14.6782   -38.9251
  630.0000     7.8266     0.0312     0.1343     2.4485   101.6592    10.3182    13.6079    13.9881   -39.0732
  630.5000     7.8419     0.0327     0.1295     2.4560    99.8461    10.3182    13.7029    13.6086   -39.2213
  631.0000     7.8571     0.0327     0.1274     2.4619    99.5694    10.3182    13.7987    13.6097   -39.3693
  631.5000     7.8574     0.0311     0.1340     2.4560   101.9628    10.3182    13.9911    13.7049   -39.5174
  632.0000     7.8428     0.0294     0.1361     2.4530   104.2064    10.3182    14.0887    13.8960   -39.6651
  632.5000     7.8431     0.0251     0.1295     2.4612   107.0479    10.3182    14.0896    14.0897   -39.6637
  633.0000     7.8284     0.0220     0.1283     2.4620   110.6757    10.3182    14.1880    14.1880   -39.9612
  633.5000     7.8138     0.0205     0.1313     2.4575   112.1333    10.3182    14.1891    14.2870   -40.1093
  634.0000     7.7991     0.0220     0.1349     2.4538   110.3410    10.3182    14.1900    14.3869   -40.2573
  634.5000     7.7844     0.0243     0.1325     2.4538   109.4452    10.3182    14.1910    14.3879   -40.4051
  635.0000     7.7848     0.0249     0.1295     2.4570   110.4933    10.3182    14.0944    14.3888   -40.5531
  635.5000     7.7851     0.0268     0.1267     2.4620   110.3453    10.3182    13.9025    14.2910   -40.7008
  636.0000     7.7854     0.0279     0.1238     2.4665   107.5070    10.3182    13.7132    14.0964   -40.6994
  636.5000     7.8006     0.0308     0.1235     2.4695   104.3694    10.3182    13.6199    13.7144   -40.6980
  637.0000     7.7859     0.0317     0.1283     2.4649   103.4736    10.3896    13.5273    13.4347   -40.8460
  637.5000     7.7713     0.0323     0.1361     2.4486   103.9238    10.4615    13.5284    13.2515   -41.1435
  638.0000     7.7716     0.0322     0.1366     2.4411   105.4380    10.5338    13.6230    13.1616   -41.1418
  638.5000     7.7569     0.0322     0.1325     2.4508   105.7204    10.5338    13.7181    13.5305   -41.2902
  639.0000     7.7573     0.0307     0.1259     2.4613   104.0779    10.5338    13.8138    13.8139   -41.4383
  639.5000     7.7576     0.0277     0.1205     2.4727   103.3316    10.5338    13.9102    13.7200   -41.5929
  640.0000     7.7578     0.0261     0.1163     2.4815   105.4260    10.4615    13.9112    13.7209   -41.8831
  640.5000     7.7582     0.0246     0.1139     2.4860   107.1534    10.4615    13.9123    13.9131   -42.0316
  641.0000     7.7585     0.0246     0.1139     2.4860   109.7641    10.3896    13.9132    14.1063   -42.1796
  641.5000     7.7588     0.0245     0.1148     2.4830   112.1571    10.3182    13.7235    14.1072   -42.3274
  642.0000     7.7594     0.0245     0.1163     2.4793   113.5035    10.2473    13.4439    13.9151   -42.3478
  642.5000     7.7743     0.0276     0.1181     2.4771   110.3662    10.1769    13.1698    13.5378   -42.6234
  643.0000     7.7746     0.0290     0.1193     2.4763   109.1031    10.0376    12.9904    12.9798   -42.7712
  643.5000     7.7749     0.0319     0.1196     2.4771   110.9673     9.9001    12.7257    12.4655   -42.9196
  644.0000     7.7752     0.0349     0.1202     2.4741   112.3141     9.5647    12.4663    12.2113   -43.0673
  644.5000     7.7755     0.0364     0.1214     2.4710   113.9597     9.1141    12.1282    11.9623   -43.2153
  645.0000     7.7758     0.0363     0.1241     2.4681   115.4559     8.3904    11.7186    11.7994   -43.6620
  645.5000     7.7761     0.0363     0.1268     2.4637   116.3542     7.8857    11.3225    11.6300   -43.9599
  646.0000     7.7764     0.0363     0.1310     2.4599   115.7577     7.3603    10.8648    11.2456   -44.2571
  646.5000     7.7767     0.0362     0.1349     2.4547   118.7490     6.8228    10.2829    10.5702   -44.4240
  647.0000     7.7919     0.0347     0.1403     2.4430   122.7863     6.5434     9.4539     9.7322   -44.7023
  647.5000     7.7923     0.0332     0.1519     2.4173   128.1689     6.1951     8.3642     8.7774   -44.7009
  648.0000     7.7926     0.0316     0.1582     2.4083   134.0003     6.0266     7.4918     6.8974   -44.6995
  648.5000     7.7779     0.0301     0.1600     2.4054   130.4143     5.8627     7.0419     4.6900   -44.8475
  649.0000     7.7782     0.0301     0.1507     2.4293   124.8850     5.7427     7.0910     4.1434   -44.6963
  649.5000     7.7785     0.0316     0.1352     2.4639   113.9747     5.7473     7.6163     6.0109   -44.3959
  650.0000     7.7728     0.0375     0.1130     2.4862   106.0723     5.9032     8.3670    11.9716   -44.1768
