~VERSION INFORMATION
 VERS.                2.0:   CWLS LOG ASCII STANDARD - VERSION 2.0
 WRAP.                 NO:   ONE LINE PER DEPTH STEP
~WELL INFORMATION
#MNEM.UNIT      DATA TYPE    INFORMATION
#----------   ------------   ------------------------------
 STRT.F            7.0000:   START DEPTH
 STOP.F          690.0000:   STOP DEPTH
 STEP.F            0.5000:   STEP LENGTH
 NULL.          -999.2500:   NO VALUE
 COMP. FENIX & SCISSON INC:   COMPANY
 WELL.  NPR#3 #26-46 SX11:   WELL
 FLD .             TEAPOT:   FIELD
 LOC .      S11 T38N R78W:   LOCATION
 CNTY.            NATRONA:   COUNTY
 STAT.            WYOMING:   STATE
 CTRY. UNITED STATES OF AMERICA:   COUNTRY
 SRVC.      Dresser Atlas:   SERVICE COMPANY
 DATE.        13-AUG-1985:   LOGDATE
 API .       490251083600:   API NUMBER
~CURVE INFORMATION
#MNEM.UNIT       API CODE    CURVE DESCRIPTION
#----------   ------------   ------------------------------
 DEPT.F                  :   
 DPHI.DEC    45 890 12 00:   DENSITY POROSITY SANDSTONE
 NPHI.DEC    42 890 03 00:   NEUTRON POROSITY SANDSTONE
 RHOB.G/C3   45 350 01 00:   BULK DENSITY
 CORR.G/C3   45 356 01 00:   DENSITY CORRECTION
 CALD.IN     45 280 60 00:   CALIPER
 SPR .MV     07 010 01 00:   SPONTANEOUS POTENTIAL
 ILD .OHMM   07 120 46 00:   INDUCTION LOG DEEP
 ILM .OHMM   07 120 44 00:   INDUCTION LOG MEDIUM
 SFL .OHMM   07 220 01 00:   SHALLOW FOCUSED LOG RESISTIVITY
 GRR .GAPI   07 310 01 00:   GAMMA RAY FROM RES. LOG.
~PARAMETER INFORMATION
#MNEM.UNIT          VALUE    DESCRIPTION
#----------   ------------   ------------------------------
 PD  .                 GL:   PERMANENT DATUM
 EPD .F              5193:   ELEVATION PERMANENT DATUM
 LMF .                 KB:   LOG MEASURED FROM
 DAPD.F                 5:   FEET ABOVE PERMANENT DATUM
 DMF .                 KB:   DRILLING MEASURED FROM
 EKB .F              5198:   KELLING BUSHING
 EGL .F              5193:   GROUND LEVEL
 DATE.          8-13-1985:   RUN DATE
 RUN .                  8:   RUN NUMBER
 DD  .F               664:   DEPTH DRILLER
 BLI .F               635:   BOTTOM LOG INTERVAL
 TLI .F               340:   TOP LOG INTERVAL
 CBL .F               340:   CASING BOTTOM LOGGER
 BS  .IN             8.75:   BIT SIZE
 BSD .F               664:   BIT SIZE AT DEPTH
 DFT .          KPC WATER:   DRILLING FLUID TYPE
 LUN .           HL- 6274:   LOGGING UNIT NUMBER
 LUL .           GILLETTE:   LOGGING UNIT LOCATION
 ENGI.             RAUTIO:   RECORDING ENGINEER
 WITN.            SCHULTE:   WITNESSED BY
 CLNT.            A2DTECH:   CLIENT CODE
 ORIG.        2" 5" PRINT:   ORIGIN OF DATA
 UWI .       490251083600:   UNIQUE WELL ID
 DICO. A2D Technologies, Inc.:   DIGITIZING COMPANY
~OTHER INFORMATION
~A    DEPT    DPHI       NPHI       RHOB       CORR       CALD         SPR       ILD        ILM        SFL        GRR   
# ...
  342.0000     0.2350     0.3243     2.2974     0.2002     6.0468   -13.7273     5.0912     5.2193     6.5676    94.1658
  342.5000     0.2389     0.3179     2.2916     0.1970     6.0468   -13.7259     5.0307     5.2531     6.2602    93.3781
  343.0000     0.2370     0.3138     2.2799     0.2033     6.0468   -13.6518     5.1403     5.2926     6.0430    93.7374
  343.5000     0.2315     0.3130     2.2862     0.2092     6.0468   -13.4683     5.3159     5.3740     6.7337    95.1049
  344.0000     0.2253     0.3216     2.2935     0.2152     6.0468   -13.3610     5.4596     5.5038     7.6452    96.4410
  344.5000     0.2237     0.3298     2.3008     0.2148     6.0468   -13.5582     5.5589     5.6379     8.1958    94.6340
  345.0000     0.2267     0.3306     2.3023     0.2066     6.0468   -13.7494     5.6603     5.7752     7.9216    92.3827
  345.5000     0.2320     0.3349     2.2976     0.1985     6.0468   -13.9187     5.7634     5.9153     7.6815    90.1304
  346.0000     0.2323     0.3453     2.2926     0.1999     6.0468   -13.7794     5.8685     6.0216     7.7094    88.3399
  346.5000     0.2286     0.3533     2.2959     0.1930     6.0468   -13.6335     5.9523     6.0848     7.7419    88.6155
  347.0000     0.2270     0.3536     2.3017     0.1933     6.0468   -13.4871     6.0337     6.1490     7.7865    93.5648
  347.5000     0.2313     0.3459     2.2966     0.1872     6.0468   -13.3340     6.1163     6.2139     7.8588    98.5218
  348.0000     0.2405     0.3381     2.2847     0.1807     6.0468   -13.7032     6.1594     6.2740     7.9317    99.5768
  348.5000     0.2465     0.3327     2.2728     0.1611     6.0468   -14.1401     6.1359     6.2738     8.0061    96.6718
  349.0000     0.2529     0.3514     2.2610     0.1512     6.0468   -14.4921     6.1177     6.2738     8.0429    97.3687
  349.5000     0.2568     0.3737     2.2524     0.1461     6.0468   -13.8331     6.0994     6.2738     7.9553    98.9463
  350.0000     0.2563     0.3779     2.2557     0.1421     6.0468   -13.1976     6.0813     6.2562     7.8963   100.6206
  350.5000     0.2455     0.3806     2.2669     0.1720     6.0468   -13.8328     6.0632     6.1942     7.8381   102.9236
  351.0000     0.2447     0.3817     2.2699     0.1741     6.0468   -14.6243     6.0406     6.1339     7.7804   104.9301
  351.5000     0.2447     0.3825     2.2694     0.1768     6.0468   -15.2440     5.9820     6.0739     7.6996   102.4595
  352.0000     0.2378     0.3793     2.2921     0.1793     6.0468   -14.4814     5.9240     6.0146     7.5992    99.3922
  352.5000     0.2137     0.3690     2.3171     0.1809     6.0468   -13.9632     5.8666     5.9559     7.4979    96.6123
  353.0000     0.2006     0.3610     2.3281     0.1824     6.0468   -14.2332     5.7763     5.8977     7.4356    96.6201
  353.5000     0.1923     0.3545     2.3333     0.1839     6.0468   -15.2371     5.6227     5.7540     7.3671    96.6352
  354.0000     0.1920     0.3441     2.3383     0.1854     6.0468   -16.2208     5.4658     5.5842     7.2992    96.6178
  354.5000     0.2055     0.3326     2.3366     0.1867     6.0468   -14.9232     5.1670     5.4195     7.1952    96.0878
  355.0000     0.2102     0.3257     2.3304     0.1846     6.0468   -14.0200     4.8703     5.1930     7.1149    95.5466
  355.5000     0.2097     0.3400     2.3290     0.1826     6.0468   -13.7760     4.5906     4.8634     7.0553    94.4246
  356.0000     0.2135     0.3599     2.3283     0.1811     6.0468   -14.5434     4.3396     4.5465     6.8826    93.2200
  356.5000     0.2179     0.3558     2.3297     0.1796     6.0468   -15.6944     4.3253     4.4529     5.0999    93.3059
  357.0000     0.2171     0.3479     2.3386     0.1872     6.0468   -16.6423     4.3110     4.4392     3.8539    95.5560
  357.5000     0.2039     0.3393     2.3471     0.1959     6.0468   -15.7785     4.3023     4.4227     3.8172    98.3718
  358.0000     0.1913     0.3393     2.3535     0.2047     6.0468   -14.6966     4.4513     4.5876     4.2629    95.5464
  358.5000     0.1843     0.3364     2.3534     0.2136     6.0468   -13.7334     4.5805     4.8050     7.1364    89.9283
  359.0000     0.1866     0.3290     2.3534     0.2069     6.0468   -14.0831     4.7131     5.0326     7.8965    87.3639
  359.5000     0.1928     0.3185     2.3534     0.1980     6.0468   -14.7282     4.8497     5.2703     7.5539    89.7767
  360.0000     0.1962     0.3121     2.3528     0.1891     6.0468   -14.7287     5.1552     5.2649     7.3353    94.2966
  360.5000     0.1915     0.3197     2.3590     0.1823     6.0468   -14.1191     5.4781     5.7180     7.3341    98.8451
  361.0000     0.1869     0.3291     2.3708     0.1868     6.0468   -14.0467     5.7215     5.8793     7.5498   101.2437
  361.5000     0.1897     0.3472     2.3663     0.1928     6.0468   -14.2139     5.8435     6.0077     7.7525   100.2424
  362.0000     0.1944     0.3542     2.3559     0.1989     6.0468   -14.6519     5.9674     6.1389     7.8242    98.5029
  362.5000     0.1973     0.3554     2.3517     0.2021     6.0468   -15.7808     6.0941     6.2257     7.6099    97.2747
  363.0000     0.2000     0.3576     2.3480     0.2018     6.0468   -16.1843     6.2164     6.3046     7.7747    97.3061
  363.5000     0.2039     0.3652     2.3422     0.2015     6.0468   -14.7761     6.2901     6.3847     7.9705    97.3847
  364.0000     0.2064     0.3685     2.3371     0.2013     6.0468   -13.3318     6.3608     6.4658     8.1386    97.3898
  364.5000     0.2039     0.3431     2.3407     0.2027     6.0468   -12.9317     6.4323     6.5479     8.2183    96.2827
  365.0000     0.1958     0.3288     2.3537     0.2041     6.0468   -13.3436     6.5045     6.6312     8.2987    95.3836
  365.5000     0.1896     0.3241     2.3656     0.2056     6.0468   -13.8146     6.5776     6.6954     8.3800    97.4300
  366.0000     0.1914     0.3241     2.3653     0.2072     6.0468   -14.2783     6.6299     6.7102     8.4218   100.3332
  366.5000     0.1993     0.3289     2.3520     0.2071     6.0468   -13.8257     6.6437     6.7250     8.4218   101.8553
  367.0000     0.2043     0.3414     2.3411     0.1965     6.0468   -12.9388     6.6590     6.7397     8.4218    97.6563
  367.5000     0.2001     0.3521     2.3435     0.1940     6.0468   -13.0284     6.6745     6.7619     8.4345    94.2325
  368.0000     0.1947     0.3516     2.3538     0.1966     6.0468   -13.2963     6.6912     6.8434     8.4757    92.6496
  368.5000     0.1921     0.3187     2.3594     0.1930     6.0468   -14.7890     6.7455     6.9261     8.5170    93.5922
  369.0000     0.1917     0.3165     2.3630     0.1947     6.0468   -15.4785     6.8053     7.0098     8.5586    95.9047
  369.5000     0.1896     0.3146     2.3675     0.1978     6.0467   -14.7105     6.8664     7.0943     8.6539    97.6238
  370.0000     0.1822     0.3135     2.3792     0.2085     6.0464   -13.9320     7.0037     7.2023     8.8998    96.5577
  370.5000     0.1682     0.3076     2.4017     0.2316     6.0461   -14.7761     6.9571     7.1869     8.7255    94.7709
  371.0000     0.1601     0.3072     2.4129     0.2222     6.0457   -16.4878     6.8605     7.1662     8.5439    93.0755
  371.5000     0.1582     0.3363     2.4090     0.2078     6.0454   -18.1522     6.7682     7.1455     8.4997    93.0663
  372.0000     0.1729     0.3563     2.3933     0.1975     6.0450   -16.6624     6.6912     7.0654     8.4943    93.3514
  372.5000     0.1821     0.3754     2.3777     0.1910     6.0447   -14.0237     6.6912     7.0602     8.4616    93.6139
  373.0000     0.1819     0.3684     2.3751     0.1920     6.0444   -13.5233     6.6912     7.0390     8.4291    93.7626
  373.5000     0.1811     0.3558     2.3775     0.1929     6.0440   -14.7971     6.6912     7.0241     8.3966    96.3607
  374.0000     0.1802     0.3383     2.3805     0.1955     6.0437   -16.2221     6.6912     7.0096     8.3643    99.3038
  374.5000     0.1805     0.3340     2.3817     0.1975     6.0434   -16.5329     6.6912     6.9598     8.2915   101.2423
  375.0000     0.1880     0.3716     2.3203     0.1897     6.0430   -15.1213     6.6913     6.9016     8.1571   100.1429
