~VERSION INFORMATION
 VERS.                2.0:   CWLS LOG ASCII STANDARD - VERSION 2.0
 WRAP.                 NO:   ONE LINE PER DEPTH STEP
~WELL INFORMATION
#MNEM.UNIT      DATA TYPE    INFORMATION
#----------   ------------   ------------------------------
 STRT.F           26.0000:   START DEPTH
 STOP.F          655.0000:   STOP DEPTH
 STEP.F            0.5000:   STEP LENGTH
 NULL.          -999.2500:   NO VALUE
 COMP. FENIX & SCISSON, INCORPORATED:   COMPANY
 WELL. RES 3 TEAPOT DOM #22S-11:   WELL
 FLD .             TEAPOT:   FIELD
 LOC .      S11 T38N R78W:   LOCATION
 CNTY.            NATRONA:   COUNTY
 STAT.            WYOMING:   STATE
 CTRY. UNITED STATES OF AMERICA:   COUNTRY
 SRVC.            Unknown:   SERVICE COMPANY
 DATE.        03-FEB-1978:   LOGDATE
 API .       490251057200:   API NUMBER
~CURVE INFORMATION
#MNEM.UNIT       API CODE    CURVE DESCRIPTION
#----------   ------------   ------------------------------
 DEPT.F                  :   
 ILD .OHMM   05 120 46 00:   INDUCTION LOG DEEP
 SN  .OHMM   05 040 16 00:   SHORT NORMAL 16"
 SPR .MV     05 010 01 00:   SPONTANEOUS POTENTIAL.
 CALD.IN     45 280 60 00:   CALIPER FROM DENSITY LOG
 CORR.G/C3   45 356 01 00:   DENSITY CORRECTION
 DPHI.DEC    45 890 12 00:   DENSITY POROSITY SANDSTONE
 GRD .GAPI   45 310 01 00:   GAMMA RAY FROM DENSITY LOG
 RHOB.G/C3   45 350 01 00:   BULK DENSITY
~PARAMETER INFORMATION
#MNEM.UNIT          VALUE    DESCRIPTION
#----------   ------------   ------------------------------
 PD  .                 GL:   PERMANENT DATUM
 EPD .F              5168:   ELEVATION PERMANENT DATUM
 LMF .                 KB:   LOG MEASURED FROM
 DMF .                 KB:   DRILLING MEASURED FROM
 EKB .F              5171:   KELLING BUSHING
 EGL .F              5168:   GROUND LEVEL
 DATE.        03-FEB-1978:   RUN DATE
 RUN .                  1:   RUN NUMBER
 DD  .F               650:   DEPTH DRILLER
 DL  .F               655:   DEPTH LOGGER
 BLI .F               655:   BOTTOM LOG INTERVAL
 TLI .F                40:   TOP LOG INTERVAL
 CS  .IN            8.625:   CASING SIZE
 CBD .F                39:   CASING BOTTOM DRILLER
 CBL .F                40:   CASING BOTTOM LOGGER
 BS  .IN            7.875:   BIT SIZE
 BSD .F               650:   BIT SIZE AT DEPTH
 DFT .                KCL:   DRILLING FLUID TYPE
 DFD .                8.6:   DRILLING FLUID DENSITY
 DFV .                 31:   DRILLING FLUID VISCOSITY
 DFPH.                9.5:   DRILLING FLUID PH
 DFL .               12.8:   DRILLING FLUID LOSS
 MSS .           FLOWLINE:   MUD SAMPLE SOURCE
 RMS .OHMM           0.38:   RESISTIVITY MUD SAMPLE
 MST .F                62:   MUD SAMPLE TEMPERATURE
 RMF .OHMM            4.4:   RESISTIVITY MUD FILTRATE SAMPLE
 MFST.F                62:   MUD FILTRATE SAMPLE TEMPERATURE
 RMC .OHMM            0.8:   RESISTIVITY MUD CAKE
 MCST.F                62:   MUD CAKE SAMPLE TEMPERATURE
 MFSS.               MEAS:   MUD FILTRATE SAMPLE SOURCE
 RMB .OHMM           0.35:   RESISTIVITY MUD AT BHT
 BHT .F                68:   BOTTOM HOLE TEMPERATURE
 TCS .HRS               1:   TIME CURCULATED STOPPED
 MRT .F                68:   MAXIMUM RECORDED TEMPERATURE
 LUN .               2958:   LOGGING UNIT NUMBER
 LUL .             CASPER:   LOGGING UNIT LOCATION
 ENGI.           REYNOLDS:   RECORDING ENGINEER
 WITN.         HARRINGTON:   WITNESSED BY
 CLNT.            A2DTECH:   CLIENT CODE
 ORIG.           5" PRINT:   ORIGIN OF DATA
 UWI .       490251057200:   UNIQUE WELL ID
 DICO. A2D Technologies, Inc.:   DIGITIZING COMPANY
~OTHER INFORMATION
~A   DEPT      ILD         SN        SPR       CALD       CORR       DPHI         GRD      RHOB   
# ...
  147.5000     7.7925     7.8220   -69.9031     7.6671     0.1037     0.0646    95.8761     2.5314
  148.0000     7.8983     7.8194   -70.0651     7.6360     0.0780     0.0778   101.7081     2.5403
  148.5000     7.9502     7.8719   -70.2271     7.5897     0.0749     0.0952   108.6487     2.5160
  149.0000     7.9462     7.8686   -70.2374     7.5737     0.0838     0.1103   109.5419     2.4902
  149.5000     7.9430     7.8659   -70.2477     7.5423     0.0897     0.1208   106.9607     2.4659
  150.0000     7.8303     7.8089   -70.2128     7.5394     0.0776     0.1256   104.2074     2.4531
  150.5000     7.5610     7.6444   -70.2188     7.5401     0.0610     0.1202   103.1163     2.4628
  151.0000     7.3519     7.4838   -70.2260     7.5538     0.0475     0.1173   100.5680     2.4635
  151.5000     7.2466     7.3777   -70.2319     7.5822     0.0414     0.1257    99.3435     2.4530
  152.0000     7.1386     7.2227   -70.2378     7.6110     0.0412     0.1353   101.2911     2.4304
  152.5000     6.9968     7.1203   -70.5476     7.6549     0.0411     0.1389   107.0152     2.4176
  153.0000     6.9949     7.0681   -70.5535     7.6989     0.0287     0.1392   108.9669     2.4177
  153.5000     6.9446     7.0158   -70.5593     7.7428     0.0140     0.1405   107.2851     2.4227
  154.0000     6.9428     7.0129   -70.7173     7.7720     0.0079     0.1423   106.6586     2.4152
  154.5000     6.9409     7.0596   -70.7234     7.8175     0.0077     0.1390   106.4970     2.4091
  155.0000     6.9874     7.1547   -70.7305     7.8594     0.0091     0.1384   105.5712     2.4068
  155.5000     7.0844     7.2518   -70.7364     7.8878     0.0105     0.1351   103.7424     2.4143
  156.0000     7.2377     7.3502   -70.7422     7.9166     0.0103     0.1348   100.4031     2.4217
  156.5000     7.4316     7.3984   -70.7481     7.9152     0.0102     0.1346   102.5018     2.4239
  157.0000     7.5861     7.5510   -70.8484     7.9292     0.0101     0.1313   103.0939     2.4216
  157.5000     7.6906     7.6005   -70.8359     7.9273     0.0039     0.1232   102.1675     2.4337
  158.0000     7.7956     7.6504   -70.9179     7.9259    -0.0022     0.1205   100.0121     2.4568
  158.5000     7.7935     7.6465   -70.9240     7.9244    -0.0083     0.1232    99.4122     2.4560
  159.0000     7.9004     7.6975   -70.9310     7.9226    -0.0114     0.1256   104.0789     2.4484
  159.5000     7.8982     7.7136   -70.9362     7.9211    -0.0026     0.1278   108.2924     2.4379
  160.0000     7.8961     7.7441   -70.9423     7.9045     0.0242     0.1290   108.1253     2.4341
  160.5000     7.8935     7.7409   -70.9486     7.9031     0.0405     0.1248   108.8645     2.4543
  161.0000     7.8367     7.7679   -70.9545     7.9016     0.0478     0.1194   110.2079     2.4587
  161.5000     7.8346     7.7885   -71.1125     7.9001     0.0536     0.1188   111.2492     2.4585
  162.0000     7.8325     7.7846   -71.2705     7.8986     0.0552     0.1194   108.1027     2.4541
  162.5000     7.7762     7.7815   -71.2776     7.9123     0.0564     0.1197   106.5342     2.4525
  163.0000     7.7741     7.7783   -71.2835     7.9105     0.0577     0.1183   107.2734     2.4532
  163.5000     7.7182     7.7214   -71.2893     7.9092     0.0591     0.1171   102.5705     2.4584
  164.0000     7.6626     7.7183   -71.2952     7.9075     0.0589     0.1171   100.7418     2.4614
  164.5000     7.5544     7.6614   -71.3011     7.9212     0.0558     0.1177   104.0489     2.4561
  165.0000     7.5001     7.5986   -71.3070     7.9197     0.0572     0.1195   103.8818     2.4493
  165.5000     7.4462     7.4971   -71.1940     7.9183     0.0630     0.1165   102.6480     2.4510
  166.0000     7.3415     7.4422   -71.1570     7.9168     0.0644     0.1148   101.4320     2.4606
  166.5000     7.3395     7.3878   -71.0207     7.9456     0.0627     0.1157   102.0168     2.4626
  167.0000     7.2868     7.2830   -71.0280     7.9440     0.0611     0.1175   103.3602     2.4588
  167.5000     7.1843     7.1300   -71.0339     7.9574     0.0625     0.1187   103.9524     2.4520
  168.0000     7.2882     7.1272   -71.0395     7.9640     0.0638     0.1202   103.6301     2.4470
  168.5000     7.4342     7.2752   -70.8937     7.9700     0.0697     0.1218   103.3119     2.4437
  169.0000     7.5361     7.3803   -70.8997     7.9833     0.0755     0.1227   102.8427     2.4429
  169.5000     7.6395     7.5242   -70.7538     7.9970     0.0845     0.1233   102.6755     2.4406
  170.0000     7.7438     7.5736   -70.7609     7.9955     0.0991     0.1214   105.3744     2.4368
  170.5000     7.7417     7.5705   -70.7660     7.9937     0.1094     0.1176   108.2284     2.4382
  171.0000     7.8479     7.6740   -70.7726     7.9922     0.1197     0.1125   109.7229     2.4441
  171.5000     7.8457     7.6701   -70.7785     7.9756     0.1285     0.1089   110.3151     2.4584
  172.0000     7.8436     7.7205   -70.7844     7.9590     0.1344     0.1078   106.6696     2.4681
  172.5000     7.7328     7.6639   -70.7903     7.9121     0.1372     0.1066   103.6323     2.4703
  173.0000     7.6772     7.6607   -70.6444     7.8502     0.1371     0.1033   100.2930     2.4725
  173.5000     7.6751     7.6570   -70.6515     7.8033     0.1338     0.1036    99.6726     2.4807
  174.0000     7.6731     7.6010   -70.5040     7.7401     0.1264     0.1011   101.7673     2.4791
  174.5000     7.7250     7.5457   -70.5113     7.6639     0.1188     0.1000   101.9063     2.4835
  175.0000     7.7762     7.5423   -70.5167     7.6170     0.1082     0.1010   102.4904     2.4888
  175.5000     7.8283     7.6454   -70.3696     7.5701     0.0961     0.1019   104.2870     2.4849
  176.0000     7.9357     7.6416   -70.3770     7.5536     0.0826     0.1037   106.5368     2.4811
  176.5000     8.0445     7.7452   -70.2309     7.5370     0.0660     0.1067   108.3334     2.4781
  177.0000     8.1543     7.8597   -70.2383     7.5204     0.0494     0.1103   108.9245     2.4735
  177.5000     8.1521     7.9569   -70.2432     7.5038     0.0354     0.1146   109.3807     2.4600
  178.0000     8.1499     8.0090   -70.2492     7.5023     0.0164     0.1218   109.7917     2.4365
  178.5000     8.0913     8.0611   -70.2553     7.5459     0.0223     0.1362   109.9306     2.4257
  179.0000     8.0891     8.0575   -70.2618     7.5750     0.0280     0.1380   109.6084     2.4193
  179.5000     8.1434     8.1112   -70.2682     7.6186     0.0294     0.1398   109.4413     2.4185
  180.0000     8.2550     8.1635   -70.2736     7.6629     0.0248     0.1318   108.9720     2.4207
  180.5000     8.3682     8.1602   -70.2796     7.7215     0.0187     0.1243   108.6538     2.4334
  181.0000     8.4830     8.2710   -70.2868     7.7503     0.0170     0.1219   108.6284     2.4424
  181.5000     8.5398     8.3832   -70.2927     7.7942     0.0184     0.1237   108.3155     2.4385
  182.0000     8.5971     8.4970   -70.3384     7.8246     0.0198     0.1249   107.6992     2.4332
  182.5000     8.5942     8.5527   -70.5192     7.8666     0.0211     0.1231   112.9661     2.4384
  183.0000     8.5918     8.5484   -70.6143     7.8957     0.0150     0.1213   114.9177     2.4459
  183.5000     8.5896     8.5449   -70.5491     7.9094     0.0089     0.1190   111.2722     2.4458
  184.0000     8.6082     8.5415   -70.4691     7.9231     0.0028     0.1175   107.3287     2.4578
  184.5000     8.6447     8.5380   -70.4814     7.9212    -0.0033     0.1226   107.1390     2.4532
  185.0000     8.7021     8.5337   -70.4873     7.9198    -0.0094     0.1232   109.3051     2.4419
  185.5000     8.6997     8.5303   -70.4569     7.9183    -0.0127     0.1232   108.1827     2.4411
  186.0000     8.7087     8.5871   -70.3456     7.9168    -0.0081     0.1326   109.8282     2.4208
  186.5000     8.8167     8.7027   -70.3535     7.8999    -0.0038     0.1305   111.4778     2.4065
  187.0000     8.8511     8.7598   -70.2641     7.8833    -0.0010     0.1263   107.5302     2.4260
  187.5000     8.9352     8.8174   -70.2128     7.8818     0.0019     0.1215   105.3993     2.4274
