~VERSION INFORMATION
 VERS.                2.0:   CWLS LOG ASCII STANDARD - VERSION 2.0
 WRAP.                 NO:   ONE LINE PER DEPTH STEP
~WELL INFORMATION
#MNEM.UNIT      DATA TYPE    INFORMATION
#----------   ------------   ------------------------------
 STRT.F           11.0000:   START DEPTH
 STOP.F          807.0000:   STOP DEPTH
 STEP.F            0.5000:   STEP LENGTH
 NULL.          -999.2500:   NO VALUE
 COMP. BROWN JOHN E&C INC:   COMPANY
 WELL. NPR 3 SHX-34 #77-1-34:   WELL
 FLD .             TEAPOT:   FIELD
 LOC .      S34 T39N R79W:   LOCATION
 CNTY.            NATRONA:   COUNTY
 STAT.            WYOMING:   STATE
 CTRY. UNITED STATES OF AMERICA:   COUNTRY
 SRVC.     Atlas Wireline:   SERVICE COMPANY
 DATE.        07-DEC-1991:   LOGDATE
 API .       490252248000:   API NUMBER
~CURVE INFORMATION
#MNEM.UNIT       API CODE    CURVE DESCRIPTION
#----------   ------------   ------------------------------
 DEPT.F                  :   
 CALD.IN     45 280 60 00:   CALIPER FROM DENSITY LOG
 CORR.G/C3   45 356 01 00:   DENSITY CORRECTION
 DEN .G/C3   45 350 01 00:   COMPENSATED BULK DENSTIY
 GRD .GAPI   45 310 01 00:   GAMMA RAY FROM DENSITY LOG
 PORD.DEC    45 890 12 00:   POROSITY DENSITY SANDSTONE
 GRR .GAPI   07 310 01 00:   GAMMA RAY FROM RESISTIVITY
 RILD.OHMM   07 120 46 00:   RESISTIVITY INDUCTION LOG DEEP
 RILM.OHMM   07 120 44 00:   RESITIVITY INDUCTION LOG MEDIUM
~PARAMETER INFORMATION
#MNEM.UNIT          VALUE    DESCRIPTION
#----------   ------------   ------------------------------
 PD  .                 GL:   PERMANENT DATUM
 EPD .F              5098:   ELEVATION PERMANENT DATUM
 LMF .                 KB:   LOG MEASURED FROM
 DAPD.F                10:   FEET ABOVE PERMANENT DATUM
 DMF .                 KB:   DRILLING MEASURED FROM
 EKB .F              5108:   KELLING BUSHING
 EDF .F              5107:   DRILLING FLOOR
 EGL .F              5098:   GROUND LEVEL
 DATE.        07-DEC-1991:   RUN DATE
 RUN .                  1:   RUN NUMBER
 DD  .F               810:   DEPTH DRILLER
 DL  .F               810:   DEPTH LOGGER
 BLI .F               808:   BOTTOM LOG INTERVAL
 CS  .IN            9.625:   CASING SIZE
 CBD .F                85:   CASING BOTTOM DRILLER
 CBL .F                97:   CASING BOTTOM LOGGER
 BS  .IN             8.75:   BIT SIZE
 BSD .F               810:   BIT SIZE AT DEPTH
 DFT .                AIR:   DRILLING FLUID TYPE
 BHT .F                90:   BOTTOM HOLE TEMPERATURE
 MRT .F                90:   MAXIMUM RECORDED TEMPERATURE
 LUN .            HL 6274:   LOGGING UNIT NUMBER
 LUL .             CASPER:   LOGGING UNIT LOCATION
 ENGI.       P. RASMUSSEN:   RECORDING ENGINEER
 WITN.        GARY STRONG:   WITNESSED BY
 CLNT.            A2DTECH:   CLIENT CODE
 ORIG.           5" PRINT:   ORIGIN OF DATA
 UWI .       490252248000:   UNIQUE WELL ID
 DICO. A2D Technologies, Inc.:   DIGITIZING COMPANY
~OTHER INFORMATION
~A   DEPT     CALD       CORR        DEN        GRD       PORD         GRR      RILD       RILM   
# ...
  537.5000     9.2159     0.0199     2.4793   162.3856     0.1113   126.8776     8.0118     8.0563
  538.0000     9.2156     0.0260     2.4733   162.9799     0.1113   126.2698     8.2441     8.3478
  538.5000     9.2153     0.0169     2.4635   158.1646     0.1152   126.2640     8.4642     8.5122
  539.0000     9.2150     0.0034     2.4567   153.6436     0.1173   128.0600     8.4631     8.5108
  539.5000     9.2147    -0.0011     2.4537   151.5391     0.1188   128.6548     8.3459     8.3928
  540.0000     9.2144    -0.0026     2.4515   149.7289     0.1195   125.6446     8.2304     8.2764
  540.5000     9.2141     0.0034     2.4462   145.8166     0.1209   125.0396     8.1164     8.1617
  541.0000     9.2138     0.0064     2.4432   148.5088     0.1228   127.4348     8.0040     8.0485
  541.5000     9.2135     0.0079     2.4417   156.0079     0.1237   131.0326     7.8930     7.9367
  542.0000     9.2132     0.0032     2.4409   159.6031     0.1246   128.6245     7.6770     7.7727
  542.5000     9.2129    -0.0026     2.4409   158.9839     0.1255   123.7940     7.4669     7.6121
  543.0000     9.2126    -0.0041     2.4409   156.2809     0.1264   122.3051     7.1136     7.2015
  543.5000     9.2122    -0.0041     2.4409   156.2724     0.1264   125.6027     6.7305     6.8603
  544.0000     9.2120    -0.0026     2.4327   156.2640     0.1267   128.5999     6.3206     6.4796
  544.5000     9.2117    -0.0026     2.4244   154.4517     0.1270   129.1961     5.6618     5.9313
  545.0000     9.2114    -0.0011     2.4199   154.7436     0.1289   128.5883     5.1041     5.4962
  545.5000     9.2111    -0.0011     2.4130   156.5370     0.1342   130.0840     4.6653     5.0930
  546.0000     9.2108     0.0019     2.3935   157.4295     0.1396   134.8384     4.5376     4.8182
  546.5000     9.2105     0.0049     2.3582   156.8184     0.1493   139.9824     4.6641     4.6862
  547.0000     9.2101     0.0094     2.3424   149.6028     0.1800   136.3715     4.9645     4.8223
  547.5000     9.2099     0.0154     2.3386   147.4923     0.1855   129.7591     5.5411     5.3796
  548.0000     9.2096     0.0169     2.3642   148.3848     0.1692   126.1497     6.1026     5.8442
  548.5000     9.2093     0.0047     2.4108   148.9770     0.1446   125.5055     6.6748     6.2186
  549.0000     9.2090    -0.0011     2.4260   146.2637     0.1288   126.4465     7.0530     6.7092
  549.5000     9.2087    -0.0011     2.4334   144.7538     0.1255   127.9342     7.3503     7.1886
  550.0000     9.2084    -0.0011     2.4394   145.0437     0.1237   128.8279     7.5551     7.4921
  550.5000     9.2081    -0.0011     2.4424   149.2394     0.1222   129.1238     7.8283     7.8084
  551.0000     9.2078    -0.0011     2.4462   150.4324     0.1209   128.8163     8.2053     8.0818
  551.5000     9.2225     0.0019     2.4515   147.7190     0.1185   129.1108     8.4342     8.2503
  552.0000     9.2371     0.0049     2.4590   147.1121     0.1149   130.9068     8.4915     8.3638
  552.5000     9.2368     0.0079     2.4637   149.5040     0.1134   134.6245     8.5492     8.4795
  553.0000     9.2366     0.0079     2.4665   153.1308     0.1131   140.5034     8.6070     8.5369
  553.5000     9.2363     0.0004     2.4665   156.0917     0.1134   138.3955     8.6655     8.5950
  554.0000     9.2359    -0.0041     2.4665   154.2815     0.1137   135.6870     8.7244     8.5343
  554.5000     9.2357    -0.0071     2.4650   153.0719     0.1143   133.8795     8.6629     8.4744
  555.0000     9.2354    -0.0087     2.4650   152.4608     0.1143   133.2731     8.6618     8.4733
  555.5000     9.2350    -0.0102     2.4643   151.8518     0.1149   132.9664     8.5418     8.4138
  556.0000     9.2347    -0.0087     2.4620   151.8434     0.1158   136.5642     8.4236     8.3547
  556.5000     9.2345    -0.0087     2.4590   153.6727     0.1164   136.8589     8.3069     8.2960
  557.0000     9.2342    -0.0071     2.4560   156.6293     0.1171   134.4493     8.2686     8.2375
  557.5000     9.2338    -0.0041     2.4537   158.7230     0.1182   130.8400     8.1996     8.2364
  558.0000     9.2336    -0.0026     2.4507   160.8167     0.1188   127.2306     8.1513     8.1785
  558.5000     9.2333    -0.0011     2.4482   160.2055     0.1194   126.0237     8.1513     8.1211
  559.0000     9.2329     0.0019     2.4458   159.8968     0.1203   128.4204     8.1513     8.1200
  559.5000     9.2326     0.0019     2.4437   159.8884     0.1209   136.8217     8.0952     8.1167
  560.0000     9.2324     0.0034     2.4429   159.5796     0.1216   140.4196     8.0952     8.0061
  560.5000     9.2321     0.0019     2.4451   159.2689     0.1209   141.0159     7.9842     7.7867
  561.0000     9.2317     0.0019     2.4482   159.5629     0.1209   138.0057     7.6075     7.4178
  561.5000     9.2315     0.0019     2.4466   162.5319     0.1206   133.4867     7.0511     7.0663
  562.0000     9.2312    -0.0011     2.4451   165.2374     0.1210   129.5859     6.4014     6.5933
  562.5000     9.2308    -0.0041     2.4436   167.0420     0.1246   131.3820     5.6828     5.9020
  563.0000     9.2305    -0.0102     2.4390   171.2498     0.1339   131.6766     5.3495     5.2601
  563.5000     9.2303    -0.0071     2.4029   177.2586     0.1523   132.5703     5.1325     4.7949
  564.0000     9.2296     0.0034     2.3525   180.5648     0.1873   135.8919     5.1325     4.7286
  564.5000     9.1997     0.0094     2.3133   179.6667     0.2017   139.7647     5.1325     5.0663
  565.0000     9.1844     0.0154     2.3132   171.8624     0.2044   134.3535     5.1325     5.4283
  565.5000     9.1991     0.0184     2.3258   167.6611     0.1763   130.1436     5.2038     5.8161
  566.0000     9.2287     0.0199     2.3434   167.0626     0.1570   130.7385     5.4993     6.2421
  566.5000     9.2284     0.0214     2.3953   168.8679     0.1495   133.4616     5.8116     6.5852
  567.0000     9.2432     0.0199     2.4093   169.1711     0.1438   135.2316     6.0158     6.7222
  567.5000     9.2279     0.0109     2.4223   162.2677     0.1377   133.7229     5.9696     6.5833
  568.0000     9.2275     0.0018     2.4314   157.7660     0.1314   133.1166     5.8116     6.0583
  568.5000     9.2273    -0.0071     2.4359   157.4324     0.1269   134.3121     5.7319     5.6920
  569.0000     9.2270    -0.0071     2.4374   158.7448     0.1272   136.1261     5.6925     5.2744
  569.5000     9.2266    -0.0041     2.4260   161.6791     0.1446   139.4043     5.6533     5.4214
  570.0000     9.2263     0.0019     2.3922   164.9853     0.1651   141.2004     5.6925     5.6503
  570.5000     9.2261     0.0079     2.3681   161.6848     0.1709   141.4965     5.7319     5.8889
  571.0000     9.2258     0.0109     2.3628   157.3872     0.1721   140.2881     5.8924     6.1376
  571.5000     9.2230     0.0079     2.3658   152.0816     0.1684   135.4316     6.1417     6.5025
  572.0000     9.2203     0.0019     2.3846   148.4808     0.1485   131.2662     6.3096     6.9490
  572.5000     9.2181     0.0049     2.4184   144.5797     0.1341   129.1584     6.5944     7.2424
  573.0000     9.2176     0.0109     2.4312   143.0811     0.1280   129.4530     6.9544     7.4962
  573.5000     9.2172     0.0169     2.4359   144.5861     0.1253   130.6485     7.1987     7.8669
  574.0000     9.2168     0.0184     2.4387   148.1925     0.1244   131.5716     7.3493     8.0366
  574.5000     9.2163     0.0184     2.4394   153.9011     0.1241   131.8383     7.3493     7.9741
  575.0000     9.2158     0.0153     2.4394   156.9069     0.1238   131.8311     7.2485     7.7555
  575.5000     9.2305     0.0086     2.4410   156.3098     0.1232   128.2218     6.8590     7.3372
  576.0000     9.2300     0.0056     2.4447   149.1055     0.1226   124.9128     6.4904     6.5679
  576.5000     9.2445     0.0131     2.4477   147.3058     0.1220   124.6068     6.1417     6.0329
  577.0000     9.2440     0.0206     2.4492   147.3093     0.1214   128.8038     5.8924     5.5619
  577.5000     9.2436     0.0206     2.4394   151.8174     0.1259   133.0023     5.7319     5.2619
