~VERSION INFORMATION
 VERS.                2.0:   CWLS LOG ASCII STANDARD - VERSION 2.0
 WRAP.                 NO:   ONE LINE PER DEPTH STEP
~WELL INFORMATION
#MNEM.UNIT      DATA TYPE    INFORMATION
#----------   ------------   ------------------------------
 STRT.F           30.0000:   START DEPTH
 STOP.F          502.0000:   STOP DEPTH
 STEP.F            0.5000:   STEP LENGTH
 NULL.          -999.2500:   NO VALUE
 COMP.   FLUOR DANIEL INC:   COMPANY
 WELL. NPR 3  74-66 SX-1 #66-10:   WELL
 FLD .             TEAPOT:   FIELD
 LOC .      S10 T38N R78W:   LOCATION
 CNTY.            NATRONA:   COUNTY
 STAT.            WYOMING:   STATE
 CTRY. UNITED STATES OF AMERICA:   COUNTRY
 SRVC.           Gearhart:   SERVICE COMPANY
 DATE.        19-JUL-1987:   LOGDATE
 API .       490251114700:   API NUMBER
~CURVE INFORMATION
#MNEM.UNIT       API CODE    CURVE DESCRIPTION
#----------   ------------   ------------------------------
 DEPT.F                  :   
 RLL .OHMM   07 220 00 00:   LATEROLOG RESISTIVITY
 RILD.OHMM   07 120 46 00:   INDUCTION LOG DEEP RESISTIVITY
 RILM.OHMM   07 120 44 00:   INDUCTION LOG MEDIUM RESISTIVITY
 GRR .GAPI   07 310 01 00:   GAMMA RAY FROM RES. LOG
 SPR .MV     07 010 01 00:   SPONTANEOUS POTENTIAL FROM RES. LOG
~PARAMETER INFORMATION
#MNEM.UNIT          VALUE    DESCRIPTION
#----------   ------------   ------------------------------
 PD  .                 GL:   PERMANENT DATUM
 EPD .F              5163:   ELEVATION PERMANENT DATUM
 LMF .                 KB:   LOG MEASURED FROM
 DAPD.F                 8:   FEET ABOVE PERMANENT DATUM
 DMF .                 KB:   DRILLING MEASURED FROM
 EKB .F              5171:   KELLING BUSHING
 EDF .F              5169:   DRILLING FLOOR
 EGL .F              5163:   GROUND LEVEL
 DATE.            7-19-87:   RUN DATE
 RUN .                  1:   RUN NUMBER
 DD  .F               500:   DEPTH DRILLER
 DL  .F               502:   DEPTH LOGGER
 BLI .F               500:   BOTTOM LOG INTERVAL
 TLI .F                30:   TOP LOG INTERVAL
 CS  .IN            8.625:   CASING SIZE
 CBD .F                40:   CASING BOTTOM DRILLER
 CBL .F                48:   CASING BOTTOM LOGGER
 BS  .IN            7.875:   BIT SIZE
 BSD .F               500:   BIT SIZE AT DEPTH
 DFT .                MUD:   DRILLING FLUID TYPE
 DFD .                8.9:   DRILLING FLUID DENSITY
 DFV .                 40:   DRILLING FLUID VISCOSITY
 MSS .            MUD PIT:   MUD SAMPLE SOURCE
 RMS .OHMM             .4:   RESISTIVITY MUD SAMPLE
 MST .F                70:   MUD SAMPLE TEMPERATURE
 RMF .OHMM             .3:   RESISTIVITY MUD FILTRATE SAMPLE
 MFST.F                70:   MUD FILTRATE SAMPLE TEMPERATURE
 RMC .OHMM            .32:   RESISTIVITY MUD CAKE
 MCST.F                70:   MUD CAKE SAMPLE TEMPERATURE
 MFSS.              CHART:   MUD FILTRATE SAMPLE SOURCE
 MCSS.              CHART:   MUD CAKE SAMPLE SOURCE
 RMB .OHMM            .35:   RESISTIVITY MUD AT BHT
 BHT .F                80:   BOTTOM HOLE TEMPERATURE
 TCS .HRS            2230:   TIME CURCULATED STOPPED
 TLAB.HRS            2330:   TIME LOGGER AT BOTTOM
 MRT .F                80:   MAXIMUM RECORDED TEMPERATURE
 LUN .               7597:   LOGGING UNIT NUMBER
 LUL .           GILLETTE:   LOGGING UNIT LOCATION
 ENGI.         WEATHERMON:   RECORDING ENGINEER
 WITN.             STRONG:   WITNESSED BY
 CLNT.            A2DTECH:   CLIENT CODE
 ORIG.       2", 5" PRINT:   ORIGIN OF DATA
 UWI .       490251114700:   UNIQUE WELL ID
 DICO. A2D Technologies, Inc.:   DIGITIZING COMPANY
~OTHER INFORMATION
~A   DEPT      RLL       RILD       RILM         GRR       SPR   
   30.0000  -999.2500  -999.2500  -999.2500    92.7273  -999.2500
   30.5000  -999.2500  -999.2500  -999.2500    87.8788  -999.2500
   31.0000  -999.2500  -999.2500  -999.2500    89.2707  -999.2500
   31.5000  -999.2500  -999.2500  -999.2500    87.6882  -999.2500
   32.0000  -999.2500  -999.2500  -999.2500    87.7672  -999.2500
   32.5000  -999.2500  -999.2500  -999.2500    95.2925  -999.2500
   33.0000  -999.2500  -999.2500  -999.2500    96.7833  -999.2500
   33.5000  -999.2500  -999.2500  -999.2500    97.0453  -999.2500
   34.0000  -999.2500  -999.2500  -999.2500    96.8496  -999.2500
   34.5000  -999.2500  -999.2500  -999.2500    98.2474  -999.2500
   35.0000  -999.2500  -999.2500  -999.2500   101.0071  -999.2500
   35.5000  -999.2500  -999.2500  -999.2500   103.1046  -999.2500
   36.0000  -999.2500  -999.2500  -999.2500   102.8093  -999.2500
   36.5000  -999.2500  -999.2500  -999.2500    98.0020  -999.2500
   37.0000  -999.2500  -999.2500  -999.2500    94.0540  -999.2500
   37.5000  -999.2500  -999.2500  -999.2500    93.6923  -999.2500
   38.0000  -999.2500  -999.2500  -999.2500    94.9667  -999.2500
   38.5000  -999.2500  -999.2500  -999.2500    96.7418  -999.2500
   39.0000  -999.2500  -999.2500  -999.2500    98.5077  -999.2500
   39.5000  -999.2500  -999.2500  -999.2500    99.6126  -999.2500
   40.0000   870.5200  -999.2500  -999.2500    99.5923  -999.2500
   40.5000   870.5200  -999.2500  -999.2500    98.9019  -999.2500
   41.0000   870.5200  -999.2500  -999.2500    92.7120  -999.2500
   41.5000   878.7646  -999.2500  -999.2500    85.6665  -999.2500
   42.0000   870.5200  -999.2500  -999.2500    78.6263  -999.2500
   42.5000   870.5200  -999.2500  -999.2500    73.2640  -999.2500
   43.0000   870.5200  -999.2500  -999.2500    71.1337  -999.2500
   43.5000   870.5200  -999.2500  -999.2500    69.5421  -999.2500
   44.0000   870.5200  -999.2500  -999.2500    68.8080  -999.2500
   44.5000   870.4593  -999.2500  -999.2500    68.4730  -999.2500
   45.0000   870.5200  -999.2500  -999.2500    70.1075  -999.2500
   45.5000   870.5200  -999.2500  -999.2500    72.6353  -999.2500
   46.0000   934.6664  -999.2500  -999.2500    77.4891  -999.2500
   46.5000  1002.7786  -999.2500  -999.2500    89.7956  -999.2500
   47.0000  1029.0789  -999.2500  -999.2500   102.8301  -999.2500
   47.5000  1038.5438     6.4042  -999.2500   115.9704  -999.2500
   48.0000  1000.7455     3.2774  -999.2500   127.7749   -70.0128
   48.5000  1008.5654     2.2101     5.0893   135.1543   -69.1919
   49.0000  1016.9976     2.2101     2.7116   137.8957   -70.4040
   49.5000  1122.4636     3.4556     2.3532   140.6493   -77.5236
   50.0000  1457.3218     5.3865     2.6538   143.7052   -84.3191
   50.5000  1577.9879     7.4169     3.2337   146.1641   -80.4579
   51.0000  1111.0468     7.8228     4.1703   146.3305   -88.1055
   51.5000   740.0208     6.7943     5.3801   146.0321   -80.9793
   52.0000   410.0495     6.1435     6.9382   144.6194   -78.1670
   52.5000    14.7174     6.6177     7.5393   138.5925   -80.7706
   53.0000    41.6725     7.1027     7.5765   132.4541   -84.0306
   53.5000   293.4462     7.6811     7.6077   128.9864   -85.4431
   54.0000   667.3287     8.3075     7.1281   127.5169   -90.2994
   54.5000  1055.0266     8.9826     7.2852   129.0727   -96.3555
   55.0000  1384.2933     9.2473     7.5419   130.9943   -98.2662
   55.5000  1724.3406     9.0971     7.8077   132.2368  -100.8776
   56.0000  1992.9546     8.8356     8.0814   131.5392  -103.0861
   56.5000  1990.2644     8.4188     8.1949   129.2157  -104.4320
   57.0000  1981.4532     8.2714     8.1278   127.1141  -105.1283
   57.5000  1976.7875     8.2545     8.0803   126.7773  -109.8086
   58.0000  1972.1327     8.2386     8.0331   126.9305  -115.0689
   58.5000  1967.4889     8.2222     7.9862   127.2129  -112.3047
   59.0000  1962.8560     8.2077     7.9395   128.0737  -110.1712
   59.5000  1958.2340     8.1946     7.8958   130.5722  -108.1633
   60.0000  1954.0658     8.5891     7.9501   133.3381  -101.8612
   60.5000  1954.0658     8.8008     8.0314   137.4005   -95.9551
   61.0000  2009.3156     8.9098     8.1135   137.8513   -90.6785
   61.5000  2009.3156     9.1089     8.1949   137.7784   -88.4235
   62.0000  2009.3156     9.3168     8.7119   137.1758   -86.7844
   62.5000  1990.7275     9.5295     9.2636   135.1420   -88.1019
   63.0000  1705.6292     9.7468     9.5204   128.2923   -88.8094
   63.5000  1436.3615     9.9691     9.6675   121.7261   -88.7727
   64.0000  1297.6815    10.1480     9.8689   116.0838   -88.8151
   64.5000  1295.6125    10.0912     9.7400   115.0853   -84.0945
   65.0000  1286.1880     9.8673     9.5404   119.3794   -79.2410
   65.5000  1366.0288     9.6483     9.3448   123.6853   -84.2526
   66.0000  1451.3652     9.4342     9.1531   125.6028   -82.3750
   66.5000  1196.6647     9.2249     8.9673   127.9086   -86.2293
   67.0000   895.1333     9.0202     8.7412   130.9899   -86.9913
   67.5000   298.9518     8.9794     8.7490   134.0760   -88.4133
   68.0000   412.3650     8.9639     8.7467   136.1671   -92.6596
   68.5000   648.0220     8.9486     8.7458   133.8127   -95.6889
   69.0000  1018.3514     8.9332     8.7458   130.4332   -92.8708
   69.5000  1451.2153     8.9178     8.7458   127.8477   -91.6906
   70.0000  1972.3115     8.8920     8.7458   129.1690   -95.8534
   70.5000  1971.3951     8.8551     8.7460   131.8156  -112.6647
   71.0000  1969.6316     8.8182     8.7452   133.1387  -119.2570
   71.5000  1967.8696     8.7816     8.7458   131.9699  -121.7519
   72.0000  1966.1093     8.7451     8.6271   131.2312  -123.8920
   72.5000  1964.3503     8.7087     8.5303   132.9433  -126.0092
   73.0000  1962.5931     8.6725     8.4347   135.2414  -121.2224
   73.5000  1960.8374     8.6364     8.3400   136.7552  -115.6222
   74.0000  1959.0833     8.6005     8.2462   136.7932  -112.9981
   74.5000  1957.3308     8.5648     8.1910   134.6313  -116.4938
   75.0000  1955.5798     8.5289     8.1754   131.2642  -118.5668
   75.5000  1953.8303     8.5024     8.1598   128.7612  -119.2723
   76.0000  1952.0825     8.4937     8.1442   127.0411  -115.8638
   76.5000  1950.3362     8.4849     8.1287   128.8630  -111.1661
   77.0000  1948.5916     8.4762     8.1132   134.2389  -109.4271
   77.5000  1946.8484     8.4675     8.0977   138.4009  -107.4163
   78.0000  1945.1067     8.4588     8.0823   139.5320  -105.5911
   78.5000  1943.3667     8.4501     8.0669   138.8533  -107.4457
   79.0000  1941.6282     8.4414     8.0515   140.2032  -110.5022
   79.5000  1939.8634     8.4327     8.0362   141.6615  -113.5745
   80.0000  1938.2294     8.4273     8.0209   142.1759  -116.5735
   80.5000  1935.9889     8.4744     8.0056   141.6234  -118.0107
   81.0000  1972.3115     8.5117     7.9905   140.5758  -114.2386
   81.5000  1972.3115     8.5492     7.9688   138.8530  -109.5909
   82.0000  1972.3668     8.5847     7.9974   135.5426  -104.8223
   82.5000  1972.3174     8.5300     8.0577   126.9289   -99.5300
   83.0000  1971.6166     8.4786     8.1195   122.1559   -95.8851
   83.5000  1972.3115     8.4266     8.1949   120.5022   -92.1118
   84.0000  2009.3156     8.7315     8.1131   119.7237   -88.3152
   84.5000  1972.3115     8.9098     8.0106   122.1214   -86.9856
   85.0000  1764.1665     8.8902     7.9093   124.6822   -86.9622
   85.5000  1365.9200     8.8756     7.8228   121.7981   -86.9672
   86.0000   913.3817     8.8614     8.1140   117.7680   -86.9701
   86.5000   482.2157     8.8473     8.3797   115.0052   -86.9713
   87.0000   150.1445     8.8333     8.5053   114.9636   -86.9824
   87.5000    66.3309     8.8193     8.4416   115.6734   -86.6374
   88.0000    49.7993     8.8054     8.3818   116.1661   -84.8325
   88.5000    48.9918     8.7914     8.3224   116.1709   -80.8884
   89.0000    46.9742     8.7775     8.2635   116.7185   -84.4019
   89.5000    45.5971     8.7636     8.2050   117.9693   -87.7278
   90.0000    44.8942     8.7498     8.1474   117.6579   -87.7029
   90.5000    46.4803     8.6371     8.0452   116.8960   -87.5782
