~VERSION INFORMATION
 VERS.                2.0:   CWLS LOG ASCII STANDARD - VERSION 2.0
 WRAP.                 NO:   ONE LINE PER DEPTH STEP
~WELL INFORMATION
#MNEM.UNIT      DATA TYPE    INFORMATION
#----------   ------------   ------------------------------
 STRT.F          100.0000:   START DEPTH
 STOP.F          872.0000:   STOP DEPTH
 STEP.F            0.5000:   STEP LENGTH
 NULL.          -999.2500:   NO VALUE
 COMP. U S NAVY/INTEX OIL CO:   COMPANY
 WELL. 53 S 11 #N P R 3-11:   WELL
 FLD .             TEAPOT:   FIELD
 LOC .      S11 T38N R78W:   LOCATION
 CNTY.            NATRONA:   COUNTY
 STAT.            WYOMING:   STATE
 CTRY. UNITED STATES OF AMERICA:   COUNTRY
 SRVC.       Schlumberger:   SERVICE COMPANY
 DATE.        07-AUG-1961:   LOGDATE
 API .       490250635800:   API NUMBER
~CURVE INFORMATION
#MNEM.UNIT       API CODE    CURVE DESCRIPTION
#----------   ------------   ------------------------------
 DEPT.F                  :   
 CILD.MMHO   05 110 46 00:   CONDUCTIVITY INDUCTION LOG DEEP
 ILD .OHMM   05 120 46 00:   INDUCTION LOG DEEP
 SPR .MV     05 010 01 00:   SPONTANEOUS POTENTIAL FROM RES.
 ASN .OHMM   05 041 16 00:   AMPLIFIED SHORT NORMAL 16"
~PARAMETER INFORMATION
#MNEM.UNIT          VALUE    DESCRIPTION
#----------   ------------   ------------------------------
 PD  .                 GL:   PERMANENT DATUM
 EPD .F              5192:   ELEVATION PERMANENT DATUM
 LMF .                 KB:   LOG MEASURED FROM
 DAPD.F                 6:   FEET ABOVE PERMANENT DATUM
 DMF .                 KB:   DRILLING MEASURED FROM
 EKB .F              5198:   KELLING BUSHING
 EGL .F              5192:   GROUND LEVEL
 DATE.             8-7-61:   RUN DATE
 RUN .                  1:   RUN NUMBER
 DD  .F               870:   DEPTH DRILLER
 DL  .F               873:   DEPTH LOGGER
 BLI .F               872:   BOTTOM LOG INTERVAL
 TLI .F               100:   TOP LOG INTERVAL
 BS  .IN            7.875:   BIT SIZE
 BSD .F               870:   BIT SIZE AT DEPTH
 DFT .            GEL/OIL:   DRILLING FLUID TYPE
 DFD .               10.4:   DRILLING FLUID DENSITY
 DFV .                 43:   DRILLING FLUID VISCOSITY
 RMS .OHMM            .02:   RESISTIVITY MUD SAMPLE
 MST .F                70:   MUD SAMPLE TEMPERATURE
 TCS .HRS               1:   TIME CURCULATED STOPPED
 LUN .               2544:   LOGGING UNIT NUMBER
 LUL .                 NC:   LOGGING UNIT LOCATION
 ENGI.             QUINCY:   RECORDING ENGINEER
 WITN.          JORGENSON:   WITNESSED BY
 CLNT.            A2DTECH:   CLIENT CODE
 ORIG.       2", 5" PRINT:   ORIGIN OF DATA
 UWI .       490250635800:   UNIQUE WELL ID
 DICO. A2D Technologies, Inc.:   DIGITIZING COMPANY
~OTHER INFORMATION
~A   DEPT      CILD         ILD      SPR          ASN 
# ...
  830.0000    77.3597    12.4788   -22.2677    13.8023
  830.5000    79.2377    12.3222   -22.3682    13.7493
  831.0000    79.1345    12.3115   -22.5883    13.6778
  831.5000    78.9870    12.2818   -22.7740    13.6148
  832.0000    78.8395    12.2649   -23.0027    13.5469
  832.5000    78.6920    12.2412   -23.0594    13.4824
  833.0000    78.5445    12.2210   -22.7485    13.4146
  833.5000    78.3970    12.1991   -22.4227    13.3535
  834.0000    78.2495    12.1776   -22.2637    13.2797
  834.5000    78.1020    12.1559   -22.2856    13.1777
  835.0000    77.9545    12.1342   -22.2753    13.1227
  835.5000    77.8070    12.1146   -22.2700    13.0978
  836.0000    77.6594    12.0428   -22.1227    13.0566
  836.5000    77.5119    11.9683   -21.9409    13.0220
  837.0000    77.3644    11.8950   -21.7730    12.9825
  837.5000    77.2317    11.8212   -21.5774    12.9484
  838.0000    79.0278    11.7477   -21.4827    12.8915
  838.5000    80.6606    11.6740   -21.8806    12.7786
  839.0000    82.2934    11.6006   -22.0689    12.6659
  839.5000    83.9262    11.5207   -21.8951    12.5477
  840.0000    85.5590    11.4194   -22.1820    12.4401
  840.5000    87.1918    11.3058   -22.4516    12.3853
  841.0000    88.8246    11.1956   -22.2721    12.3242
  841.5000    90.4574    11.0815   -22.0330    12.2595
  842.0000    91.2738    10.9729   -21.7863    12.2139
  842.5000    91.2738    10.8341   -21.6588    12.1528
  843.0000    91.2907    10.8107   -21.6893    12.1205
  843.5000    91.2840    10.8160   -21.5770    12.1469
  844.0000    91.2794    10.8141   -21.3725    12.1631
  844.5000    91.2766    10.8149   -21.1528    12.1873
  845.0000    91.4393    10.8097   -20.8435    12.2031
  845.5000    91.6202    10.7138   -20.4450    12.2187
  846.0000    91.8024    10.6055   -20.2551    12.0391
  846.5000    91.9848    10.4787   -20.4697    11.9090
  847.0000    92.1674    10.4177   -20.6167    11.9271
  847.5000    92.3498    10.4698   -20.8600    11.9181
  848.0000    92.5321    10.5060   -21.1243    11.9231
  848.5000    92.7145    10.5518   -21.2172    11.9204
  849.0000    92.8969    10.5908   -21.3572    11.9218
  849.5000    93.0792    10.6430   -21.4620    11.9214
  850.0000    93.2798    10.7024   -21.6126    11.9217
  850.5000    93.2014    10.7634   -21.6125    11.9220
  851.0000    93.1146    10.8197   -21.3809    11.9218
  851.5000    93.0278    10.8869   -21.1695    11.9200
  852.0000    92.9410    10.9097   -20.9430    11.8720
  852.5000    92.8542    10.8245   -20.7285    11.8044
  853.0000    92.7674    10.7533   -20.5002    11.7414
  853.5000    92.6806    10.6772   -20.2927    11.6740
  854.0000    92.5938    10.6040   -20.1806    11.6223
  854.5000    92.5069    10.5237   -20.0562    11.6073
  855.0000    92.4201    10.5011   -19.9209    11.5898
  855.5000    92.3333    10.4827   -19.8823    11.5737
  856.0000    92.2465    10.4628   -19.9792    11.5562
  856.5000    92.1597    10.4446   -20.0665    11.5407
  857.0000    92.0729    10.4232   -20.2111    11.5225
  857.5000    91.9860    10.4113   -20.3745    11.5201
  858.0000    91.8992    10.4129   -20.4806    11.5155
  858.5000    91.8124    10.4125   -20.4937    11.5600
  859.0000    91.7256    10.4125   -20.5250    11.6503
  859.5000    91.6388    10.4133   -20.5479    11.7134
  860.0000    91.5520    10.4118   -20.5735    11.7246
  860.5000    91.4651    10.4156   -20.6004    11.6917
  861.0000    91.3783    10.3872   -20.6210    11.6386
  861.5000    91.2738    10.3102   -20.6567    11.5946
  862.0000    92.1174    10.2358   -20.6111    11.5444
  862.5000    93.1770    10.1593   -20.4327    11.5014
  863.0000    94.2366    10.0840   -20.2645    11.4456
  863.5000    95.2961    10.0082   -20.0810    11.4195
  864.0000    96.3557     9.9324   -20.0878    11.3872
  864.5000    97.4153     9.8570   -20.1330    11.3287
  865.0000    98.4749     9.7802   -20.1717    11.2761
  865.5000    99.2979     9.7131   -20.2107    11.2313
  866.0000    98.9852     9.7071   -20.2641    11.1646
  866.5000    98.6813     9.7080   -20.3895    11.1437
  867.0000    98.3775     9.7078   -20.5997    10.9480
  867.5000    98.0736     9.7080   -20.7434    10.7992
  868.0000    97.7698     9.7080   -21.1970    10.8183
  868.5000    97.4659     9.7084   -21.1015    10.8238
  869.0000    97.7056     9.7081   -20.6491    10.6444
  869.5000    98.6741     9.7092   -20.4331    10.2532
  870.0000    99.6427     9.7071   -20.2165    10.0999
  870.5000   100.6112     9.7109   -20.0031    10.1142
  871.0000   101.5797     9.7040   -19.7635    10.1071
  871.5000   102.5483     9.7178   -19.6901    10.1104
  872.0000   103.3099     9.6255   -19.8281    10.0574
