~VERSION INFORMATION
 VERS.                2.0:   CWLS LOG ASCII STANDARD - VERSION 2.0
 WRAP.                 NO:   ONE LINE PER DEPTH STEP
~WELL INFORMATION
#MNEM.UNIT      DATA TYPE    INFORMATION
#----------   ------------   ------------------------------
 STRT.F           66.0000:   START DEPTH
 STOP.F          814.0000:   STOP DEPTH
 STEP.F            0.5000:   STEP LENGTH
 NULL.          -999.2500:   NO VALUE
 COMP.   FLUOR DANIEL INC:   COMPANY
 WELL. NAVAL PETROLEUM RESERVE 3 SX-2 #32-11-2:   WELL
 FLD .        N.P.R NO. 3:   FIELD
 LOC .       S2 T38N R78W:   LOCATION
 CNTY.            NATRONA:   COUNTY
 STAT.            WYOMING:   STATE
 CTRY. UNITED STATES OF AMERICA:   COUNTRY
 SRVC.      Dresser Atlas:   SERVICE COMPANY
 DATE.        15-AUG-1985:   LOGDATE
 API .       490251104000:   API NUMBER
~CURVE INFORMATION
#MNEM.UNIT       API CODE    CURVE DESCRIPTION
#----------   ------------   ------------------------------
 DEPT.F                  :   
 SPR .MV     07 010 01 00:   SPONTANEOUS POTENTIAL
 RILD.OHMM   07 120 46 00:   INDUCTION LOG DEEP RESISTIVITY
 RILM.OHMM   07 120 44 00:   INDUCTION LOG MEDIUM RESISTIVITY
 RFOC.OHMM   07 220 04 00:   RESISTIVITY FOCUSED LOG
 PORD.DEC    45 890 12 00:   POROSITY DENSITY SANDSTONE
 CNC .DEC    42 890 03 00:   NEUTRON POROSITY SANDSTONE
 GRD .GAPI   45 310 01 00:   GAMMA RAY FROM DENSITY LOG
 CALD.IN     45 280 60 00:   CALIPER FROM DENSITY LOG
 CORR.G/C3   45 356 01 00:   DENSITY CORRECTION
 DEN .G/C3   45 350 01 00:   COMPENSATED BULK DENSTIY
~PARAMETER INFORMATION
#MNEM.UNIT          VALUE    DESCRIPTION
#----------   ------------   ------------------------------
 PD  .                 GL:   PERMANENT DATUM
 EPD .F              5113:   ELEVATION PERMANENT DATUM
 LMF .                 GL:   LOG MEASURED FROM
 DMF .                 GL:   DRILLING MEASURED FROM
 EGL .F              5113:   GROUND LEVEL
 DATE.            8-15-85:   RUN DATE
 RUN .                  1:   RUN NUMBER
 DD  .F               817:   DEPTH DRILLER
 DL  .F               817:   DEPTH LOGGER
 BLI .F               814:   BOTTOM LOG INTERVAL
 CS  .IN            8.625:   CASING SIZE
 CBD .F                79:   CASING BOTTOM DRILLER
 CBL .F                79:   CASING BOTTOM LOGGER
 BS  .IN            7.875:   BIT SIZE
 BSD .F               817:   BIT SIZE AT DEPTH
 DFT .          KCL WATER:   DRILLING FLUID TYPE
 MSS .               TANK:   MUD SAMPLE SOURCE
 RMS .OHMM            .25:   RESISTIVITY MUD SAMPLE
 MST .F                70:   MUD SAMPLE TEMPERATURE
 BHT .F               100:   BOTTOM HOLE TEMPERATURE
 TCS .HRS               2:   TIME CURCULATED STOPPED
 MRT .F               100:   MAXIMUM RECORDED TEMPERATURE
 LUN .            HL-6274:   LOGGING UNIT NUMBER
 LUL .           GILLETTE:   LOGGING UNIT LOCATION
 ENGI.             RAUTIO:   RECORDING ENGINEER
 WITN.           JENNINGS:   WITNESSED BY
 CLNT.            A2DTECH:   CLIENT CODE
 ORIG.       2", 5" PRINT:   ORIGIN OF DATA
 UWI .       490251104000:   UNIQUE WELL ID
 DICO. A2D Technologies, Inc.:   DIGITIZING COMPANY
~OTHER INFORMATION
~A   DEPT      SPR       RILD       RILM       RFOC       PORD        CNC        GRD       CALD       CORR        DEN   
# ...
  568.5000   -28.3893     6.0012     5.8791     7.2480     0.1248     0.3172   114.4238     8.2122     0.0122     2.4663
  569.0000   -28.3911     5.8037     5.7576     7.2499     0.1252     0.3221   114.1139     8.1967     0.0137     2.4655
  569.5000   -28.2407     5.6847     5.6387     7.3029     0.1276     0.3246   117.7197     8.1962     0.0152     2.4618
  570.0000   -28.0906     5.6075     5.5996     7.0553     0.1318     0.3324   121.6871     8.1806     0.0232     2.4460
  570.5000   -27.9409     5.6086     5.5223     5.7688     0.1406     0.3566   122.5216     8.1802     0.0288     2.4244
  571.0000   -27.9424     5.6051     5.5223     5.2352     0.1497     0.3636   120.1011     8.1798     0.0243     2.4257
  571.5000   -27.7927     5.4952     5.5608     5.5018     0.1539     0.3423   117.9840     8.1793     0.0063     2.4407
  572.0000   -27.6423     5.4580     5.4840     6.2326     0.1384     0.3338   115.5656     8.1789    -0.0027     2.4512
  572.5000   -27.0380     5.3839     5.3322     6.4100     0.1319     0.3210   113.4485     8.1785    -0.0027     2.4587
  573.0000   -26.5849     5.2738     5.1155     6.4564     0.1298     0.3111   113.7648     8.1779     0.0036     2.4625
  573.5000   -26.1318     5.0531     4.8050     6.7802     0.1292     0.3081   117.9470     8.1775     0.0139     2.4617
  574.0000   -25.6787     4.6876     4.4202     6.9249     0.1292     0.3287   120.6492     8.1771     0.0244     2.4594
  574.5000   -25.5287     4.3432     4.2101     7.0240     0.1340     0.3468   119.4357     8.1766     0.0319     2.4444
  575.0000   -25.3786     4.1376     4.0100     7.0744     0.1537     0.3744   114.9089     8.1762     0.0334     2.4189
  575.5000   -25.3804     4.0248     3.7666     5.3218     0.1701     0.3911   113.3964     8.1758     0.0334     2.3813
  576.0000   -25.3819     3.9425     3.6127     4.2523     0.1970     0.3690   115.1927     8.1753     0.0335     2.3422
  576.5000   -25.5348     3.9435     3.5876     3.5830     0.2006     0.3622   116.9913     8.1748     0.0275     2.3482
  577.0000   -25.8397     4.0274     4.0380     3.7626     0.1734     0.3334   113.3660     8.1895     0.0095     2.3722
  577.5000   -25.9927     4.2293     4.5134     5.5163     0.1462     0.3177   113.9597     8.1890    -0.0026     2.4166
  578.0000   -26.2971     4.5348     4.9976     6.5195     0.1326     0.3098   117.2643     8.1885    -0.0101     2.4534
  578.5000   -26.4501     4.9671     5.6387     6.7519     0.1250     0.3074   119.3640     8.1580    -0.0115     2.4661
  579.0000   -26.6031     5.4363     5.9201     6.7538     0.1232     0.3055   117.5481     8.1575    -0.0085     2.4714
  579.5000   -26.7606     5.7486     6.0871     6.6622     0.1235     0.2943   115.6998     8.1722    -0.0025     2.4706
  580.0000   -26.9094     5.9533     6.1296     6.6178     0.1241     0.2922   115.7235     8.2169     0.0050     2.4691
  580.5000   -27.0623     6.1225     6.1724     6.6662     0.1251     0.2970   116.0160     8.1862     0.0096     2.4684
  581.0000   -27.3668     6.0812     6.0030     6.7144     0.1281     0.2994   113.2943     8.1557     0.0081     2.4646
  581.5000   -27.8228     5.7535     5.7177     6.7631     0.1326     0.2994   111.7796     8.2607     0.0020     2.4571
  582.0000   -28.1273     5.4431     5.3335     7.0535     0.1387     0.2997   112.3733     8.2448    -0.0009     2.4503
  582.5000   -28.5910     5.0432     4.9063     7.6160     0.1457     0.3009   113.5694     8.1693     0.0337     2.4443
  583.0000   -29.3427     4.6726     4.6348     7.8328     0.1502     0.3073   109.0405     8.1538     0.0382     2.4375
  583.5000   -29.6472     4.5453     4.3591     7.7267     0.1625     0.3333   108.4294     8.1534     0.0187     2.4277
  584.0000   -29.8002     4.4215     4.2395     6.2131     0.1772     0.3509   111.4328     8.1530     0.0021     2.3977
  584.5000   -29.8016     4.3917     4.1809     4.4028     0.1754     0.3648   117.1470     8.1525    -0.0069     2.3811
  585.0000   -29.8031     4.4543     4.2395     3.9679     0.1596     0.3442   120.1503     8.1521    -0.0053     2.3872
  585.5000   -29.6530     4.4863     4.3932     4.1668     0.1442     0.3225   112.8569     8.1517     0.0007     2.4187
  586.0000   -29.5029     4.6460     4.8723     5.2062     0.1285     0.2933   105.0705     8.1511     0.0097     2.4472
  586.5000   -29.5048     4.9817     5.3335     6.0681     0.1209     0.2881   102.3510     8.1507     0.0173     2.4705
  587.0000   -29.5062     5.4165     5.7978     6.7577     0.1203     0.2939   104.7519     8.1352     0.0233     2.4765
  587.5000   -29.5077     5.9721     6.1296     7.1244     0.1231     0.2999   107.1529     8.1197     0.0232     2.4705
  588.0000   -29.5091     6.3151     6.4379     7.3272     0.1282     0.2984   108.9514     8.1193     0.0158     2.4652
  588.5000   -29.5106     6.6778     6.8991     7.4318     0.1295     0.2920   110.7500     8.1188     0.0218     2.4652
  589.0000   -29.5124     6.9156     7.1433     7.6433     0.1229     0.2866   103.1594     8.1335     0.0233     2.4742
  589.5000   -29.5138     7.1121     7.2940     7.7524     0.1180     0.2835    98.3810     8.1329     0.0098     2.4795
  590.0000   -29.8183     7.1632     7.2940     7.7550     0.1171     0.2847    98.6735     8.1325    -0.0022     2.4772
  590.5000   -29.8198     7.2150     7.3449     7.8656     0.1234     0.2971   100.7733     8.1320    -0.0188     2.4712
  591.0000   -30.4273     7.2668     7.3962     7.8677     0.1268     0.3020   102.2706     8.1467    -0.0322     2.4682
  591.5000   -31.2031     7.3190     7.3449     7.8148     0.1280     0.3089   103.4668     8.1462    -0.0322     2.4674
  592.0000   -31.4912     7.3715     7.2434     7.8719     0.1283     0.3077   105.3293     8.1458    -0.0186     2.4689
  592.5000   -32.0987     7.4245     7.1932     7.8745     0.1241     0.2835   107.9653     8.1453     0.0039     2.4727
  593.0000   -32.4032     7.4263     6.9958     7.8766     0.1174     0.2992   109.4626     8.1448     0.0265     2.4779
  593.5000   -33.0107     7.3252     6.9399     7.8787     0.1147     0.3116   110.3575     8.1444     0.0432     2.4832
  594.0000   -33.1637     7.2254     6.8038     7.8808     0.1150     0.3177   108.2404     8.1440     0.0355     2.4892
  594.5000   -33.3167     7.2268     6.8513     7.8829     0.1244     0.2871   102.2076     8.1435     0.0235     2.4697
  595.0000   -33.1669     7.2283     6.8991     7.8231     0.1293     0.2734    98.8855     8.1431     0.0160     2.4651
  595.5000   -33.1684     7.2298     7.0446     7.2563     0.1247     0.2740   102.7905     8.1425     0.0055     2.4689
  596.0000   -32.8668     7.4416     7.3510     7.1080     0.1156     0.2848   111.5167     8.1421    -0.0005     2.4832
  596.5000   -32.5649     7.5940     7.5521     7.4132     0.1081     0.2888   114.2189     8.1567     0.0135     2.4922
  597.0000   -32.4152     7.7019     7.7114     7.7849     0.1039     0.2910   113.0054     8.1262     0.0281     2.5012
  597.5000   -32.0909     7.7035     7.7652     8.1299     0.1012     0.2870   108.1774     8.0956     0.0311     2.5087
  598.0000   -31.8120     7.5459     7.5521     8.6456     0.0991     0.2852    99.6793     8.0952     0.0221     2.5102
  598.5000   -31.5195     7.1800     6.9227     8.8917     0.1030     0.2918    95.5073     8.1248     0.0131     2.5042
  599.0000   -31.1492     6.4780     5.6781     9.0815     0.1082     0.2991    97.3058     8.1243     0.0086     2.4936
  599.5000   -30.7733     5.9603     5.1155     9.4052     0.1200     0.3106   103.3212     8.1391     0.0204     2.4681
  600.0000   -30.2582     5.4876     4.6463     9.8084     0.1432     0.3203   110.1434     8.1369     0.0456     2.4237
  600.5000   -29.9600     5.0392     4.0374     5.7024     0.1875     0.3099   119.8827     8.1265     0.0567     2.3614
  601.0000   -29.6647     4.9736     3.7395     3.5294     0.2165     0.3010   122.5964     8.1160     0.0387     2.3207
  601.5000   -29.6705     4.9729     3.7131     3.4321     0.1908     0.2933   116.0565     8.1075    -0.0260     2.3448
