~VERSION INFORMATION
 VERS.                2.0:   CWLS LOG ASCII STANDARD - VERSION 2.0
 WRAP.                 NO:   ONE LINE PER DEPTH STEP
~WELL INFORMATION
#MNEM.UNIT      DATA TYPE    INFORMATION
#----------   ------------   ------------------------------
 STRT.F           23.0000:   START DEPTH
 STOP.F         1106.0000:   STOP DEPTH
 STEP.F            0.5000:   STEP LENGTH
 NULL.          -999.2500:   NO VALUE
 COMP. FENIX & SCISSON INC:   COMPANY
 WELL.       NPR-3 #67-11:   WELL
 FLD . TEAPOT DOME NPR #3:   FIELD
 LOC .      S11 T38N R78W:   LOCATION
 CNTY.            NATRONA:   COUNTY
 STAT.            WYOMING:   STATE
 CTRY. UNITED STATES OF AMERICA:   COUNTRY
 SRVC.            Unknown:   SERVICE COMPANY
 DATE.        06-MAR-1978:   LOGDATE
 API .       490251059100:   API NUMBER
~CURVE INFORMATION
#MNEM.UNIT       API CODE    CURVE DESCRIPTION
#----------   ------------   ------------------------------
 DEPT.F                  :   
 ILD .OHMM   05 120 46 00:   INDUCTION LOG DEEP
 SN  .OHMM   05 040 16 00:   SHORT NORMAL 16"
 SPR .MV     05 010 01 00:   SPONTANEOUS POTENTIAL FROM RES.
 CALD.IN     45 280 60 00:   CALIPER
 GRD .GAPI   45 310 01 00:   GAMMA RAY FROM DENSITY LOG
 CORR.G/C3   45 356 01 00:   DENSITY CORRECTION
 DPHI.DEC    45 890 12 00:   DENSITY POROSITY SANDSTONE
 RHOB.G/C3   45 350 01 00:   BULK DENSITY
~PARAMETER INFORMATION
#MNEM.UNIT          VALUE    DESCRIPTION
#----------   ------------   ------------------------------
 PD  .                 GL:   PERMANENT DATUM
 EPD .F              5243:   ELEVATION PERMANENT DATUM
 LMF .                 KB:   LOG MEASURED FROM
 DAPD.F                 4:   FEET ABOVE PERMANENT DATUM
 DMF .                 KB:   DRILLING MEASURED FROM
 EKB .F              5247:   KELLING BUSHING
 EGL .F              5243:   GROUND LEVEL
 DATE.           3-6-1978:   RUN DATE
 RUN .                  1:   RUN NUMBER
 DD  .F              1104:   DEPTH DRILLER
 DL  .F              1108:   DEPTH LOGGER
 BLI .F              1102:   BOTTOM LOG INTERVAL
 TLI .F                40:   TOP LOG INTERVAL
 CS  .IN            8.625:   CASING SIZE
 CBD .F                40:   CASING BOTTOM DRILLER
 CBL .F                40:   CASING BOTTOM LOGGER
 BS  .IN            7.875:   BIT SIZE
 BSD .F              1104:   BIT SIZE AT DEPTH
 DFT .         LIGNO/SULF:   DRILLING FLUID TYPE
 DFD .                8.6:   DRILLING FLUID DENSITY
 DFV .                 31:   DRILLING FLUID VISCOSITY
 DFL .                  8:   DRILLING FLUID LOSS
 MSS .            MUD PIT:   MUD SAMPLE SOURCE
 RMS .OHMM              2:   RESISTIVITY MUD SAMPLE
 MST .F                58:   MUD SAMPLE TEMPERATURE
 RMF .OHMM            1.2:   RESISTIVITY MUD FILTRATE SAMPLE
 MFST.F                64:   MUD FILTRATE SAMPLE TEMPERATURE
 RMC .OHMM              3:   RESISTIVITY MUD CAKE
 MCST.F                64:   MUD CAKE SAMPLE TEMPERATURE
 MFSS.               MEAS:   MUD FILTRATE SAMPLE SOURCE
 RMB .OHMM            1.5:   RESISTIVITY MUD AT BHT
 BHT .F                78:   BOTTOM HOLE TEMPERATURE
 TCS .HRS               4:   TIME CURCULATED STOPPED
 MRT .F                78:   MAXIMUM RECORDED TEMPERATURE
 LUN .               2959:   LOGGING UNIT NUMBER
 LUL .               CASP:   LOGGING UNIT LOCATION
 ENGI.             MILLER:   RECORDING ENGINEER
 WITN.           MCGINLEY:   WITNESSED BY
 CLNT.            A2DTECH:   CLIENT CODE
 ORIG.       2", 5" PRINT:   ORIGIN OF DATA
 UWI .       490251059100:   UNIQUE WELL ID
 DICO. A2D Technologies, Inc.:   DIGITIZING COMPANY
~OTHER INFORMATION
~A   DEPT      ILD         SN        SPR       CALD         GRD      CORR       DPHI       RHOB   
# ...
  671.0000     6.7685     7.7717   -25.1966     7.5799    84.6345     0.0203     0.1132     2.4802
  671.5000     6.7298     7.7231   -25.1202     7.5797    84.6761     0.0198     0.1166     2.4795
  672.0000     6.6911     7.7621   -25.0387     7.5797    84.9990     0.0193     0.1170     2.4748
  672.5000     6.6617     7.8087   -25.0390     7.5797    89.6285     0.0188     0.1168     2.4668
  673.0000     6.6690     7.8556   -25.1715     7.5796    94.4262     0.0182     0.1166     2.4677
  673.5000     6.6860     7.9028   -25.2988     7.5800    98.4653     0.0177     0.1164     2.4743
  674.0000     6.7028     7.9401   -25.4261     7.5530    98.5731     0.0172     0.1162     2.4727
  674.5000     6.7204     7.9620   -25.5543     7.5089    92.5701     0.0184     0.1132     2.4786
  675.0000     6.7951     7.9892   -25.6823     7.4644    90.3704     0.0208     0.1102     2.4886
  675.5000     6.8848     8.0164   -25.7928     7.4230    84.7434     0.0231     0.1072     2.4983
  676.0000     6.9768     8.0436   -25.6973     7.4231    79.9798     0.0251     0.1058     2.4938
  676.5000     6.9636     8.0710   -25.3915     7.5464    80.8401     0.0221     0.1080     2.4878
  677.0000     6.9468     8.0881   -25.3969     7.6214    85.8814     0.0183     0.1102     2.4818
  677.5000     6.9300     8.0881   -25.3479     7.5787    90.8355     0.0148     0.1124     2.4770
  678.0000     6.8491     8.0883   -25.1317     7.5623    95.7601     0.0128     0.1146     2.4729
  678.5000     6.8731     8.0885   -24.9220     7.5651    98.9445     0.0130     0.1169     2.4701
  679.0000     6.9048     8.0808   -24.8414     7.5684    94.4146     0.0130     0.1182     2.4694
  679.5000     6.9365     8.0313   -24.9304     7.5718    93.8916     0.0130     0.1182     2.4670
  680.0000     6.9685     7.9823   -24.9947     7.5750    94.6743     0.0128     0.1175     2.4682
  680.5000     6.9768     7.9432   -24.9569     7.5791    92.0452     0.0122     0.1169     2.4710
  681.0000     6.9173     7.9660   -24.9215     7.5281    90.6685     0.0116     0.1162     2.4681
  681.5000     6.8540     7.9889   -24.8864     7.4477    91.1374     0.0111     0.1155     2.4671
  682.0000     6.7861     8.0138   -24.8510     7.4077    92.8639     0.0110     0.1176     2.4703
  682.5000     6.7861     8.0882   -24.8155     7.4265    92.7203     0.0110     0.1202     2.4690
  683.0000     6.7861     8.0882   -24.7809     7.4411    91.5652     0.0110     0.1228     2.4630
  683.5000     6.7861     8.0882   -24.7470     7.4149    90.7009     0.0110     0.1235     2.4568
  684.0000     6.7861     8.0882   -24.7129     7.3851    91.9209     0.0110     0.1220     2.4594
  684.5000     6.7200     7.9610   -24.6792     7.4651    94.7724     0.0110     0.1206     2.4630
  685.0000     6.6983     7.5864   -24.6448     7.5960    97.6220     0.0110     0.1206     2.4626
  685.5000     6.6769     7.3579   -24.6018     7.6184    94.5281     0.0116     0.1238     2.4612
  686.0000     6.6564     7.1060   -24.9069     7.6018    90.2560     0.0143     0.1231     2.4597
  686.5000     6.6361     7.1059   -25.3208     7.5876    90.8242     0.0170     0.1201     2.4607
  687.0000     6.6158     7.1994   -25.7431     7.5805    91.3174     0.0197     0.1170     2.4625
  687.5000     6.5956     7.2873   -26.1726     7.5850    89.8784     0.0224     0.1126     2.4643
  688.0000     6.5754     7.3764   -25.8030     7.5892    88.9020     0.0255     0.1081     2.4660
  688.5000     6.5552     7.4666   -25.4097     7.5935    89.5451     0.0387     0.1030     2.4744
  689.0000     6.5398     7.5579   -25.5084     7.5977    90.9865     0.0509     0.1070     2.4837
  689.5000     6.5367     7.6503   -25.5677     7.6020    92.4343     0.0478     0.1117     2.4925
  690.0000     6.5327     7.7231   -24.9004     7.6062    94.2550     0.0407     0.1163     2.4842
  690.5000     6.5288     7.6911   -25.0120     7.6105    96.8317     0.0212     0.1210     2.4717
  691.0000     6.5248     7.6649   -25.2027     7.6147    94.5939     0.0090     0.1244     2.4642
  691.5000     6.5209     7.6389   -25.1990     7.6190    90.9696     0.0049     0.1271     2.4592
  692.0000     6.5169     7.6128   -25.1989     7.6181    90.4313     0.0011     0.1273     2.4546
  692.5000     6.5130     7.5869   -25.1900     7.6160    93.2688     0.0019     0.1246     2.4608
  693.0000     6.5091     7.5818   -25.1444     7.6139    96.1074     0.0029     0.1218     2.4666
  693.5000     6.5051     7.6277   -25.0993     7.6117    98.8955     0.0038     0.1198     2.4621
  694.0000     6.5012     7.6667   -25.0546     7.6096    99.9430     0.0047     0.1186     2.4649
  694.5000     6.4973     7.7059   -25.0126     7.6075   100.6955     0.0056     0.1176     2.4715
  695.0000     6.4934     7.7231   -24.8794     7.6054   101.5955     0.0065     0.1176     2.4697
  695.5000     6.4896     7.7231   -24.7293     7.6032   102.0977     0.0068     0.1189     2.4671
  696.0000     6.4853     7.7355   -24.5973     7.6011   102.1941     0.0059     0.1201     2.4644
  696.5000     6.4792     7.8195   -24.6012     7.5990   102.2158     0.0050     0.1214     2.4626
  697.0000     6.5012     7.9033   -24.5938     7.5969   101.4937     0.0041     0.1226     2.4650
  697.5000     6.5670     7.9882   -24.8871     7.5947    95.8964     0.0032     0.1238     2.4673
  698.0000     6.6337     8.0906   -25.2648     7.5926    95.8304     0.0071     0.1207     2.4699
  698.5000     6.7007     8.0867   -25.6061     7.5905    97.3634     0.0128     0.1169     2.4757
  699.0000     6.7683     8.0878   -25.6903     7.5884    98.8283     0.0186     0.1140     2.4812
  699.5000     6.8366     8.0882   -25.7915     7.5863    99.8782     0.0243     0.1131     2.4867
  700.0000     6.9128     8.0882   -25.2191     7.5841    99.6611     0.0276     0.1123     2.4884
  700.5000     6.8885     8.0882   -24.9871     7.5820    99.0140     0.0304     0.1115     2.4860
  701.0000     6.8536     8.0882   -25.3332     7.5798    98.1270     0.0336     0.1107     2.4857
  701.5000     6.8189     8.0882   -25.4133     7.5829    99.5189     0.0427     0.1099     2.4884
  702.0000     6.7843     8.0662   -24.7761     7.5865   100.6975     0.0469     0.1090     2.4878
  702.5000     6.7500     8.0183   -24.6055     7.5900    97.4248     0.0461     0.1082     2.4869
  703.0000     6.7159     7.9707   -24.6015     7.5936    95.8497     0.0451     0.1074     2.4867
  703.5000     6.6819     7.9234   -24.6012     7.5972    92.3198     0.0440     0.1074     2.4895
  704.0000     6.6616     7.8764   -24.6016     7.6007    92.0730     0.0430     0.1081     2.4924
  704.5000     6.6620     7.8425   -24.6016     7.6043    93.6642     0.0420     0.1089     2.4906
  705.0000     6.6619     7.8119   -24.6016     7.6079    95.1719     0.0409     0.1096     2.4880
  705.5000     6.6619     7.7814   -24.6016     7.6114    94.1855     0.0399     0.1104     2.4854
  706.0000     6.6619     7.7510   -24.6016     7.6150    92.1148     0.0390     0.1125     2.4828
  706.5000     6.6619     7.7207   -24.6016     7.6185    90.3765     0.0393     0.1153     2.4767
  707.0000     6.5433     7.6912   -24.6015     7.6221    92.6382     0.0395     0.1180     2.4703
  707.5000     6.4667     7.6611   -24.6016     7.6257    97.2193     0.0398     0.1194     2.4645
  708.0000     6.3910     7.4786   -24.6030     7.6292   100.5590     0.0400     0.1156     2.4713
  708.5000     6.3162     7.2425   -24.5446     7.6328   100.3823     0.0402     0.1130     2.4837
  709.0000     6.2422     7.1572   -24.4693     7.6364    96.9564     0.0405     0.1154     2.4788
  709.5000     6.1691     7.1030   -24.4406     7.6392    97.0681     0.0407     0.1178     2.4743
  710.0000     6.1304     7.0492   -24.7658     7.6368    96.3637     0.0409     0.1157     2.4711
  710.5000     6.1502     7.0416   -25.1055     7.6344    93.5372     0.0447     0.1106     2.4830
  711.0000     6.1690     7.0980   -25.2648     7.6320    92.1603     0.0489     0.1055     2.4905
