~VERSION INFORMATION
 VERS.                2.0:   CWLS LOG ASCII STANDARD - VERSION 2.0
 WRAP.                 NO:   ONE LINE PER DEPTH STEP
~WELL INFORMATION
#MNEM.UNIT      DATA TYPE    INFORMATION
#----------   ------------   ------------------------------
 STRT.F           75.0000:   START DEPTH
 STOP.F          859.0000:   STOP DEPTH
 STEP.F            0.5000:   STEP LENGTH
 NULL.          -999.2500:   NO VALUE
 COMP. U S NAVY/INTEX OIL CO:   COMPANY
 WELL.     NPR ##3 14S-35:   WELL
 FLD .             TEAPOT:   FIELD
 LOC .      S35 T39N R78W:   LOCATION
 CNTY.            NATRONA:   COUNTY
 STAT.            WYOMING:   STATE
 CTRY. UNITED STATES OF AMERICA:   COUNTRY
 SRVC. Schlumberger Well Surveying Corp:   SERVICE COMPANY
 DATE.        27-FEB-1961:   LOGDATE
 API .       490251023000:   API NUMBER
~CURVE INFORMATION
#MNEM.UNIT       API CODE    CURVE DESCRIPTION
#----------   ------------   ------------------------------
 DEPT.F                  :   
 GRN .CPS    35 310 30 00:   GAMMA RAY
 SPR .MV     05 010 01 00:   SPONTANEOUS POTENTIAL FROM RES.
 ILD .OHMM   05 120 46 00:   INDUCTION LOG DEEP
 ASN .OHMM   05 041 16 00:   AMPLIFIED SHORT NORMAL 16"
 CILD.MMHO   05 110 46 00:   CONDUCTIVITY INDUCTION LOG DEEP
~PARAMETER INFORMATION
#MNEM.UNIT          VALUE    DESCRIPTION
#----------   ------------   ------------------------------
 PD  .                 GL:   PERMANENT DATUM
 EPD .F              5110:   ELEVATION PERMANENT DATUM
 LMF .                 KB:   LOG MEASURED FROM
 DAPD.F                 4:   FEET ABOVE PERMANENT DATUM
 DMF .                 KB:   DRILLING MEASURED FROM
 EKB .F              5114:   KELLING BUSHING
 EGL .F              5110:   GROUND LEVEL
 DATE.            2-27-61:   RUN DATE
 RUN .                  1:   RUN NUMBER
 DD  .F               862:   DEPTH DRILLER
 DL  .F               860:   DEPTH LOGGER
 BLI .F               859:   BOTTOM LOG INTERVAL
 TLI .F                84:   TOP LOG INTERVAL
 CBD .F                12:   CASING BOTTOM DRILLER
 BS  .IN            7.875:   BIT SIZE
 BSD .F               862:   BIT SIZE AT DEPTH
 DFT .       GEL-OIL EMUL:   DRILLING FLUID TYPE
 DFD .                9.4:   DRILLING FLUID DENSITY
 DFV .                 33:   DRILLING FLUID VISCOSITY
 DFPH.                  8:   DRILLING FLUID PH
 DFL .               19.4:   DRILLING FLUID LOSS
 MSS .          FLOW LINE:   MUD SAMPLE SOURCE
 RMS .OHMM            .76:   RESISTIVITY MUD SAMPLE
 MST .F                73:   MUD SAMPLE TEMPERATURE
 RMF .OHMM            .52:   RESISTIVITY MUD FILTRATE SAMPLE
 MFST.F                73:   MUD FILTRATE SAMPLE TEMPERATURE
 RMC .OHMM            1.7:   RESISTIVITY MUD CAKE
 MCST.F                73:   MUD CAKE SAMPLE TEMPERATURE
 MFSS.                  M:   MUD FILTRATE SAMPLE SOURCE
 MCSS.                  M:   MUD CAKE SAMPLE SOURCE
 RMB .OHMM            .73:   RESISTIVITY MUD AT BHT
 BHT .F                77:   BOTTOM HOLE TEMPERATURE
 TCS .HRS               1:   TIME CURCULATED STOPPED
 MRT .F                77:   MAXIMUM RECORDED TEMPERATURE
 LUN .               2523:   LOGGING UNIT NUMBER
 LUL .               CSPR:   LOGGING UNIT LOCATION
 ENGI.             KNOBEL:   RECORDING ENGINEER
 WITN.          JORGENSEN:   WITNESSED BY
 CLNT.            A2DTECH:   CLIENT CODE
 ORIG.       2", 5" PRINT:   ORIGIN OF DATA
 UWI .       490251023000:   UNIQUE WELL ID
 DICO. A2D Technologies, Inc.:   DIGITIZING COMPANY
~OTHER INFORMATION
~A   DEPT      GRN        SPR        ILD        ASN       CILD   
# ...
  502.0000  -999.2500   -28.0555    10.2096    12.1635    97.5162
  502.5000  -999.2500   -28.0695    10.4071    12.3117    95.9572
  503.0000  -999.2500   -28.2786    10.5871    12.4559    94.0644
  503.5000  -999.2500   -28.4731    10.6238    12.6034    94.0644
  504.0000  -999.2500   -28.6735    10.5963    12.5490    94.6039
  504.5000  -999.2500   -28.8777    10.4328    12.4421    95.8096
  505.0000  -999.2500   -29.0646    10.3479    12.3438    97.0036
  505.5000  -999.2500   -29.2992    10.2075    12.2417    98.2140
  506.0000  -999.2500   -29.3616    10.0889    12.1424    99.4283
  506.5000  -999.2500   -29.0751     9.9767    12.0398   100.6464
  507.0000  -999.2500   -28.8347     9.8390    11.9415   101.8673
  507.5000  -999.2500   -28.5387     9.7038    11.8322   103.0866
  508.0000  -999.2500   -28.4247     9.6205    11.8530   104.3005
  508.5000  -999.2500   -28.5238     9.7268    11.8967   105.1803
  509.0000  -999.2500   -28.6006     9.8215    11.9750   104.4708
  509.5000  -999.2500   -28.6868     9.9212    12.0977   102.3662
  510.0000  -999.2500   -28.7750    10.0173    12.2073   100.2616
  510.5000  -999.2500   -28.8130    10.1192    12.3300    98.2741
  511.0000  -999.2500   -28.7912    10.3113    12.4328    96.4326
  511.5000  -999.2500   -28.7801    10.5124    12.6040    94.5910
  512.0000  -999.2500   -28.7634    10.7200    12.5289    92.7495
  512.5000  -999.2500   -28.7495    10.8962    12.2359    91.5074
  513.0000  -999.2500   -28.7341    10.9919    11.9569    90.6304
  513.5000  -999.2500   -28.7194    11.0939    11.7514    90.0402
  514.0000  -999.2500   -28.7044    11.1347    11.9503    90.0402
  514.5000  -999.2500   -28.6896    10.9712    12.1451    91.2988
  515.0000  -999.2500   -28.6748    10.8223    12.3577    93.0583
  515.5000  -999.2500   -28.6600    10.6145    12.4943    94.3626
  516.0000  -999.2500   -28.6451    10.4642    12.2903    95.8358
  516.5000  -999.2500   -28.6304    10.3180    12.0823    97.3130
  517.0000  -999.2500   -28.6140    10.1212    11.8663    98.7993
  517.5000  -999.2500   -28.5858    10.0013    11.6646   100.1243
  518.0000  -999.2500   -28.5542     9.7372    11.4347   103.0374
  518.5000  -999.2500   -28.5238     9.5622    11.2837   105.6720
  519.0000  -999.2500   -28.4917     9.3001    11.2303   108.3103
  519.5000  -999.2500   -28.4627     9.0458    11.1603   110.9482
  520.0000  -999.2500   -28.4274     8.8693    11.0434   113.2279
  520.5000  -999.2500   -28.4237     8.6137    10.8245   117.4799
  521.0000  -999.2500   -28.4562     8.2453    10.6089   121.2114
  521.5000  -999.2500   -28.4832     7.9588    10.3560   124.9353
  522.0000  -999.2500   -28.5131     7.7333    10.1004   128.6656
  522.5000  -999.2500   -28.5414     7.5216     9.9309   133.2426
  523.0000  -999.2500   -28.5706     7.3896     9.7990   135.0767
  523.5000  -999.2500   -28.5994     7.2767     9.6532   137.3023
  524.0000  -999.2500   -28.6285     7.3118     9.6043   136.5263
  524.5000  -999.2500   -28.6572     7.4990     9.6554   134.8812
  525.0000  -999.2500   -28.6867     7.6813     9.8445   133.2369
  525.5000  -999.2500   -28.7146     7.8424     9.9658   131.0701
  526.0000  -999.2500   -28.7453     8.0103    10.2845   128.2001
  526.5000  -999.2500   -28.7710     8.1752    10.5534   125.3302
  527.0000  -999.2500   -28.8066     8.3435    10.5463   122.4602
  527.5000  -999.2500   -28.7830     8.4872    10.6058   120.2213
  528.0000  -999.2500   -28.7025     8.4455    10.6023   120.4427
  528.5000  -999.2500   -28.6324     8.3923    10.5791   120.6241
  529.0000  -999.2500   -28.5568     8.3276    10.5529   120.8055
  529.5000  -999.2500   -28.4848     8.3033    10.5278   120.9870
  530.0000  -999.2500   -28.4096     8.2768    10.5025   121.1684
  530.5000  -999.2500   -28.3386     8.1911    10.4768   121.3498
  531.0000  -999.2500   -28.2585     8.2026    10.4519   121.5313
  531.5000  -999.2500   -28.1910     8.1966    10.4260   121.7127
  532.0000  -999.2500   -28.1412     8.1988    10.4020   121.8941
  532.5000  -999.2500   -28.0834     8.1994    10.3745   122.0756
  533.0000  -999.2500   -28.0289     8.1951    10.3538   122.2334
  533.5000  -999.2500   -27.9727     8.2683    10.3192   120.7470
  534.0000  -999.2500   -27.9187     8.3794    10.3592   119.4316
  534.5000  -999.2500   -27.8593     8.4211    10.4913   118.1162
  535.0000  -999.2500   -27.8318     8.5323    10.6160   116.8008
  535.5000  -999.2500   -28.0111     8.6192    10.7412   115.4854
  536.0000  -999.2500   -28.2059     8.7926    10.8720   114.1908
  536.5000  -999.2500   -28.3965     8.7288    10.9066   114.3419
  537.0000  -999.2500   -28.5883     8.6762    10.8714   114.9577
  537.5000  -999.2500   -28.5008     8.6569    10.8497   115.5739
  538.0000  -999.2500   -28.3514     8.6343    10.8215   116.1911
  538.5000  -999.2500   -28.2247     8.5836    10.7966   116.8099
  539.0000  -999.2500   -28.2119     8.4888    10.7701   117.4304
  539.5000  -999.2500   -28.2132     8.5139    10.7443   118.0519
  540.0000  -999.2500   -28.2129     8.4194    10.7182   118.6709
  540.5000  -999.2500   -28.2124     8.4024    10.6924   119.2899
  541.0000  -999.2500   -28.2124     8.3764    10.6665   119.9089
  541.5000  -999.2500   -28.2123     8.2938    10.6409   120.3809
  542.0000  -999.2500   -28.2127     8.3000    10.6122   120.7030
  542.5000  -999.2500   -28.2122     8.3049    10.5578   121.0251
  543.0000  -999.2500   -28.2132     8.2245    10.4989   121.3473
  543.5000  -999.2500   -28.2107     8.1934    10.4405   121.6694
  544.0000  -999.2500   -28.2297     8.2005    10.3819   121.9915
  544.5000  -999.2500   -28.2857     8.2020    10.3234   122.3137
  545.0000  -999.2500   -28.3403     8.1789    10.2647   122.6358
  545.5000  -999.2500   -28.3965     8.0855    10.2065   122.9579
  546.0000  -999.2500   -28.4517     8.1131    10.1473   123.2394
  546.5000  -999.2500   -28.5071     8.0148    10.0897   124.3168
  547.0000  -999.2500   -28.5640     8.0033    10.0286   125.2735
  547.5000  -999.2500   -28.6080     7.9201     9.9908   126.2301
  548.0000  -999.2500   -28.5714     7.8970    10.0000   127.2636
  548.5000  -999.2500   -28.5291     7.8261    10.0043   127.5660
  549.0000  -999.2500   -28.4870     7.7851     9.9381   127.8949
  549.5000  -999.2500   -28.4453     7.8086     9.9304   128.2696
  550.0000  -999.2500   -28.4032     7.7410    10.0502   129.1150
  550.5000  -999.2500   -28.3614     7.6973    10.3387   130.0975
  551.0000  -999.2500   -28.3194     7.6223    10.2970   131.0800
  551.5000  -999.2500   -28.2772     7.5875    10.1076   132.2938
  552.0000  -999.2500   -28.2355     7.5984     9.9834   132.2938
  552.5000  -999.2500   -28.1927     7.5931     9.9457   132.2938
  553.0000  -999.2500   -28.1523     7.5957     9.8428   132.2938
  553.5000  -999.2500   -28.1073     7.5926     9.7603   132.2938
  554.0000  -999.2500   -28.0707     7.6098     9.6703   131.0865
  554.5000  -999.2500   -28.0185     7.7324     9.6144   129.6547
  555.0000  -999.2500   -28.0765     7.7887     9.6947   128.2228
  555.5000  -999.2500   -28.2466     7.8905     9.8428   126.7910
  556.0000  -999.2500   -28.4008     7.9653    10.0762   125.3591
  556.5000  -999.2500   -28.5646     8.0959    10.2957   123.9273
  557.0000  -999.2500   -28.7206     8.3281    10.4729   122.4954
  557.5000  -999.2500   -28.8877     8.5136    10.6925   121.0636
  558.0000  -999.2500   -28.9988     8.6911    10.6939   119.8692
  558.5000  -999.2500   -28.8862     8.7066    10.6585   119.0141
  559.0000  -999.2500   -28.7746     8.6826    10.6287   118.2093
  559.5000  -999.2500   -28.6583     8.6014    10.5963   118.2093
  560.0000  -999.2500   -28.5467     8.5216    10.5679   118.8602
  560.5000  -999.2500   -28.4250     8.4402    10.5300   119.4638
  561.0000  -999.2500   -28.3777     8.3446    10.5162   120.0675
  561.5000  -999.2500   -28.3370     8.2236    10.5066   121.8387
  562.0000  -999.2500   -28.2950     8.1185    10.5267   124.0094
  562.5000  -999.2500   -28.2532     7.9032    10.4919   126.1802
