~VERSION INFORMATION
 VERS.                2.0:   CWLS LOG ASCII STANDARD - VERSION 2.0
 WRAP.                 NO:   ONE LINE PER DEPTH STEP
~WELL INFORMATION
#MNEM.UNIT      DATA TYPE    INFORMATION
#----------   ------------   ------------------------------
 STRT.F           34.5000:   START DEPTH
 STOP.F          665.5000:   STOP DEPTH
 STEP.F            0.5000:   STEP LENGTH
 NULL.          -999.2500:   NO VALUE
 COMP. FENIX & SCISSON INC:   COMPANY
 WELL.    NPR-3 SX #14-14:   WELL
 FLD .        TEAPOT DOME:   FIELD
 LOC .      S14 T38N R78W:   LOCATION
 CNTY.            NATRONA:   COUNTY
 STAT.            WYOMING:   STATE
 CTRY. UNITED STATES OF AMERICA:   COUNTRY
 SRVC.            Unknown:   SERVICE COMPANY
 DATE.        01-JUN-1978:   LOGDATE
 API .       490251063100:   API NUMBER
~CURVE INFORMATION
#MNEM.UNIT       API CODE    CURVE DESCRIPTION
#----------   ------------   ------------------------------
 DEPT.F                  :   
 SPR .MV     05 010 01 00:   SPONTANEOUS POTENTIAL FROM RES.
 SN  .OHMM   05 040 16 00:   SHORT NORMAL 16"
 IL  .OHMM   05 120 00 00:   INDUCTION LOG
 GRD .GAPI   45 310 01 00:   GAMMA RAY FROM DENSITY LOG
 RHOB.G/C3   45 350 01 00:   BULK DENSITY
 DPHI.DEC    45 890 12 00:   DENSITY POROSITY SANDSTONE
 CORR.G/C3   45 356 01 00:   DENSITY CORRECTION
 CALD.IN     45 280 60 00:   CALIPER FROM DENSITY LOG
~PARAMETER INFORMATION
#MNEM.UNIT          VALUE    DESCRIPTION
#----------   ------------   ------------------------------
 PD  .                 GL:   PERMANENT DATUM
 EPD .F              5212:   ELEVATION PERMANENT DATUM
 LMF .                 KB:   LOG MEASURED FROM
 DAPD.F                 4:   FEET ABOVE PERMANENT DATUM
 DMF .                 KB:   DRILLING MEASURED FROM
 EKB .F              5216:   KELLING BUSHING
 EGL .F              5212:   GROUND LEVEL
 DATE.           6-1-1978:   RUN DATE
 RUN .                  1:   RUN NUMBER
 DD  .F               670:   DEPTH DRILLER
 DL  .F               670:   DEPTH LOGGER
 BLI .F               664:   BOTTOM LOG INTERVAL
 TLI .F                40:   TOP LOG INTERVAL
 CS  .IN            8.625:   CASING SIZE
 CBD .F                40:   CASING BOTTOM DRILLER
 BS  .IN            7.875:   BIT SIZE
 BSD .F               670:   BIT SIZE AT DEPTH
 DFT .                KCL:   DRILLING FLUID TYPE
 DFD .                8.7:   DRILLING FLUID DENSITY
 DFV .                 32:   DRILLING FLUID VISCOSITY
 DFPH.                 10:   DRILLING FLUID PH
 RMS .OHMM            .30:   RESISTIVITY MUD SAMPLE
 MST .F                66:   MUD SAMPLE TEMPERATURE
 BHT .F                75:   BOTTOM HOLE TEMPERATURE
 TCS .HRS               2:   TIME CURCULATED STOPPED
 MRT .F                75:   MAXIMUM RECORDED TEMPERATURE
 LUN .               2958:   LOGGING UNIT NUMBER
 LUL .              CSPR.:   LOGGING UNIT LOCATION
 ENGI.             MILLER:   RECORDING ENGINEER
 WITN.           MCGINLEY:   WITNESSED BY
 CLNT.            A2DTECH:   CLIENT CODE
 ORIG.      2" , 5" PRINT:   ORIGIN OF DATA
 UWI .       490251063100:   UNIQUE WELL ID
 DICO. A2D Technologies, Inc.:   DIGITIZING COMPANY
~OTHER INFORMATION
~A   DEPT      SPR         SN         IL         GRD      RHOB       DPHI       CORR       CALD   
# ...
  520.5000   -18.4533    13.3307    16.1785    49.4532     2.4464     0.1508     0.0199     8.1648
  521.0000   -18.3967    13.4542    16.6322    48.3857     2.4228     0.1608     0.0279     8.2044
  521.5000   -18.3400    13.5788    17.0986    47.9067     2.4108     0.1837     0.0408     8.2445
  522.0000   -18.2832    13.5642    17.2570    44.7041     2.3682     0.1974     0.0450     8.1935
  522.5000   -18.2263    13.5482    16.9851    40.3554     2.3439     0.1919     0.0664     8.0563
  523.0000   -18.1693    13.5321    16.4969    40.3465     2.3461     0.1826     0.0885     7.9184
  523.5000   -18.1123    13.5161    16.0227    40.2421     2.3677     0.1734     0.0982     7.7778
  524.0000   -18.0623    13.5001    15.5622    40.1231     2.3897     0.1641     0.0934     7.7130
  524.5000   -18.0644    13.4841    15.1150    41.1203     2.4117     0.1549     0.0827     7.6764
  525.0000   -18.1154    13.4682    14.7536    43.2486     2.4167     0.1521     0.0721     7.6223
  525.5000   -18.2512    13.4522    14.6182    43.6593     2.4056     0.1668     0.0611     7.5912
  526.0000   -18.3858    13.4363    14.6182    43.3331     2.3916     0.1794     0.0554     7.6611
  526.5000   -18.5206    13.4204    14.6178    42.9881     2.3723     0.1667     0.0511     7.5631
  527.0000   -18.6553    13.4045    14.6183    43.7427     2.3854     0.1696     0.0442     7.4704
  527.5000   -18.7902    13.3886    14.6180    45.7925     2.4014     0.1755     0.0321     7.4814
  528.0000   -18.9257    13.3728    14.6200    47.8340     2.3812     0.1711     0.0245     7.4887
  528.5000   -19.0577    13.3569    14.6182    48.3131     2.3877     0.1654     0.0246     7.5277
  529.0000   -19.0715    13.3412    14.9665    48.1499     2.3984     0.1613     0.0246     7.5704
  529.5000   -19.0797    13.3308    15.1781    47.4337     2.4034     0.1556     0.0246     7.6132
  530.0000   -19.0884    13.3307    15.3927    45.4674     2.4012     0.1440     0.0246     7.6559
  530.5000   -19.0973    13.3307    15.6104    43.5903     2.3988     0.1324     0.0246     7.6986
  531.0000   -19.1062    13.3307    15.7371    44.0744     2.3965     0.1241     0.0245     7.7410
  531.5000   -19.1151    13.3308    15.7371    49.4511     2.3941     0.1255     0.0247     7.7682
  532.0000   -19.1241    13.3307    15.4989    53.3200     2.4093     0.1274     0.0338     7.7659
  532.5000   -19.1329    13.3256    15.2779    54.1532     2.4362     0.1292     0.0441     7.7546
  533.0000   -19.1419    13.2821    15.0601    54.7501     2.4574     0.1290     0.0446     7.7454
  533.5000   -19.1508    13.2388    14.8454    57.2325     2.4590     0.1273     0.0445     7.7391
  534.0000   -19.1597    13.1956    14.6337    59.9440     2.4591     0.1293     0.0432     7.7328
  534.5000   -19.1686    13.1526    14.3511    60.5548     2.4586     0.1333     0.0411     7.7265
  535.0000   -19.1775    13.1097    14.3823    60.5351     2.4516     0.1437     0.0347     7.7202
  535.5000   -19.1864    13.0669    14.4311    60.3372     2.4387     0.1541     0.0296     7.7140
  536.0000   -19.1953    13.0243    14.4800    59.2002     2.4251     0.1644     0.0273     7.7077
  536.5000   -19.2042    12.9817    14.5291    56.4875     2.4080     0.1680     0.0291     7.7014
  537.0000   -19.2131    12.9394    14.5784    53.3249     2.3891     0.1642     0.0327     7.6954
  537.5000   -19.2220    12.8972    14.6180    50.1479     2.4015     0.1607     0.0365     7.6876
  538.0000   -19.2309    12.8551    14.5608    46.8849     2.4068     0.1572     0.0403     7.6191
  538.5000   -19.2396    12.8132    14.5131    46.7001     2.4119     0.1536     0.0406     7.5440
  539.0000   -19.2488    12.7713    14.4653    50.0952     2.4166     0.1516     0.0405     7.5296
  539.5000   -19.2566    12.7297    14.4178    53.0430     2.4188     0.1528     0.0405     7.5401
  540.0000   -19.3958    12.6882    14.3704    54.9375     2.4159     0.1557     0.0389     7.5577
  540.5000   -19.6311    12.6468    14.3232    55.3667     2.4116     0.1589     0.0361     7.5752
  541.0000   -19.8676    12.6129    14.2762    55.6038     2.4081     0.1585     0.0333     7.5928
  541.5000   -20.1040    12.6133    14.2292    56.1951     2.4095     0.1548     0.0306     7.6088
  542.0000   -20.3404    12.6134    14.1825    57.7726     2.4175     0.1476     0.0313     7.6072
  542.5000   -20.4643    12.6133    14.1359    58.7888     2.4256     0.1437     0.0320     7.6052
  543.0000   -20.4744    12.6133    14.0894    57.9962     2.4333     0.1441     0.0327     7.6032
  543.5000   -20.4846    12.6133    14.0432    57.1502     2.4333     0.1469     0.0335     7.6013
  544.0000   -20.4946    12.6133    13.9970    56.5598     2.4298     0.1464     0.0341     7.5993
  544.5000   -20.5047    12.6133    13.9596    56.6984     2.4286     0.1456     0.0358     7.5974
  545.0000   -20.5148    12.6133    13.9596    57.6957     2.4293     0.1465     0.0329     7.5955
  545.5000   -20.5250    12.6133    14.1643    59.2227     2.4301     0.1491     0.0301     7.5935
  546.0000   -20.5351    12.6133    14.2846    60.6579     2.4259     0.1516     0.0273     7.5916
  546.5000   -20.5453    12.6133    14.4060    59.6328     2.4202     0.1542     0.0247     7.5894
  547.0000   -20.5554    12.6133    14.5285    58.4818     2.4146     0.1568     0.0272     7.5991
  547.5000   -20.5655    12.6133    14.6519    57.3499     2.4113     0.1565     0.0300     7.6112
  548.0000   -20.5757    12.6134    14.7550    56.9517     2.4179     0.1461     0.0324     7.6235
  548.5000   -20.5858    12.6138    14.7531    57.0909     2.4242     0.1444     0.0311     7.6357
  549.0000   -20.5960    12.6150    14.6791    57.3764     2.4306     0.1407     0.0296     7.6479
  549.5000   -20.6061    12.5422    14.5587    57.6596     2.4369     0.1403     0.0289     7.6600
  550.0000   -20.6163    12.4744    14.4401    57.9432     2.4386     0.1428     0.0305     7.6693
  550.5000   -20.6264    12.4069    14.3225    58.2252     2.4354     0.1444     0.0320     7.6710
  551.0000   -20.6365    12.3398    14.2060    58.5088     2.4323     0.1422     0.0417     7.6728
  551.5000   -20.6465    12.2731    14.0889    58.9302     2.4364     0.1385     0.0532     7.6746
  552.0000   -20.6551    12.2067    13.8916    60.1156     2.4452     0.1464     0.0564     7.6764
  552.5000   -20.7270    12.1567    13.6951    61.3195     2.4283     0.1369     0.0599     7.6782
  553.0000   -20.8107    12.1741    13.5014    61.5439     2.4383     0.1427     0.0602     7.6800
  553.5000   -20.8946    12.1882    13.3307    61.5820     2.4436     0.1524     0.0512     7.6818
  554.0000   -20.9784    12.2024    13.3424    61.6153     2.4262     0.1560     0.0415     7.6836
  554.5000   -21.0621    12.2165    13.3528    61.6512     2.4134     0.1556     0.0409     7.6855
  555.0000   -21.1459    12.2307    13.3635    61.6893     2.4142     0.1550     0.0452     7.6872
  555.5000   -21.2296    12.2449    13.3741    61.7230     2.4153     0.1545     0.0498     7.6865
  556.0000   -21.3134    12.2589    13.3847    61.5994     2.4172     0.1487     0.0543     7.6795
  556.5000   -21.3971    12.2774    13.3953    60.6256     2.4252     0.1433     0.0560     7.6727
  557.0000   -21.4809    12.3108    13.4059    58.9837     2.4323     0.1513     0.0552     7.6658
  557.5000   -21.5646    12.3433    13.4165    57.4073     2.4274     0.1584     0.0543     7.6590
  558.0000   -21.6484    12.3759    13.4271    57.3582     2.4138     0.1620     0.0535     7.6522
  558.5000   -21.7321    12.4086    13.4377    58.7706     2.4032     0.1578     0.0526     7.6453
  559.0000   -21.8159    12.4414    13.4484    61.6139     2.4108     0.1535     0.0518     7.6385
  559.5000   -21.8996    12.4742    13.4866    62.6798     2.4181     0.1516     0.0509     7.6316
  560.0000   -21.9834    12.5072    13.5580    62.9474     2.4207     0.1508     0.0484     7.6248
  560.5000   -22.0671    12.5402    13.6297    63.1930     2.4230     0.1488     0.0437     7.6180
