~VERSION INFORMATION
 VERS.                2.0:   CWLS LOG ASCII STANDARD - VERSION 2.0
 WRAP.                 NO:   ONE LINE PER DEPTH STEP
~WELL INFORMATION
#MNEM.UNIT      DATA TYPE    INFORMATION
#----------   ------------   ------------------------------
 STRT.F           24.5000:   START DEPTH
 STOP.F          576.0000:   STOP DEPTH
 STEP.F            0.5000:   STEP LENGTH
 NULL.          -999.2500:   NO VALUE
 COMP. FENIX & SCISSON INC:   COMPANY
 WELL.    NPR-3 SX #61-15:   WELL
 FLD .             TEAPOT:   FIELD
 LOC .      S15 T38N R78W:   LOCATION
 CNTY.            NATRONA:   COUNTY
 STAT.            WYOMING:   STATE
 CTRY. UNITED STATES OF AMERICA:   COUNTRY
 SRVC.            Unknown:   SERVICE COMPANY
 DATE.        29-MAY-1978:   LOGDATE
 API .       490251062300:   API NUMBER
~CURVE INFORMATION
#MNEM.UNIT       API CODE    CURVE DESCRIPTION
#----------   ------------   ------------------------------
 DEPT.F                  :   
 GRD .GAPI   45 310 01 00:   GAMMA RAY FROM DENSITY LOG
 CALD.IN     45 280 60 00:   CALIPER FROM DENSITY LOG
 SN  .OHMM   05 040 16 00:   SHORT NORMAL 16'
 SPR .MV     05 010 01 00:   SPONTANEOUS POTENTIAL
 ILD .OHMM   05 120 46 00:   INDUCTION LOG DEEP
 RHOB.G/C3   45 350 01 00:   BULK DENSITY
 DPHI.DEC    45 890 12 00:   DENSITY POROSITY SANDSTONE
 CORR.G/C3   45 356 01 00:   DENSITY CORRECTION
~PARAMETER INFORMATION
#MNEM.UNIT          VALUE    DESCRIPTION
#----------   ------------   ------------------------------
 PD  .                 GL:   PERMANENT DATUM
 EPD .F              5221:   ELEVATION PERMANENT DATUM
 LMF .                 KB:   LOG MEASURED FROM
 DAPD.F                 4:   FEET ABOVE PERMANENT DATUM
 DMF .                 KB:   DRILLING MEASURED FROM
 EKB .F              5225:   KELLING BUSHING
 EGL .F              5221:   GROUND LEVEL
 DATE.          5-29-1978:   RUN DATE
 RUN .                  1:   RUN NUMBER
 DD  .F               565:   DEPTH DRILLER
 DL  .F               578:   DEPTH LOGGER
 BLI .F               570:   BOTTOM LOG INTERVAL
 TLI .F                40:   TOP LOG INTERVAL
 CS  .IN            8.625:   CASING SIZE
 CBD .F                40:   CASING BOTTOM DRILLER
 CBL .F                40:   CASING BOTTOM LOGGER
 BS  .IN            7.875:   BIT SIZE
 BSD .F               565:   BIT SIZE AT DEPTH
 DFT .                KCL:   DRILLING FLUID TYPE
 DFD .                8.7:   DRILLING FLUID DENSITY
 DFV .                 34:   DRILLING FLUID VISCOSITY
 DFPH.                9.5:   DRILLING FLUID PH
 DFL .               10.4:   DRILLING FLUID LOSS
 BHT .F                76:   BOTTOM HOLE TEMPERATURE
 TCS .HRS               3:   TIME CURCULATED STOPPED
 MRT .F                76:   MAXIMUM RECORDED TEMPERATURE
 LUN .               2958:   LOGGING UNIT NUMBER
 LUL .              CASP.:   LOGGING UNIT LOCATION
 ENGI.             MILLER:   RECORDING ENGINEER
 WITN.           MCGINLEY:   WITNESSED BY
 CLNT.            A2DTECH:   CLIENT CODE
 ORIG.      2" , 5" PRINT:   ORIGIN OF DATA
 UWI .       490251062300:   UNIQUE WELL ID
 DICO. A2D Technologies, Inc.:   DIGITIZING COMPANY
~OTHER INFORMATION
~A   DEPT       GRD      CALD         SN        SPR        ILD       RHOB       DPHI       CORR   
# ...
  551.0000    79.2320     7.8985    11.9340   -14.9048    12.4565     2.5361     0.0760     0.0917
  551.5000    78.6192     7.9105    11.8535   -14.9473    12.3770     2.5377     0.0744     0.0925
  552.0000    80.4661     7.9156    11.7736   -14.9899    12.2980     2.5398     0.0747     0.0898
  552.5000    80.2535     7.8962    11.6942   -15.0324    12.2195     2.5390     0.0776     0.0868
  553.0000    79.7362     7.8772    11.6154   -15.0749    12.1415     2.5361     0.0828     0.0838
  553.5000    80.6388     7.8597    11.5371   -15.1174    12.0573     2.5333     0.0781     0.0850
  554.0000    80.1856     7.8823    11.4302   -15.1600    11.9444     2.5327     0.0717     0.0923
  554.5000    79.7605     7.8943    11.3131   -15.2026    11.7890     2.5418     0.0668     0.1000
  555.0000    79.6255     7.9067    11.1972   -15.2375    11.6357     2.5499     0.0675     0.1077
  555.5000    78.9413     7.9194    11.0824   -15.2165    11.4843     2.5501     0.0680     0.1054
  556.0000    78.9301     7.9319    10.9688   -15.1963    11.3349     2.5498     0.0696     0.1025
  556.5000    79.8456     7.9252    10.8564   -15.1763    11.1875     2.5488     0.0776     0.0991
  557.0000    82.1907     7.8814    10.7452   -15.1563    11.0420     2.5462     0.0784     0.0986
  557.5000    85.0978     7.8377    10.6350   -15.1363    10.8983     2.5437     0.0792     0.0997
  558.0000    85.8552     7.8196    10.5260   -15.1163    10.7566     2.5423     0.0699     0.1009
  558.5000    85.5548     7.8337    10.4182   -15.0963    10.6166     2.5447     0.0670     0.1022
  559.0000    84.0427     7.8390    10.3114   -15.0762    10.4785     2.5469     0.0692     0.1022
  559.5000    83.3428     7.8387    10.2057   -15.0563    10.3422     2.5492     0.0700     0.0979
  560.0000    83.3057     7.8387    10.1011   -15.0410    10.2077     2.5501     0.0712     0.0943
  560.5000    82.7097     7.8391    10.0307   -15.0516    10.0749     2.5484     0.0747     0.0908
  561.0000    81.8407     7.8338    10.0370   -15.0618     9.9388     2.5452     0.0783     0.0872
  561.5000    87.1005     7.8191    10.0457   -15.0719     9.8478     2.5421     0.0796     0.0836
  562.0000    83.9151     7.8067    10.0544   -15.0820     9.8478     2.5390     0.0788     0.0829
  562.5000    80.5513     7.7825    10.0630   -15.0921     9.8394     2.5380     0.0776     0.0907
  563.0000    80.5674     7.7584    10.0717   -15.1022     9.8261     2.5405     0.0704     0.0978
  563.5000    86.4241     7.7342    10.0804   -15.1123     9.8128     2.5440     0.0652     0.1050
  564.0000    89.3918     7.7100    10.0891   -15.1224     9.7995     2.5475     0.0657     0.1052
  564.5000    82.2973     7.6857    10.0978   -15.1325     9.7862     2.5512     0.0685     0.1028
  565.0000  -999.2500     7.6616    10.1065   -15.1426     9.7729     2.5521     0.0694     0.1021
  565.5000  -999.2500     7.6371    10.1151   -15.1527     9.7593     2.5521     0.0648     0.1007
  566.0000  -999.2500     7.6123    10.1234   -15.1628     9.7310     2.5521     0.0660     0.1001
  566.5000  -999.2500     7.5793    10.1545   -15.1729     9.6888     2.5543     0.0636     0.0964
  567.0000  -999.2500     7.5575    10.1907   -15.1830     9.6472     2.5562     0.0669     0.0928
  567.5000  -999.2500     7.5384    10.2269   -15.1931     9.6057     2.5528     0.0708     0.0892
  568.0000  -999.2500     7.5415    10.2634   -15.2032     9.5797     2.5484     0.0716     0.0863
  568.5000  -999.2500     7.5813    10.2999   -15.2133     9.5797     2.5430     0.0720     0.0956
  569.0000  -999.2500     7.5993    10.3366   -15.2235     9.5797     2.5429     0.0763     0.0981
  569.5000  -999.2500     7.5965    10.3734   -15.2334     9.5797     2.5402     0.0814     0.0944
  570.0000  -999.2500     7.5790    10.4067   -15.2297     9.5797     2.5347     0.0844     0.0927
  570.5000  -999.2500     7.5622  -999.2500   -15.1858     9.5797  -999.2500     0.0781     0.0983
  571.0000  -999.2500  -999.2500  -999.2500   -15.1432  -999.2500  -999.2500     0.0749     0.1152
  571.5000  -999.2500  -999.2500  -999.2500   -15.1008  -999.2500  -999.2500     0.0763     0.1304
  572.0000  -999.2500  -999.2500  -999.2500   -15.0581  -999.2500  -999.2500     0.0723     0.1331
  572.5000  -999.2500  -999.2500  -999.2500   -15.0401  -999.2500  -999.2500     0.0628     0.1335
  573.0000  -999.2500  -999.2500  -999.2500  -999.2500  -999.2500  -999.2500     0.0672     0.1342
  573.5000  -999.2500  -999.2500  -999.2500  -999.2500  -999.2500  -999.2500     0.0672     0.1347
  574.0000  -999.2500  -999.2500  -999.2500  -999.2500  -999.2500  -999.2500  -999.2500     0.1319
  574.5000  -999.2500  -999.2500  -999.2500  -999.2500  -999.2500  -999.2500  -999.2500     0.1287
  575.0000  -999.2500  -999.2500  -999.2500  -999.2500  -999.2500  -999.2500  -999.2500     0.1254
  575.5000  -999.2500  -999.2500  -999.2500  -999.2500  -999.2500  -999.2500  -999.2500     0.1246
  576.0000  -999.2500  -999.2500  -999.2500  -999.2500  -999.2500  -999.2500  -999.2500     0.1257
