~VERSION INFORMATION
 VERS.                2.0:   CWLS LOG ASCII STANDARD - VERSION 2.0
 WRAP.                 NO:   ONE LINE PER DEPTH STEP
~WELL INFORMATION
#MNEM.UNIT      DATA TYPE    INFORMATION
#----------   ------------   ------------------------------
 STRT.F           22.0000:   START DEPTH
 STOP.F          630.5000:   STOP DEPTH
 STEP.F            0.5000:   STEP LENGTH
 NULL.          -999.2500:   NO VALUE
 COMP. LAWRENCE/ALLISON INC:   COMPANY
 WELL.   16-61 SHX #11-11:   WELL
 FLD .             TEAPOT:   FIELD
 LOC .      S11 T38N R78W:   LOCATION
 CNTY.            NATRONA:   COUNTY
 STAT.            WYOMING:   STATE
 CTRY. UNITED STATES OF AMERICA:   COUNTRY
 SRVC.           Gearhart:   SERVICE COMPANY
 DATE.        13-JUN-1986:   LOGDATE
 API .       490251108900:   API NUMBER
~CURVE INFORMATION
#MNEM.UNIT       API CODE    CURVE DESCRIPTION
#----------   ------------   ------------------------------
 DEPT.F                  :   
 GRR .GAPI   07 310 01 00:   GAMMA RAY FROM RES. LOG.
 RILD.OHMM   07 120 46 00:   INDUCTION LOG DEEP RESISTIVITY
 RILM.OHMM   07 120 44 00:   INDUCTION LOG MEDIUM RESISTIVITY
~PARAMETER INFORMATION
#MNEM.UNIT          VALUE    DESCRIPTION
#----------   ------------   ------------------------------
 PD  .                 GL:   PERMANENT DATUM
 EPD .F              5185:   ELEVATION PERMANENT DATUM
 LMF .                 KB:   LOG MEASURED FROM
 DAPD.F                 5:   FEET ABOVE PERMANENT DATUM
 DMF .                 KB:   DRILLING MEASURED FROM
 EKB .F              5190:   KELLING BUSHING
 EGL .F              5185:   GROUND LEVEL
 DATE.            6-13-86:   RUN DATE
 RUN .                  1:   RUN NUMBER
 DD  .F               648:   DEPTH DRILLER
 DL  .F               640:   DEPTH LOGGER
 BLI .F               631:   BOTTOM LOG INTERVAL
 TLI .F                22:   TOP LOG INTERVAL
 CS  .IN            8.625:   CASING SIZE
 CBD .F                42:   CASING BOTTOM DRILLER
 CBL .F                47:   CASING BOTTOM LOGGER
 BS  .IN            7.875:   BIT SIZE
 BSD .F               648:   BIT SIZE AT DEPTH
 DFT .               FOAM:   DRILLING FLUID TYPE
 MSS .               TANK:   MUD SAMPLE SOURCE
 RMS .OHMM           1.85:   RESISTIVITY MUD SAMPLE
 MST .F                70:   MUD SAMPLE TEMPERATURE
 RMB .OHMM           1.55:   RESISTIVITY MUD AT BHT
 BHT .F                85:   BOTTOM HOLE TEMPERATURE
 TCS .HRS            1330:   TIME CURCULATED STOPPED
 TLAB.HRS            1600:   TIME LOGGER AT BOTTOM
 MRT .F                85:   MAXIMUM RECORDED TEMPERATURE
 LUN .               7609:   LOGGING UNIT NUMBER
 LUL .           GILLETTE:   LOGGING UNIT LOCATION
 ENGI.              BAUER:   RECORDING ENGINEER
 WITN.           JENNINGS:   WITNESSED BY
 CLNT.            A2DTECH:   CLIENT CODE
 ORIG.       2", 5" PRINT:   ORIGIN OF DATA
 UWI .       490251108900:   UNIQUE WELL ID
 DICO. A2D Technologies, Inc.:   DIGITIZING COMPANY
~OTHER INFORMATION
~A   DEPT       GRR      RILD       RILM   
# ...
  295.0000   103.1864     6.0449     6.3050
  295.5000   104.7990     5.8074     6.0414
  296.0000   105.7973     5.5947     5.7670
  296.5000   105.4258     5.4241     5.4089
  297.0000   103.4640     5.2148     5.0728
  297.5000   101.3822     5.2828     4.8855
  298.0000   101.0251     5.3155     5.0521
  298.5000   103.1251     5.4698     5.1933
  299.0000   105.2004     5.6564     5.4278
  299.5000   106.6008     5.8494     5.6890
  300.0000   107.6844     6.1172     5.9626
  300.5000   108.7484     6.4009     6.2495
  301.0000   109.3459     6.6975     6.5501
  301.5000   106.9558     7.0088     6.8653
  302.0000   103.8960     7.3568     7.2211
  302.5000   100.7667     7.5028     7.3568
  303.0000   101.3137     7.5641     7.3671
  303.5000   102.1956     7.6261     7.4441
  304.0000   104.1959     7.6883     7.5219
  304.5000   106.3559     7.7508     7.6006
  305.0000   108.5852     7.8081     7.6856
  305.5000   108.2680     7.8605     7.7760
  306.0000   105.5354     7.9132     7.8675
  306.5000   102.8634     7.9663     7.9601
  307.0000   101.2960     8.0197     8.0538
  307.5000   103.5793     8.0735     8.1486
  308.0000   106.8717     8.1277     8.2444
  308.5000   109.9434     8.1822     8.3415
  309.0000   112.4183     8.2371     8.3996
  309.5000   113.2031     8.2923     8.4476
  310.0000   110.6224     8.3482     8.4960
  310.5000   107.8960     8.3801     8.5446
  311.0000   105.1675     8.3801     8.5935
  311.5000   106.9776     8.3801     8.6427
  312.0000   111.5030     8.3802     8.6922
  312.5000   116.0234     8.3802     8.7419
  313.0000   117.2864     8.3804     8.7792
  313.5000   112.4147     8.3820     8.4319
  314.0000   107.5377     8.2793     8.1650
  314.5000   103.3168     8.1638     7.9252
  315.0000   104.6335     8.0500     7.8771
  315.5000   106.7939     7.9378     7.8325
  316.0000   108.9466     7.8272     7.7882
  316.5000   110.8444     7.7182     7.7442
  317.0000   107.9860     7.6101     7.7004
  317.5000   104.4002     7.4949     7.6568
  318.0000   100.8578     7.2322     7.4770
  318.5000    98.9067     6.8785     7.1543
  319.0000   105.3114     6.5187     6.8173
  319.5000   111.4135     6.0762     6.4699
  320.0000   117.6122     5.5181     6.1402
  320.5000   120.1197     5.0113     5.6597
  321.0000   118.7600     4.5136     5.0903
  321.5000   117.0928     4.0036     4.5797
  322.0000   115.0239     3.5511     4.0815
  322.5000   112.6904     3.1667     3.6169
  323.0000   110.3182     2.8988     3.2043
  323.5000   107.0573     2.7226     2.8529
  324.0000   102.3917     2.5939     2.5980
  324.5000    97.6233     2.5018     2.4545
  325.0000    94.7452     2.6113     2.4715
  325.5000    93.7928     2.6940     2.5287
  326.0000    96.6032     2.8514     2.6194
  326.5000    99.5231     3.1395     2.8948
  327.0000   102.8946     3.5154     3.2017
  327.5000   107.0528     3.9363     3.5655
  328.0000   108.8880     4.4076     3.9940
  328.5000   110.7717     4.9353     4.5603
  329.0000   113.2467     5.4094     5.2068
  329.5000   115.1861     5.7875     5.4490
  330.0000   113.8708     5.8301     5.6146
  330.5000   112.4956     6.1265     5.7857
  331.0000   114.7284     6.2224     5.9613
  331.5000   117.6342     6.0481     6.1640
  332.0000   120.3782     5.8790     6.0180
  332.5000   120.4472     5.7146     5.8551
  333.0000   120.5357     5.5548     5.6967
  333.5000   122.7593     5.3994     5.5425
  334.0000   124.6160     5.2485     5.3926
  334.5000   124.5654     5.1181     5.2143
  335.0000   122.8494     5.1660     5.2257
  335.5000   121.1844     5.1805     5.2480
  336.0000   119.5197     5.2008     5.3038
  336.5000   117.8556     5.2657     5.4293
  337.0000   117.8898     5.4220     5.5579
  337.5000   118.5327     5.5829     5.7488
  338.0000   119.1598     5.7566     5.9828
  338.5000   119.2395     5.9806     6.2259
  339.0000   117.3367     6.2133     6.4792
  339.5000   115.4870     6.4551     6.7439
  340.0000   116.0067     6.7063     7.0224
  340.5000   117.8226     6.9673     7.1726
  341.0000   116.1538     7.2384     7.3696
  341.5000   113.9708     7.6357     7.5728
  342.0000   111.9057     7.5650     7.7807
  342.5000   114.1717     7.6357     7.7787
  343.0000   116.8023     7.5479     7.7789
  343.5000   117.9323     7.4961     7.7806
  344.0000   115.9681     7.3902     7.6075
  344.5000   112.4252     7.2661     7.4416
  345.0000   109.7572     7.1434     7.2802
  345.5000   111.9640     7.0229     7.1222
  346.0000   115.4702     6.8575     6.9677
  346.5000   119.0196     6.6404     6.8165
  347.0000   120.8931     6.4302     6.6252
  347.5000   118.5915     6.2266     6.4177
  348.0000   115.4457     6.0294     6.2167
  348.5000   113.4632     5.8386     6.0220
  349.0000   114.9633     5.6696     5.8334
  349.5000   116.3640     5.5877     5.7039
  350.0000   117.4501     5.5134     5.6008
  350.5000   116.0747     5.4155     5.4996
  351.0000   116.3192     5.3122     5.4119
  351.5000   116.6866     5.6007     5.5197
  352.0000   117.9749     5.8313     5.7197
  352.5000   119.6313     6.0714     6.0205
  353.0000   122.6497     6.3208     6.3371
  353.5000   125.8081     6.5805     6.6704
  354.0000   128.8788     6.7505     6.9788
  354.5000   129.6617     6.8947     7.1000
  355.0000   129.6861     7.0420     7.2234
  355.5000   127.5130     7.1925     7.3489
  356.0000   124.5985     7.3453     7.4767
  356.5000   121.6650     7.4940     7.6065
  357.0000   122.0596     7.5763     7.7071
  357.5000   123.6884     7.7071     7.7071
  358.0000   124.3135     7.6793     7.7071
  358.5000   124.9023     7.6369     7.7071
  359.0000   126.0155     7.5949     7.7071
  359.5000   128.3685     7.5650     7.7071
  360.0000   130.7325     7.5650     7.7071
  360.5000   129.9729     7.5650     7.7071
  361.0000   126.7010     7.5650     7.7071
  361.5000   125.6943     7.5650     7.7071
  362.0000   126.3044     7.5650     7.7071
  362.5000   126.8578     7.5650     7.7071
  363.0000   125.3890     7.5650     7.7071
  363.5000   123.3056     7.5652     7.7073
  364.0000   121.3764     7.5465     7.7059
  364.5000   122.8912     7.5139     7.7071
  365.0000   124.7828     7.4651     7.7791
  365.5000   126.7609     7.3056     7.5674
  366.0000   125.5457     7.1543     7.4375
  366.5000   122.9950     6.9432     7.3099
  367.0000   120.3771     6.7893     7.1631
  367.5000   117.7383     6.7032     6.9695
  368.0000   119.9990     6.5400     6.7897
  368.5000   123.8392     6.3881     6.6389
  369.0000   127.6876     6.2398     6.4913
  369.5000   129.3355     6.0949     6.3471
  370.0000   128.0651     5.9519     6.2061
  370.5000   125.8554     5.8021     6.1077
  371.0000   124.3013     5.6583     6.0782
  371.5000   123.6765     5.5177     5.8357
  372.0000   123.3161     5.3806     5.6029
  372.5000   122.4283     5.2143     5.3618
  373.0000   121.5513     5.2369     5.3768
  373.5000   121.6237     5.2781     5.3926
  374.0000   123.2570     5.3196     5.4075
  374.5000   123.6324     5.3618     5.5462
  375.0000   121.6915     5.5283     5.7224
  375.5000   119.9213     5.7458     5.9047
  376.0000   120.1952     5.9719     6.0926
  376.5000   122.0413     6.2068     6.2864
  377.0000   122.6337     6.4510     6.4864
  377.5000   121.9509     6.6606     6.7659
  378.0000   121.3362     6.7058     6.7520
  378.5000   120.3976     6.4126     6.7309
  379.0000   119.4720     6.1908     6.7099
  379.5000   118.5379     5.9763     6.4548
  380.0000   118.1160     5.7700     6.1079
  380.5000   121.2010     5.5676     5.7769
  381.0000   124.3676     5.4119     5.5051
  381.5000   127.3526     5.2630     5.3128
  382.0000   128.4551     5.3428     5.1181
  382.5000   126.7143     5.4533     5.2325
  383.0000   124.9617     5.5668     5.3925
  383.5000   124.2693     5.7815     5.5695
  384.0000   125.1250     6.0861     5.7523
  384.5000   126.8447     6.4061     6.0426
  385.0000   125.1154     6.7430     6.4245
  385.5000   122.0104     7.0976     6.8305
