~VERSION INFORMATION
 VERS.                2.0:   CWLS LOG ASCII STANDARD - VERSION 2.0
 WRAP.                 NO:   ONE LINE PER DEPTH STEP
~WELL INFORMATION
#MNEM.UNIT      DATA TYPE    INFORMATION
#----------   ------------   ------------------------------
 STRT.F           38.0000:   START DEPTH
 STOP.F          846.0000:   STOP DEPTH
 STEP.F            0.5000:   STEP LENGTH
 NULL.          -999.2500:   NO VALUE
 COMP. FENIX & SCISSON INC:   COMPANY
 WELL.    NPR 3 #34-SX-14:   WELL
 FLD .        TEAPOT DOME:   FIELD
 LOC .      S14 T38N R78W:   LOCATION
 CNTY.            NATRONA:   COUNTY
 STAT.            WYOMING:   STATE
 CTRY. UNITED STATES OF AMERICA:   COUNTRY
 SRVC.           BIRDWELL:   SERVICE COMPANY
 DATE.        26-APR-1978:   LOGDATE
 API .       490251063500:   API NUMBER
~CURVE INFORMATION
#MNEM.UNIT       API CODE    CURVE DESCRIPTION
#----------   ------------   ------------------------------
 DEPT.F                  :   
 NEUT.CPS    81 330 30 00:   NEUTRON
 TT  .US/F   81 520 00 00:   TRANSIT TIME
 GRD .GAPI   45 310 01 00:   GAMMA RAY FROM DENSITY LOG
 RHOB.G/C3   45 350 01 00:   BULK DENSITY
 DPOR.DEC    45 890 10 00:   DENSITY POROSITY
 CALD.IN     45 280 60 00:   CALIPER FROM DENSITY LOG
 CORR.G/C3   45 356 01 00:   DENSITY CORRECTION
~PARAMETER INFORMATION
#MNEM.UNIT          VALUE    DESCRIPTION
#----------   ------------   ------------------------------
 PD  .                 GL:   PERMANENT DATUM
 EPD .F              5232:   ELEVATION PERMANENT DATUM
 LMF .                 KB:   LOG MEASURED FROM
 DMF .                 KB:   DRILLING MEASURED FROM
 EKB .F              5236:   KELLING BUSHING
 EGL .F              5232:   GROUND LEVEL
 DATE.          4-26-1978:   RUN DATE
 RUN .                  1:   RUN NUMBER
 DD  .F               855:   DEPTH DRILLER
 DL  .F               853:   DEPTH LOGGER
 BLI .F               846:   BOTTOM LOG INTERVAL
 TLI .F                40:   TOP LOG INTERVAL
 CS  .IN            8.625:   CASING SIZE
 CBD .F                40:   CASING BOTTOM DRILLER
 CBL .F                40:   CASING BOTTOM LOGGER
 BS  .IN            7.875:   BIT SIZE
 BSD .F               855:   BIT SIZE AT DEPTH
 DFT .                KCL:   DRILLING FLUID TYPE
 DFD .                8.5:   DRILLING FLUID DENSITY
 DFV .                 31:   DRILLING FLUID VISCOSITY
 DFPH.                 10:   DRILLING FLUID PH
 DFL .               10.4:   DRILLING FLUID LOSS
 MSS .          FLUID PIT:   MUD SAMPLE SOURCE
 RMS .OHMM            .36:   RESISTIVITY MUD SAMPLE
 MST .F                68:   MUD SAMPLE TEMPERATURE
 RMF .OHMM            .28:   RESISTIVITY MUD FILTRATE SAMPLE
 MFST.F                74:   MUD FILTRATE SAMPLE TEMPERATURE
 RMC .OHMM            .48:   RESISTIVITY MUD CAKE
 MCST.F                79:   MUD CAKE SAMPLE TEMPERATURE
 MFSS.               MEAS:   MUD FILTRATE SAMPLE SOURCE
 RMB .OHMM            .33:   RESISTIVITY MUD AT BHT
 BHT .F                75:   BOTTOM HOLE TEMPERATURE
 TCS .HRS               1:   TIME CURCULATED STOPPED
 MRT .F                75:   MAXIMUM RECORDED TEMPERATURE
 LUN .               3006:   LOGGING UNIT NUMBER
 LUL .              CASP.:   LOGGING UNIT LOCATION
 ENGI.             MILLER:   RECORDING ENGINEER
 WITN.           MCGINLEY:   WITNESSED BY
 CLNT.            A2DTECH:   CLIENT CODE
 ORIG.      2" , 5" PRINT:   ORIGIN OF DATA
 UWI .       490251063500:   UNIQUE WELL ID
 DICO. A2D Technologies, Inc.:   DIGITIZING COMPANY
~OTHER INFORMATION
~A   DEPT     NEUT         TT         GRD      RHOB       DPOR       CALD       CORR   
# ...
  584.0000  -999.2500  -999.2500    88.8395     2.4652     0.1038     8.1069     0.0269
  584.5000  -999.2500  -999.2500    89.8703     2.4649     0.0993     7.9570     0.0311
  585.0000  -999.2500  -999.2500    90.6252     2.4680     0.0988     7.8688     0.0353
  585.5000  -999.2500  -999.2500    90.0444     2.4704     0.1018     7.9155     0.0384
  586.0000  -999.2500  -999.2500    89.4972     2.4667     0.1048     7.9673     0.0393
  586.5000  -999.2500  -999.2500    89.0766     2.4567     0.1059     8.0184     0.0402
  587.0000  -999.2500  -999.2500    90.0390     2.4524     0.1061     8.0702     0.0410
  587.5000  -999.2500  -999.2500    91.5437     2.4528     0.1062     8.1210     0.0419
  588.0000  -999.2500  -999.2500    91.9222     2.4533     0.1077     8.1556     0.0428
  588.5000  -999.2500  -999.2500    93.1168     2.4524     0.1106     8.1967     0.0437
  589.0000  -999.2500  -999.2500    92.2536     2.4504     0.1136     8.2383     0.0446
  589.5000  -999.2500  -999.2500    90.6301     2.4422     0.1158     8.2799     0.0454
  590.0000  -999.2500  -999.2500    90.6336     2.4352     0.1149     8.3214     0.0455
  590.5000  -999.2500  -999.2500    93.7471     2.4359     0.1134     8.3630     0.0430
  591.0000  -999.2500  -999.2500    94.9361     2.4445     0.1145     8.4046     0.0330
  591.5000  -999.2500  -999.2500    92.2698     2.4378     0.1181     8.4461     0.0202
  592.0000  -999.2500  -999.2500    89.9872     2.4306     0.1218     8.4880     0.0126
  592.5000  -999.2500  -999.2500    88.4593     2.4234     0.1255     8.5028     0.0146
  593.0000  -999.2500  -999.2500    89.1574     2.4162     0.1291     8.5031     0.0184
  593.5000  -999.2500  -999.2500    89.7004     2.4090     0.1307     8.5030     0.0295
  594.0000  -999.2500  -999.2500    88.9028     2.4084     0.1238     8.5029     0.0405
  594.5000  -999.2500  -999.2500    88.0366     2.4238     0.1161     8.5032     0.0512
  595.0000  -999.2500  -999.2500    87.7949     2.4410     0.1083     8.5198     0.0549
  595.5000  -999.2500  -999.2500    89.5523     2.4460     0.1006     8.5642     0.0337
  596.0000  -999.2500  -999.2500    91.2703     2.4628     0.0958     8.6087     0.0240
  596.5000  -999.2500  -999.2500    92.4868     2.4757     0.0981     8.6227     0.0204
  597.0000  -999.2500  -999.2500    91.6674     2.4735     0.1018     8.6188     0.0169
  597.5000  -999.2500  -999.2500    90.8850     2.4665     0.1029     8.6131     0.0146
  598.0000  -999.2500  -999.2500    90.9650     2.4618     0.1038     8.6073     0.0127
  598.5000  -999.2500  -999.2500    92.2450     2.4586     0.1059     8.6026     0.0108
  599.0000  -999.2500  -999.2500    93.4967     2.4519     0.1108     8.6086     0.0077
  599.5000  -999.2500  -999.2500    93.8703     2.4433     0.1170     8.6380     0.0039
  600.0000  -999.2500  -999.2500    91.7774     2.4309     0.1233     8.6667     0.0000
  600.5000  -999.2500  -999.2500    89.7935     2.4172     0.1294     8.6963    -0.0038
  601.0000  -999.2500  -999.2500    88.2746     2.4035     0.1357     8.7025    -0.0031
  601.5000  -999.2500  -999.2500    88.3128     2.3896     0.1419     8.6938    -0.0019
  602.0000  -999.2500  -999.2500    90.2361     2.3831     0.1419     8.6704     0.0043
  602.5000  -999.2500  -999.2500    92.2077     2.3900     0.1263     8.6472     0.0107
  603.0000  -999.2500  -999.2500    94.0734     2.4038     0.1152     8.6239     0.0127
  603.5000  -999.2500  -999.2500    92.0049     2.4297     0.1034     8.6007     0.0099
  604.0000  -999.2500  -999.2500    89.4504     2.4451     0.1018     8.5774     0.0071
  604.5000  -999.2500  -999.2500    87.6443     2.4555     0.1048     8.5544     0.0044
  605.0000   431.5295  -999.2500    91.2257     2.4548     0.1062     8.5306     0.0015
  605.5000   422.5840  -999.2500    91.6153     2.4538     0.1076     8.5421    -0.0031
  606.0000   419.1071  -999.2500    89.2341     2.4527     0.1074     8.5214    -0.0104
  606.5000   437.5571  -999.2500    86.8679     2.4515     0.1028     8.5272    -0.0177
  607.0000   450.8811  -999.2500    85.1260     2.4592     0.0982     8.5620    -0.0126
  607.5000   464.2446  -999.2500    84.3774     2.4699     0.0936     8.5965    -0.0022
  608.0000   477.0565  -999.2500    83.6970     2.4804     0.0871     8.6309     0.0082
  608.5000   478.7527  -999.2500    84.2002     2.4864     0.0793     8.6653     0.0133
  609.0000   491.7185  -999.2500    84.4885     2.4958     0.0779     8.6994     0.0154
  609.5000   504.7320  -999.2500    82.8741     2.5070     0.0793     8.7337     0.0175
  610.0000   517.6623  -999.2500    82.3582     2.5070     0.0785     8.7617     0.0196
  610.5000   525.2309  -999.2500    85.2112     2.5063     0.0782     8.7627     0.0204
  611.0000   519.9573  -999.2500    87.1991     2.5057     0.0786     8.7483     0.0210
  611.5000   511.9455  -999.2500    88.0700     2.5050     0.0817     8.7260     0.0215
  612.0000   501.0450  -999.2500    88.3212     2.5026     0.0850     8.7035     0.0222
  612.5000   517.9107  -999.2500    88.3084     2.4938     0.0884     8.6811     0.0163
  613.0000   537.5073  -999.2500    88.3083     2.4863     0.0917     8.6622     0.0097
  613.5000   536.0394  -999.2500    87.6727     2.4837     0.0966     8.6626     0.0030
  614.0000   521.7238  -999.2500    86.5670     2.4766     0.1020     8.6635    -0.0036
  614.5000   505.1280  -999.2500    85.4671     2.4637     0.1075     8.6673    -0.0102
  615.0000   490.4599  -999.2500    84.3500     2.4509     0.1129     8.6709    -0.0206
  615.5000   502.6483  -999.2500    84.2915     2.4383     0.1178     8.6746    -0.0310
  616.0000   517.3517  -999.2500    84.3051     2.4292     0.1190     8.6784    -0.0402
  616.5000   515.9574  -999.2500    84.2689     2.4302     0.1201     8.6824    -0.0388
  617.0000   512.2123  -999.2500    83.4930     2.4310     0.1211     8.6864    -0.0377
  617.5000   515.7107  -999.2500    82.7459     2.4283     0.1222     8.5503    -0.0365
  618.0000   569.2114  -999.2500    82.0716     2.4234     0.1233     8.3946    -0.0353
  618.5000   591.9385  -999.2500    82.5838     2.4184     0.1252     8.3254    -0.0342
  619.0000   601.5649  -999.2500    83.2309     2.4134     0.1301     8.3663    -0.0331
  619.5000   635.5272  -999.2500    82.6998     2.4084     0.1349     8.3792    -0.0319
  620.0000   672.0841  -999.2500    80.7065     2.4032     0.1398     8.2781    -0.0307
  620.5000   655.5954  -999.2500    79.3823     2.3936     0.1447     8.1966    -0.0280
  621.0000   625.4118  -999.2500    81.0307     2.3837     0.1496     8.2171    -0.0230
  621.5000   577.0314  -999.2500    83.0005     2.3738     0.1545     8.2637    -0.0133
  622.0000   517.7347  -999.2500    84.9626     2.3639     0.1593     8.3111    -0.0013
  622.5000   448.0662  -999.2500    86.9051     2.3584     0.1607     8.3584     0.0215
  623.0000   507.1194  -999.2500    89.3264     2.3754     0.1360     8.4056     0.0527
  623.5000   619.9694  -999.2500    87.4934     2.4160     0.1174     8.4533     0.0888
  624.0000   707.4794  -999.2500    86.1621     2.4464     0.1030     8.5012     0.0720
  624.5000   731.7251  -999.2500    86.2468     2.4613     0.1045     8.4926     0.0622
  625.0000   721.3685  -999.2500    81.7448     2.4632     0.1025     8.4189     0.0692
  625.5000   717.3686  -999.2500    77.8795     2.4653     0.0973     8.3467     0.0794
  626.0000   719.5609  -999.2500    78.4700     2.4715     0.0922     8.3434     0.0898
  626.5000   702.0165  -999.2500    81.9600     2.4778     0.0921     8.3609     0.1002
  627.0000   681.6375  -999.2500    84.3342     2.4825     0.0939     8.3765     0.1105
  627.5000   661.0411  -999.2500    84.2411     2.4803     0.0950     8.3694     0.1209
  628.0000   659.2861   382.6711    84.1517     2.4779     0.0978     7.6932     0.1262
  628.5000   654.6071   377.7108    84.1132     2.4699     0.1065     7.3494     0.1287
  629.0000   635.9517   376.1607    84.8769     2.4478     0.1151     7.3666     0.1304
