~VERSION INFORMATION
 VERS.                2.0:   CWLS LOG ASCII STANDARD - VERSION 2.0
 WRAP.                 NO:   ONE LINE PER DEPTH STEP
~WELL INFORMATION
#MNEM.UNIT      DATA TYPE    INFORMATION
#----------   ------------   ------------------------------
 STRT.F           28.0000:   START DEPTH
 STOP.F          659.0000:   STOP DEPTH
 STEP.F            0.5000:   STEP LENGTH
 NULL.          -999.2500:   NO VALUE
 COMP. FENIX & SCISSON INC:   COMPANY
 WELL.    NPR 3 #46-SX-34:   WELL
 FLD .             TEAPOT:   FIELD
 LOC .      S34 T39N R78W:   LOCATION
 CNTY.            NATRONA:   COUNTY
 STAT.            WYOMING:   STATE
 CTRY. UNITED STATES OF AMERICA:   COUNTRY
 SRVC.              Welex:   SERVICE COMPANY
 DATE.        01-MAY-1977:   LOGDATE
 API .       490251035600:   API NUMBER
~CURVE INFORMATION
#MNEM.UNIT       API CODE    CURVE DESCRIPTION
#----------   ------------   ------------------------------
 DEPT.F                  :   
 CALD.IN     45 280 60 00:   CALIPER FROM DENSITY
 GRD .GAPI   45 310 01 00:   GAMMA RAY FROM DENSITY LOG
 CORR.G/C3   45 356 01 00:   DENSITY CORRECTION
 DPHI.DEC    45 890 12 00:   DENSITY POROSITY SANDSTONE
 RHOB.G/C3   45 350 01 00:   BULK DENSITY
 SPR .MV     07 010 01 00:   SPONTANEOUS POTENTIAL
 ILD .OHMM   07 120 46 00:   INDUCTION LOG DEEP
 ILM .OHMM   07 120 44 00:   INDUCTION LOG MEDIUM
 SGRD.OHMM   07 221 05 00:   SHALLOW SHORT GUARD RESISTIVITY
~PARAMETER INFORMATION
#MNEM.UNIT          VALUE    DESCRIPTION
#----------   ------------   ------------------------------
 PD  .                 GL:   PERMANENT DATUM
 EPD .F              5120:   ELEVATION PERMANENT DATUM
 LMF .                 GL:   LOG MEASURED FROM
 DMF .                 GL:   DRILLING MEASURED FROM
 EGL .F              5120:   GROUND LEVEL
 DATE.        01-MAY-1977:   RUN DATE
 RUN .                  1:   RUN NUMBER
 DD  .F               660:   DEPTH DRILLER
 DL  .F               663:   DEPTH LOGGER
 BLI .F               661:   BOTTOM LOG INTERVAL
 TLI .F                28:   TOP LOG INTERVAL
 CS  .IN            8.625:   CASING SIZE
 BS  .IN               12:   BIT SIZE
 BSD .F               660:   BIT SIZE AT DEPTH
 DFT .            KCL MUD:   DRILLING FLUID TYPE
 DFD .                8.7:   DRILLING FLUID DENSITY
 TCS .HRS            0100:   TIME CURCULATED STOPPED
 MRT .F                71:   MAXIMUM RECORDED TEMPERATURE
 ENGI.          T. JOYNER:   RECORDING ENGINEER
 WITN.            R. LYON:   WITNESSED BY
 CLNT.            A2DTECH:   CLIENT CODE
 ORIG.           5" PRINT:   ORIGIN OF DATA
 UWI .       490251035600:   UNIQUE WELL ID
 DICO. A2D Technologies, Inc.:   DIGITIZING COMPANY
~OTHER INFORMATION
~A   DEPT     CALD        GRD        CORR      DPHI       RHOB        SPR        ILD        ILM       SGRD   
# ...
  502.5000     7.7421    93.5611     0.0175     0.1627     2.4026   -25.1488    15.7178    17.5446    19.8626
  503.0000     7.7416    94.3033     0.0160     0.1646     2.4034   -25.2976    15.5034    17.9112    19.8626
  503.5000     7.7261    95.3559     0.0145     0.1651     2.4041   -25.5952    15.6120    17.9112    19.7261
  504.0000     7.7558    95.0571     0.0130     0.1647     2.4026   -25.7440    15.7211    18.0352    19.4560
  504.5000     7.7855    92.9565     0.0130     0.1677     2.3989   -26.0417    15.8309    18.2855    19.1896
  505.0000     7.7849    91.3064     0.0115     0.1689     2.3944   -26.3393    16.0518    18.2855    18.9268
  505.5000     7.7844    91.4581     0.0100     0.1677     2.3868   -26.4881    16.2758    18.4120    18.7968
  506.0000     7.7840    92.6608     0.0115     0.1688     2.3868   -26.6369    16.2769    18.4120    18.6677
  506.5000     7.7835    94.6143     0.0115     0.1740     2.3846   -26.7857    16.2780    18.4120    18.6677
  507.0000     7.7832    95.8170     0.0116     0.1771     2.3823   -26.9345    16.0562    18.4120    18.6677
  507.5000     7.7827    95.0678     0.0116     0.1756     2.3826   -27.0833    15.8371    18.4120    18.6677
  508.0000     7.7823    93.5678     0.0116     0.1722     2.3969   -27.2321    15.6216    18.2855    18.7968
  508.5000     7.7818    91.6174     0.0116     0.1677     2.3997   -27.3810    15.5153    18.2855    18.7968
  509.0000     7.7513    85.7630     0.0086     0.1626     2.4034   -27.5298    15.5164    18.2855    18.7968
  509.5000     7.7207    84.2627     0.0086     0.1605     2.4080   -27.8274    15.5175    18.2855    18.7968
  510.0000     7.7052    87.5375     0.0084     0.1656     2.4012   -28.1250    15.5185    18.2855    18.7968
  510.5000     7.7048    90.5941     0.0070     0.1677     2.4005   -28.2738    15.4130    18.2855    18.7968
  511.0000     7.6893    92.3835     0.0041     0.1677     2.4005   -28.4226    15.4140    18.1599    18.7968
  511.5000     7.7190    94.4790     0.0041     0.1671     2.4012   -28.5714    15.4126    18.1599    18.6677
  512.0000     7.7485    99.4355     0.0041     0.1662     2.4012   -28.7202    15.2050    18.0352    18.6677
  512.5000     7.7632    97.7853     0.0042     0.1656     2.4012   -28.8690    15.1016    18.0352    18.4120
  513.0000     7.7626    94.6337     0.0057     0.1656     2.4012   -29.1667    15.1027    17.9112    18.2855
  513.5000     7.7623    92.6833     0.0057     0.1639     2.4035   -29.3155    14.9852    17.6660    18.1599
  514.0000     7.7769    90.1323     0.0072     0.1549     2.4171   -29.3155    14.6764    17.4241    17.7882
  514.5000     7.7764    88.4821     0.0133     0.1538     2.4231   -29.6131    14.5939    17.3044    17.6660
  515.0000     7.7759    87.8831     0.0073     0.1532     2.4254   -29.7619    14.5952    17.1855    17.5446
  515.5000     7.7755    87.5839     0.0058     0.1505     2.4269   -29.9107    14.3963    16.9502    17.3044
  516.0000     7.7750    87.4353     0.0058     0.1478     2.4234   -29.9107    14.1026    16.8337    17.0674
  516.5000     7.7746    87.4372     0.0073     0.1544     2.4216   -30.0595    13.8146    16.6032    16.8337
  517.0000     7.7591    88.3396     0.0088     0.1505     2.4247   -30.3571    13.5328    16.3758    16.4891
  517.5000     7.7586    89.6925     0.0104     0.1487     2.4284   -30.5060    13.4407    16.2633    16.3758
  518.0000     7.7581    91.9518     0.0119     0.1430     2.4344   -30.5060    13.4419    16.2633    16.2633
  518.5000     7.7577    94.8682     0.0136     0.1406     2.4412   -30.8036    13.3502    16.4891    16.2633
  519.0000     7.7572    98.4213     0.0165     0.1369     2.4502   -30.9524    13.4437    16.4891    16.3758
  519.5000     7.7568    96.6051     0.0165     0.1342     2.4472   -31.1012    13.4446    16.7181    16.3758
  520.0000     7.7564    95.2553     0.0165     0.1433     2.4397   -31.2500    13.4455    16.9502    16.4891
  520.5000     7.7559    96.3079     0.0165     0.1408     2.4435   -31.5476    13.4465    16.7181    16.4891
  521.0000     7.7555    97.6607     0.0165     0.1365     2.4495   -31.6964    13.4474    16.6032    16.6032
  521.5000     7.7566   100.9656     0.0165     0.1314     2.4608   -31.8452    13.4483    16.2633    16.3758
  522.0000     7.7696   104.7208     0.0166     0.1294     2.4623   -31.8452    13.5423    16.0406    16.1516
  522.5000     7.7691   102.0197     0.0151     0.1297     2.4601   -31.6964    13.5432    15.8210    16.0406
  523.0000     7.7687    99.6184     0.0120     0.1372     2.4465   -31.6964    13.6378    15.9304    16.0406
  523.5000     7.7682    98.5693     0.0105     0.1435     2.4375   -31.5476    13.8281    16.1516    16.1516
  524.0000     7.7678    97.2190     0.0151     0.1399     2.4488   -31.3988    13.9247    16.3758    16.2633
  524.5000     7.7673    98.7225     0.0181     0.1375     2.4496   -31.2500    14.1190    16.6032    16.3758
  525.0000     7.7668    99.6249     0.0166     0.1363     2.4487   -31.1012    14.3160    16.8337    16.4891
  525.5000     7.7513   100.2266     0.0151     0.1396     2.4427   -31.1012    14.4160    16.8337    16.6032
  526.0000     7.7510    90.9192     0.0152     0.1423     2.4360   -31.1012    14.5167    16.7181    16.6032
  526.5000     7.7505    91.7171     0.0152     0.1483     2.4308   -30.9524    14.3189    16.6032    16.7181
  527.0000     7.7501    93.3804     0.0167     0.1489     2.4308   -30.9524    14.3199    16.6032    16.7181
  527.5000     7.7496    95.8784     0.0167     0.1432     2.4391   -30.9524    14.2225    16.7181    16.7181
  528.0000     7.7492    92.7267     0.0167     0.1387     2.4395   -31.1012    14.2235    16.7181    16.6032
  528.5000     7.7487    92.5651     0.0167     0.1443     2.4323   -30.9524    14.0255    16.8337    16.4891
  529.0000     7.7482    93.6307     0.0168     0.1484     2.4308   -30.9524    13.7434    16.6032    16.3758
  529.5000     7.7478    96.0346     0.0153     0.1468     2.4301   -30.9524    13.5466    16.3758    16.0406
  530.0000     7.7473    99.3394     0.0138     0.1480     2.4293   -30.9524    13.3592    16.0406    15.9304
  530.5000     7.7318   100.9926     0.0138     0.1501     2.4286   -30.9524    13.0986    15.8210    15.7123
  531.0000     7.7314   102.1953     0.0123     0.1498     2.4279   -31.1012    12.9202    15.6043    15.4971
  531.5000     7.7460   102.4968     0.0093     0.1495     2.4286   -31.1012    12.7441    15.4971    15.4971
  532.0000     7.7456    99.0452     0.0093     0.1489     2.4301   -31.1012    12.5707    15.2849    15.3907
  532.5000     7.7451    95.8932     0.0093     0.1480     2.4309   -31.2500    12.4850    15.1799    15.3907
  533.0000     7.7597    98.1474     0.0093     0.1465     2.4377   -31.2500    12.4000    15.1799    15.3907
  533.5000     7.7592   101.0018     0.0108     0.1466     2.4392   -31.1012    12.3157    15.1799    15.3907
  534.0000     7.7738   105.5078     0.0109     0.1467     2.4392   -30.9524    12.3167    15.1799    15.4971
  534.5000     7.7734   105.8093     0.0124     0.1468     2.4384   -30.5060    12.3176    15.0756    15.4971
  535.0000     7.7729   105.8108     0.0141     0.1444     2.4407   -30.3571    12.4036    15.1799    15.4971
  535.5000     7.7574   105.6401     0.0185     0.1414     2.4437   -29.7569    12.7513    15.2849    15.6043
  536.0000     7.7721   103.2491     0.0215     0.1383     2.4453   -28.9981    13.1087    15.3907    15.8268
  536.5000     7.7566    99.9595     0.0261     0.1392     2.4400   -28.1101    13.5694    15.9304    16.3861
  537.0000     7.7712    98.9100     0.0306     0.1413     2.4370   -27.3214    14.2413    16.8337    17.0328
  537.5000     7.7706    96.8094     0.0321     0.1450     2.4340   -26.1409    15.0498    17.9112    17.6864
  538.0000     7.7701    95.0091     0.0352     0.1501     2.4265   -25.1488    16.3489    18.7968    18.9638
  538.5000     7.7698    94.4100     0.0352     0.1550     2.4122   -24.2560    17.6381    19.7261    20.9201
