~VERSION INFORMATION
 VERS.                2.0:   CWLS LOG ASCII STANDARD - VERSION 2.0
 WRAP.                 NO:   ONE LINE PER DEPTH STEP
~WELL INFORMATION
#MNEM.UNIT      DATA TYPE    INFORMATION
#----------   ------------   ------------------------------
 STRT.F           31.0000:   START DEPTH
 STOP.F         1450.0000:   STOP DEPTH
 STEP.F            0.5000:   STEP LENGTH
 NULL.          -999.2500:   NO VALUE
 COMP. FENIX & SCISSON INC:   COMPANY
 WELL.    NPR-3 SX #86-14:   WELL
 FLD .             TEAPOT:   FIELD
 LOC .      S14 T38N R78W:   LOCATION
 CNTY.            NATRONA:   COUNTY
 STAT.            WYOMING:   STATE
 CTRY. UNITED STATES OF AMERICA:   COUNTRY
 SRVC.            Unknown:   SERVICE COMPANY
 DATE.        05-APR-1978:   LOGDATE
 API .       490251060800:   API NUMBER
~CURVE INFORMATION
#MNEM.UNIT       API CODE    CURVE DESCRIPTION
#----------   ------------   ------------------------------
 DEPT.F                  :   
 CALD.IN     45 280 60 00:   CALIPER
 GRD .GAPI   45 310 01 00:   GAMMA RAY FROM DENSITY LOG
 RHOB.G/C3   45 350 01 00:   BULK DENSITY
 CORR.G/C3   45 356 01 00:   DENSITY CORRECTION
 DPHI.DEC    45 890 12 00:   DENSITY POROSITY SANDSTONE
 SPR .MV     05 010 01 00:   SPONTANEOUS POTENTIAL FROM RES.
 SN  .OHMM   05 040 16 00:   SHORT NORMAL 16"
 ILD .OHMM   05 120 46 00:   INDUCTION LOG DEEP
~PARAMETER INFORMATION
#MNEM.UNIT          VALUE    DESCRIPTION
#----------   ------------   ------------------------------
 PD  .                 GL:   PERMANENT DATUM
 EPD .F              5367:   ELEVATION PERMANENT DATUM
 LMF .                 KB:   LOG MEASURED FROM
 DMF .                 KB:   DRILLING MEASURED FROM
 EKB .F              5371:   KELLING BUSHING
 EGL .F              5369:   GROUND LEVEL
 DATE.           4-5-1978:   RUN DATE
 RUN .                  1:   RUN NUMBER
 DD  .F              1455:   DEPTH DRILLER
 DL  .F              1446:   DEPTH LOGGER
 BLI .F              1440:   BOTTOM LOG INTERVAL
 TLI .F               100:   TOP LOG INTERVAL
 CS  .IN            8.625:   CASING SIZE
 CBD .F                40:   CASING BOTTOM DRILLER
 BS  .IN            7.875:   BIT SIZE
 BSD .F              1455:   BIT SIZE AT DEPTH
 DFT .                KCL:   DRILLING FLUID TYPE
 DFD .                8.6:   DRILLING FLUID DENSITY
 DFV .                 31:   DRILLING FLUID VISCOSITY
 DFPH.                 10:   DRILLING FLUID PH
 DFL .                8.4:   DRILLING FLUID LOSS
 MSS .           FLOWLINE:   MUD SAMPLE SOURCE
 RMS .OHMM            .95:   RESISTIVITY MUD SAMPLE
 MST .F                54:   MUD SAMPLE TEMPERATURE
 RMF .OHMM            .95:   RESISTIVITY MUD FILTRATE SAMPLE
 MFST.F                62:   MUD FILTRATE SAMPLE TEMPERATURE
 RMC .OHMM             .8:   RESISTIVITY MUD CAKE
 MCST.F                62:   MUD CAKE SAMPLE TEMPERATURE
 MFSS.               MEAS:   MUD FILTRATE SAMPLE SOURCE
 RMB .OHMM            .66:   RESISTIVITY MUD AT BHT
 BHT .F                78:   BOTTOM HOLE TEMPERATURE
 TCS .HRS               6:   TIME CURCULATED STOPPED
 MRT .F                78:   MAXIMUM RECORDED TEMPERATURE
 LUN .               2958:   LOGGING UNIT NUMBER
 LUL .               CASP:   LOGGING UNIT LOCATION
 ENGI.             MILLER:   RECORDING ENGINEER
 WITN.           MCGINLEY:   WITNESSED BY
 CLNT.            A2DTECH:   CLIENT CODE
 ORIG.        2" 5" PRINT:   ORIGIN OF DATA
 UWI .       490251060800:   UNIQUE WELL ID
 DICO. A2D Technologies, Inc.:   DIGITIZING COMPANY
~OTHER INFORMATION
~A   DEPT     CALD         GRD      RHOB       CORR       DPHI        SPR         SN        ILD   
# ...
  517.0000     8.0895    78.0574     2.3862     0.0082     0.1498   -97.4738     6.8378     6.5640
  517.5000     8.0948    79.2832     2.3912     0.0142     0.1467   -97.4912     6.8608     6.4638
  518.0000     8.1002    83.2290     2.4004     0.0156     0.1439   -97.5281     6.8746     6.3374
  518.5000     8.1055    87.2513     2.3990     0.0143     0.1467   -97.6567     6.7196     6.2135
  519.0000     8.1094    87.3793     2.3927     0.0147     0.1502   -97.7834     6.6109     6.0959
  519.5000     8.1040    83.5842     2.3862     0.0155     0.1535   -97.9099     6.5040     5.9093
  520.0000     8.0988    77.9992     2.3843     0.0162     0.1511   -98.0365     6.3987     5.7338
  520.5000     8.0936    75.6567     2.3866     0.0200     0.1472   -98.1640     6.3251     5.6046
  521.0000     8.0884    79.6481     2.3898     0.0242     0.1434   -98.2927     6.2570     5.5904
  521.5000     8.0832    81.6915     2.3987     0.0284     0.1367   -98.1918     6.2097     5.5758
  522.0000     8.0780    78.4735     2.4128     0.0326     0.1286   -98.0649     6.2097     5.5613
  522.5000     8.0729    72.9967     2.4270     0.0365     0.1178   -97.9329     6.2086     5.5572
  523.0000     8.0710    71.1503     2.4385     0.0379     0.1220   -97.9189     6.3353     5.6164
  523.5000     8.0760    73.2440     2.4328     0.0415     0.1248   -97.9382     6.5785     5.6694
  524.0000     8.0808    77.5055     2.4365     0.0442     0.1249   -97.9584     6.9375     5.7229
  524.5000     8.0857    79.9165     2.4315     0.0436     0.1254   -97.9783     6.9274     5.7768
  525.0000     8.0900    79.8994     2.4252     0.0430     0.1230   -97.9981     6.9033     5.8312
  525.5000     8.0906    79.9107     2.4334     0.0425     0.1202   -98.0180     6.8809     5.8839
  526.0000     8.0911    80.5896     2.4465     0.0371     0.1220   -98.0378     6.8587     5.9285
  526.5000     8.0917    82.8841     2.4512     0.0318     0.1237   -98.0575     6.8365     5.9735
  527.0000     8.0923    84.1024     2.4389     0.0304     0.1256   -98.0781     6.8114     6.0189
  527.5000     8.0929    83.8582     2.4346     0.0236     0.1278   -98.0960     6.8205     6.0646
  528.0000     8.0935    81.6978     2.4282     0.0135     0.1311   -98.2788     6.8311     6.1106
  528.5000     8.0941    80.5067     2.4137     0.0103     0.1374   -98.2429     6.8418     6.1525
  529.0000     8.0947    80.1397     2.4051     0.0114     0.1376   -98.1738     6.8525     6.1525
  529.5000     8.0953    78.0756     2.4114     0.0122     0.1354   -98.1043     6.8631     6.1525
  530.0000     8.0959    77.0242     2.4127     0.0121     0.1400   -98.0353     6.8746     6.1525
  530.5000     8.0965    80.4503     2.3971     0.0115     0.1431   -97.9663     6.7746     6.1525
  531.0000     8.0971    81.6855     2.3998     0.0110     0.1395   -97.8972     6.6693     6.0811
  531.5000     8.0977    81.7101     2.4084     0.0104     0.1371   -97.8278     6.5658     5.9558
  532.0000     8.0983    81.7092     2.4024     0.0102     0.1403   -97.7592     6.4640     5.8329
  532.5000     8.0989    81.7493     2.3992     0.0102     0.1409   -97.7240     6.3637     5.7125
  533.0000     8.0995    79.8142     2.4025     0.0130     0.1411   -97.8400     6.2892     5.5948
  533.5000     8.1001    77.8391     2.3900     0.0160     0.1447   -97.9527     6.2097     5.5063
  534.0000     8.1007    77.9108     2.3964     0.0190     0.1459   -98.0666     6.2209     5.4949
  534.5000     8.1013    79.4582     2.4075     0.0185     0.1390   -98.0952     6.2396     5.4812
  535.0000     8.1018    82.0676     2.4141     0.0156     0.1343   -98.0838     6.2579     5.4674
  535.5000     8.1024    82.7236     2.4040     0.0127     0.1358   -98.0715     6.3279     5.4560
  536.0000     8.1030    84.2019     2.4145     0.0115     0.1376   -98.0592     6.4541     5.5259
  536.5000     8.1036    85.3033     2.4137     0.0107     0.1395   -98.0470     6.5828     5.6249
  537.0000     8.1042    84.6443     2.4045     0.0098     0.1399   -98.0348     6.7140     5.7583
  537.5000     8.1048    83.5976     2.4056     0.0090     0.1389   -98.0226     6.7877     5.8949
  538.0000     8.1054    80.8262     2.4131     0.0081     0.1380   -98.0104     6.9089     6.0347
  538.5000     8.1060    78.4916     2.3983     0.0103     0.1371   -97.9982     7.0879     6.1163
  539.0000     8.1066    78.4487     2.4038     0.0129     0.1367   -97.9861     7.1999     6.1522
  539.5000     8.1072    80.0270     2.4061     0.0141     0.1370   -97.9739     7.1616     6.1884
  540.0000     8.1078    81.8552     2.4021     0.0133     0.1373   -97.9617     7.1332     6.2097
  540.5000     8.1084    81.9571     2.3992     0.0124     0.1377   -97.9495     7.1052     6.1734
  541.0000     8.1090    81.7407     2.4033     0.0122     0.1379   -97.9373     7.0681     6.1480
  541.5000     8.1096    81.4936     2.4089     0.0136     0.1364   -97.9250     7.0791     6.1226
  542.0000     8.1077    83.1097     2.4145     0.0157     0.1348   -97.9130     7.0969     6.0973
  542.5000     8.0994    85.4105     2.4202     0.0145     0.1338   -97.9096     7.1144     6.0721
  543.0000     8.0913    86.4473     2.4199     0.0115     0.1363   -97.9337     7.1320     6.0399
  543.5000     8.0832    86.2242     2.4158     0.0102     0.1350   -97.9568     7.1496     6.0609
  544.0000     8.0752    84.7483     2.4122     0.0104     0.1322   -97.9798     7.1671     6.0909
  544.5000     8.0706    82.3104     2.4155     0.0179     0.1274   -98.0028     7.1850     6.1210
  545.0000     8.0728    80.1607     2.4281     0.0185     0.1248   -98.0258     7.2277     6.1525
  545.5000     8.0748    79.8572     2.4304     0.0188     0.1222   -98.0488     7.4115     6.2805
  546.0000     8.0768    81.6740     2.4328     0.0191     0.1181   -98.0717     7.5987     6.4166
  546.5000     8.0788    83.9193     2.4442     0.0194     0.1142   -98.0950     7.7629     6.5556
  547.0000     8.0809    83.9375     2.4461     0.0197     0.1124   -98.0948     7.8056     6.6976
  547.5000     8.0829    83.0608     2.4517     0.0201     0.1106   -98.0806     7.9367     6.8427
  548.0000     8.0849    82.1876     2.4492     0.0247     0.1090   -98.0660     8.2019     6.9909
  548.5000     8.0869    81.3319     2.4578     0.0301     0.1134   -98.0515     8.4790     7.1334
  549.0000     8.0889    80.3498     2.4529     0.0330     0.1074   -98.0370     8.7432     7.2682
  549.5000     8.0851    76.9011     2.4535     0.0358     0.0994   -98.0226     8.8636     7.5239
  550.0000     8.0750    73.3755     2.4756     0.0387     0.0932   -98.0081     9.0034     7.7725
  550.5000     8.0649    72.2429     2.4800     0.0415     0.0881   -97.9936     9.1570     7.9075
  551.0000     8.0547    73.2996     2.4986     0.0444     0.0830   -97.9791     9.2566     7.9271
  551.5000     8.0447    74.4037     2.5076     0.0479     0.0779   -97.9646     9.3661     7.9468
  552.0000     8.0344    74.3396     2.5097     0.0518     0.0678   -97.9501     9.5941     7.9659
  552.5000     8.0431    71.9031     2.5182     0.0544     0.0561   -97.9356     9.8601     8.0686
  553.0000     8.0664    65.4212     2.5417     0.0437     0.0537   -97.9213     9.9311     8.1965
  553.5000     8.0892    59.0664     2.5520     0.0252     0.0668   -97.9079    10.0032     8.3270
  554.0000     8.0902    58.3730     2.5203     0.0093     0.0831   -97.8516    10.0919     8.4291
  554.5000     8.0900    60.6588     2.4887     0.0082     0.1162   -97.7882    10.2021     8.1438
  555.0000     8.0900    69.2863     2.4415     0.0048     0.1358   -97.7246    10.3135     7.7206
  555.5000     8.0900    78.0207     2.4129     0.0066     0.1476   -97.6611    10.3267     7.3224
  556.0000     8.0900    84.6630     2.3955     0.0090     0.1484   -97.5976     9.7830     7.0680
  556.5000     8.0899    84.8625     2.3921     0.0114     0.1461   -97.5341     9.0534     7.0496
  557.0000     8.0900    84.4975     2.3979     0.0127     0.1437   -97.4705     8.1891     7.0241
