~VERSION INFORMATION
 VERS.                2.0:   CWLS LOG ASCII STANDARD - VERSION 2.0
 WRAP.                 NO:   ONE LINE PER DEPTH STEP
~WELL INFORMATION
#MNEM.UNIT      DATA TYPE    INFORMATION
#----------   ------------   ------------------------------
 STRT.F           25.0000:   START DEPTH
 STOP.F          528.0000:   STOP DEPTH
 STEP.F            0.5000:   STEP LENGTH
 NULL.          -999.2500:   NO VALUE
 COMP. FENIX & SCISSON INC:   COMPANY
 WELL.       NPR #3 #11-3:   WELL
 FLD .             NPR #3:   FIELD
 LOC .       S3 T38N R78W:   LOCATION
 CNTY.            NATRONA:   COUNTY
 STAT.            WYOMING:   STATE
 CTRY. UNITED STATES OF AMERICA:   COUNTRY
 SRVC.       Schlumberger:   SERVICE COMPANY
 DATE.        01-MAR-1977:   LOGDATE
 API .       490251028300:   API NUMBER
~CURVE INFORMATION
#MNEM.UNIT       API CODE    CURVE DESCRIPTION
#----------   ------------   ------------------------------
 DEPT.F                  :   
 SPR .MV     07 010 01 00:   SPONTANEOUS POTENTIAL
 LL8 .OHMM   07 220 08 00:   LATEROLOG-8 RES.
 ILM .OHMM   07 120 44 00:   INDUCTION LOG MEDIUM
 ILD .OHMM   07 120 46 00:   INDUCTION LOG DEEP
 GRD .GAPI   45 310 01 00:   GAMMA RAY FROM DENSITY LOG
 CALD.IN     45 280 60 00:   CALIPER
 RHOB.G/C3   45 350 01 00:   BULK DENSITY
 CORR.G/C3   45 356 01 00:   DENSITY CORRECTION
 DPHI.DEC    45 890 12 00:   DENSITY POROSITY SANDSTONE
~PARAMETER INFORMATION
#MNEM.UNIT          VALUE    DESCRIPTION
#----------   ------------   ------------------------------
 PD  .                 GL:   PERMANENT DATUM
 EPD .F              5178:   ELEVATION PERMANENT DATUM
 LMF .                 GL:   LOG MEASURED FROM
 DMF .                 GL:   DRILLING MEASURED FROM
 EKB .F              5183:   KELLING BUSHING
 EGL .F              5178:   GROUND LEVEL
 DATE.           3-1-1977:   RUN DATE
 RUN .                  1:   RUN NUMBER
 DD  .F               535:   DEPTH DRILLER
 DL  .F               526:   DEPTH LOGGER
 BLI .F               520:   BOTTOM LOG INTERVAL
 TLI .F                30:   TOP LOG INTERVAL
 CS  .IN            8.625:   CASING SIZE
 CBD .F                40:   CASING BOTTOM DRILLER
 CBL .F                30:   CASING BOTTOM LOGGER
 BS  .IN            7.875:   BIT SIZE
 BSD .F               535:   BIT SIZE AT DEPTH
 DFT .                KCL:   DRILLING FLUID TYPE
 DFD .                8.7:   DRILLING FLUID DENSITY
 DFV .                 37:   DRILLING FLUID VISCOSITY
 DFPH.                  8:   DRILLING FLUID PH
 DFL .                7.2:   DRILLING FLUID LOSS
 MSS .                PIT:   MUD SAMPLE SOURCE
 RMS .OHMM           .495:   RESISTIVITY MUD SAMPLE
 MST .F                62:   MUD SAMPLE TEMPERATURE
 RMF .OHMM           .406:   RESISTIVITY MUD FILTRATE SAMPLE
 MFST.F                65:   MUD FILTRATE SAMPLE TEMPERATURE
 MFSS.                  M:   MUD FILTRATE SAMPLE SOURCE
 RMB .OHMM           .438:   RESISTIVITY MUD AT BHT
 BHT .F                70:   BOTTOM HOLE TEMPERATURE
 TCS .HRS            0800:   TIME CURCULATED STOPPED
 TLAB.HRS            1130:   TIME LOGGER AT BOTTOM
 MRT .F                70:   MAXIMUM RECORDED TEMPERATURE
 LUN .               5642:   LOGGING UNIT NUMBER
 LUL .               CSPR:   LOGGING UNIT LOCATION
 ENGI.             MARTIN:   RECORDING ENGINEER
 CLNT.            A2DTECH:   CLIENT CODE
 ORIG.       2", 5" PRINT:   ORIGIN OF DATA
 UWI .       490251028300:   UNIQUE WELL ID
 DICO. A2D Technologies, Inc.:   DIGITIZING COMPANY
~OTHER INFORMATION
~A   DEPT      SPR        LL8        ILM        ILD         GRD      CALD       RHOB       CORR       DPHI   
# ...
   61.5000   -66.9751     7.5432     7.7361     8.3454   107.6889     8.3857     2.4221     0.0069     0.1363
   62.0000   -65.3014     7.6834     7.8092     8.6705   105.6124     8.4208     2.4436     0.0279     0.1291
   62.5000   -63.7932     7.6796     7.8831     8.9048   105.6036     8.4560     2.4771     0.0476     0.1214
   63.0000   -61.6516     7.6979     7.9576     8.6945   107.2701     8.4894     2.4580     0.0394     0.1150
   63.5000   -62.1083     7.7091     8.0328     8.5024   105.4535     8.4745     2.4669     0.0473     0.1169
   64.0000   -62.5131     7.7198     8.1087     8.6513   103.3956     8.3161     2.4713     0.0356     0.1190
   64.5000   -61.9288     7.7305     8.1937     8.8231   102.8656     8.1581     2.4634     0.0196     0.1206
   65.0000   -61.6018     7.7414     8.2698     8.9875   101.5198     8.1265     2.4587     0.0117     0.1171
   65.5000   -63.1355     7.7513     8.3466     9.0971   100.1197     8.1367     2.4907     0.0199     0.1135
   66.0000   -64.3791     7.7923     8.4242     9.1369   100.0369     8.1487     2.4851     0.0235     0.1098
   66.5000   -62.1312     7.8408     8.4568     9.1769   101.2729     8.1606     2.4741     0.0203     0.1119
   67.0000   -59.9702     7.8896     8.4957     9.2403   102.5059     8.1723     2.4720     0.0274     0.1146
   67.5000   -60.8042     7.9387     8.5347     9.1853   103.5660     8.1840     2.4769     0.0163     0.1190
   68.0000   -61.6817     7.9881     8.5740     9.0566   104.2062     8.1964     2.4512     0.0078     0.1233
   68.5000   -58.9506     8.0386     8.6067     8.9048   104.7452     8.2069     2.4454    -0.0008     0.1275
   69.0000   -56.3964     8.0897     8.6484     9.0319   104.6061     8.2179     2.4281    -0.0095     0.1355
   69.5000   -56.9142     8.2317     8.6902     9.1442   105.3222     8.2287     2.4235    -0.0174     0.1401
   70.0000   -57.8085     8.3444     8.7323     9.2578   104.8583     8.2323     2.4309    -0.0001     0.1339
   70.5000   -56.4552     8.3237     8.7745     9.3728   103.8765     8.2150     2.4511     0.0186     0.1272
   71.0000   -55.0969     8.3071     8.8170     9.4893   102.8735     8.1985     2.4645     0.0385     0.1191
   71.5000   -55.6913     8.2905     8.8595     9.5885   102.0376     8.1815     2.4679     0.0321     0.1151
   72.0000   -57.2832     8.2703     8.9046     9.5125   103.0013     8.1743     2.4655     0.0211     0.1174
   72.5000   -57.1796     8.3876     8.9345     9.4473   103.9502     8.1702     2.4590     0.0148     0.1198
   73.0000   -57.6659     8.5501     8.9662     9.3825   104.9406     8.1663     2.4526     0.0193     0.1221
   73.5000   -58.9503     8.7154     8.9978     9.3262   104.1143     8.1624     2.4621     0.0237     0.1214
   74.0000   -60.2381     8.8836     9.0808     9.4588   102.7743     8.1584     2.4819     0.0282     0.1150
   74.5000   -59.4264     9.0710     9.1644     9.6045   102.1485     8.1545     2.4758     0.0287     0.1088
   75.0000   -57.4161     8.8340     9.2489     9.7525   101.5040     8.1506     2.4684     0.0269     0.1014
   75.5000   -54.7182     8.5024     9.3341     9.9027   103.4453     8.1466     2.4877     0.0269     0.1061
   76.0000   -52.3269     8.6944     9.4202    10.1356   106.2915     8.1427     2.4752     0.0283     0.1140
   76.5000   -51.9506     8.9805     9.5070    10.1153   107.9647     8.1388     2.4588     0.0303     0.1206
   77.0000   -51.1785     9.2760     9.5946    10.0732   106.2854     8.1348     2.4427     0.0301     0.1270
   77.5000   -49.8458     9.4978     9.6830    10.0423   105.0714     8.1309     2.4354     0.0247     0.1334
   78.0000   -49.0168     9.2015     9.7722    10.2332   104.8369     8.1269     2.4157     0.0240     0.1434
   78.5000   -50.3535     9.0698     9.8623    10.4165   104.4776     8.1230     2.3963     0.0290     0.1541
   79.0000   -51.6383     9.4151     9.9532    10.6031   102.2127     8.1191     2.3770     0.0437     0.1648
   79.5000   -52.4126     9.7012    10.0449    10.7930   100.0259     8.1151     2.3657     0.0656     0.1732
   80.0000   -51.7919     9.9965    10.1374    10.9864    97.8573     8.1112     2.3749     0.1457     0.1693
   80.5000   -52.7088    10.4230    10.2298    11.2209    95.6952     8.1072     2.2177     0.1002     0.1637
   81.0000   -54.1227    10.4234    10.2747    11.1102    93.5197     8.1035     2.3161     0.0292     0.1559
   81.5000   -53.8628    10.2836    10.3192    10.9751    92.2892     8.0998     2.4144     0.0520     0.1581
   82.0000   -54.2804     9.6168    10.3640    10.8417    93.6078     8.1403     2.3828     0.0169     0.1631
   82.5000   -58.0793     8.9933    10.4089    10.7139    95.3469     8.2253     2.3976     0.0124     0.1659
   83.0000   -59.9133     8.7416    10.4540    11.0242    97.3839     8.3141     2.4261     0.0469     0.1395
   83.5000   -61.4932     9.1543    10.4994    11.5365    99.7891     8.2828     2.4310     0.0834     0.1354
   84.0000   -58.7497    10.4323    10.5449    11.3338    99.9690     8.2099     2.4654     0.1270     0.1276
   84.5000   -53.0853    12.5331    10.5906    11.0677    98.9824     8.1560     2.5017     0.1797     0.1078
   85.0000   -52.6119    14.1393    10.6366    10.8081    96.6025     8.1571     2.4724     0.2096     0.1090
   85.5000   -56.5432    12.7338    10.6827    10.5551    95.7134     8.1571     2.4438     0.1127     0.1430
   86.0000   -57.6469    11.7786    10.7139    10.3088    96.2365     8.1568     2.4602     0.0563     0.1179
   86.5000   -54.8109    10.8951    10.6570    10.0681    96.2622     8.1564     2.4753     0.0661     0.1026
   87.0000   -51.5569    10.2462    10.6064     9.8583    94.8564     8.1580     2.4652     0.0398     0.1124
   87.5000   -49.0873    10.3984    10.5562     9.8583    93.4990     8.4945     2.4534     0.0221     0.1198
   88.0000   -50.5609    10.5528    10.5062     9.8583    92.1285     8.3440     2.4869     0.0224     0.1206
   88.5000   -51.9572    10.7095    10.4565     9.8583    90.7215     8.1356     2.5246     0.0363     0.0762
   89.0000   -54.2967    10.8686    10.4070     9.8583    91.5211     8.0988     2.5264     0.0442     0.0792
   89.5000   -57.1471    11.1176    10.3577     9.8583    93.7956     8.0978     2.4874     0.0182     0.0946
   90.0000   -60.0246    10.9922    10.3087     9.8582    96.7291     8.0976     2.4539    -0.0031     0.1114
   90.5000   -62.6549    10.7265    10.2599     9.8580   100.8457     8.0979     2.4469     0.0015     0.1235
   91.0000   -60.1249    10.4687    10.2113     9.8605   105.2916     8.0981     2.4578     0.0102     0.1224
   91.5000   -57.4824    10.3228    10.1630     9.7800   107.3022     8.0983     2.4567     0.0124     0.1212
   92.0000   -56.2075    10.3508    10.0423     9.6866   105.1696     8.0984     2.4588     0.0148     0.1247
   92.5000   -55.6318    10.3711     9.8756     9.5941   105.1477     8.0986     2.4753     0.0175     0.1190
   93.0000   -55.9559    10.3917     9.7200     9.5025   105.5161     8.0987     2.4713     0.0131     0.1163
   93.5000   -52.8416    10.4176     9.5658     9.4128   104.4257     8.0989     2.4745     0.0163     0.1155
   94.0000   -49.6567    10.2516     9.4135     9.2050   105.3926     8.0990     2.4846     0.0189     0.1172
   94.5000   -47.8456     9.9762     9.2635     9.0026   107.0936     8.0992     2.4641     0.0134     0.1169
   95.0000   -48.1487     9.7082     9.1160     8.8046   109.1196     8.0993     2.4700     0.0147     0.1157
   95.5000   -49.0579     9.4473     8.9708     8.6109   108.3484     8.0995     2.4757     0.0158     0.1174
   96.0000   -50.4024     9.1935     8.8280     8.4215   107.8068     8.0997     2.4559     0.0061     0.1223
   96.5000   -53.9499     8.9465     8.6874     8.2363   109.6650     8.0998     2.4476    -0.0032     0.1204
   97.0000   -57.5620     8.7118     8.5490     7.8235   110.6373     8.1000     2.4791     0.0023     0.1166
   97.5000   -58.6998     8.5366     8.4129     7.8232   111.3599     8.1001     2.4744     0.0092     0.1155
