~VERSION INFORMATION
 VERS.                2.0:   CWLS LOG ASCII STANDARD - VERSION 2.0
 WRAP.                 NO:   ONE LINE PER DEPTH STEP
~WELL INFORMATION
#MNEM.UNIT      DATA TYPE    INFORMATION
#----------   ------------   ------------------------------
 STRT.F           27.0000:   START DEPTH
 STOP.F          566.0000:   STOP DEPTH
 STEP.F            0.5000:   STEP LENGTH
 NULL.          -999.2500:   NO VALUE
 COMP.    FENIX & SCISSON:   COMPANY
 WELL. S-3 NPR #3 #86-S-3:   WELL
 FLD .             TEAPOT:   FIELD
 LOC .       S3 T38N R78W:   LOCATION
 CNTY.            NATRONA:   COUNTY
 STAT.            WYOMING:   STATE
 CTRY. UNITED STATES OF AMERICA:   COUNTRY
 SRVC.       Schlumberger:   SERVICE COMPANY
 DATE.        08-APR-1977:   LOGDATE
 API .       490251032900:   API NUMBER
~CURVE INFORMATION
#MNEM.UNIT       API CODE    CURVE DESCRIPTION
#----------   ------------   ------------------------------
 DEPT.F                  :   
 CALD.IN     45 280 60 00:   CALIPER FROM DENSITY LOG
 GRD .GAPI   45 310 01 00:   GAMMA RAY FROM DENSITY LOG
 CORR.G/C3   45 356 01 00:   DENSITY CORRECTION
 RHOB.G/C3   45 350 01 00:   BULK DENSITY
 DPHI.DEC    45 890 12 00:   DENSITY POROSITY SANDSTONE
 SPR .MV     07 010 01 00:   SPONTANEOUS POTENTIAL
 ILD .OHMM   07 120 46 00:   INDUCTION LOG DEEP
 ILM .OHMM   07 120 44 00:   INDUCTION LOG MEDIUM
 LL8 .OHMM   07 220 08 00:   LATEROLOG-8 RES.
~PARAMETER INFORMATION
#MNEM.UNIT          VALUE    DESCRIPTION
#----------   ------------   ------------------------------
 PD  .                 GL:   PERMANENT DATUM
 EPD .F              5147:   ELEVATION PERMANENT DATUM
 LMF .                 KB:   LOG MEASURED FROM
 DMF .                 KB:   DRILLING MEASURED FROM
 EGL .F              5147:   GROUND LEVEL
 DATE.        08-APR-1977:   RUN DATE
 RUN .                  1:   RUN NUMBER
 DD  .F               570:   DEPTH DRILLER
 DL  .F               567:   DEPTH LOGGER
 BLI .F               566:   BOTTOM LOG INTERVAL
 TLI .F                27:   TOP LOG INTERVAL
 CS  .IN            8.625:   CASING SIZE
 CBD .F                40:   CASING BOTTOM DRILLER
 CBL .F                33:   CASING BOTTOM LOGGER
 BS  .IN            7.875:   BIT SIZE
 BSD .F               570:   BIT SIZE AT DEPTH
 DFT .                KCL:   DRILLING FLUID TYPE
 DFD .                8.6:   DRILLING FLUID DENSITY
 DFV .                 31:   DRILLING FLUID VISCOSITY
 DFPH.                9.5:   DRILLING FLUID PH
 DFL .                8.6:   DRILLING FLUID LOSS
 MSS .           FLOWLINE:   MUD SAMPLE SOURCE
 RMS .OHMM          0.306:   RESISTIVITY MUD SAMPLE
 MST .F                78:   MUD SAMPLE TEMPERATURE
 RMF .OHMM          0.230:   RESISTIVITY MUD FILTRATE SAMPLE
 MFST.F                78:   MUD FILTRATE SAMPLE TEMPERATURE
 MFSS.               MEAS:   MUD FILTRATE SAMPLE SOURCE
 RMB .OHMM          0.341:   RESISTIVITY MUD AT BHT
 BHT .F                70:   BOTTOM HOLE TEMPERATURE
 TCS .HRS              20:   TIME CURCULATED STOPPED
 MRT .F                70:   MAXIMUM RECORDED TEMPERATURE
 LUN .               5642:   LOGGING UNIT NUMBER
 LUL .               CSPR:   LOGGING UNIT LOCATION
 ENGI.             MARTIN:   RECORDING ENGINEER
 WITN.               LYON:   WITNESSED BY
 CLNT.            A2DTECH:   CLIENT CODE
 ORIG.       2", 5" PRINT:   ORIGIN OF DATA
 UWI .       490251032900:   UNIQUE WELL ID
 DICO. A2D Technologies, Inc.:   DIGITIZING COMPANY
~OTHER INFORMATION
~A   DEPT     CALD         GRD      CORR       RHOB       DPHI        SPR        ILD        ILM        LL8   
# ...
  465.0000     8.0893    86.6937     0.0128     2.3579     0.1787   -61.9247    23.2511    24.0181    23.2135
  465.5000     8.0919    87.9067     0.0182     2.3609     0.1764   -62.3698    22.4286    22.5616    22.2680
  466.0000     8.0641    86.2881     0.0266     2.3678     0.1726   -62.8150    21.5332    21.1935    21.6592
  466.5000     8.0662    81.8378     0.0214     2.3566     0.1807   -63.1098    20.8242    20.1863    21.0670
  467.0000     8.0683    79.9160     0.0185     2.3477     0.1855   -63.2572    20.2529    19.7680    20.9215
  467.5000     8.0550    82.7734     0.0103     2.3432     0.1875   -63.3986    19.6973    19.7652    21.0670
  468.0000     8.0575    87.7122     0.0104     2.3372     0.1899   -63.2421    19.5588    19.7625    21.6592
  468.5000     8.0596    89.6703     0.0105     2.3359     0.1908   -63.2361    19.2873    19.7598    21.6592
  469.0000     8.0617    90.5852     0.0098     2.3361     0.1937   -63.2301    19.1517    19.7571    21.6592
  469.5000     8.0638    88.8175     0.0077     2.3413     0.1892   -63.1985    19.2827    19.7544    21.0670
  470.0000     8.0659    82.2809     0.0115     2.3662     0.1706   -63.0665    19.2794    19.7516    20.4911
  470.5000     8.0679    81.3915     0.0161     2.3768     0.1675   -63.0605    19.1438    19.2086    19.9308
  471.0000     8.0700    81.8752     0.0115     2.3724     0.1693   -63.2064    18.7479    18.9414    19.2520
  471.5000     8.0567    82.4920     0.0005     2.3537     0.1747   -63.1989    18.4877    18.5488    18.3404
  472.0000     8.0593    85.0463     0.0022     2.3515     0.1807   -63.3448    17.9805    18.0388    17.8389
  472.5000     8.0459    85.0670     0.0052     2.3546     0.1803   -63.3374    17.4872    17.6649    17.3512
  473.0000     8.0485    83.5767     0.0083     2.3659     0.1740   -63.4833    16.8902    17.1792    17.2314
  473.5000     8.0506    81.0393     0.0137     2.3871     0.1565   -63.4758    16.3136    16.7069    16.6445
  474.0000     8.0527    79.9130     0.0243     2.3961     0.1540   -63.6217    16.0871    16.3606    16.1894
  474.5000     8.0547    80.5509     0.0198     2.3872     0.1574   -63.6142    15.7545    16.2453    15.8563
  475.0000     8.0568    81.4704     0.0124     2.3798     0.1658   -63.6083    15.6437    16.1308    15.5301
  475.5000     8.0589    81.6145    -0.0010     2.3626     0.1717   -63.6023    15.4265    15.9064    15.5301
  476.0000     8.0610    81.3371     0.0118     2.3792     0.1657   -63.5963    15.3180    15.7943    15.4228
  476.5000     8.0630    82.7043     0.0142     2.3823     0.1630   -63.5904    15.2103    15.7921    15.2105
  477.0000     8.0651    85.2585     0.0135     2.3929     0.1620   -63.5844    15.2082    15.5581    15.1055
  477.5000     8.0672    86.0244     0.0121     2.3967     0.1590   -63.5784    14.9971    15.3557    15.2105
  478.0000     8.0538    84.5548     0.0130     2.4028     0.1536   -63.4221    14.8917    15.3532    15.5301
  478.5000     8.0414    83.6813     0.0153     2.4179     0.1454   -63.4161    15.2021    15.5655    15.6381
  479.0000     8.0436    83.1059     0.0206     2.4255     0.1382   -63.4101    15.3055    15.4558    15.3163
  479.5000     8.0457    81.4873     0.0237     2.4264     0.1346   -63.4042    14.8855    15.2408    15.0011
  480.0000     8.0478    78.6764     0.0262     2.4194     0.1396   -63.5486    14.5777    14.9249    14.6925
  480.5000     8.0348    77.6487     0.0230     2.3995     0.1465   -63.5426    14.4752    14.5146    14.5910
  481.0000     8.0519    78.5688     0.0183     2.4089     0.1507   -63.6872    14.3734    14.5126    14.2908
  481.5000     8.0540    79.6327     0.0106     2.4177     0.1453   -63.9818    14.0761    14.4103    14.1921
  482.0000     8.0561    81.5908     0.0099     2.3990     0.1446   -64.1263    14.0742    14.4083    14.1921
  482.5000     8.0581    84.4431     0.0092     2.4036     0.1488   -64.4211    13.9752    14.4063    14.1921
  483.0000     8.0602    85.0600     0.0094     2.4052     0.1503   -64.8661    13.9733    14.4043    14.1921
  483.5000     8.0623    84.4794     0.0109     2.4060     0.1495   -65.3113    13.9713    14.4023    14.1921
  484.0000     8.0644    86.4426     0.0148     2.4226     0.1425   -65.6061    13.9694    14.4004    14.1921
  484.5000     8.0664    90.1891     0.0292     2.4400     0.1307   -65.9009    13.9674    14.3984    14.1921
  485.0000     8.0536    92.2963     0.0315     2.4461     0.1249   -66.0453    13.8688    14.2969    14.2908
  485.5000     8.0557    90.9757     0.0256     2.4409     0.1306   -66.1897    13.7713    14.2949    14.2908
  486.0000     8.0579    87.1507     0.0091     2.4274     0.1405   -66.3341    13.6745    14.1942    14.2975
  486.5000     8.0599    84.9702     0.0069     2.4245     0.1374   -66.3278    13.6726    14.0941    14.5910
  487.0000     8.0620    86.1233     0.0138     2.4246     0.1377   -66.1703    13.6707    14.0922    14.6045
  487.5000     8.0641    87.1872     0.0199     2.4254     0.1392   -66.0139    13.7642    14.0903    14.6925
  488.0000     8.0512    87.2079     0.0170     2.4278     0.1340   -66.0079    13.8579    13.9910    14.5910
  488.5000     8.0538    87.8247     0.0081     2.4399     0.1265   -66.0030    13.9522    13.7010    14.2908
  489.0000     8.0558    87.3983     0.0036     2.4460     0.1247   -66.1479    14.0466    13.4170    13.9001
  489.5000     8.0579    88.0152     0.0062     2.4400     0.1244   -66.1404    14.0447    13.2304    13.6140
  490.0000     8.0600    90.7185     0.0129     2.4198     0.1249   -66.2863    14.0428    12.9561    13.5200
  490.5000     8.0621    93.2727     0.0137     2.4229     0.1240   -66.4307    14.0409    12.9514    13.2418
  491.0000     8.0641    95.0818     0.0063     2.4448     0.1213   -66.5736    14.0389    12.7683    13.1504
  491.5000     8.0662    93.4631     0.0109     2.4494     0.1203   -66.5677    13.8441    12.5965    12.8798
  492.0000     8.0683    94.5271     0.0162     2.4449     0.1209   -66.7136    13.5578    12.5946    12.7908
  492.5000     8.0704    96.3362     0.0096     2.4353     0.1221   -66.8580    13.1858    12.5059    12.7025
  493.0000     8.0570    97.9962     0.0134     2.4448     0.1250   -67.0024    12.7357    12.4174    12.4411
  493.5000     8.0442    98.3098     0.0180     2.4618     0.1244   -66.9949    12.3009    12.4157    12.4411
  494.0000     8.0468    96.2493     0.0226     2.5061     0.1190   -67.1408    12.1301    12.3282    12.4411
  494.5000     8.0334    94.4816     0.0212     2.4972     0.0976   -67.1333    12.0448    12.3265    12.4411
  495.0000     8.0211    94.1991     0.0190     2.4575     0.1144   -67.1274    12.1272    12.3248    12.7025
  495.5000     8.0232    96.4604     0.0116     2.4365     0.1198   -67.1214    12.2097    12.4952    12.7908
  496.0000     8.0104    97.3701     0.0124     2.4246     0.1273   -66.9651    12.2924    12.5809    13.1504
  496.5000     8.0125    95.6076     0.0118     2.4487     0.1269   -66.9591    12.5485    12.5787    13.4266
  497.0000     8.0145    94.8832     0.0081     2.4533     0.1218   -66.8027    12.5468    12.8418    13.5200
  497.5000     8.0166    93.7117     0.0044     2.4526     0.1191   -66.7968    12.8083    12.9294    13.7087
  498.0000     8.0187    92.9866     0.0045     2.4482     0.1196   -66.7908    12.8954    12.9272    13.8041
  498.5000     8.0208    94.6473     0.0046     2.4333     0.1223   -66.9353    12.9832    13.0158    13.6140
  499.0000     8.0228    96.6054     0.0062     2.4273     0.1289   -66.9292    13.1623    13.1046    13.6140
  499.5000     8.0249    96.6348     0.0086     2.4274     0.1307   -67.0736    13.1605    13.1940    13.5200
  500.0000     8.0268    95.4546     0.0154     2.4332     0.1300   -67.0677    13.1587    13.1010    13.4266
  500.5000     8.0289    96.4940     0.0246     2.4411     0.1245   -66.9583    12.8013    13.1007    12.9486
  501.0000     8.0311    98.4781     0.0382     2.4487     0.1198   -66.9108    12.6270    13.1919    12.7908
