~VERSION INFORMATION
 VERS.                2.0:   CWLS LOG ASCII STANDARD - VERSION 2.0
 WRAP.                 NO:   ONE LINE PER DEPTH STEP
~WELL INFORMATION
#MNEM.UNIT      DATA TYPE    INFORMATION
#----------   ------------   ------------------------------
 STRT.F            2.0000:   START DEPTH
 STOP.F          518.0000:   STOP DEPTH
 STEP.F            0.5000:   STEP LENGTH
 NULL.          -999.2500:   NO VALUE
 COMP. LAWRENCE/ALLISON INC:   COMPANY
 WELL.    54-51 SX #10-10:   WELL
 FLD .             TEAPOT:   FIELD
 LOC .      S10 T38N R78W:   LOCATION
 CNTY.            NATRONA:   COUNTY
 STAT.            WYOMING:   STATE
 CTRY. UNITED STATES OF AMERICA:   COUNTRY
 SRVC.            Unknown:   SERVICE COMPANY
 DATE.        14-AUG-1984:   LOGDATE
 API .       490251098800:   API NUMBER
~CURVE INFORMATION
#MNEM.UNIT       API CODE    CURVE DESCRIPTION
#----------   ------------   ------------------------------
 DEPT.F                  :   
 CALD.IN     45 280 60 00:   CALIPER
 DEN .G/C3   45 350 01 00:   COMPENSATED BULK DENSTIY
 CORR.G/C3   45 356 01 00:   DENSITY CORRECTION
 CNC .DEC    42 890 03 00:   NEUTRON POROSITY SANDSTONE
 PORD.DEC    45 890 12 00:   POROSITY DENSITY SANDSTONE
 GRR .GAPI   07 310 01 00:   GAMMA RAY FROM RES. LOG.
 RFOC.OHMM   07 220 04 00:   RESISTIVITY FOCUSED LOG
 RILD.OHMM   07 120 46 00:   INDUCTION LOG DEEP RESISTIVITY
 RILM.OHMM   07 120 44 00:   INDUCTION LOG MEDIUM RESISTIVITY
 AC  .US/F   60 520 00 00:   ACOUSTIC SONIC
 SPR .MV     07 010 01 00:   SPONTANEOUS POTENTIAL
~PARAMETER INFORMATION
#MNEM.UNIT          VALUE    DESCRIPTION
#----------   ------------   ------------------------------
 PD  .                 GL:   PERMANENT DATUM
 EPD .F              5197:   ELEVATION PERMANENT DATUM
 LMF .                 GL:   LOG MEASURED FROM
 DMF .                 GL:   DRILLING MEASURED FROM
 EGL .F              5197:   GROUND LEVEL
 DATE.        14-AUG-1984:   RUN DATE
 RUN .                  1:   RUN NUMBER
 DD  .F               530:   DEPTH DRILLER
 DL  .F               520:   DEPTH LOGGER
 BLI .F               518:   BOTTOM LOG INTERVAL
 CS  .IN            9.625:   CASING SIZE
 CBD .F                40:   CASING BOTTOM DRILLER
 CBL .F                42:   CASING BOTTOM LOGGER
 BS  .IN            7.875:   BIT SIZE
 BSD .F               530:   BIT SIZE AT DEPTH
 DFT .          KCL WATER:   DRILLING FLUID TYPE
 MSS .           FLOWLINE:   MUD SAMPLE SOURCE
 RMS .OHMM            .19:   RESISTIVITY MUD SAMPLE
 MST .F                80:   MUD SAMPLE TEMPERATURE
 RMB .OHMM            .17:   RESISTIVITY MUD AT BHT
 BHT .F                90:   BOTTOM HOLE TEMPERATURE
 TCS .HRS               4:   TIME CURCULATED STOPPED
 MRT .F                90:   MAXIMUM RECORDED TEMPERATURE
 LUN .               6274:   LOGGING UNIT NUMBER
 LUL .               GLTE:   LOGGING UNIT LOCATION
 ENGI.             RAUTIO:   RECORDING ENGINEER
 WITN.              FIVAS:   WITNESSED BY
 CLNT.            A2DTECH:   CLIENT CODE
 ORIG.       2", 5" PRINT:   ORIGIN OF DATA
 UWI .       490251098800:   UNIQUE WELL ID
 DICO. A2D Technologies, Inc.:   DIGITIZING COMPANY
~OTHER INFORMATION
~A    DEPT    CALD        DEN       CORR        CNC       PORD         GRR      RFOC       RILD       RILM         AC        SPR   
# ...
  124.0000     8.4306     2.3938    -0.0260     0.0774     0.1689   108.9743  -999.2500     8.3300     8.6807  -999.2500   -38.4157
  124.5000     8.4306     2.3951    -0.0325     0.0781     0.1663   109.6467  -999.2500     8.1213     8.4473  -999.2500   -40.0079
  125.0000     8.4306     2.4011    -0.0366     0.0766     0.1638   108.4689  -999.2500     7.9178     8.2201  -999.2500   -41.6009
  125.5000     8.4306     2.4069    -0.0260     0.0742     0.1613   107.1059  -999.2500     7.7194     7.9990  -999.2500   -43.3436
  126.0000     8.4306     2.4087    -0.0154     0.0712     0.1602   105.7207  -999.2500     7.5260     7.7839  -999.2500   -45.2092
  126.5000     8.4306     2.4070    -0.0158     0.0680     0.1618   105.0481  -999.2500     7.3375     7.5746  -999.2500   -46.2710
  127.0000     8.4306     2.4053    -0.0174     0.0670     0.1638   107.3893  -999.2500     7.1536     7.3508  -999.2500   -45.0808
  127.5000     8.4306     2.4037    -0.0187     0.0666     0.1645   109.6637  -999.2500     6.9551     7.0845  -999.2500   -43.9592
  128.0000     8.4306     2.4048    -0.0030     0.0643     0.1634   111.5783  -999.2500     6.9558     7.1364  -999.2500   -43.2074
  128.5000     8.4305     2.4080     0.0113     0.0613     0.1613   109.7910  -999.2500     6.9941     7.2405  -999.2500   -44.2640
  129.0000     8.4301     2.4116     0.0076     0.0650     0.1592   108.6083  -999.2500     7.0479     7.3455  -999.2500   -45.1266
  129.5000     8.4298     2.4161     0.0037     0.0688     0.1563   107.3343  -999.2500     7.1020     7.4521  -999.2500   -45.0741
  130.0000     8.4294     2.4260     0.0095     0.0710     0.1493   103.1611  -999.2500     7.1511     7.5602  -999.2500   -44.9678
  130.5000     8.4290     2.4364     0.0171     0.0701     0.1439    98.3557  -999.2500     7.3604     7.6699  -999.2500   -44.9171
  131.0000     8.4286     2.4346     0.0139     0.0691     0.1459    99.5836  -999.2500     7.5074     7.7812  -999.2500   -44.8582
  131.5000     8.4283     2.4285     0.0110     0.0686     0.1480   102.4563  -999.2500     7.6362     7.8941  -999.2500   -44.7895
  132.0000     8.4279     2.4302     0.0151     0.0693     0.1487   107.0077  -999.2500     7.7672     8.0086  -999.2500   -44.5444
  132.5000     8.4275     2.4406     0.0271     0.0688     0.1391   109.2495  -999.2500     7.9004     8.1248  -999.2500   -43.7110
  133.0000     8.4271     2.4511     0.0349     0.0682     0.1334   107.5203  -999.2500     8.0359     8.2449  -999.2500   -42.9900
  133.5000     8.4268     2.4552     0.0191     0.0677     0.1344   106.2767  -999.2500     8.1321     8.2828  -999.2500   -42.7537
  134.0000     8.4264     2.4466     0.0036     0.0678     0.1397   106.9763  -999.2500     8.0881     8.2393  -999.2500   -42.2997
  134.5000     8.4260     2.4381     0.0009     0.0697     0.1449   106.6724  -999.2500     8.0544     8.2060  -999.2500   -41.2046
  135.0000     8.4256     2.4320     0.0109     0.0715     0.1481   105.4279  -999.2500     8.0209     8.1729  -999.2500   -40.0902
  135.5000     8.4253     2.4286     0.0022     0.0715     0.1502   104.6049  -999.2500     7.9841     8.1398  -999.2500   -40.5270
  136.0000     8.4249     2.4251    -0.0085     0.0679     0.1524   104.9173  -999.2500     7.9021     8.1066  -999.2500   -41.5616
  136.5000     8.4245     2.4217    -0.0131     0.0645     0.1529   105.4085  -999.2500     7.8119     8.0735  -999.2500   -43.0341
  137.0000     8.4241     2.4252    -0.0111     0.0659     0.1509   106.1118  -999.2500     7.7230     7.9475  -999.2500   -44.6213
  137.5000     8.4238     2.4299     0.0004     0.0664     0.1489   107.5717  -999.2500     7.5524     7.7316  -999.2500   -46.2129
  138.0000     8.4234     2.4317     0.0116     0.0684     0.1475   109.1548  -999.2500     7.3503     7.6040  -999.2500   -47.7957
  138.5000     8.4230     2.4258     0.0227     0.0712     0.1528   109.6023  -999.2500     7.2125     7.5561  -999.2500   -48.9772
  139.0000     8.4226     2.4157     0.0166     0.0707     0.1578   108.1014  -999.2500     6.6392     7.1153  -999.2500   -49.0891
  139.5000     8.4223     2.4059    -0.0094     0.0695     0.1629   108.3659  -999.2500     6.1542     6.7016  -999.2500   -49.2072
  140.0000     8.4219     2.4029    -0.0160     0.0674     0.1652   108.6870  -999.2500     5.7047     6.0593  -999.2500   -48.9723
  140.5000     8.4215     2.3999    -0.0011     0.0645     0.1673   109.4818  -999.2500     5.0911     5.5300  -999.2500   -47.0342
  141.0000     8.4211     2.3944     0.0135     0.0618     0.1727   111.8654  -999.2500     5.1115     5.2816  -999.2500   -45.1510
  141.5000     8.4208     2.3750     0.0235     0.0601     0.1805   117.0456  -999.2500     5.1525     5.3344  -999.2500   -45.3086
  142.0000     8.4204     2.3488     0.0103     0.0586     0.1953   119.9607  -999.2500     5.1938     5.3795  -999.2500   -46.3777
  142.5000     8.4200     2.3236    -0.0050     0.0647     0.2113   117.4203  -999.2500     5.2354     5.6507  -999.2500   -47.2835
  143.0000     8.4196     2.3390    -0.0203     0.0680     0.2053   114.6017  -999.2500     5.2811     5.9682  -999.2500   -46.8654
  143.5000     8.4193     2.3639    -0.0357     0.0697     0.1863   112.0696  -999.2500     5.6006     6.3035  -999.2500   -46.2982
  144.0000     8.4189     2.3832    -0.0351     0.0703     0.1739   110.5374  -999.2500     5.9789     6.6576  -999.2500   -45.7458
  144.5000     8.4185     2.3950    -0.0218     0.0700     0.1683   110.1322  -999.2500     6.3835     7.0169  -999.2500   -45.3173
  145.0000     8.4181     2.3985    -0.0084     0.0697     0.1674   110.8126  -999.2500     6.7677     7.3508  -999.2500   -46.5335
  145.5000     8.4178     2.4005    -0.0206     0.0697     0.1670   109.6045  -999.2500     7.1698     7.6926  -999.2500   -48.1982
  146.0000     8.4174     2.3979    -0.0365     0.0708     0.1684   108.4701  -999.2500     7.5561     7.9841  -999.2500   -51.3561
  146.5000     8.4170     2.3952    -0.0431     0.0705     0.1702   109.4104  -999.2500     7.8388     8.0749  -999.2500   -55.2913
  147.0000     8.4166     2.3928    -0.0346     0.0705     0.1689   111.7159  -999.2500     7.8368     8.1583  -999.2500   -58.6723
  147.5000     8.4163     2.3996    -0.0263     0.0705     0.1661   113.3978  -999.2500     7.9358     8.2426  -999.2500   -62.2209
  148.0000     8.4159     2.4095    -0.0201     0.0720     0.1609   113.5203  -999.2500     8.0365     8.3278  -999.2500   -65.7864
  148.5000     8.4155     2.4190    -0.0305     0.0753     0.1547   110.9074  -999.2500     8.1386     8.4138  -999.2500   -68.6601
  149.0000     8.4151     2.4193    -0.0247     0.0771     0.1541   108.3755  -999.2500     8.2420     8.5008  -999.2500   -68.9135
  149.5000     8.4148     2.4147    -0.0192     0.0752     0.1569   106.0796  -999.2500     8.3468     8.5886  -999.2500   -68.2053
  150.0000     8.4144     2.4100    -0.0297     0.0725     0.1601   109.0414  -999.2500     8.4528     8.6773  -999.2500   -67.5232
  150.5000     8.4140     2.4103    -0.0205     0.0697     0.1601   113.1660  -999.2500     8.5602     8.7670  -999.2500   -68.0958
  151.0000     8.4136     2.4193    -0.0083     0.0689     0.1560   112.4663  -999.2500     8.6273     8.8576  -999.2500   -68.7859
  151.5000     8.4133     2.4284     0.0042     0.0711     0.1491   111.1479  -999.2500     8.6770     8.9493  -999.2500   -69.4554
  152.0000     8.4129     2.4289     0.0056     0.0736     0.1479   109.8399  -999.2500     8.7269     9.0421  -999.2500   -70.1301
  152.5000     8.4125     2.4205     0.0031     0.0752     0.1552   109.6728  -999.2500     8.7688     9.1350  -999.2500   -70.7674
  153.0000     8.4121     2.4166     0.0051     0.0749     0.1556   109.3208  -999.2500     8.8024     9.1843  -999.2500   -69.4308
  153.5000     8.4118     2.4213     0.0089     0.0745     0.1536   107.9622  -999.2500     8.8361     9.2265  -999.2500   -67.8283
  154.0000     8.4114     2.4273     0.0065     0.0724     0.1501   106.5711  -999.2500     8.8700     9.2690  -999.2500   -66.1659
