~VERSION INFORMATION
 VERS.                2.0:   CWLS LOG ASCII STANDARD - VERSION 2.0
 WRAP.                 NO:   ONE LINE PER DEPTH STEP
~WELL INFORMATION
#MNEM.UNIT      DATA TYPE    INFORMATION
#----------   ------------   ------------------------------
 STRT.F           30.0000:   START DEPTH
 STOP.F          744.0000:   STOP DEPTH
 STEP.F            0.5000:   STEP LENGTH
 NULL.          -999.2500:   NO VALUE
 COMP. FENIX & SCISSON INC:   COMPANY
 WELL.   NPR 3 #53 S - 34:   WELL
 FLD .             TEAPOT:   FIELD
 LOC .      S34 T39N R78W:   LOCATION
 CNTY.            NATRONA:   COUNTY
 STAT.            WYOMING:   STATE
 CTRY. UNITED STATES OF AMERICA:   COUNTRY
 SRVC.       Schlumberger:   SERVICE COMPANY
 DATE.        28-MAR-1977:   LOGDATE
 API .       490251031700:   API NUMBER
~CURVE INFORMATION
#MNEM.UNIT       API CODE    CURVE DESCRIPTION
#----------   ------------   ------------------------------
 DEPT.F                  :   
 CALD.IN     45 280 60 00:   CALIPER FROM DENSITY LOG
 GRD .GAPI   45 310 01 00:   GAMMA RAY FROM DENSITY LOG
 CORR.G/C3   45 356 01 00:   DENSITY CORRECTION
 DPHI.DEC    45 890 12 00:   DENSITY POROSITY SANDSTONE
 RHOB.G/C3   45 350 01 00:   BULK DENSITY
~PARAMETER INFORMATION
#MNEM.UNIT          VALUE    DESCRIPTION
#----------   ------------   ------------------------------
 PD  .                 GL:   PERMANENT DATUM
 EPD .F              5081:   ELEVATION PERMANENT DATUM
 LMF .                 GL:   LOG MEASURED FROM
 DAPD.F                 5:   FEET ABOVE PERMANENT DATUM
 DMF .                 KB:   DRILLING MEASURED FROM
 EKB .F              5086:   KELLING BUSHING
 EGL .F              5081:   GROUND LEVEL
 DATE.        20-MAR-1977:   RUN DATE
 RUN .                  1:   RUN NUMBER
 DD  .F               751:   DEPTH DRILLER
 DL  .F               745:   DEPTH LOGGER
 BLI .F               744:   BOTTOM LOG INTERVAL
 TLI .F                30:   TOP LOG INTERVAL
 CBL .F                38:   CASING BOTTOM LOGGER
 BS  .IN            7.875:   BIT SIZE
 BSD .F               751:   BIT SIZE AT DEPTH
 DFT .             5% KCL:   DRILLING FLUID TYPE
 MSS .           MUD TANK:   MUD SAMPLE SOURCE
 RMS .OHMM            .23:   RESISTIVITY MUD SAMPLE
 MST .F                68:   MUD SAMPLE TEMPERATURE
 RMF .OHMM            .18:   RESISTIVITY MUD FILTRATE SAMPLE
 MFST.F                68:   MUD FILTRATE SAMPLE TEMPERATURE
 RMC .OHMM            .35:   RESISTIVITY MUD CAKE
 MCST.F                68:   MUD CAKE SAMPLE TEMPERATURE
 MFSS.               MEAS:   MUD FILTRATE SAMPLE SOURCE
 MCSS.               CALC:   MUD CAKE SAMPLE SOURCE
 RMB .OHMM            .24:   RESISTIVITY MUD AT BHT
 BHT .F                60:   BOTTOM HOLE TEMPERATURE
 TCS .HRS            0300:   TIME CURCULATED STOPPED
 MRT .F                60:   MAXIMUM RECORDED TEMPERATURE
 LUN .               7680:   LOGGING UNIT NUMBER
 LUL .               CSPR:   LOGGING UNIT LOCATION
 ENGI.                FIX:   RECORDING ENGINEER
 WITN.              BURKE:   WITNESSED BY
 CLNT.            A2DTECH:   CLIENT CODE
 ORIG.           5" PRINT:   ORIGIN OF DATA
 UWI .       490251031700:   UNIQUE WELL ID
 DICO. A2D Technologies, Inc.:   DIGITIZING COMPANY
~OTHER INFORMATION
~A   DEPT     CALD        GRD       CORR       DPHI       RHOB   
# ...
  579.0000     8.1904    61.0108     0.0684     0.1805     2.3564
  579.5000     8.1745    58.2006     0.0592     0.1745     2.3510
  580.0000     8.2254    47.6422     0.0686     0.1670     2.3736
  580.5000     8.2735    51.9526     0.0602     0.1493     2.4001
  581.0000     8.3216    59.7696     0.0463     0.1471     2.4064
  581.5000     8.3543    65.9374     0.0371     0.1554     2.3954
  582.0000     8.3562    66.5136     0.0302     0.1675     2.3799
  582.5000     8.3580    63.4548     0.0094     0.1743     2.3705
  583.0000     8.3753    61.7782     0.0119     0.1699     2.3648
  583.5000     8.3617    60.2557     0.0270     0.1633     2.3874
  584.0000     8.3636    58.7332     0.0259     0.1537     2.3945
  584.5000     8.3658    61.2168     0.0213     0.1583     2.3883
  585.0000     8.3517    62.6219     0.0300     0.1517     2.4024
  585.5000     8.3540    62.7897     0.0254     0.1536     2.3963
  586.0000     8.3400    61.2717     0.0193     0.1604     2.3855
  586.5000     8.3423    62.0604     0.0147     0.1672     2.3778
  587.0000     8.3441    64.5441     0.0071     0.1758     2.3585
  587.5000     8.3459    62.5593     0.0010     0.1873     2.3439
  588.0000     8.3319    60.2664     0.0165     0.1866     2.3339
  588.5000     8.3342    60.7469     0.0290     0.1782     2.3572
  589.0000     8.3360    62.9224     0.0415     0.1660     2.3782
  589.5000     8.3224    64.4815     0.0267     0.1710     2.3729
  590.0000     8.3243    64.5813     0.0231     0.1693     2.3769
  590.5000     8.3261    60.0497     0.0170     0.1687     2.3715
  591.0000     8.3279    58.3731     0.0147     0.1727     2.3693
  591.5000     8.3298    59.9323     0.0125     0.1736     2.3709
  592.0000     8.3316    65.5100     0.0141     0.1745     2.3679
  592.5000     8.3334    67.2108     0.0189     0.1655     2.3797
  593.0000     8.3353    65.9475     0.0275     0.1586     2.3953
  593.5000     8.3371    64.9362     0.0314     0.1508     2.4042
  594.0000     8.3235    65.6474     0.0369     0.1442     2.4135
  594.5000     8.3408    66.2054     0.0285     0.1504     2.4055
  595.0000     8.3426    63.1467     0.0185     0.1547     2.3987
  595.5000     8.3444    60.8537     0.0279     0.1519     2.4027
  596.0000     8.3463    59.9429     0.0458     0.1475     2.4167
  596.5000     8.3481    62.4312     0.0377     0.1596     2.4075
  597.0000     8.3500    63.0658     0.0243     0.1661     2.3781
  597.5000     8.3519    65.0872     0.0267     0.1601     2.3844
  598.0000     8.3537    67.4167     0.0159     0.1557     2.3860
  598.5000     8.3405    68.0468     0.0191     0.1504     2.3962
  599.0000     8.3423    66.3748     0.0176     0.1426     2.4087
  599.5000     8.3441    64.3900     0.0200     0.1438     2.4181
  600.0000     8.3460    62.2511     0.0258     0.1407     2.4259
  600.5000     8.3478    63.1926     0.0310     0.1335     2.4299
  601.0000     8.3497    62.7467     0.0311     0.1354     2.4284
  601.5000     8.3470    60.6101     0.0242     0.1397     2.4238
  602.0000     8.3419    65.5675     0.0165     0.1372     2.4231
  602.5000     8.3368    68.9753     0.0313     0.1257     2.4255
  603.0000     8.3318    70.6872     0.0383     0.1315     2.4186
  603.5000     8.3267    71.6276     0.0275     0.1477     2.4125
  604.0000     8.3216    71.1681     0.0206     0.1386     2.4118
  604.5000     8.3165    69.1817     0.0292     0.1323     2.4251
  605.0000     8.3302    66.8821     0.0331     0.1314     2.4298
  605.5000     8.3318    64.1197     0.0162     0.1227     2.4384
  606.0000     8.3333    61.7009     0.0356     0.1131     2.4540
  606.5000     8.3349    63.2738     0.0449     0.1043     2.4673
  607.0000     8.3364    64.2178     0.0527     0.0882     2.5054
  607.5000     8.3380    65.1464     0.0566     0.1077     2.4783
  608.0000     8.3549    65.4812     0.0351     0.1148     2.4582
  608.5000     8.3565    66.1253     0.0282     0.1210     2.4451
  609.0000     8.3580    65.8179     0.0174     0.1284     2.4312
  609.5000     8.3596    66.1643     0.0074     0.1321     2.4274
  610.0000     8.3765    67.0981     0.0198     0.1355     2.4275
  610.5000     8.3781    68.6579     0.0191     0.1339     2.4283
  611.0000     8.3951    68.6653     0.0223     0.1336     2.4307
  611.5000     8.3966    66.1124     0.0239     0.1271     2.4339
  612.0000     8.3981    62.5024     0.0270     0.1193     2.4456
  612.5000     8.3200    60.5163     0.0186     0.1214     2.4550
  613.0000     8.2107    59.3401     0.0148     0.1245     2.4473
  613.5000     8.0577    62.9577     0.0148     0.1295     2.4396
  614.0000     8.0339    68.6221     0.0072     0.1335     2.4374
  614.5000     8.1958    67.8701     0.0106     0.1365     2.4336
  615.0000     8.3460    67.8886     0.0181     0.1390     2.4275
  615.5000     8.3938    66.8130     0.0174     0.1424     2.4190
  616.0000     8.3954    66.0765     0.0206     0.1386     2.4222
  616.5000     8.3811    67.3621     0.0265     0.1377     2.4246
  617.0000     8.3521    68.4602     0.0259     0.1411     2.4254
  617.5000     8.3379    69.8665     0.0263     0.1339     2.4271
  618.0000     8.3240    70.0025     0.0363     0.1230     2.4419
  618.5000     8.3259    67.9805     0.0324     0.1298     2.4342
  619.0000     8.3429    66.9194     0.0256     0.1373     2.4358
  619.5000     8.3444    65.3760     0.0265     0.1267     2.4305
  620.0000     8.3460    63.4310     0.0319     0.1468     2.4104
  620.5000     8.3475    66.4816     0.0087     0.1487     2.4081
  621.0000     8.3490    68.1758     0.0142     0.1455     2.4129
  621.5000     8.3506    70.0006     0.0112     0.1430     2.4153
  622.0000     8.3521    68.0075     0.0081     0.1486     2.4107
  622.5000     8.3537    63.2974     0.0020     0.1405     2.4162
  623.0000     8.3552    61.4884     0.0098     0.1246     2.4388
  623.5000     8.3567    62.4932     0.0176     0.1162     2.4583
  624.0000     8.3583    70.0837     0.0301     0.1392     2.4351
  624.5000     8.3598    73.1962     0.0170     0.1301     2.4274
  625.0000     8.3614    73.9856     0.0116     0.1242     2.4445
  625.5000     8.3629    74.4669     0.0210     0.1139     2.4586
  626.0000     8.3644    74.2516     0.0365     0.1018     2.4718
  626.5000     8.3660    73.2178     0.0497     0.1055     2.4789
  627.0000     8.3675    72.2836     0.0320     0.1148     2.4728
  627.5000     8.3691    70.7037     0.0189     0.1210     2.4589
  628.0000     8.3706    68.5341     0.0158     0.1262     2.4466
  628.5000     8.3722    66.2975     0.0221     0.1299     2.4334
  629.0000     8.3737    64.0084     0.0229     0.1374     2.4211
  629.5000     8.3752    60.1072     0.0215     0.1439     2.4064
  630.0000     8.3768    56.5830     0.0200     0.1538     2.3848
  630.5000     8.2857    53.9821     0.0394     0.1867     2.3399
  631.0000     8.1947    50.9189     0.0603     0.2165     2.3027
  631.5000     8.0728    51.7078     0.0619     0.2258     2.2764
  632.0000     7.9508    54.9620     0.0667     0.2180     2.2920
  632.5000     7.9987    55.5922     0.0783     0.2130     2.2936
  633.0000     8.0928    52.8418     0.0528     0.2002     2.3054
  633.5000     8.1869    50.0868     0.0614     0.2049     2.3209
  634.0000     8.2502    47.7894     0.0414     0.2166     2.3016
  634.5000     8.2980    51.3564     0.0174     0.2079     2.2939
  635.0000     8.3150    51.9912     0.0423     0.1945     2.3297
  635.5000     8.3316    50.7770     0.0648     0.1964     2.3329
  636.0000     8.3027    52.6445     0.0532     0.2007     2.3221
  636.5000     8.2579    54.3579     0.0409     0.1907     2.3346
  637.0000     8.1977    54.5304     0.0402     0.1901     2.3378
  637.5000     8.1067    54.8571     0.0434     0.1984     2.3270
  638.0000     8.0461    55.8001     0.0504     0.1900     2.3240
  638.5000     8.1561    57.0512     0.0566     0.1801     2.3473
  639.0000     8.2656    59.0728     0.0474     0.1869     2.3536
  639.5000     8.3289    57.7045     0.0181     0.1878     2.3451
