~VERSION INFORMATION
 VERS.                2.0:   CWLS LOG ASCII STANDARD - VERSION 2.0
 WRAP.                 NO:   ONE LINE PER DEPTH STEP
~WELL INFORMATION
#MNEM.UNIT      DATA TYPE    INFORMATION
#----------   ------------   ------------------------------
 STRT.F           80.0000:   START DEPTH
 STOP.F          739.0000:   STOP DEPTH
 STEP.F            0.5000:   STEP LENGTH
 NULL.          -999.2500:   NO VALUE
 COMP. U S NAVY-INTEX OIL:   COMPANY
 WELL.        NPR #36-S-2:   WELL
 FLD .             TEAPOT:   FIELD
 LOC .       S2 T38N R78W:   LOCATION
 CNTY.            NATRONA:   COUNTY
 STAT.            WYOMING:   STATE
 CTRY. UNITED STATES OF AMERICA:   COUNTRY
 SRVC.       Schlumberger:   SERVICE COMPANY
 DATE.        23-JUN-1962:   LOGDATE
 API .       490250641800:   API NUMBER
~CURVE INFORMATION
#MNEM.UNIT       API CODE    CURVE DESCRIPTION
#----------   ------------   ------------------------------
 DEPT.F                  :   
 ASN .OHMM   05 041 16 00:   AMPLIFIED SHORT NORMAL 16"
 ILD .OHMM   05 120 46 00:   INDUCTION LOG DEEP
 CILD.MMHO   05 110 46 00:   CONDUCTIVITY INDUCTION LOG DEEP
 SPR .MV     05 010 01 00:   SPONTANEOUS POTENTIAL FROM RES.
 GR  .GAPI   30 310 01 00:   GAMMA RAY
~PARAMETER INFORMATION
#MNEM.UNIT          VALUE    DESCRIPTION
#----------   ------------   ------------------------------
 PD  .                 KB:   PERMANENT DATUM
 EPD .F              5143:   ELEVATION PERMANENT DATUM
 EKB .F              5143:   KELLING BUSHING
 EGL .F              5138:   GROUND LEVEL
 DATE.        23-JUN-1962:   RUN DATE
 RUN .                  1:   RUN NUMBER
 DD  .F               738:   DEPTH DRILLER
 DL  .F               740:   DEPTH LOGGER
 BLI .F               739:   BOTTOM LOG INTERVAL
 TLI .F                80:   TOP LOG INTERVAL
 BS  .IN             6.75:   BIT SIZE
 BSD .F               738:   BIT SIZE AT DEPTH
 DFT .       OIL EMULSION:   DRILLING FLUID TYPE
 DFD .               10.0:   DRILLING FLUID DENSITY
 DFV .                 53:   DRILLING FLUID VISCOSITY
 DFL .                3.8:   DRILLING FLUID LOSS
 RMS .OHMM            3.9:   RESISTIVITY MUD SAMPLE
 MST .F                66:   MUD SAMPLE TEMPERATURE
 RMF .OHMM            2.9:   RESISTIVITY MUD FILTRATE SAMPLE
 MFST.F                66:   MUD FILTRATE SAMPLE TEMPERATURE
 RMC .OHMM            4.4:   RESISTIVITY MUD CAKE
 MCST.F                66:   MUD CAKE SAMPLE TEMPERATURE
 TCS .HRS               1:   TIME CURCULATED STOPPED
 LUN .               2503:   LOGGING UNIT NUMBER
 LUL .               CSPR:   LOGGING UNIT LOCATION
 ENGI.             DANNER:   RECORDING ENGINEER
 WITN.          JORGENSON:   WITNESSED BY
 CLNT.            A2DTECH:   CLIENT CODE
 ORIG.           5" PRINT:   ORIGIN OF DATA
 UWI .       490250641800:   UNIQUE WELL ID
 DICO. A2D Technologies, Inc.:   DIGITIZING COMPANY
~OTHER INFORMATION
~A   DEPT        ASN        ILD      CILD       SPR         GR   
# ...
  141.0000     2.6945     2.7158   430.8032   -56.4721  -999.2500
  141.5000     2.9203     3.0912   387.9348   -56.4684  -999.2500
  142.0000     3.4163     3.3915   346.9319   -55.8684  -999.2500
  142.5000     3.5518     3.6917   304.5163   -55.8654  -999.2500
  143.0000     3.5973     3.9098   283.7695   -55.7132  -999.2500
  143.5000     3.5978     3.9098   277.8653   -55.7103  -999.2500
  144.0000     3.5682     3.9038   277.8578   -55.7073  -999.2500
  144.5000     3.5086     3.7594   292.8753   -55.8543  -999.2500
  145.0000     3.4640     3.7594   310.8857   -56.5969  -999.2500
  145.5000     3.4193     3.6842   325.8932   -56.1461  -999.2500
  146.0000     3.3597     3.6802   346.9067   -55.5462  -999.2500
  146.5000     3.3001     3.3835   368.6709   -55.0954  -999.2500
  147.0000     3.1805     3.0015   388.1829   -54.6447  -999.2500
  147.5000     3.0759     2.5539   421.9591   -54.1940  -999.2500
  148.0000     3.0011     2.3288   455.7353   -54.0417  -999.2500
  148.5000     2.9266     2.1805   474.4965   -53.8895  -999.2500
  149.0000     2.8819     2.1815   484.2487   -53.8865  -999.2500
  149.5000     2.8523     2.2561   473.7307   -53.8836  -999.2500
  150.0000     3.0218     2.4883   450.9889   -54.0299  -999.2500
  150.5000     3.1839     2.7061   427.3437   -54.4229  -999.2500
  151.0000     3.2138     2.5548   403.6985   -54.8159  -999.2500
  151.5000     3.0039     2.8548   385.1581   -55.2376  -999.2500
  152.0000     3.3742     3.3803   364.8953   -55.6899  -999.2500
  152.5000     3.9414     3.9811   298.0859   -55.0973  -999.2500
  153.0000     4.2558     4.5067   262.0573   -54.8033  -999.2500
  153.5000     4.4357     4.8819   235.0377   -54.5092  -999.2500
  154.0000     4.5718     5.1067   223.0332   -54.0659  -999.2500
  154.5000     4.7210     5.2565   215.5331   -54.0704  -999.2500
  155.0000     4.9039     5.4811   211.7868   -54.0748  -999.2500
  155.5000     5.0505     5.4804   207.9908   -53.9299  -999.2500
  156.0000     5.1657     5.4796   202.6421   -53.9345  -999.2500
  156.5000     5.4171     5.5543   193.4909   -54.0882  -999.2500
  157.0000     5.6611     6.0044   183.7392   -54.0927  -999.2500
  157.5000     5.9055     6.4548   176.2883   -53.9479  -999.2500
  158.0000     6.1610     6.6798   169.7913   -53.0388  -999.2500
  158.5000     6.3115     6.8293   165.2942   -53.9568  -999.2500
  159.0000     6.4769     6.9791   160.0464   -53.8119  -999.2500
  159.5000     6.6124     7.0535   157.8016   -53.6673  -999.2500
  160.0000     6.7028     7.0526   157.8091   -52.9254  -999.2500
  160.5000     6.7331     7.0518   157.8165   -53.3777  -999.2500
  161.0000     6.7034     7.0511   160.0762   -53.8299  -999.2500
  161.5000     6.6586     6.9752   163.0866   -54.1329  -999.2500
  162.0000     6.6138     6.9744   165.3463   -54.1393  -999.2500
  162.5000     6.5841     6.9737   166.1045   -53.8433  -999.2500
  163.0000     6.5543     6.8977   167.6135   -53.0995  -999.2500
  163.5000     6.5247     6.7466   168.3717   -52.6582  -999.2500
  164.0000     6.4949     6.6707   169.1299   -52.3641  -999.2500
  164.5000     6.4952     6.6699   169.8881   -52.3767  -999.2500
  165.0000     6.4955     6.6692   170.6463   -52.6717  -999.2500
  165.5000     6.4958     6.6684   171.4045   -52.8374  -999.2500
  166.0000     6.4811     6.7429   171.4119   -52.9790  -999.2500
  166.5000     6.4663     6.7421   172.1701   -52.5199  -999.2500
  167.0000     6.4366     6.7414   172.1776   -52.3909  -999.2500
  167.5000     6.3919     6.7406   172.1850   -52.3955  -999.2500
  168.0000     6.3472     6.7399   172.1924   -52.4000  -999.2500
  168.5000     6.4676     6.7389   172.1999   -52.4045  -999.2500
  169.0000     6.6781     6.8134   169.2043   -52.4090  -999.2500
  169.5000     6.8736     6.9630   167.7103   -52.4134  -999.2500
  170.0000     6.9490     7.0375   163.2132   -52.4188  -999.2500
  170.5000     6.9493     7.1871   158.6664   -52.4233  -999.2500
  171.0000     6.9646     7.2617   151.1660   -52.4277  -999.2500
  171.5000     7.0850     7.4863   144.2417   -52.4322  -999.2500
  172.0000     7.2805     7.6360   137.5179   -52.4367  -999.2500
  172.5000     7.2808     7.8608   133.8462   -52.2919  -999.2500
  173.0000     7.2811     7.9354   132.4771   -51.1023  -999.2500
  173.5000     7.2814     8.0850   131.7338   -50.6579  -999.2500
  174.0000     7.1916     8.1595   131.7431   -50.9620  -999.2500
  174.5000     7.0418     8.1585   133.2521   -51.2649  -999.2500
  175.0000     6.9219     8.1578   134.7610   -51.4187  -999.2500
  175.5000     6.8472     8.0819   138.5222   -51.4231  -999.2500
  176.0000     6.6823     7.5548   145.2864   -51.2772  -999.2500
  176.5000     6.4273     6.9526   163.3119   -51.2828  -999.2500
  177.0000     6.0222     6.4255   193.3493   -51.1369  -999.2500
  177.5000     5.5421     5.5225   241.4048   -50.6947  -999.2500
  178.0000     4.9117     4.4691   299.9709   -50.5488  -999.2500
  178.5000     4.1012     3.4157   370.5489   -50.1066  -999.2500
  179.0000     3.7111     2.4375   454.6404   -50.1111  -999.2500
  179.5000     3.3811     2.0608   498.1914   -49.6678  -999.2500
  180.0000     3.1712     1.9849   558.2595   -49.0752  -999.2500
  180.5000     2.9913     2.0595   585.2939   -48.9293  -999.2500
  181.0000     2.9466     2.1340   591.3055   -49.5319  -999.2500
  181.5000     2.9769     2.2082   540.2638   -49.9841  -999.2500
  182.0000     3.3976     2.2827   495.9028   -48.9438  -999.2500
  182.5000     3.5030     2.5075   423.8388   -49.0975  -999.2500
  183.0000     3.9988     3.2586   351.7748   -49.8483  -999.2500
  183.5000     4.7649     4.2353   261.0143   -50.5990  -999.2500
  184.0000     6.0414     5.8887   188.1989   -51.0512  -999.2500
  184.5000     7.0327     7.5421   158.9271   -50.9053  -999.2500
  185.0000     7.8288     9.3459   112.3880   -50.9109  -999.2500
  185.5000     8.5649    10.5481    95.1282   -50.7650  -999.2500
  186.0000     9.0306    11.7514    87.6281   -50.4721  -999.2500
  186.5000     9.3012    11.9752    85.3815   -50.3262  -999.2500
  187.0000     9.3315    11.3593    91.3968   -50.1814  -999.2500
  187.5000     9.0916    10.2192   106.4192   -50.0366  -999.2500
  188.0000     8.7307     8.6407   125.1954   -49.8918  -999.2500
  188.5000     8.4299     7.6571   148.4762   -49.7470  -999.2500
  189.0000     7.5213     6.6736   172.5076   -49.6022  -999.2500
  189.5000     6.6807     6.0309   184.5271   -49.1600  -999.2500
  190.0000     6.0100     6.0299   194.2943   -48.5675  -999.2500
  190.5000     5.8802     5.8788   197.3048   -48.1242  -999.2500
  191.0000     5.8969     5.6525   198.8641   -48.1286  -999.2500
  191.5000     5.9741     5.5016   199.5721   -48.4316  -999.2500
  192.0000     6.3040     5.8014   199.4796   -49.3316  -999.2500
  192.5000     7.4449     6.4021   169.3036   -50.2316  -999.2500
  193.0000     8.3150     7.8300   133.5300   -50.3853  -999.2500
  193.5000     8.9468     9.3330   120.0239   -50.5390  -999.2500
  194.0000     9.2586     9.9337   110.2716   -49.7972  -999.2500
  194.5000     9.5631    10.2339   102.0208   -50.2494  -999.2500
  195.0000     9.9220    10.5337    97.5238   -50.2539  -999.2500
  195.5000    10.2596    10.6084    95.2771   -50.2583  -999.2500
  196.0000    10.8385    10.9082    94.5338   -50.2628  -999.2500
  196.5000    11.2141    11.2082    92.2908   -50.8643  -999.2500
  197.0000    11.4397    11.5082    88.5445   -51.4658  -999.2500
  197.5000    11.7403    11.9586    84.0475   -51.9180  -999.2500
  198.0000    11.9658    12.0332    81.0501   -52.2210  -999.2500
  198.5000    12.1913    12.1076    81.0594   -52.3747  -999.2500
  199.0000    12.3418    12.2571    81.0668   -52.6776  -999.2500
  199.5000    12.4171    12.3317    81.8250   -52.6821  -999.2500
  200.0000    12.4969    12.4061    81.8915   -52.2388  -999.2500
  200.5000    12.5243    12.6310    82.2602   -51.8518  -999.2500
  201.0000    12.5378    12.7054    82.6290   -51.4648  -999.2500
  201.5000    12.6131    12.8548    82.9977   -51.6418  -999.2500
