~VERSION INFORMATION
 VERS.                2.0:   CWLS LOG ASCII STANDARD - VERSION 2.0
 WRAP.                 NO:   ONE LINE PER DEPTH STEP
~WELL INFORMATION
#MNEM.UNIT      DATA TYPE    INFORMATION
#----------   ------------   ------------------------------
 STRT.F            0.0000:   START DEPTH
 STOP.F         4112.0000:   STOP DEPTH
 STEP.F            0.5000:   STEP LENGTH
 NULL.          -999.2500:   NO VALUE
 COMP. LAWRENCE-ALLISON &AS:   COMPANY
 WELL. N P R 3-76-1-SX #3-3:   WELL
 FLD .          N.P.R. #3:   FIELD
 LOC .       S3 T38N R78W:   LOCATION
 CNTY.            NATRONA:   COUNTY
 STAT.            WYOMING:   STATE
 CTRY. UNITED STATES OF AMERICA:   COUNTRY
 SRVC.      Dresser Atlas:   SERVICE COMPANY
 DATE.        04-SEP-1983:   LOGDATE
 API .       490251093100:   API NUMBER
~CURVE INFORMATION
#MNEM.UNIT       API CODE    CURVE DESCRIPTION
#----------   ------------   ------------------------------
 DEPT.F                  :   
 DEN .G/C3   45 350 01 00:   COMPENSATED BULK DENSTIY
 CORR.G/C3   45 356 01 00:   DENSITY CORRECTION
 PORD.DEC    45 890 12 00:   POROSITY DENSITY SANDSTONE
 CNC .DEC    42 890 03 00:   NEUTRON POROSITY SANDSTONE
 SPR .MV     07 010 01 00:   SPONTANEOUS POTENTIAL
 GRR .GAPI   07 310 01 00:   GAMMA RAY FROM RES. LOG.
 RFOC.OHMM   07 220 04 00:   RESISTIVITY FOCUSED LOG
 CALD.IN     45 280 60 00:   CALIPER
 AC  .US/F   60 520 00 00:   ACOUSTIC SONIC
 RILD.OHMM   07 120 46 00:   INDUCTION LOG DEEP RESISTIVITY
 RILM.OHMM   07 120 44 00:   INDUCTION LOG MEDIUM RESISTIVITY
~PARAMETER INFORMATION
#MNEM.UNIT          VALUE    DESCRIPTION
#----------   ------------   ------------------------------
 PD  .                 GL:   PERMANENT DATUM
 EPD .F              5147:   ELEVATION PERMANENT DATUM
 LMF .                 KB:   LOG MEASURED FROM
 DAPD.F                10:   FEET ABOVE PERMANENT DATUM
 DMF .                 KB:   DRILLING MEASURED FROM
 EKB .F              5157:   KELLING BUSHING
 EGL .F              5147:   GROUND LEVEL
 DATE.             9-4-83:   RUN DATE
 RUN .                  1:   RUN NUMBER
 DD  .F              4119:   DEPTH DRILLER
 DL  .F              4115:   DEPTH LOGGER
 BLI .F              4112:   BOTTOM LOG INTERVAL
 CS  .IN            9.625:   CASING SIZE
 CBD .F               491:   CASING BOTTOM DRILLER
 CBL .F               494:   CASING BOTTOM LOGGER
 BS  .IN             8.75:   BIT SIZE
 BSD .F              4119:   BIT SIZE AT DEPTH
 DFT .            KCL GEL:   DRILLING FLUID TYPE
 DFD .                8.9:   DRILLING FLUID DENSITY
 DFV .                 46:   DRILLING FLUID VISCOSITY
 DFPH.                  9:   DRILLING FLUID PH
 DFL .               13.6:   DRILLING FLUID LOSS
 MSS .            MUDTANK:   MUD SAMPLE SOURCE
 RMS .OHMM           .315:   RESISTIVITY MUD SAMPLE
 MST .F                92:   MUD SAMPLE TEMPERATURE
 RMF .OHMM            .25:   RESISTIVITY MUD FILTRATE SAMPLE
 MFST.F                84:   MUD FILTRATE SAMPLE TEMPERATURE
 RMC .OHMM             .4:   RESISTIVITY MUD CAKE
 MCST.F                92:   MUD CAKE SAMPLE TEMPERATURE
 MFSS.                  M:   MUD FILTRATE SAMPLE SOURCE
 MCSS.                  C:   MUD CAKE SAMPLE SOURCE
 RMB .OHMM            .22:   RESISTIVITY MUD AT BHT
 BHT .F               132:   BOTTOM HOLE TEMPERATURE
 TCS .HRS               4:   TIME CURCULATED STOPPED
 MRT .F               132:   MAXIMUM RECORDED TEMPERATURE
 LUN .               6274:   LOGGING UNIT NUMBER
 LUL .               GLTE:   LOGGING UNIT LOCATION
 ENGI.             RAUTIO:   RECORDING ENGINEER
 WITN.             STRONG:   WITNESSED BY
 CLNT.            A2DTECH:   CLIENT CODE
 ORIG. 1", 2", 2.5", 5" PRINT:   ORIGIN OF DATA
 UWI .       490251093100:   UNIQUE WELL ID
 DICO. A2D Technologies, Inc.:   DIGITIZING COMPANY
~OTHER INFORMATION
~A    DEPT     DEN       CORR       PORD        CNC        SPR          GRR     RFOC       CALD         AC       RILD       RILM   
# ...
 3599.0000     2.4605     0.0165     0.1133     0.2332   -37.8119   142.3263     6.8860     9.9558    87.8064     5.3463     5.8679
 3599.5000     2.4656     0.0166     0.1093     0.2394   -38.6372   139.5705     6.9151     9.9558    87.6547     5.2420     5.8372
 3600.0000     2.4714     0.0288     0.1076     0.2410   -39.4530   136.5267     6.9377     9.9558    88.1347     5.2463     5.8080
 3600.5000     2.4735     0.0411     0.1072     0.2437   -40.2748   133.6271     6.9618     9.9558    88.6663     5.2339     5.7790
 3601.0000     2.4723     0.0461     0.1068     0.2506   -41.1233   130.5858     6.9859     9.9558    89.1965     5.2135     5.7502
 3601.5000     2.4643     0.0351     0.1121     0.2487   -41.4976   127.8054     7.0098     9.9558    89.6591     5.2025     5.7218
 3602.0000     2.4537     0.0196     0.1179     0.2490   -41.3813   128.2133     7.0444     9.9558    90.0519     5.1915     5.6938
 3602.5000     2.4444    -0.0097     0.1245     0.2538   -41.2653   133.0681     7.0167     9.9558    90.3728     5.1806     5.6661
 3603.0000     2.4462    -0.0101     0.1245     0.2524   -41.1586   137.5927     6.9313     9.9558    90.6698     5.1697     5.6531
 3603.5000     2.4536    -0.0101     0.1194     0.2514   -41.0425   142.1278     6.8123     9.9558    90.9669     5.1589     5.6307
 3604.0000     2.4607     0.0196     0.1148     0.2540   -40.9292   146.6952     6.9151     9.9558    91.2465     5.1525     5.6114
 3604.5000     2.4677     0.0511     0.1102     0.2506   -40.8170   151.2055     7.0486     9.9558    91.2363     5.1425     5.5921
 3605.0000     2.4747     0.0617     0.1056     0.2398   -40.7037   155.9654     7.2023     9.9558    90.9608     5.1324     5.5729
 3605.5000     2.4814     0.0610     0.1010     0.2289   -40.5902   157.0908     7.3593     9.9558    90.6854     5.1226     5.5524
 3606.0000     2.4875     0.0639     0.0964     0.2229   -40.4792   158.0218     7.4406     9.9558    90.4099     5.1123     5.5523
 3606.5000     2.4918     0.0711     0.0951     0.2323   -40.3677   159.0100     7.2390     9.9558    90.1497     5.1022     5.5532
 3607.0000     2.4845     0.0765     0.0979     0.2464   -40.2028   163.8477     6.9738     9.9558    90.2163     5.0925     5.5506
 3607.5000     2.4760     0.0674     0.1026     0.2554   -39.8769   170.8819     6.7183     9.9558    90.4890     5.0812     5.5542
 3608.0000     2.4701     0.0593     0.1061     0.2519   -39.5462   178.3941     6.4721     9.9558    90.9940     5.0700     5.5476
 3608.5000     2.4737     0.0501     0.1045     0.2442   -39.2176   176.5889     6.1956     9.9558    91.5469     5.0658     5.5380
 3609.0000     2.4742     0.0411     0.1044     0.2472   -38.9072   169.7061     6.0832     9.9558    91.0646     5.0146     5.5782
 3609.5000     2.4674     0.0299     0.1097     0.2567   -38.5402   163.2412     6.8411     9.9558    90.3828     4.7808     4.5176
 3610.0000     2.4606     0.0165     0.1148     0.2594   -38.2153   158.5324     7.1730     9.9558    89.7011     4.2267     3.7963
 3610.5000     2.4566     0.0029     0.1137     0.2466   -37.0132   171.0794     6.6420     9.9558    89.0092     3.7369     3.3626
 3611.0000     2.4597     0.0238     0.1127     0.2482   -36.0071   181.0217     6.1956     9.9558    88.7435     3.3038     2.9785
 3611.5000     2.4548     0.0552     0.1191     0.2614   -34.9238   192.9586     4.9730     9.9558    89.4412     2.7179     2.8006
 3612.0000     2.4400     0.0775     0.1278     0.2739   -33.9066   203.2952     3.9206     9.9558    91.0555     2.7681     2.7681
 3612.5000     2.4260     0.0949     0.1382     0.2685   -32.8051   213.0047     3.0910     9.9558    92.6048     2.6686     2.9325
 3613.0000     2.4223     0.1061     0.1364     0.2655   -32.7553   203.8087     2.5259     9.9558    93.6427     2.6653     3.2001
 3613.5000     2.4389     0.1050     0.1294     0.2699   -33.0026   184.9039     3.8133     9.9558    93.6427     2.8610     3.5389
 3614.0000     2.4555     0.0906     0.1197     0.2644   -33.3939   164.4396     5.4540     9.9558    91.1933     3.1347     3.9288
 3614.5000     2.4648     0.0728     0.1092     0.2517   -33.7714   154.7321     7.5781     9.9558    89.2696     3.4340     4.3616
 3615.0000     2.4734     0.0551     0.1058     0.2390   -34.1309   161.4315     7.4633     9.9558    87.6544     3.7615     4.8421
 3615.5000     2.4820     0.0373     0.1020     0.2361   -34.5098   166.9402     7.1676     9.9558    88.0160     4.1201     5.4503
 3616.0000     2.4882     0.0374     0.0966     0.2443   -34.9065   169.6438     6.9151     9.9558    88.6527     4.6217     5.4503
 3616.5000     2.5120     0.0428     0.0844     0.2514   -35.1127   171.0230     7.1686     9.9558    89.2515     4.5383     4.9125
 3617.0000     2.5388     0.0674     0.0706     0.2490   -35.0154   172.5381     7.4406     9.9558    88.5710     4.0531     4.4748
 3617.5000     2.5611     0.0760     0.0543     0.2514   -34.9404   176.0164     7.3056     9.9558    87.9495     3.6119     4.0762
 3618.0000     2.5693     0.0803     0.0506     0.2654   -34.8627   179.8283     5.8415     9.9558    88.1158     3.2048     3.7130
 3618.5000     2.5572     0.1396     0.0457     0.2822   -34.7984   184.2257     4.2761     9.9558    91.6675     3.1676     3.4368
 3619.0000     2.5187     0.2254     0.0538     0.2963   -34.7481   184.3028     3.2048     9.9558    95.2058     3.1467     3.3858
 3619.5000     2.4783     0.2662     0.0904     0.2887   -35.1849   181.0496     3.8303     9.9558    98.6106     3.2937     3.4554
 3620.0000     2.4300     0.0834     0.1365     0.2791   -35.5912   175.4537     4.5210     9.9558    98.7325     3.4365     3.6818
 3620.5000     2.4442     0.0046     0.1335     0.2695   -36.0125   169.7229     5.3363     9.9558    95.6735     3.5856     3.9230
 3621.0000     2.4459     0.0166     0.1275     0.2626   -36.4379   163.9655     6.2986     9.9558    93.0764     3.7411     4.1800
 3621.5000     2.4446     0.0215     0.1234     0.2640   -36.8805   161.5101     6.9151     9.9558    91.6570     3.9034     4.4538
 3622.0000     2.4416     0.0264     0.1251     0.2654   -37.1072   164.6734     6.5906     9.9558    92.2769     4.0661     4.6222
 3622.5000     2.4388     0.0326     0.1263     0.2655   -37.0401   167.4715     6.2027     9.9558    92.9904     4.2761     4.7915
 3623.0000     2.4364     0.0294     0.1275     0.2651   -36.9964   169.4367     5.8377     9.9558    93.6990     4.4887     4.9604
 3623.5000     2.4337     0.0266     0.1284     0.2666   -36.9575   176.8349     5.7580     9.9558    94.4060     4.7946     5.0653
 3624.0000     2.4319     0.0195     0.1301     0.2665   -36.9110   188.1507     5.9421     9.9558    94.7405     4.6742     4.9528
 3624.5000     2.4350     0.0100     0.1305     0.2634   -36.8685   186.4943     6.1284     9.9558    94.6953     4.5499     4.8447
 3625.0000     2.4343     0.0013     0.1296     0.2656   -36.8221   184.4634     6.3206     9.9558    94.6532     4.4289     4.7390
 3625.5000     2.4318     0.0019     0.1306     0.2712   -36.7803   185.8303     6.5455     9.9558    94.7778     4.2957     4.6222
 3626.0000     2.4296     0.0056     0.1327     0.2763   -36.7467   194.6478     6.1880     9.9558    95.2997     4.3412     4.6613
 3626.5000     2.4374     0.0138     0.1323     0.2628   -36.5132   201.3382     5.8004     9.9558    96.0379     4.3942     4.7067
 3627.0000     2.4479     0.0273     0.1272     0.2530   -35.9429   206.6988     5.4370     9.9558    96.6367     4.4478     4.7526
 3627.5000     2.4585     0.0410     0.1195     0.2547   -35.3858   208.1595     5.2543     9.9558    96.0379     4.5383     4.7946
 3628.0000     2.4699     0.0554     0.1109     0.2585   -34.8261   203.0123     5.5679     9.9560    94.8595     4.4560     4.7162
 3628.5000     2.4701     0.0586     0.1060     0.2602   -34.2613   198.2641     6.0370     9.9568    93.4455     4.2033     4.4928
 3629.0000     2.4605     0.0584     0.1084     0.2559   -33.7036   195.5428     6.3101     9.9575    90.8767     3.9142     4.2800
