~VERSION INFORMATION
 VERS.                2.0:   CWLS LOG ASCII STANDARD - VERSION 2.0
 WRAP.                 NO:   ONE LINE PER DEPTH STEP
~WELL INFORMATION
#MNEM.UNIT      DATA TYPE    INFORMATION
#----------   ------------   ------------------------------
 STRT.F            0.0000:   START DEPTH
 STOP.F          537.0000:   STOP DEPTH
 STEP.F            0.5000:   STEP LENGTH
 NULL.          -999.2500:   NO VALUE
 COMP.   FLUOR DANIEL INC:   COMPANY
 WELL. NAVAL PETROLEUM RESERVE 3 X 83 #6-10:   WELL
 FLD .             TEAPOT:   FIELD
 LOC .      S10 T38N R78W:   LOCATION
 CNTY.            NATRONA:   COUNTY
 STAT.            WYOMING:   STATE
 CTRY. UNITED STATES OF AMERICA:   COUNTRY
 SRVC.      Western Atlas:   SERVICE COMPANY
 DATE.        30-APR-1996:   LOGDATE
 API .       490252278500:   API NUMBER
~CURVE INFORMATION
#MNEM.UNIT       API CODE    CURVE DESCRIPTION
#----------   ------------   ------------------------------
 DEPT.F                  :   
 GRR .GAPI   07 310 01 00:   GAMMA RAY FROM RES. LOG.
 RILD.OHMM   07 120 46 00:   INDUCTION LOG DEEP RESISTIVITY
 RILM.OHMM   07 120 44 00:   INDUCTION LOG MEDIUM RESISTIVITY
~PARAMETER INFORMATION
#MNEM.UNIT          VALUE    DESCRIPTION
#----------   ------------   ------------------------------
 PD  .                 GL:   PERMANENT DATUM
 EPD .F              5178:   ELEVATION PERMANENT DATUM
 LMF .                 KB:   LOG MEASURED FROM
 DAPD.F                10:   FEET ABOVE PERMANENT DATUM
 DMF .                 KB:   DRILLING MEASURED FROM
 EKB .F              5188:   KELLING BUSHING
 EDF .F              5187:   DRILLING FLOOR
 EGL .F              5178:   GROUND LEVEL
 DATE.            4-30-96:   RUN DATE
 RUN .                  1:   RUN NUMBER
 DD  .F               545:   DEPTH DRILLER
 DL  .F               545:   DEPTH LOGGER
 BLI .F               537:   BOTTOM LOG INTERVAL
 CS  .IN            9.625:   CASING SIZE
 CBD .F                96:   CASING BOTTOM DRILLER
 CBL .F                96:   CASING BOTTOM LOGGER
 BS  .IN             8.75:   BIT SIZE
 BSD .F               545:   BIT SIZE AT DEPTH
 DFT .                AIR:   DRILLING FLUID TYPE
 BHT .F                82:   BOTTOM HOLE TEMPERATURE
 MRT .F                82:   MAXIMUM RECORDED TEMPERATURE
 LUN .            ML 4116:   LOGGING UNIT NUMBER
 LUL .             CASPER:   LOGGING UNIT LOCATION
 ENGI.        VERN RAUTIO:   RECORDING ENGINEER
 WITN.         JAY LEBERU:   WITNESSED BY
 CLNT.            A2DTECH:   CLIENT CODE
 ORIG.        2" 5" PRINT:   ORIGIN OF DATA
 UWI .       490252278500:   UNIQUE WELL ID
 DICO. A2D Technologies, Inc.:   DIGITIZING COMPANY
~OTHER INFORMATION
~A    DEPT       GRR     RILD       RILM   
# ...
  364.0000    71.6110    26.7253    26.9761
  364.5000    75.4697    26.4763    27.0492
  365.0000    73.1824    26.4627    27.2530
  365.5000    70.6271    26.3982    27.4585
  366.0000    68.0703    26.3337    28.8493
  366.5000    65.5224    26.2693    29.6336
  367.0000    62.9712    26.2280    29.4408
  367.5000    60.3773    26.4598    29.0111
  368.0000    59.2285    26.7484    27.7435
  368.5000    66.3370    27.0401    27.9728
  369.0000    70.4387    27.4853    28.5328
  369.5000    72.9301    27.7435    28.9131
  370.0000    71.2007    27.1812    29.0714
  370.5000    68.0710    26.7861    27.9894
  371.0000    64.9495    26.3967    27.2236
  371.5000    64.1464    26.2299    27.2243
  372.0000    67.1995    27.0243    28.0555
  372.5000    70.2461    27.2295    28.7468
  373.0000    72.1907    27.8281    29.5093
  373.5000    71.7858    28.3959    30.2871
  374.0000    69.2751    28.9752    31.0864
  374.5000    66.8076    29.5662    31.9113
  375.0000    67.4292    30.1655    32.8229
  375.5000    69.6304    31.0379    32.9622
  376.0000    69.7260    31.9209    33.1395
  376.5000    69.6663    31.9209    33.1391
  377.0000    71.4871    31.6468    32.8483
  377.5000    73.6556    31.0960    32.2886
  378.0000    75.9622    30.3463    31.5025
  378.5000    78.0006    29.6147    30.7433
  379.0000    78.9185    28.9007    30.0021
  379.5000    78.0410    28.2039    29.2788
  380.0000    78.0479    27.5239    28.5729
  380.5000    79.6004    26.8603    27.8840
  381.0000    81.0449    25.8679    26.8537
  381.5000    80.4693    24.8262    25.7723
  382.0000    80.8403    23.8264    24.7345
  382.5000    81.8775    23.0114    23.8884
  383.0000    84.3211    22.4024    23.1682
  383.5000    83.6578    21.7862    22.4423
  384.0000    81.0492    21.1870    21.7392
  384.5000    78.4332    20.5818    21.0609
  385.0000    75.9224    20.3015    20.7561
  385.5000    77.1613    20.1329    20.7587
  386.0000    79.5109    19.9979    20.7617
  386.5000    82.2649    20.1166    20.8097
  387.0000    83.1764    20.2510    20.9710
  387.5000    80.8553    20.3862    21.1334
  388.0000    78.9459    20.5211    21.2955
  388.5000    81.9020    20.6456    21.4325
  389.0000    85.2799    20.8056    21.5986
  389.5000    86.7643    20.9692    21.7684
  390.0000    86.7918    21.1336    21.9393
  390.5000    86.7987    21.2993    22.1114
  391.0000    86.1752    21.3529    22.1667
  391.5000    85.6935    21.2944    22.1059
  392.0000    85.6181    21.1219    21.9268
  392.5000    84.6439    20.9507    21.7492
  393.0000    84.0394    20.7810    21.5730
  393.5000    84.5418    20.6129    21.3984
  394.0000    85.0118    20.4005    21.1780
  394.5000    85.4610    20.1904    20.9599
  395.0000    86.8029    19.9824    20.7440
  395.5000    88.3393    19.7766    20.5303
  396.0000    87.6064    19.5729    20.3188
  396.5000    86.0674    19.3638    20.1017
  397.0000    85.6403    19.1445    19.8740
  397.5000    88.1800    18.9277    19.6490
  398.0000    91.7781    18.7134    19.4264
  398.5000    90.2887    18.5014    19.2065
  399.0000    88.3974    18.2919    18.9890
  399.5000    86.5338    18.2146    18.9088
  400.0000    84.9920    18.2727    18.9719
  400.5000    82.1230    18.3131    19.0160
  401.0000    81.1791    18.3537    19.0601
  401.5000    83.5497    18.3858    19.1125
  402.0000    86.9603    18.5164    19.2423
  402.5000    87.5456    18.6455    19.3716
  403.0000    85.9081    18.7754    19.5020
  403.5000    85.5743    18.9063    19.6332
  404.0000    85.6016    19.0381    19.7654
  404.5000    83.9642    19.1109    19.8392
  405.0000    82.3183    19.2090    19.9414
  405.5000    85.4573    19.3075    20.0438
  406.0000    86.9430    19.4066    20.1460
  406.5000    87.8886    19.4468    20.1879
  407.0000    87.1345    19.2838    20.0187
  407.5000    86.4414    18.7855    19.4913
  408.0000    86.2899    18.2453    18.9196
  408.5000    87.1849    17.7207    18.3647
  409.0000    86.5703    17.2112    17.8261
  409.5000    84.3404    16.7164    17.3032
  410.0000    82.2949    16.2357    16.7957
  410.5000    84.6088    15.7688    16.3031
  411.0000    87.0872    15.3155    15.8249
  411.5000    88.7819    14.8751    15.3608
  412.0000    85.9862    14.5532    15.0995
  412.5000    82.8649    14.5176    15.0662
  413.0000    81.8027    14.4840    15.0329
  413.5000    82.0255    14.4506    14.9997
  414.0000    83.3031    14.4184    14.9679
  414.5000    83.7515    14.3566    14.9037
  415.0000    83.1267    14.2837    14.8281
  415.5000    83.0165    14.2107    14.7532
  416.0000    83.7594    14.1506    14.6890
  416.5000    84.5007    13.9592    14.4846
  417.0000    83.6439    13.7666    14.2767
  417.5000    80.6790    13.5766    14.0724
  418.0000    80.0134    13.3893    13.8712
  418.5000    82.6196    13.2046    13.6728
  419.0000    85.3208    13.0273    13.4894
  419.5000    87.2957    12.8557    13.3117
  420.0000    87.8294    12.6864    13.1363
  420.5000    88.4560    12.5192    12.8875
  421.0000    90.3650    12.4143    12.9026
  421.5000    93.4036    12.4518    12.9300
  422.0000    94.5522    12.4793    12.9573
  422.5000    93.8528    12.5069    12.9847
  423.0000    93.1174    12.5311    13.0085
  423.5000    92.1642    12.5310    13.0086
  424.0000    90.5617    12.5297    13.0073
  424.5000    89.2014    12.6528    13.1350
  425.0000    89.8624    12.8010    13.2888
  425.5000    90.5390    12.9512    13.4448
  426.0000    91.1986    13.1033    13.6026
  426.5000    91.6704    13.2554    13.7592
  427.0000    91.6761    13.2560    13.7592
  427.5000    92.4158    13.0051    13.4980
  428.0000    94.3706    12.8122    13.3025
  428.5000    96.0483    12.6041    13.0827
  429.0000    92.8674    12.3117    12.7809
  429.5000    90.5075    12.0276    12.4860
  430.0000    90.7861    11.7507    12.1985
  430.5000    89.7625    11.4765    11.9139
  431.0000    88.0520    11.3682    11.8025
  431.5000    87.6648    11.2895    11.7193
  432.0000    89.1162    11.2114    11.6268
  432.5000    90.7430    11.2009    11.6281
  433.0000    92.3850    11.2609    11.6899
  433.5000    93.4761    11.3080    11.7370
  434.0000    94.3670    11.4094    11.9587
  434.5000    93.3078    12.0251    12.5639
  435.0000    91.1880    12.5427    13.1916
  435.5000    89.0652    13.1907    14.2482
  436.0000    86.9246    14.6265    16.3433
  436.5000    83.6538    16.2187    18.7383
  437.0000    79.9482    17.8772    21.5661
  437.5000    76.7475    20.9573    25.1050
  438.0000    74.2066    23.2493    29.2248
  438.5000    72.3771    26.9005    33.1375
  439.0000    71.1412    30.4629    33.9911
  439.5000    71.3515    32.5438    34.8841
  440.0000    74.9079    33.2928    35.7114
  440.5000    78.2666    33.6330    35.3238
  441.0000    78.7834    33.7630    35.0513
  441.5000    76.6631    33.1251    34.2270
  442.0000    74.5406    32.5187    33.3974
  442.5000    73.0732    31.4314    32.6395
  443.0000    72.4129    30.4252    31.9026
  443.5000    71.8004    29.4545    31.1873
  444.0000    73.4012    28.5150    30.1467
  444.5000    75.1624    27.6055    29.0530
  445.0000    76.9022    26.7250    27.9990
  445.5000    77.8369    25.8726    26.9815
  446.0000    77.7183    25.0318    25.9861
  446.5000    77.6235    24.6525    25.1155
  447.0000    77.5215    24.2757    24.7386
  447.5000    77.4668    23.9041    24.4992
  448.0000    78.0587    23.4458    24.2621
  448.5000    78.6623    23.5466    24.1128
  449.0000    79.7234    23.6817    24.4094
  449.5000    80.8197    23.8176    24.6650
  450.0000    81.9152    23.8905    24.7988
  450.5000    83.0123    23.6600    24.5618
  451.0000    84.1438    23.4469    24.3394
  451.5000    84.3038    23.5825    24.4812
  452.0000    82.7267    23.7589    24.6643
  452.5000    81.3601    23.8884    24.8001
  453.0000    80.8335    23.7448    24.6503
  453.5000    80.3103    23.4590    24.3557
  454.0000    80.6654    23.2276    24.1100
  454.5000    81.1087    23.0584    23.7406
