~VERSION INFORMATION
 VERS.                2.0:   CWLS LOG ASCII STANDARD - VERSION 2.0
 WRAP.                 NO:   ONE LINE PER DEPTH STEP
~WELL INFORMATION
#MNEM.UNIT      DATA TYPE    INFORMATION
#----------   ------------   ------------------------------
 STRT.F           10.0000:   START DEPTH
 STOP.F          519.0000:   STOP DEPTH
 STEP.F            0.5000:   STEP LENGTH
 NULL.          -999.2500:   NO VALUE
 COMP. LAWRENCE/ALLISON INC:   COMPANY
 WELL.     56-16 SX #56-3:   WELL
 FLD .             TEAPOT:   FIELD
 LOC .       S3 T38N R78W:   LOCATION
 CNTY.            NATRONA:   COUNTY
 STAT.            WYOMING:   STATE
 CTRY. UNITED STATES OF AMERICA:   COUNTRY
 SRVC.           Gearhart:   SERVICE COMPANY
 DATE.        02-AUG-1987:   LOGDATE
 API .       490251115700:   API NUMBER
~CURVE INFORMATION
#MNEM.UNIT       API CODE    CURVE DESCRIPTION
#----------   ------------   ------------------------------
 DEPT.F                  :   
 GRR .GAPI   07 310 01 00:   GAMMA RAY
 ILD .OHMM   07 120 46 00:   INDUCTION LOG DEEP
 ILM .OHMM   07 120 44 00:   INDUCTION LOG MEDIUM
~PARAMETER INFORMATION
#MNEM.UNIT          VALUE    DESCRIPTION
#----------   ------------   ------------------------------
 PD  .                 GL:   PERMANENT DATUM
 EPD .F              5192:   ELEVATION PERMANENT DATUM
 LMF .                 KB:   LOG MEASURED FROM
 DAPD.F                 8:   FEET ABOVE PERMANENT DATUM
 DMF .                 KB:   DRILLING MEASURED FROM
 EKB .F              5200:   KELLING BUSHING
 EGL .F              5192:   GROUND LEVEL
 DATE.        02-JUN-1997:   RUN DATE
 RUN .                  1:   RUN NUMBER
 DD  .F               530:   DEPTH DRILLER
 DL  .F               527:   DEPTH LOGGER
 BLI .F               518:   BOTTOM LOG INTERVAL
 TLI .F                30:   TOP LOG INTERVAL
 CS  .IN            8.625:   CASING SIZE
 CBD .F                46:   CASING BOTTOM DRILLER
 CBL .F                48:   CASING BOTTOM LOGGER
 BS  .IN            7.875:   BIT SIZE
 BSD .F               530:   BIT SIZE AT DEPTH
 DFT .           NONE/AIR:   DRILLING FLUID TYPE
 TCS .HRS            0530:   TIME CURCULATED STOPPED
 MRT .F                80:   MAXIMUM RECORDED TEMPERATURE
 LUN .               7597:   LOGGING UNIT NUMBER
 LUL .           GILLETTE:   LOGGING UNIT LOCATION
 ENGI.        K.HUCKFELDT:   RECORDING ENGINEER
 WITN.        LYNDA FIVAS:   WITNESSED BY
 CLNT.            A2DTECH:   CLIENT CODE
 ORIG.           5" PRINT:   ORIGIN OF DATA
 UWI .       490251115700:   UNIQUE WELL ID
 DICO. A2D Technologies, Inc.:   DIGITIZING COMPANY
~OTHER INFORMATION
~A   DEPT       GRR       ILD        ILM   
# ...
  283.0000   110.8928    14.0858    12.6724
  283.5000   100.3642    15.1085    14.0687
  284.0000    90.9205    16.2447    16.0589
  284.5000    81.5839    18.2123    18.3307
  285.0000    77.9688    20.3497    20.4923
  285.5000    76.1177    22.4257    23.3924
  286.0000    72.8839    24.3740    25.3141
  286.5000    71.6920    26.1278    28.0425
  287.0000    70.1985    27.8147    30.9169
  287.5000    69.0067    28.8197    32.0203
  288.0000    69.0215    29.8286    32.2544
  288.5000    69.9413    30.2541    32.4902
  289.0000    71.1627    30.6856    32.7278
  289.5000    72.0825    30.9089    32.7388
  290.0000    72.7006    31.1338    32.9782
  290.5000    73.0171    31.3603    33.4510
  291.0000    71.8252    32.0284    33.9307
  291.5000    69.3814    32.9380    34.9010
  292.0000    64.1849    33.8755    35.8964
  292.5000    61.5586    34.8372    36.1589
  293.0000    61.9334    35.0907    36.6771
  293.5000    63.4565    34.8606    38.2509
  294.0000    64.6779    34.6319    39.3419
  294.5000    64.3873    34.1677    40.1839
  295.0000    63.5008    33.9360    39.9192
  295.5000    64.1190    33.0287    38.0011
  296.0000    68.0553    32.1412    36.2017
  296.5000    74.1033    31.9277    34.3001
  297.0000    76.5691    31.5024    33.1405
  297.5000    74.1329    31.5129    33.1517
  298.0000    72.6394    32.1842    33.8612
  298.5000    72.9563    32.1950    34.5859
  299.0000    73.6289    32.4460    35.3262
  299.5000    72.9892    32.6652    35.3381
  300.0000    71.7973    32.2274    35.5965
  300.5000    71.8121    32.4751    35.3744
  301.0000    72.7319    32.0486    34.1990
  301.5000    73.6517    30.5530    32.3748
  302.0000    74.2698    29.7377    31.5113
  302.5000    75.1896    29.5509    30.8846
  303.0000    76.7127    29.3607    30.6881
  303.5000    79.1408    28.9796    30.2923
  304.0000    80.6638    28.9974    29.6907
  304.5000    79.1565    28.6166    29.3030
  305.0000    77.0136    28.0399    28.7074
  305.5000    74.6224    27.4872    28.5160
  306.0000    74.0865    27.2826    27.9753
  306.5000    76.5183    26.5897    27.4241
  307.0000    80.1530    26.0598    27.0610
  307.5000    84.0894    25.3644    26.3441
  308.0000    85.3071    25.0313    25.8202
  308.5000    81.7057    24.8740    25.4783
  309.0000    80.2085    24.7140    25.1457
  309.5000    79.9217    24.5587    24.8221
  310.0000    81.7501    24.2399    24.4934
  310.5000    83.2732    24.0876    24.3461
  311.0000    84.1931    24.1024    24.1961
  311.5000    84.5098    24.1171    24.2146
  312.0000    84.8265    24.1319    24.2331
  312.5000    84.8444    24.1466    24.4199
  313.0000    84.8592    24.1620    24.2690
  313.5000    84.2707    24.1799    24.4611
  314.0000    83.9838    24.5316    24.6501
  314.5000    84.3003    24.7169    25.0137
  315.0000    84.9184    24.9036    25.2070
  315.5000    85.5365    25.0918    25.5788
  316.0000    85.5513    25.4568    25.7764
  316.5000    86.1694    25.6491    25.9755
  317.0000    87.0892    25.6648    25.9950
  317.5000    88.0141    25.6805    26.0145
  318.0000    88.9291    25.5191    25.8539
  318.5000    88.8417    25.1840    25.6861
  319.0000    86.5488    25.0258    25.5148
  319.5000    85.0553    24.8579    25.3778
  320.0000    84.4631    24.5420    25.0511
  320.5000    86.2915    24.3878    24.7241
  321.0000    88.7196    24.2346    24.5714
  321.5000    88.4327    23.9163    24.0827
  322.0000    86.9392    23.6059    23.7683
  322.5000    84.8387    23.1354    23.4580
  323.0000    85.4605    22.6743    23.1517
  323.5000    87.2853    22.3732    22.8452
  324.0000    87.9035    21.9272    22.3951
  324.5000    86.9594    21.6426    22.2564
  325.0000    84.8668    21.6559    22.1193
  325.5000    83.4229    21.8195    22.1362
  326.0000    81.9331    21.9843    22.3075
  326.5000    82.8529    22.1572    22.6402
  327.0000    84.3760    22.4730    22.8151
  327.5000    85.2958    22.6430    22.9913
  328.0000    85.9139    22.6597    23.0086
  328.5000    85.9287    22.6735    22.8665
  329.0000    85.9435    22.3724    22.7252
  329.5000    86.2600    22.0786    22.4243
  330.0000    88.6880    21.7921    22.1357
  330.5000    91.1192    21.3577    21.8426
  331.0000    91.7342    20.9320    21.5615
  331.5000    90.4444    20.6572    21.2800
  332.0000    88.7509    20.3859    21.0022
  332.5000    87.5591    20.3984    20.7280
  333.0000    86.9669    20.1304    20.4335
  333.5000    86.3783    20.0009    20.3310
  334.0000    86.6985    19.7414    20.2054
  334.5000    86.7133    19.6174    20.2244
  335.0000    87.3314    19.4941    19.9604
  335.5000    87.3462    19.3716    19.6998
  336.0000    87.3610    19.3864    19.5744
  336.5000    84.0576    19.1319    19.1887
  337.0000    83.4691    18.6214    18.9382
  337.5000    83.1822    18.2502    18.6904
  338.0000    83.8009    18.0078    18.7050
  338.5000    84.7238    18.0216    18.7190
  339.0000    85.0402    18.1572    18.7333
  339.5000    87.1667    18.1707    18.6174
  340.0000    89.5947    18.1818    18.3743
  340.5000    91.1178    18.0648    18.0123
  341.0000    91.7359    17.9513    17.8977
  341.5000    91.7507    17.8412    17.7871
  342.0000    91.4602    17.4830    17.5582
  342.5000    86.3505    17.1345    17.3290
  343.0000    84.5553    16.7956    17.2187
  343.5000    85.7787    16.5725    16.8794
  344.0000    87.9518    16.3574    16.7720
  344.5000    90.1246    16.2544    16.4416
  345.0000    91.8580    16.1524    16.3398
  345.5000    92.4762    16.0510    16.2371
  346.0000    90.6810    16.0608    16.0251
  346.5000    90.3904    15.8499    15.9286
  347.0000    90.7106    15.7503    15.7211
  347.5000    91.9320    15.7624    15.6239
  348.0000    93.7568    15.7720    15.4159
  348.5000    95.2799    15.6705    15.2187
  349.0000    96.1997    15.7913    15.1247
  349.5000    96.2145    15.8010    15.1389
  350.0000    92.9110    15.9204    15.1503
  350.5000    90.5125    16.1519    15.2673
  351.0000    90.5741    16.2740    15.4925
  351.5000    91.7525    16.3969    15.7210
  352.0000    92.6722    16.5208    15.9529
  352.5000    92.6870    16.6456    16.1882
  353.0000    92.7019    16.4270    16.4270
  353.5000    91.5100    16.4375    16.5539
  354.0000    89.7149    16.4496    16.4514
  354.5000    88.5230    16.4597    16.3500
  355.0000    89.4428    16.3563    16.3625
  355.5000    92.4742    16.2535    16.2613
  356.0000    94.6006    15.9271    16.0490
  356.5000    92.5038    15.5045    15.8424
  357.0000    89.0903    15.1955    15.7416
  357.5000    85.8969    14.9959    15.5361
  358.0000    86.8204    14.6971    15.4401
  358.5000    90.4551    14.6044    15.2414
  359.0000    91.0732    14.5128    15.0396
  359.5000    91.2579    14.5218    14.6412
  360.0000    92.1914    14.5309    14.3500
  360.5000    94.3265    14.6408    14.1627
  361.0000    96.1600    14.8557    14.0751
  361.5000    97.3902    15.2817    13.9507
  362.0000    97.7155    16.1607    14.2505
  362.5000    97.1298    17.1185    14.9656
  363.0000    95.6510    19.0050    16.7304
  363.5000    92.9596    20.7207    18.9921
  364.0000    89.3032    23.2364    22.5187
  364.5000    80.2276    25.6087    28.1987
  365.0000    72.2217    28.4189    31.3058
  365.5000    70.1337    31.5376    34.5147
  366.0000    69.8497    34.5178    38.0525
  366.5000    71.3874    35.0126    39.4107
  367.0000    74.1259    34.7854    39.4251
  367.5000    76.5628    34.7995    39.1622
  368.0000    78.9996    34.8137    38.6350
  368.5000    79.3514    34.8282    38.6514
  369.0000    78.1398    34.8452    38.1310
  369.5000    75.4198    35.3448    37.6177
  370.0000    76.3848    35.8515    37.6305
  370.5000    77.9167    36.3654    37.9059
  371.0000    77.3369    36.1258    38.4522
  371.5000    75.5505    35.6476    38.7333
  372.0000    73.4625    34.9295    38.7464
  372.5000    72.2794    34.2266    37.9602
  373.0000    72.9063    34.0045    37.4461
  373.5000    74.4381    34.0217    36.6894
