~VERSION INFORMATION
 VERS.                2.0:   CWLS LOG ASCII STANDARD - VERSION 2.0
 WRAP.                 NO:   ONE LINE PER DEPTH STEP
~WELL INFORMATION
#MNEM.UNIT      DATA TYPE    INFORMATION
#----------   ------------   ------------------------------
 STRT.F           86.5000:   START DEPTH
 STOP.F         1282.0000:   STOP DEPTH
 STEP.F            0.5000:   STEP LENGTH
 NULL.          -999.2500:   NO VALUE
 COMP.      UNITED STATES:   COMPANY
 WELL.             NPR #3:   WELL
 FLD .        TEAPOT DOME:   FIELD
 LOC .      S14 T38N R78W:   LOCATION
 CNTY.            NATRONA:   COUNTY
 STAT.            WYOMING:   STATE
 CTRY. UNITED STATES OF AMERICA:   COUNTRY
 SRVC.       Schlumberger:   SERVICE COMPANY
 DATE.        06-JUL-1962:   LOGDATE
 API .       490250631800:   API NUMBER
~CURVE INFORMATION
#MNEM.UNIT       API CODE    CURVE DESCRIPTION
#----------   ------------   ------------------------------
 DEPT.F                  :   
 SPR .MV     05 010 01 00:   SPONTANEOUS POTENTIAL FROM RES.
 CILD.MMHO   05 110 00 00:   CONDUCTIVITY INDUCTION LOG
 ASN .OHMM   05 041 16 00:   AMPLIFIED SHORT NORMAL 16"
 ILD .OHMM   05 120 46 00:   INDUCTION LOG DEEP
 GR  .GAPI   30 310 01 00:   GAMMA RAY
~PARAMETER INFORMATION
#MNEM.UNIT          VALUE    DESCRIPTION
#----------   ------------   ------------------------------
 PD  .                 GL:   PERMANENT DATUM
 EPD .F              5288:   ELEVATION PERMANENT DATUM
 LMF .                 KB:   LOG MEASURED FROM
 DAPD.F                 5:   FEET ABOVE PERMANENT DATUM
 DMF .                 KB:   DRILLING MEASURED FROM
 EKB .F              5293:   KELLING BUSHING
 EGL .F              5288:   GROUND LEVEL
 DATE.             7-6-62:   RUN DATE
 RUN .                  1:   RUN NUMBER
 DD  .F              1286:   DEPTH DRILLER
 DL  .F              1283:   DEPTH LOGGER
 BLI .F              1282:   BOTTOM LOG INTERVAL
 TLI .F                87:   TOP LOG INTERVAL
 CBD .F                10:   CASING BOTTOM DRILLER
 BS  .IN             6.75:   BIT SIZE
 BSD .F              1286:   BIT SIZE AT DEPTH
 DFT .            GEL-OIL:   DRILLING FLUID TYPE
 DFD .               10.3:   DRILLING FLUID DENSITY
 DFV .                 53:   DRILLING FLUID VISCOSITY
 DFL .                3.6:   DRILLING FLUID LOSS
 MSS .           FLOWLINE:   MUD SAMPLE SOURCE
 RMS .OHMM           5.66:   RESISTIVITY MUD SAMPLE
 MST .F                78:   MUD SAMPLE TEMPERATURE
 RMF .OHMM           5.59:   RESISTIVITY MUD FILTRATE SAMPLE
 MFST.F                78:   MUD FILTRATE SAMPLE TEMPERATURE
 RMC .OHMM           4.47:   RESISTIVITY MUD CAKE
 MCST.F                78:   MUD CAKE SAMPLE TEMPERATURE
 MFSS.                  M:   MUD FILTRATE SAMPLE SOURCE
 MCSS.                  M:   MUD CAKE SAMPLE SOURCE
 RMB .OHMM           5.08:   RESISTIVITY MUD AT BHT
 BHT .F                88:   BOTTOM HOLE TEMPERATURE
 TCS .HRS               1:   TIME CURCULATED STOPPED
 MRT .F                88:   MAXIMUM RECORDED TEMPERATURE
 LUN .               2503:   LOGGING UNIT NUMBER
 LUL .               CSPR:   LOGGING UNIT LOCATION
 ENGI.             KNOBEL:   RECORDING ENGINEER
 WITN.          JORGENSEN:   WITNESSED BY
 CLNT.            A2DTECH:   CLIENT CODE
 ORIG.       2", 5" PRINT:   ORIGIN OF DATA
 UWI .       490250631800:   UNIQUE WELL ID
 DICO. A2D Technologies, Inc.:   DIGITIZING COMPANY
~OTHER INFORMATION
~A   DEPT      SPR       CILD        ASN        ILD         GR   
# ...
 1062.5000   -28.1401   526.5279     2.7711     1.3451    86.4932
 1063.0000   -28.1604   514.6254     2.7249     1.3449    87.2572
 1063.5000   -27.9761   497.4974     2.6778     1.5819    77.4661
 1064.0000   -27.7992   438.2213     2.9034     1.8626    96.8651
 1064.5000   -27.7460   382.8330     3.3550     2.4243    93.8206
 1065.0000   -27.7306   335.8535     3.6339     2.9848    92.4439
 1065.5000   -27.8859   290.0781     3.8945     3.5435   101.7674
 1066.0000   -27.9677   254.5136     4.4623     4.1249   100.9382
 1066.5000   -27.9228   223.7956     4.8836     4.6642   116.9054
 1067.0000   -27.8778   203.0437     4.9536     5.0345   109.2535
 1067.5000   -27.8322   190.7007     5.0300     5.0535   106.4357
 1068.0000   -27.7876   191.9243     5.1066     5.0543   108.5803
 1068.5000   -27.7330   197.5558     5.1827     4.9225   116.6573
 1069.0000   -27.6798   206.7383     5.2391     4.7466   115.7501
 1069.5000   -27.6269   215.9224     5.1005     4.5694   115.1086
 1070.0000   -27.5739   225.1006     4.9195     4.3923   113.2796
 1070.5000   -27.5210   234.7471     4.7364     4.2152   116.0611
 1071.0000   -27.4679   240.1077     4.6552     4.0382   120.7780
 1071.5000   -27.4146   245.7725     4.6512     3.8621   120.4590
 1072.0000   -27.3361   251.4372     4.5104     3.7483   114.6821
 1072.5000   -27.2356   252.7661     4.4651     3.7472   118.1867
 1073.0000   -27.1681   249.2916     4.6550     3.8648   110.6559
 1073.5000   -27.1259   239.9957     4.7543     4.1182   108.9695
 1074.0000   -27.0839   230.6998     4.7499     4.3950   103.8570
 1074.5000   -27.0424   216.3215     5.0128     4.6726   100.4818
 1075.0000   -26.9974   201.8458     5.3144     4.9510   115.9170
 1075.5000   -27.2062   192.4466     5.6100     5.2701   122.1242
 1076.0000   -27.5556   183.0473     5.7605     5.5908   131.6069
 1076.5000   -27.9099   174.3755     6.0343     5.9112   118.2977
 1077.0000   -28.2849   168.3332     6.3135     6.2322   108.2998
 1077.5000   -28.1152   162.2908     6.4944     6.5184   120.9904
 1078.0000   -27.9583   156.2485     6.6202     6.7858   114.3485
 1078.5000   -27.7938   151.3293     6.7191     7.0509   112.1530
 1079.0000   -27.6327   149.9560     6.7161     7.2589    99.1846
 1079.5000   -27.4721   148.6565     6.7163     7.2520   105.5997
 1080.0000   -27.3907   151.1324     6.7087     7.2149   112.1289
 1080.5000   -27.4070   153.4822     6.6920     7.0524   107.5645
 1081.0000   -27.5490   155.6639     6.5778     6.8932   113.1497
 1081.5000   -27.6934   160.1212     6.4650     6.7343   121.3308
 1082.0000   -27.8372   164.2807     6.3530     6.5753   122.6377
 1082.5000   -27.9811   168.4404     6.2411     6.4163   114.4686
 1083.0000   -28.1254   172.5999     6.1292     6.2574   106.0935
 1083.5000   -28.2680   178.0341     6.0170     6.1010   100.3886
 1084.0000   -28.3901   185.9958     5.8985     5.7369   107.8483
 1084.5000   -28.3355   197.7081     5.7285     5.2926   120.3039
 1085.0000   -28.2006   213.2192     5.5460     4.8466   116.0580
 1085.5000   -28.0690   230.1836     5.2997     4.4008   118.1705
 1086.0000   -28.0479   247.2016     5.0291     3.9583   111.3614
 1086.5000   -28.1919   262.9094     4.7573     3.6209   110.5069
 1087.0000   -28.3404   265.7798     4.4798     3.5519   117.8867
 1087.5000   -28.1408   262.2135     4.3528     3.5485   117.1599
 1088.0000   -27.7680   257.9916     4.5470     3.6082   111.0383
 1088.5000   -27.3937   252.9563     4.5938     3.7865   106.0251
 1089.0000   -27.3734   246.2152     4.6347     3.9627   109.8868
 1089.5000   -27.7506   232.9872     4.9945     4.1422   102.5079
 1090.0000   -28.1215   213.8835     5.4430     4.5403   113.7567
 1090.5000   -28.3211   193.3227     5.8850     5.3195   119.8050
 1091.0000   -28.0470   175.0843     6.0191     6.0238   115.1707
 1091.5000   -27.7874   166.6921     6.1398     6.2880   107.1938
 1092.0000   -27.5290   158.3000     6.2614     6.5702   107.9573
 1092.5000   -27.2684   156.6649     6.3731     6.8645   109.9055
 1093.0000   -26.9972   156.6649     6.4685     6.9498   109.9276
 1093.5000   -26.6225   156.6649     6.5635     6.9509   113.2820
 1094.0000   -26.4002   156.0363     6.6581     7.0167   105.8976
 1094.5000   -26.6137   155.0292     6.7526     7.0927   102.5425
 1095.0000   -26.8078   154.0193     6.8475     7.1549    97.1435
 1095.5000   -26.9872   153.6588     6.9425     7.1280   106.3633
 1096.0000   -26.9484   154.0327     6.9316     7.0994   109.1704
 1096.5000   -26.8375   154.6092     6.8971     7.0706   111.1440
 1097.0000   -26.7282   155.1856     6.8963     7.0418   102.6356
 1097.5000   -26.6189   155.7611     6.8951     7.0130   101.7807
 1098.0000   -26.5096   156.3366     6.8663     6.9846   105.5265
 1098.5000   -26.4004   156.9120     6.8379     6.9552   106.3883
 1099.0000   -26.2910   157.4875     6.8096     6.8412   100.4878
 1099.5000   -26.1817   157.6660     6.7814     6.7152   105.6897
 1100.0000   -26.0728   157.6660     6.7562     6.5878    98.5122
 1100.5000   -25.9924   157.2255     6.7557     6.4569    90.8260
 1101.0000   -26.0608   156.3498     6.7690     6.4503    83.7881
 1101.5000   -26.1523   155.4741     6.7873     6.4515    82.7193
 1102.0000   -26.3918   154.5984     6.7974     6.4520    85.7755
 1102.5000   -26.3973   153.6617     6.7427     6.4506    83.4560
 1103.0000   -26.3906   154.5792     6.6701     6.4496    96.8460
 1103.5000   -26.5779   161.3660     6.5967     6.2126   105.8502
 1104.0000   -26.8403   168.1526     6.5228     5.7797   109.9325
 1104.5000   -27.1129   174.9394     6.4084     5.3435   108.2927
 1105.0000   -26.9259   181.7261     6.2114     5.1523   112.8184
 1105.5000   -26.3909   185.6955     6.0146     5.1497   113.1049
 1106.0000   -26.0257   185.6955     5.8202     5.1488   101.8111
 1106.5000   -26.1966   187.9609     5.7523     5.0159   110.2988
 1107.0000   -26.3532   193.9991     5.5874     4.7889   127.3190
 1107.5000   -26.5087   200.0438     5.4544     4.5142   128.7632
 1108.0000   -26.5763   208.8303     5.6398     4.1599   119.8369
 1108.5000   -26.5411   221.8427     5.6691     3.8088   129.7965
 1109.0000   -26.5062   234.7471     5.5127     3.4601   123.7359
 1109.5000   -26.4705   243.7566     5.2117     3.2499   123.4773
 1110.0000   -26.4350   242.9958     4.9125     3.2604   132.9644
 1110.5000   -26.4000   236.7492     4.7471     3.3152   129.0694
 1111.0000   -26.3938   236.7492     4.9289     3.3470   121.0760
 1111.5000   -26.3536   236.7492     4.8919     3.3441   119.5557
 1112.0000   -26.1743   233.3696     4.7610     3.3644   120.9411
 1112.5000   -25.9984   219.9816     5.1993     3.8493   111.5443
 1113.0000   -25.8207   204.8757     5.6348     4.3376   114.6828
 1113.5000   -25.9262   188.2281     5.8384     4.8220   129.4256
 1114.0000   -26.1240   172.5759     6.0029     5.3049   132.4606
 1114.5000   -26.3227   164.5860     6.0887     5.8065   119.7811
 1115.0000   -26.5231   165.2029     6.1321     5.7201   116.1115
 1115.5000   -26.4943   170.9729     6.1551     5.2496   115.6305
 1116.0000   -26.2685   186.9599     6.1125     4.7733   117.8908
 1116.5000   -26.0426   202.3573     6.0330     4.2987   115.7420
 1117.0000   -25.8156   215.8009     5.8257     3.9610   107.1463
 1117.5000   -25.6012   225.7484     5.4914     3.6312   110.1459
 1118.0000   -25.6532   228.0280     5.1563     3.5461   109.2864
 1118.5000   -25.7432   230.5682     4.9971     3.5112   123.8514
 1119.0000   -25.7961   233.1196     5.0733     3.4796   125.6651
 1119.5000   -25.7967   233.8169     4.9763     3.4701   114.7624
 1120.0000   -25.7932   227.4779     4.8840     3.7860   106.2080
 1120.5000   -26.0721   211.2100     5.3999     4.2333   105.9550
 1121.0000   -26.5125   194.9421     5.7703     4.6737   102.3852
 1121.5000   -26.9564   178.9198     5.9843     5.1535   106.2744
 1122.0000   -27.3805   164.1968     6.2860     5.7291   104.1404
 1122.5000   -27.3936   155.1333     6.6550     6.3229   110.6051
 1123.0000   -27.3909   147.1133     6.8649     6.5896   112.3689
