~VERSION INFORMATION
 VERS.                2.0:   CWLS LOG ASCII STANDARD - VERSION 2.0
 WRAP.                 NO:   ONE LINE PER DEPTH STEP
~WELL INFORMATION
#MNEM.UNIT      DATA TYPE    INFORMATION
#----------   ------------   ------------------------------
 STRT.F           32.5000:   START DEPTH
 STOP.F          433.0000:   STOP DEPTH
 STEP.F            0.5000:   STEP LENGTH
 NULL.          -999.2500:   NO VALUE
 COMP.    FENIX & SCISSON:   COMPANY
 WELL. NPR-3 65-S-10 #65-10:   WELL
 FLD .             TEAPOT:   FIELD
 LOC .      S10 T38N R78W:   LOCATION
 CNTY.            NATRONA:   COUNTY
 STAT.            WYOMING:   STATE
 CTRY. UNITED STATES OF AMERICA:   COUNTRY
 SRVC.           BIRDWELL:   SERVICE COMPANY
 DATE.        13-JUN-1978:   LOGDATE
 API .       490251063000:   API NUMBER
~CURVE INFORMATION
#MNEM.UNIT       API CODE    CURVE DESCRIPTION
#----------   ------------   ------------------------------
 DEPT.F                  :   
 CALD.IN     45 280 60 00:   CALIPER FROM DENSITY LOG
 CORR.G/C3   45 356 01 00:   DENSITY CORRECTION
 DEN .G/C3   45 350 01 00:   COMPENSATED BULK DENSITY
 GRD .GAPI   45 310 01 00:   GAMMA RAY FROM DENSITY LOG
 DPHI.DEC    45 890 12 00:   DENSITY POROSITY SANDSTONE
 IL  .OHMM   05 120 00 00:   INDUCTION LOG 40"
 SN  .OHMM   05 040 16 00:   SHORT NORMAL 16"
 SPR .MV     05 010 01 00:   SPONTANEOUS POTENTIAL FROM RES.
~PARAMETER INFORMATION
#MNEM.UNIT          VALUE    DESCRIPTION
#----------   ------------   ------------------------------
 PD  .                 GL:   PERMANENT DATUM
 EPD .F              5193:   ELEVATION PERMANENT DATUM
 LMF .                 KB:   LOG MEASURED FROM
 DMF .                 KB:   DRILLING MEASURED FROM
 EKB .F              5197:   KELLING BUSHING
 EGL .F              5193:   GROUND LEVEL
 DATE.          6-13-1978:   RUN DATE
 RUN .                  1:   RUN NUMBER
 DD  .F               430:   DEPTH DRILLER
 DL  .F               433:   DEPTH LOGGER
 BLI .F               427:   BOTTOM LOG INTERVAL
 TLI .F                50:   TOP LOG INTERVAL
 CS  .IN            8.625:   CASING SIZE
 CBD .F                40:   CASING BOTTOM DRILLER
 CBL .F                48:   CASING BOTTOM LOGGER
 BS  .IN            7.875:   BIT SIZE
 BSD .F               430:   BIT SIZE AT DEPTH
 DFT .                KCL:   DRILLING FLUID TYPE
 DFD .                8.7:   DRILLING FLUID DENSITY
 DFV .                 32:   DRILLING FLUID VISCOSITY
 DFPH.                9.5:   DRILLING FLUID PH
 DFL .                8.4:   DRILLING FLUID LOSS
 MSS .           FLOWLINE:   MUD SAMPLE SOURCE
 RMS .OHMM            .38:   RESISTIVITY MUD SAMPLE
 MST .F                86:   MUD SAMPLE TEMPERATURE
 RMF .OHMM            .36:   RESISTIVITY MUD FILTRATE SAMPLE
 MFST.F                82:   MUD FILTRATE SAMPLE TEMPERATURE
 MFSS.               MEAS:   MUD FILTRATE SAMPLE SOURCE
 MCSS.               MEAS:   MUD CAKE SAMPLE SOURCE
 TCS .HRS               3:   TIME CURCULATED STOPPED
 MRT .F                73:   MAXIMUM RECORDED TEMPERATURE
 LUN .               2958:   LOGGING UNIT NUMBER
 LUL .               CASP:   LOGGING UNIT LOCATION
 ENGI.           REYNOLDS:   RECORDING ENGINEER
 WITN.           MCGINLEY:   WITNESSED BY
 CLNT.            A2DTECH:   CLIENT CODE
 ORIG.           5" PRINT:   ORIGIN OF DATA
 UWI .       490251063000:   UNIQUE WELL ID
 DICO. A2D Technologies, Inc.:   DIGITIZING COMPANY
~OTHER INFORMATION
~A   DEPT     CALD       CORR        DEN        GRD       DPHI         IL         SN        SPR   
# ...
  397.0000     7.3170     0.0062     2.5083   104.1345     0.0886     9.1402    12.3345   -59.4890
  397.5000     7.3014     0.0062     2.5083   108.3181     0.0892     9.2112    12.4303   -58.8753
  398.0000     7.2859     0.0077     2.5075   109.8115     0.0964     9.2827    12.4409   -58.1127
  398.5000     7.2704     0.0076     2.5075   110.1094     0.1024     9.2907    12.4519   -58.3919
  399.0000     7.1307     0.0091     2.5023   109.1948     0.1036     9.4275    12.5509   -58.0711
  399.5000     7.0154     0.0060     2.4955   108.6112     0.1006     9.4359    12.6484   -57.9039
  400.0000     7.0149     0.0001     2.4918   107.9160     0.0973     9.5109    12.6592   -57.5877
  400.5000     7.0889    -0.0014     2.4918   107.7661     0.0946     9.5848    13.0234   -57.1207
  401.0000     7.1630     0.0001     2.4962   110.1649     0.0994     9.7260    13.4939   -57.2562
  401.5000     7.2071     0.0001     2.4992   110.3148     0.1036     9.7342    13.7867   -57.2341
  402.0000     7.2364     0.0030     2.4947   107.9160     0.1072     9.7437    13.9896   -57.3696
  402.5000     7.2826     0.0030     2.4902   107.4663     0.1036     9.7531    14.3922   -57.3475
  403.0000     7.2799     0.0044     2.4902   107.3163     0.0988     9.7626    14.1103   -57.3253
  403.5000     7.2196     0.0062     2.4917   107.3163     0.0956     9.7720    14.2198   -57.3076
  404.0000     7.2191     0.0088     2.4932   107.0165     0.0929     9.7815    14.6429   -57.2899
  404.5000     7.2930     0.0058     2.4961   105.9520     0.0914     9.7909    14.7426   -57.4254
  405.0000     7.3374    -0.0031     2.4984   103.8931     0.0950     9.8004    14.6540   -57.4033
  405.5000     7.2471    -0.0120     2.5043   102.9685     0.1060     9.8098    14.4693   -57.5344
  406.0000     7.1869    -0.0120     2.5006   102.9685     0.1120     9.8193    14.4817   -57.6610
  406.5000     7.1712    -0.0062     2.4931   102.2189     0.1123     9.8287    14.4940   -57.6433
  407.0000     7.1856    -0.0032     2.4662   101.0195     0.1114     9.8382    14.4070   -57.6256
  407.5000     7.1851    -0.0033     2.4930    99.8201     0.1103     9.8476    14.4224   -57.6079
  408.0000     7.1993    -0.0033     2.5013    99.6702     0.1103     9.8562    14.3327   -57.5857
  408.5000     7.2138    -0.0048     2.4997    99.8201     0.1090     9.7934    14.3481   -57.5680
  409.0000     7.2131    -0.0063     2.5042   100.4348     0.1031     9.7995    14.3603   -57.5503
  409.5000     7.2424    -0.0063     2.5035   101.7691     0.0998     9.8043    14.1762   -57.5326
  410.0000     7.2566    -0.0049     2.4983   103.4183     0.0995     9.7418    13.9975   -57.5149
  410.5000     7.3008    -0.0034     2.4922   104.7676     0.0998     9.6796    14.0095   -57.6460
  411.0000     7.3451    -0.0020     2.4878   106.1169     0.1019     9.6846    14.0215   -57.6238
  411.5000     7.3893    -0.0005     2.4886   108.8156     0.1031     9.6229    14.1303   -57.6061
  412.0000     7.2692    -0.0006     2.4924   111.9640     0.1019     9.5616    14.2402   -57.5884
  412.5000     7.2238     0.0009     2.4939   109.2654     0.0990     9.4355    14.2553   -57.5707
  413.0000     7.1934    -0.0006     2.4939   107.6013     0.0963     9.4413    14.2674   -57.5485
  413.5000     7.1778    -0.0007     2.4932   106.3943     0.0957     9.3168    14.1787   -57.5308
  414.0000     7.1772     0.0008     2.4940   105.9670     0.0972     9.1940    14.1939   -57.5131
  414.5000     7.1767     0.0023     2.4970   106.1169     0.0993     9.1354    14.1086   -57.4954
  415.0000     7.1761     0.0007     2.4985   107.7661     0.1011     9.0161    14.1237   -57.4777
  415.5000     7.1754    -0.0008     2.5000   110.0150     0.1032     8.9575    13.9586   -57.7576
  416.0000     7.2346    -0.0008     2.5001   113.1634     0.1013     8.9014    13.6591   -57.7354
  416.5000     7.2937    -0.0008     2.4993   113.0135     0.0942     8.8449    13.3597   -57.5689
  417.0000     7.2333    -0.0009     2.4963   111.6642     0.0876     8.8504    13.0603   -57.5512
  417.5000     7.2029    -0.0009     2.4956   109.0029     0.0862     8.7337    12.7132   -57.5335
  418.0000     7.2323    -0.0009     2.5009   106.8666     0.0859     8.6769    12.7195   -57.6646
  418.5000     7.2466     0.0005     2.5106   108.2159     0.0853     8.5048    12.7259   -57.6424
  419.0000     7.2609     0.0020     2.5166   109.4153     0.0835     8.4506    12.7336   -57.6247
  419.5000     7.3499     0.0020     2.5197   109.1154     0.0805     8.3308    12.7399   -57.6070
  420.0000     7.2298     0.0019     2.5197   107.1664     0.0772     8.2303    12.6572   -57.5893
  420.5000     7.1694     0.0019     2.5212   105.9670     0.0793     8.1769    12.5780   -57.5671
  421.0000     7.1092     0.0019     2.5265   115.7121     0.0835     8.1819    12.4125   -57.5494
  421.5000     7.0638     0.0018     2.5302   118.2609     0.0868     8.1860    12.2489   -57.5317
  422.0000     7.0185     0.0018     2.5332   109.8051     0.0877     8.1901    12.1710   -57.3696
  422.5000     6.9880    -0.0012     2.5243   108.9655     0.0865     8.1950    12.0935   -57.3475
  423.0000     6.9575     0.0003     2.5205   109.4153     0.0844     8.1991    12.1010   -57.4786
  423.5000     6.9570     0.0017     2.5184   110.1649     0.0805     8.2031    12.1069   -57.4564
  424.0000     6.9564    -0.0161     2.5169   109.3853     0.0740     8.2072    12.0299   -57.4387
  424.5000     6.9557    -0.0207     2.5177  -999.2500     0.0725     8.1549    11.9533   -57.2722
  425.0000     6.9552     0.0016     2.5177  -999.2500     0.0815     8.1030    11.7958   -57.4033
  425.5000     6.9546     0.0164     2.5207  -999.2500     0.0902     8.0524    11.9666   -57.2323
  426.0000     6.9539     0.0193     2.5380  -999.2500     0.0884     8.0563    11.9725   -57.2146
  426.5000     6.9534     0.0163     2.5417  -999.2500     0.0860     8.0603    11.7337   -57.1969
  427.0000     6.9379     0.0089     2.5170  -999.2500     0.0848     8.0642    11.6591   -57.1801
  427.5000     6.9373     0.0015     2.5126  -999.2500     0.0955  -999.2500  -999.2500  -999.2500
  428.0000     6.9366    -0.0045     2.5111  -999.2500     0.0973  -999.2500  -999.2500  -999.2500
  428.5000     6.9361    -0.0060     2.5111  -999.2500     0.1012  -999.2500  -999.2500  -999.2500
  429.0000     6.9206     0.0132     2.5112  -999.2500     0.1099  -999.2500  -999.2500  -999.2500
  429.5000     6.9159     0.0250     2.5075  -999.2500     0.1276  -999.2500  -999.2500  -999.2500
  430.0000     6.9159     0.0309     2.5022  -999.2500     0.1300  -999.2500  -999.2500  -999.2500
  430.5000  -999.2500     0.0368     2.4918  -999.2500     0.1321  -999.2500  -999.2500  -999.2500
  431.0000  -999.2500     0.0382     2.4799  -999.2500     0.1327  -999.2500  -999.2500  -999.2500
  431.5000  -999.2500     0.0382     2.4679  -999.2500     0.1296  -999.2500  -999.2500  -999.2500
  432.0000  -999.2500     0.0397     2.4485  -999.2500     0.1274  -999.2500  -999.2500  -999.2500
  432.5000  -999.2500     0.0396     2.4433  -999.2500     0.1250  -999.2500  -999.2500  -999.2500
  433.0000  -999.2500     0.0381     2.4455  -999.2500     0.1224  -999.2500  -999.2500  -999.2500
