~VERSION INFORMATION
 VERS.                2.0:   CWLS LOG ASCII STANDARD - VERSION 2.0
 WRAP.                 NO:   ONE LINE PER DEPTH STEP
~WELL INFORMATION
#MNEM.UNIT      DATA TYPE    INFORMATION
#----------   ------------   ------------------------------
 STRT.F            8.0000:   START DEPTH
 STOP.F         1010.0000:   STOP DEPTH
 STEP.F            0.5000:   STEP LENGTH
 NULL.          -999.2500:   NO VALUE
 COMP.          U.S. NAVY:   COMPANY
 WELL. RES 3 TEAPOT DOM #47S-35:   WELL
 FLD .             TEAPOT:   FIELD
 LOC .      S35 T39N R78W:   LOCATION
 CNTY.            NATRONA:   COUNTY
 STAT.            WYOMING:   STATE
 CTRY. UNITED STATES OF AMERICA:   COUNTRY
 SRVC.      NL McCullough:   SERVICE COMPANY
 DATE.        12-NOV-1958:   LOGDATE
 API .       490250650800:   API NUMBER
~CURVE INFORMATION
#MNEM.UNIT       API CODE    CURVE DESCRIPTION
#----------   ------------   ------------------------------
 DEPT.F                  :   
 GRN .GAPI   35 310 01 00:   GAMMA RAY
 NEUT.NAPI   35 330 01 00:   NEUTRON
~PARAMETER INFORMATION
#MNEM.UNIT          VALUE    DESCRIPTION
#----------   ------------   ------------------------------
 PD  .                 GL:   PERMANENT DATUM
 EPD .F             51891:   ELEVATION PERMANENT DATUM
 DATE.        11-NOV-1959:   RUN DATE
 RUN .                  1:   RUN NUMBER
 BLI .F              1004:   BOTTOM LOG INTERVAL
 CS  .IN            8.625:   CASING SIZE
 WITN.             MARTNE:   WITNESSED BY
 CLNT.            A2DTECH:   CLIENT CODE
 ORIG.         2.5" PRINT:   ORIGIN OF DATA
 UWI .       490250650800:   UNIQUE WELL ID
 DICO. A2D Technologies, Inc.:   DIGITIZING COMPANY
~OTHER INFORMATION
~A    DEPT     GRN       NEUT   
# ...
  737.0000     5.7851   101.8492
  737.5000     5.8615    97.8887
  738.0000     5.8610    87.6470
  738.5000     5.8326    83.0336
  739.0000     5.7524    81.9640
  739.5000     5.3278    83.4894
  740.0000     5.3042    86.5097
  740.5000     5.3495    99.2751
  741.0000     5.4514   104.5443
  741.5000     5.4926   105.3157
  742.0000     5.4917   104.5879
  742.5000     5.4332   102.3608
  743.0000     5.4072   102.3838
  743.5000     5.3403   103.1559
  744.0000     5.2474   104.1080
  744.5000     5.1793   106.1322
  745.0000     5.1047   108.7457
  745.5000     5.0730   110.7421
  746.0000     5.0745   112.6338
  746.5000     5.2781   111.3668
  747.0000     5.8447    95.0716
  747.5000     5.9264    79.2731
  748.0000     5.9474    75.6213
  748.5000     5.9278    83.7856
  749.0000     5.9082    93.9924
  749.5000     5.8279    99.6747
  750.0000     5.8084    93.9531
  750.5000     5.8091    92.9717
  751.0000     5.8098    97.7209
  751.5000     5.8105   102.4434
  752.0000     5.8112   107.5457
  752.5000     5.5790   114.0593
  753.0000     5.4408   118.5788
  753.5000     5.3913   121.5991
  754.0000     5.3297   122.3706
  754.5000     5.1712   122.3924
  755.0000     4.9650   124.6630
  755.5000     5.1075   126.1841
  756.0000     5.2095   119.3202
  756.5000     5.0887   117.2322
  757.0000     5.0285   117.4214
  757.5000     5.2520   118.0285
  758.0000     5.3945   119.8102
  758.5000     5.5369   126.3949
  759.0000     5.4550   137.1113
  759.5000     5.4168   141.0096
  760.0000     5.3972   138.3852
  760.5000     5.3980   133.1596
  761.0000     5.3987   121.1874
  761.5000     5.4071   113.7129
  762.0000     5.4698   102.4904
  762.5000     5.5730    72.5271
  763.0000     5.6964    69.5504
  763.5000     5.6251    69.6052
  764.0000     5.4841    71.3341
  764.5000     5.4240    80.0001
  765.0000     5.3842    89.5545
  765.5000     5.4051    99.3428
  766.0000     5.4666   100.4159
  766.5000     5.5483    96.8091
  767.0000     5.6097    95.6022
  767.5000     5.0029    95.2399
  768.0000     5.0676    95.2666
  768.5000     5.2113    96.0380
  769.0000     5.2335    98.3087
  769.5000     5.2962   101.3290
  770.0000     5.3669   100.5997
  770.5000     5.5272    99.8733
  771.0000     5.6867    96.8966
  771.5000     5.7291    90.0025
  772.0000     5.7992    83.9283
  772.5000     5.7391    80.0604
  773.0000     5.4766    77.4936
  773.5000     5.3760    85.6589
  774.0000     5.3361    92.6234
  774.5000     5.3571    94.8051
  775.0000     5.4186    93.3281
  775.5000     5.4800    90.2572
  776.0000     5.5034    83.6323
  776.5000     5.5458    77.6571
  777.0000     5.5631    64.9352
  777.5000     5.5841    63.4578
  778.0000     5.6051    67.2277
  778.5000     5.6260    73.9961
  779.0000     5.6470    76.2668
  779.5000     5.6477    69.1753
  780.0000     5.6283    60.9191
  780.5000     5.5480    56.0923
  781.0000     5.4272    58.2605
  781.5000     5.3469    73.8434
  782.0000     5.1653    78.0210
  782.5000     5.0040    81.1844
  783.0000     4.8427    89.2304
  783.5000     4.9479    99.1880
  784.0000     5.2353    89.2393
  784.5000     5.3539    82.5145
  785.0000     5.3517    82.5363
  785.5000     5.3577    87.8055
  786.0000     5.5873   100.5709
  786.5000     5.7386   122.3318
  787.0000     5.8090   135.9217
  787.5000     5.9628   139.6168
  788.0000     5.9408   124.0786
  788.5000     5.8428    92.7583
  789.0000     5.7828    66.0076
  789.5000     5.6822    49.7490
  790.0000     5.6019    75.2624
  790.5000     5.5216    87.5158
  791.0000     5.4818    98.6254
  791.5000     5.4622    91.8261
  792.0000     5.4426    82.8524
  792.5000     5.4434    81.3718
  793.0000     5.4441    82.1463
  793.5000     5.4739    91.9132
  794.0000     5.5897   106.9276
  794.5000     5.7099   101.7020
  795.0000     5.8074    94.7781
  795.5000     5.8433    83.4663
  796.0000     5.7812    77.3009
  796.5000     5.7208    72.4684
  797.0000     5.6726    66.1517
  797.5000     5.6733    62.5936
  798.0000     5.6740    58.6406
  798.5000     5.8367    54.6899
  799.0000     6.0601    60.1652
  799.5000     6.2228    68.1977
  800.0000     6.2235    67.7027
  800.5000     6.0176    66.1369
  801.0000     5.6656    63.7104
  801.5000     5.4749    58.4594
  802.0000     5.3941    51.6039
  802.5000     5.4753    47.2076
  803.0000     5.5970    51.7582
  803.5000     5.4757    63.6925
  804.0000     5.4151    52.6639
  804.5000     5.4787    44.0970
  805.0000     5.5414    42.5786
  805.5000     5.5698    59.1786
  806.0000     5.6626    58.4254
  806.5000     5.8399    50.1760
  807.0000     6.1277    53.1709
  807.5000     6.2137    66.4599
  808.0000     6.0040    76.5416
  808.5000     5.9637    74.7089
  809.0000     6.0044    57.2737
  809.5000     6.2707    63.1662
  810.0000     6.6791    67.0665
  810.5000     6.7543    70.3855
  811.0000     6.7747    75.6292
  811.5000     6.8228    79.3738
  812.0000     6.8561    81.6192
  812.5000     6.8563    83.9268
  813.0000     6.4921    86.3142
  813.5000     6.2695    88.3550
  814.0000     5.9862    86.6370
  814.5000     5.8851    79.1530
  815.0000     5.8853    72.5264
  815.5000     5.8870    63.6013
  816.0000     5.9295    56.8511
  816.5000     6.0023    55.3482
  817.0000     6.1023    58.3431
  817.5000     6.0863    65.8358
  818.0000     5.6770    74.4668
  818.5000     5.5627    81.7066
  819.0000     5.4819    82.3168
  819.5000     5.4821    79.9773
  820.0000     5.4823    67.7659
  820.5000     5.5086    66.9841
  821.0000     5.5435    69.5571
  821.5000     5.5531    74.0513
  822.0000     5.5754    85.2921
  822.5000     5.5846   113.7743
  823.0000     5.7063   133.4254
  823.5000     6.2735   137.7551
  824.0000     6.1927   117.0718
  824.5000     6.2132   112.2601
  825.0000     6.2556   112.2564
  825.5000     6.2060   109.9863
  826.0000     5.8063   108.5001
  826.5000     5.6064   105.4980
  827.0000     5.6358    97.2485
  827.5000     5.7092    86.0006
  828.0000     5.7286    77.7511
  828.5000     5.8098    72.3777
  829.0000     5.9720    69.9824
  829.5000     6.2152    68.5406
  830.0000     6.3774    69.0907
  830.5000     6.4384    90.3660
  831.0000     6.4125   109.2129
  831.5000     6.2735   103.2115
  832.0000     6.1352    99.4598
  832.5000     6.0296    99.4562
  833.0000     5.8929   105.4497
  833.5000     5.7511   117.6302
  834.0000     5.7918   125.7771
  834.5000     5.9540   123.3519
  835.0000     6.0757   108.3462
  835.5000     6.0556    95.5098
  836.0000     6.0148    92.2939
  836.5000     6.0567    87.4318
  837.0000     6.3521    89.6771
  837.5000     6.4412    97.1698
  838.0000     6.4414   106.1617
  838.5000     6.4416   112.1551
  839.0000     6.4620   113.0161
  839.5000     6.4623   115.2750
  840.0000     6.5030   117.5913
  840.5000     6.5234   118.4084
  841.0000     6.5439   119.2255
  841.5000     6.5441   120.7921
  842.0000     6.5425   124.1223
  842.5000     6.4599   124.3128
  843.0000     6.3667   122.6159
  843.5000     6.2876   117.3649
  844.0000     6.2033   108.2262
  844.5000     6.0581    97.4111
  845.0000     5.9583    92.6162
  845.5000     5.8977    95.0463
  846.0000     6.1207   100.4098
  846.5000     6.4853   100.0989
  847.0000     6.6475    96.3486
  847.5000     6.6882    92.5969
  848.0000     6.6277    89.5948
  848.5000     6.6029    87.3424
  849.0000     6.5405    86.5892
  849.5000     6.4782    88.3001
  850.0000     6.4058    96.4526
  850.5000     6.3250   115.8843
  851.0000     5.9809   122.3415
  851.5000     5.8191   124.0517
  852.0000     5.7181   124.0480
  852.5000     5.6980   120.2955
  853.0000     5.7191   112.7956
  853.5000     5.8141    88.0544
  854.0000     6.0435    71.5591
  854.5000     6.2110    67.0577
  855.0000     6.2457    72.4260
  855.5000     6.1661    82.0866
  856.0000     6.1020    90.8545
  856.5000     6.0844   109.5049
  857.0000     6.1656   134.1180
  857.5000     6.2671   138.9985
  858.0000     6.3077   140.4948
