~VERSION INFORMATION
 VERS.                2.0:   CWLS LOG ASCII STANDARD - VERSION 2.0
 WRAP.                 NO:   ONE LINE PER DEPTH STEP
~WELL INFORMATION
#MNEM.UNIT      DATA TYPE    INFORMATION
#----------   ------------   ------------------------------
 STRT.F           40.0000:   START DEPTH
 STOP.F          490.0000:   STOP DEPTH
 STEP.F            0.5000:   STEP LENGTH
 NULL.          -999.2500:   NO VALUE
 COMP.    FENIX & SCISSON:   COMPANY
 WELL. RES 3 TEAPOT DOM #76-10:   WELL
 FLD .        TEAPOT DOME:   FIELD
 LOC .      S10 T38N R78W:   LOCATION
 CNTY.            NATRONA:   COUNTY
 STAT.            WYOMING:   STATE
 CTRY. UNITED STATES OF AMERICA:   COUNTRY
 SRVC.           BIRDWELL:   SERVICE COMPANY
 DATE.        19-JUN-1978:   LOGDATE
 API .       490251065100:   API NUMBER
~CURVE INFORMATION
#MNEM.UNIT       API CODE    CURVE DESCRIPTION
#----------   ------------   ------------------------------
 DEPT.F                  :   
 CALD.IN     45 280 60 00:   CALIPER FROM DENSITY LOG
 CORR.G/C3   45 356 01 00:   DENSITY CORRECTION
 DPHI.DEC    45 890 12 00:   DENSITY POROSITY SANDSTONE
 GRD .GAPI   45 310 01 00:   GAMMA RAY FROM DENSITY LOG
 RHOB.G/C3   45 350 01 00:   BULK DENSITY
 ILD .OHMM   05 120 46 00:   INDUCTION LOG DEEP
 SN  .OHMM   05 040 16 00:   SHORT NORMAL 16"
 SPR .MV     05 010 01 00:   SPONTANEOUS POTENTIAL FROM RES.
~PARAMETER INFORMATION
#MNEM.UNIT          VALUE    DESCRIPTION
#----------   ------------   ------------------------------
 PD  .                 GL:   PERMANENT DATUM
 EPD .F              5185:   ELEVATION PERMANENT DATUM
 LMF .                 KB:   LOG MEASURED FROM
 DAPD.F                 4:   FEET ABOVE PERMANENT DATUM
 DMF .                 KB:   DRILLING MEASURED FROM
 EKB .F              5189:   KELLING BUSHING
 EGL .F              5185:   GROUND LEVEL
 DATE.        19-JUN-1978:   RUN DATE
 RUN .                  1:   RUN NUMBER
 DD  .F               485:   DEPTH DRILLER
 DL  .F               490:   DEPTH LOGGER
 BLI .F               490:   BOTTOM LOG INTERVAL
 TLI .F                50:   TOP LOG INTERVAL
 CS  .IN            8.625:   CASING SIZE
 CBD .F                30:   CASING BOTTOM DRILLER
 CBL .F                30:   CASING BOTTOM LOGGER
 BS  .IN            7.875:   BIT SIZE
 BSD .F               485:   BIT SIZE AT DEPTH
 DFT .                KCL:   DRILLING FLUID TYPE
 DFD .                8.7:   DRILLING FLUID DENSITY
 DFV .                 34:   DRILLING FLUID VISCOSITY
 DFPH.               10.5:   DRILLING FLUID PH
 MSS .           FLOWLINE:   MUD SAMPLE SOURCE
 RMS .OHMM           0.24:   RESISTIVITY MUD SAMPLE
 MST .F                70:   MUD SAMPLE TEMPERATURE
 RMF .OHMM           0.24:   RESISTIVITY MUD FILTRATE SAMPLE
 MFST.F                72:   MUD FILTRATE SAMPLE TEMPERATURE
 RMC .OHMM           0.28:   RESISTIVITY MUD CAKE
 MCST.F                78:   MUD CAKE SAMPLE TEMPERATURE
 MFSS.               MEAS:   MUD FILTRATE SAMPLE SOURCE
 MCSS.               MEAS:   MUD CAKE SAMPLE SOURCE
 RMB .OHMM           0.27:   RESISTIVITY MUD AT BHT
 BHT .F                74:   BOTTOM HOLE TEMPERATURE
 TCS .HRS               1:   TIME CURCULATED STOPPED
 MRT .F                74:   MAXIMUM RECORDED TEMPERATURE
 LUN .               2958:   LOGGING UNIT NUMBER
 LUL .               CASP:   LOGGING UNIT LOCATION
 ENGI.           REYNOLDS:   RECORDING ENGINEER
 WITN.           MCGINLEY:   WITNESSED BY
 CLNT.            A2DTECH:   CLIENT CODE
 ORIG.           5" PRINT:   ORIGIN OF DATA
 UWI .       490251065100:   UNIQUE WELL ID
 DICO. A2D Technologies, Inc.:   DIGITIZING COMPANY
~OTHER INFORMATION
~A   DEPT     CALD       CORR       DPHI        GRD       RHOB        ILD         SN        SPR   
# ...
  445.0000     7.2474     0.0011     0.1295   106.0086     2.4511     4.9312     6.6012   -42.7635
  445.5000     7.2475     0.0027     0.1307   106.7574     2.4504     4.5713     6.0043   -43.1064
  446.0000     7.2627     0.0132     0.1370   111.4022     2.4287     4.5090     5.7989   -43.5585
  446.5000     7.2628     0.0253     0.1433   116.9380     2.4249     4.6355     5.6784   -44.0138
  447.0000     7.2780     0.0402     0.1515   122.4739     2.4226     4.6358     5.6769   -44.3178
  447.5000     7.3081     0.0537     0.1568   128.0097     2.4280     4.6682     5.9153   -43.2526
  448.0000     7.3532     0.0163     0.1486   116.6746     2.4700     4.7660     6.2069   -42.0517
  448.5000     7.4284     0.0104     0.1254   103.4163     2.4925     5.0367     6.6953   -41.4480
  449.0000     7.3985     0.0194     0.1060    99.7976     2.5114     5.2860     7.8868   -40.9955
  449.5000     7.3087     0.0224     0.0984    99.2595     2.5180     5.5477     8.8215   -40.5315
  450.0000     7.2039     0.0269     0.0944   102.3494     2.5232     5.9032     9.0040   -39.9394
  450.5000     7.1741     0.0225     0.0917   103.5500     2.5263     7.4625     9.2539   -40.2504
  451.0000     7.2342     0.0158     0.0905   102.1893     2.5240     7.3603     9.3862   -40.2575
  451.5000     7.3393     0.0113     0.0932   100.6790     2.5120     7.2596     9.5742   -40.2647
  452.0000     7.3844     0.0069     0.0967   100.2229     2.4993     7.1602     9.6375   -40.2723
  452.5000     7.3995     0.0159     0.1034   101.2719     2.5008     7.0136     9.7018   -40.2806
  453.0000     7.3247     0.0264     0.1099   102.6231     2.5203     7.0621     9.7665   -40.1364
  453.5000     7.2499     0.0235     0.0997   103.6157     2.5286     7.1602     9.8314   -39.7710
  454.0000     7.1901     0.0190     0.0923   104.4921     2.5264     7.3603     9.8966   -39.2447
  454.5000     7.2203     0.0191     0.0947   105.2381     2.5188     7.5661     9.9456   -38.9493
  455.0000     7.2954     0.0206     0.0971   105.3916     2.5099     7.7777    10.0336   -38.5025
  455.5000     7.2955     0.0192     0.0994   102.6843     2.5062     7.8315    10.0960   -38.2738
  456.0000     7.2507     0.0132     0.1012   102.5359     2.5144     7.8315    10.0928   -37.9116
  456.5000     7.2358     0.0088     0.0997   102.6900     2.5214     7.8857    10.0901   -37.9205
  457.0000     7.2060     0.0118     0.1003   102.2411     2.5089     7.9951    10.1572   -37.7761
  457.5000     7.2074     0.0149     0.1042   101.5914     2.5055     8.1622    10.1542   -37.4809
  458.0000     7.2087     0.0164     0.1066   100.8921     2.5021     8.3714    10.1516   -37.3367
  458.5000     7.1940     0.0180     0.1051   100.2926     2.4987     8.5658    10.1488   -37.3449
  459.0000     7.1943     0.0180     0.1042   100.7473     2.4974     8.5658    10.1460   -37.3527
  459.5000     7.1946     0.0180     0.1042   102.5574     2.4974     8.5658    10.1432   -37.3601
  460.0000     7.1950     0.0181     0.1045   104.3675     2.4975     8.5069    10.1403   -37.3687
  460.5000     7.1802     0.0181     0.1042   105.7265     2.4990     8.5069    10.1376   -37.3752
  461.0000     7.1756     0.0182     0.1030   106.0305     2.5005     8.5658    10.1348   -37.3828
  461.5000     7.1658     0.0167     0.1017   106.3346     2.5005     8.5658    10.1320   -37.3903
  462.0000     7.1511     0.0166     0.1008   106.4874     2.4990     8.5658    10.1292   -37.3989
  462.5000     7.1364     0.0153     0.1002   106.0392     2.4968     8.5658    10.1264   -37.4054
  463.0000     7.1668     0.0169     0.1029    98.8138     2.4946     8.5658    10.0535   -37.4130
  463.5000     7.2420     0.0169     0.1095    99.1179     2.4961     8.5658    10.0507   -37.5850
  464.0000     7.2873     0.0184     0.1108    98.8196     2.5006     8.5658     9.9792   -37.8820
  464.5000     7.2420     0.0185     0.1052    98.0694     2.5045     8.5658     9.9074   -37.8901
  465.0000     7.2129     0.0185     0.1011    96.7169     2.5059     8.5069     9.9050   -37.8971
  465.5000     7.2432     0.0186     0.1005    99.5819     2.5037     8.5069     9.9022   -38.0560
  466.0000     7.2735     0.0171     0.1029   106.8137     2.5000     8.4485     9.8313   -38.0732
  466.5000     7.2888     0.0172     0.1032   106.6652     2.4977     8.4219     9.7605   -38.2229
  467.0000     7.2891     0.0170     0.1019   106.6688     2.5008     8.3256     9.7583   -38.3819
  467.5000     7.2594     0.0158     0.0992   106.6717     2.5038     8.2637     9.7552   -38.3888
  468.0000     7.1997     0.0143     0.0983   103.0608     2.5038     8.2187     9.7529   -38.4307
  468.5000     7.1850     0.0189     0.0989   101.8581     2.5008     8.2187     9.7497   -38.5557
  469.0000     7.1703     0.0219     0.1016   103.9702     2.4986     8.2187     9.7475   -38.7141
  469.5000     7.1556     0.0249     0.1040   104.1229     2.5009     8.2187     9.7444   -38.7230
  470.0000     7.1560     0.0250     0.1001   103.0723     2.5039     8.2187     9.7421   -38.7292
  470.5000     7.1713     0.0265     0.0974   105.1843     2.5084     8.1622     9.7394   -38.7373
  471.0000     7.2015     0.0250     0.0968   107.5968     2.5122     8.0458     9.6696   -38.7456
  471.5000     7.2318     0.0221     0.0974   108.3520     2.5100     7.9402     9.6004   -38.7519
  472.0000     7.2621     0.0192     0.0980   107.3014     2.5152     7.8315     9.5315   -38.7604
  472.5000     7.2324     0.0177     0.0991   106.8524     2.5123     7.7777     9.5094   -38.7670
  473.0000     7.1878     0.0178     0.1004   107.0066     2.5069     7.6712     9.4604   -38.7746
  473.5000     7.1430     0.0193     0.1015   107.1601     2.5041     7.6712     9.4521   -38.7822
  474.0000     7.1733     0.0223     0.1027   107.3135     2.5093     7.5661     9.3905   -38.7897
  474.5000     7.2336     0.0300     0.0958   107.9188     2.5183     7.4113     9.3229   -38.9490
  475.0000     7.2189     0.0314     0.0919   108.2229     2.5281     7.3603     9.3207   -39.1086
  475.5000     7.1893     0.0285     0.0904   106.2686     2.5371     7.2861     9.3178   -39.2663
  476.0000     7.1745     0.0210     0.0919   102.2053     2.5342     7.2097     9.3155   -39.2738
  476.5000     7.2048     0.0166     0.0943   102.0568     2.5192     7.1602     9.3129   -39.2814
  477.0000     7.2651     0.0183     0.0967   102.2110     2.5125     7.1110     9.3102   -39.2890
  477.5000     7.2954     0.0256     0.0976   103.1175     2.5162     7.0621     9.3078   -39.2978
  478.0000     7.2957     0.0257     0.0927   107.7897     2.5199     7.0621     9.3052   -39.3041
  478.5000     7.2360     0.0257     0.0900   108.8468     2.5260     7.0621     9.3027   -39.3117
  479.0000     7.2062     0.0243     0.0879   108.8497     2.5313     7.0136     9.2997   -39.3204
  479.5000     7.1766     0.0259     0.0867   108.2501     2.5373     7.0136     9.2975   -39.3805
  480.0000     7.1769     0.0289     0.0891   106.5964     2.5336     7.0136     9.2949   -39.4865
  480.5000     7.2672     0.0295     0.0924   105.0932     2.5186     7.0034     9.2877   -39.4936
  481.0000     7.3275     0.0319     0.0918   108.5607     2.5239     6.9654     9.2257   -39.7307
  481.5000     7.3427     0.0335     0.0909   113.2322     2.5284     6.9654     9.2872   -39.9634
  482.0000     7.2174     0.0365     0.0912   104.5001     2.5254     6.9654     9.2847   -40.1218
  482.5000     7.1634     0.0380     0.0927   113.8869     2.5202     6.9175     9.2818   -40.7341
  483.0000     7.1487     0.0396     0.0941  -999.2500     2.5195     6.8228     9.2794   -40.8926
  483.5000     7.1790     0.0426     0.0929  -999.2500     2.5277     6.8228     9.2770   -41.0669
  484.0000     7.1493     0.0442     0.0905  -999.2500     2.5330     6.8228     9.2744   -41.2103
  484.5000     7.1346     0.0382     0.0893  -999.2500     2.5338  -999.2500  -999.2500  -999.2500
  485.0000     7.1349     0.0323     0.0893  -999.2500     2.5256  -999.2500  -999.2500  -999.2500
