~VERSION INFORMATION
 VERS.                2.0:   CWLS LOG ASCII STANDARD - VERSION 2.0
 WRAP.                 NO:   ONE LINE PER DEPTH STEP
~WELL INFORMATION
#MNEM.UNIT      DATA TYPE    INFORMATION
#----------   ------------   ------------------------------
 STRT.F           86.0000:   START DEPTH
 STOP.F          708.0000:   STOP DEPTH
 STEP.F            0.5000:   STEP LENGTH
 NULL.          -999.2500:   NO VALUE
 COMP. U S NAVY/INTEX OIL CO:   COMPANY
 WELL.      33 S-11 #3-11:   WELL
 FLD .             TEAPOT:   FIELD
 LOC .      S11 T38N R78W:   LOCATION
 CNTY.            NATRONA:   COUNTY
 STAT.            WYOMING:   STATE
 CTRY. UNITED STATES OF AMERICA:   COUNTRY
 SRVC.       Schlumberger:   SERVICE COMPANY
 DATE.        11-JUL-1962:   LOGDATE
 API .       490250636000:   API NUMBER
~CURVE INFORMATION
#MNEM.UNIT       API CODE    CURVE DESCRIPTION
#----------   ------------   ------------------------------
 DEPT.F                  :   
 SPR .MV     05 010 01 00:   SPONTANEOUS POTENTIAL FROM RES.
 CILD.MMHO   05 110 46 00:   CONDUCTIVITY INDUCTION LOG DEEP
 ILD .OHMM   05 120 46 00:   INDUCTION LOG DEEP
 ASN .OHMM   05 041 16 00:   AMPLIFIED SHORT NORMAL 16"
 GR  .GAPI   30 310 01 00:   GAMMA RAY
~PARAMETER INFORMATION
#MNEM.UNIT          VALUE    DESCRIPTION
#----------   ------------   ------------------------------
 PD  .                 GL:   PERMANENT DATUM
 EPD .F              5171:   ELEVATION PERMANENT DATUM
 LMF .                 KB:   LOG MEASURED FROM
 DAPD.F                 5:   FEET ABOVE PERMANENT DATUM
 DMF .                 KB:   DRILLING MEASURED FROM
 EKB .F              5176:   KELLING BUSHING
 EGL .F              5171:   GROUND LEVEL
 DATE.            7-11-62:   RUN DATE
 RUN .                  1:   RUN NUMBER
 DD  .F               710:   DEPTH DRILLER
 DL  .F               709:   DEPTH LOGGER
 BLI .F               708:   BOTTOM LOG INTERVAL
 TLI .F                86:   TOP LOG INTERVAL
 BS  .IN             6.75:   BIT SIZE
 BSD .F               710:   BIT SIZE AT DEPTH
 DFT .            GEL/OIL:   DRILLING FLUID TYPE
 DFD .               10.3:   DRILLING FLUID DENSITY
 DFV .                 50:   DRILLING FLUID VISCOSITY
 DFL .                3.7:   DRILLING FLUID LOSS
 RMS .OHMM           5.66:   RESISTIVITY MUD SAMPLE
 MST .F                77:   MUD SAMPLE TEMPERATURE
 RMF .OHMM           4.44:   RESISTIVITY MUD FILTRATE SAMPLE
 MFST.F                77:   MUD FILTRATE SAMPLE TEMPERATURE
 RMC .OHMM            5.9:   RESISTIVITY MUD CAKE
 MCST.F                77:   MUD CAKE SAMPLE TEMPERATURE
 TCS .HRS               1:   TIME CURCULATED STOPPED
 LUN .               2503:   LOGGING UNIT NUMBER
 LUL .               CSPR:   LOGGING UNIT LOCATION
 ENGI.             DANNER:   RECORDING ENGINEER
 WITN.          JORGENSEN:   WITNESSED BY
 CLNT.            A2DTECH:   CLIENT CODE
 ORIG.       2", 5" PRINT:   ORIGIN OF DATA
 UWI .       490250636000:   UNIQUE WELL ID
 DICO. A2D Technologies, Inc.:   DIGITIZING COMPANY
~OTHER INFORMATION
~A   DEPT      SPR        CILD         ILD        ASN       GR   
   86.0000   -60.3870   336.8687     2.9798     3.5252  -999.2500
   86.5000   -60.5320   345.2189     2.9431     3.5079  -999.2500
   87.0000   -61.0053   357.0876     2.8704     3.2536  -999.2500
   87.5000   -61.3854   366.5825     2.8123     3.0596  -999.2500
   88.0000   -61.5651   379.2929     2.7397     3.0860  -999.2500
   88.5000   -61.2488   381.6559     2.6671     3.1389  -999.2500
   89.0000   -60.9234   387.3737     2.5945     3.2001  -999.2500
   89.5000   -60.6157   401.8136     2.4572     3.1199  -999.2500
   90.0000   -60.3008   430.9458     2.2988     3.0087  -999.2500
   90.5000   -60.1092   461.1111     2.1386     2.8974  -999.2500
   91.0000   -59.9017   489.3940     2.0863     2.7859  -999.2500
   91.5000   -59.8233   496.4647     2.1103     2.6752  -999.2500
   92.0000   -60.1084   494.4926     2.1359     2.6157  -999.2500
   92.5000   -60.3443   491.1015     2.1609     2.6526  -999.2500
   93.0000   -60.3237   470.2020     2.2270     2.8014  -999.2500
   93.5000   -60.1954   444.7691     2.3201     2.8401  -999.2500
   94.0000   -60.0555   419.3362     2.4659     2.7503  -999.2500
   94.5000   -60.2225   393.9033     2.6930     2.7527  -999.2500
   95.0000   -60.3921   358.1696     2.9188     3.0484  -999.2500
   95.5000   -60.5660   320.2159     3.1455     3.3424  -999.2500
   96.0000   -60.5843   289.1655     3.3730     3.4439  -999.2500
   96.5000   -60.4140   280.3030     3.5780     3.4383  -999.2500
   97.0000   -60.2415   283.6065     3.4811     3.4325  -999.2500
   97.5000   -60.0707   293.0762     3.3777     3.4272  -999.2500
   98.0000   -59.9800   306.0207     3.2758     3.4001  -999.2500
   98.5000   -60.0241   319.2933     3.1752     3.3016  -999.2500
   99.0000   -60.1176   332.6153     3.0712     3.2060  -999.2500
   99.5000   -60.1835   345.9373     2.8551     3.1110  -999.2500
  100.0000   -60.1392   374.9962     2.6446     3.0662  -999.2500
  100.5000   -59.9756   411.7987     2.4350     2.9661  -999.2500
  101.0000   -60.1364   448.1567     2.2193     2.8225  -999.2500
  101.5000   -60.3925   484.6297     2.1400     2.6394  -999.2500
  102.0000   -60.2770   494.1224     2.0968     2.3510  -999.2500
  102.5000   -59.9621   495.0297     2.0699     2.4862  -999.2500
  103.0000   -59.6510   495.9370     2.0707     2.6234  -999.2500
  103.5000   -59.3420   489.4722     2.0959     2.8129  -999.2500
  104.0000   -59.1586   467.0707     2.2267     3.0172  -999.2500
  104.5000   -59.4840   441.3636     2.3479     2.9342  -999.2500
  105.0000   -59.9629   401.9192     2.6805     2.8069  -999.2500
  105.5000   -60.4681   354.1949     3.0347     3.2532  -999.2500
  106.0000   -60.5647   305.8051     3.4408     3.7524  -999.2500
  106.5000   -60.3861   257.4153     3.9467     4.0698  -999.2500
  107.0000   -60.5272   222.2020     4.2917     4.2342  -999.2500
  107.5000   -60.9469   211.9192     4.6490     4.3949  -999.2500
  108.0000   -61.1601   206.4336     4.8347     4.5486  -999.2500
  108.5000   -60.7875   204.4561     4.9041     4.6326  -999.2500
  109.0000   -60.5083   202.5253     4.9707     4.7271  -999.2500
  109.5000   -60.2347   197.7889     5.0357     4.8189  -999.2500
  110.0000   -59.9831   193.4343     5.1139     5.0334  -999.2500
  110.5000   -59.9913   184.2207     5.4392     5.2647  -999.2500
  111.0000   -60.0077   175.5198     5.7649     5.5047  -999.2500
  111.5000   -60.0233   167.3182     6.0959     5.6795  -999.2500
  112.0000   -60.0385   163.4711     6.1810     5.8424  -999.2500
  112.5000   -60.0538   161.1341     6.2524     6.0052  -999.2500
  113.0000   -60.0690   160.2861     6.3106     6.1709  -999.2500
  113.5000   -60.0843   160.6178     6.2816     6.1855  -999.2500
  114.0000   -60.0995   160.9495     6.2540     6.1427  -999.2500
  114.5000   -60.1147   161.2812     6.2266     6.1001  -999.2500
  115.0000   -60.1300   161.6129     6.1992     6.0581  -999.2500
  115.5000   -60.1452   161.9446     6.1719     6.0168  -999.2500
  116.0000   -60.1604   162.8335     6.1445     5.9925  -999.2500
  116.5000   -60.1757   164.3569     6.1172     6.0372  -999.2500
  117.0000   -60.1832   165.8803     6.0898     6.0815  -999.2500
  117.5000   -60.1832   167.4037     6.0625     6.1340  -999.2500
  118.0000   -60.1826   168.9270     6.0351     6.0939  -999.2500
  118.5000   -60.1776   170.0526     6.0078     6.0422  -999.2500
  119.0000   -60.4513   169.0015     5.9804     6.0125  -999.2500
  119.5000   -60.7868   167.9845     5.9531     6.0222  -999.2500
  120.0000   -60.5291   167.6768     5.9257     6.0310  -999.2500
  120.5000   -60.0981   170.0138     5.8984     5.9905  -999.2500
  121.0000   -59.7842   172.2222     5.8710     5.9281  -999.2500
  121.5000   -60.1385   173.3071     5.8438     5.8656  -999.2500
  122.0000   -60.4067   174.2424     5.8150     5.8046  -999.2500
  122.5000   -59.8947   172.0723     5.8618     5.7765  -999.2500
  123.0000   -59.3375   170.0821     5.9362     5.8497  -999.2500
  123.5000   -58.7795   168.0919     6.0120     5.9668  -999.2500
  124.0000   -58.9266   166.1017     6.0876     6.1128  -999.2500
  124.5000   -59.2401   164.1114     6.1631     6.2361  -999.2500
  125.0000   -59.5519   162.1212     6.2379     6.2490  -999.2500
  125.5000   -59.8674   157.5511     6.3179     6.3226  -999.2500
  126.0000   -59.9690   152.9809     6.5177     6.4361  -999.2500
  126.5000   -59.7341   148.4108     6.7205     6.4864  -999.2500
  127.0000   -59.4921   143.8406     6.9229     6.5147  -999.2500
  127.5000   -59.3600   139.2705     7.1242     6.5422  -999.2500
  128.0000   -59.6474   136.5531     7.3270     6.5470  -999.2500
  128.5000   -59.9636   134.8774     7.3800     6.4689  -999.2500
  129.0000   -59.9833   135.3673     7.2996     6.3900  -999.2500
  129.5000   -60.0523   135.8586     7.2178     6.3119  -999.2500
  130.0000   -60.1289   137.8788     7.1345     6.2271  -999.2500
  130.5000   -60.2059   142.2891     7.0567     6.0951  -999.2500
  131.0000   -60.2835   150.4121     6.6704     5.9563  -999.2500
  131.5000   -60.3600   166.1178     6.0906     5.7306  -999.2500
  132.0000   -60.3174   205.1515     5.1917     5.4583  -999.2500
  132.5000   -59.9862   256.5657     4.2947     4.8992  -999.2500
  133.0000   -59.6640   323.5273     3.4035     4.3010  -999.2500
  133.5000   -59.3424   392.7650     2.6511     3.7113  -999.2500
  134.0000   -59.0200   467.1717     2.2573     3.2172  -999.2500
  134.5000   -58.6935   496.4647     1.8507     2.9582  -999.2500
  135.0000   -58.3294   496.8110     1.5364     2.8224  -999.2500
  135.5000   -57.8956   497.1782     1.4673     2.7192  -999.2500
  136.0000   -57.4149   497.5454     1.4574     2.6541  -999.2500
  136.5000   -57.4867   497.9127     1.7207     2.6819  -999.2500
  137.0000   -57.7826   498.2799     1.9782     2.8598  -999.2500
  137.5000   -57.9363   454.3560     2.1910     3.0403  -999.2500
  138.0000   -57.9345   354.5269     2.7025     3.2348  -999.2500
  138.5000   -58.0090   263.1313     3.5273     3.8584  -999.2500
  139.0000   -59.2848   211.2071     4.6038     5.2335  -999.2500
  139.5000   -60.4184   163.3277     6.6629     6.4822  -999.2500
  140.0000   -60.1199   112.6263     8.6446     7.2035  -999.2500
  140.5000   -59.8267    84.7677    10.6054     7.8826  -999.2500
  141.0000   -60.2139    74.2424    11.8958     8.2822  -999.2500
  141.5000   -60.5779    75.2525    11.9473     8.6838  -999.2500
  142.0000   -60.5312    81.1111    11.0937     8.7157  -999.2500
  142.5000   -60.3724    95.3434     9.6720     8.5569  -999.2500
  143.0000   -60.2170   120.1818     8.2664     8.3931  -999.2500
  143.5000   -60.0605   146.5316     6.8599     7.9528  -999.2500
  144.0000   -59.9858   172.8813     5.4690     7.1586  -999.2500
  144.5000   -59.6162   195.9899     5.1160     6.3753  -999.2500
  145.0000   -59.1033   207.4747     4.9045     5.6498  -999.2500
  145.5000   -58.5841   213.4798     4.7149     5.3134  -999.2500
  146.0000   -58.1277   215.3414     4.5208     4.9799  -999.2500
  146.5000   -58.2764   213.2792     4.4838     4.9502  -999.2500
