~VERSION INFORMATION
 VERS.                2.0:   CWLS LOG ASCII STANDARD - VERSION 2.0
 WRAP.                 NO:   ONE LINE PER DEPTH STEP
~WELL INFORMATION
#MNEM.UNIT      DATA TYPE    INFORMATION
#----------   ------------   ------------------------------
 STRT.F           30.0000:   START DEPTH
 STOP.F          677.0000:   STOP DEPTH
 STEP.F            0.5000:   STEP LENGTH
 NULL.          -999.2500:   NO VALUE
 COMP. FENIX & SCISSON INC:   COMPANY
 WELL. TEAPOT DOME #27 SX -2:   WELL
 FLD .             TEAPOT:   FIELD
 LOC .       S2 T38N R78W:   LOCATION
 CNTY.            NATRONA:   COUNTY
 STAT.            WYOMING:   STATE
 CTRY. UNITED STATES OF AMERICA:   COUNTRY
 SRVC.            Unknown:   SERVICE COMPANY
 DATE.        28-JAN-1978:   LOGDATE
 API .       490251056500:   API NUMBER
~CURVE INFORMATION
#MNEM.UNIT       API CODE    CURVE DESCRIPTION
#----------   ------------   ------------------------------
 DEPT.F                  :   
 ILD .OHMM   05 120 46 00:   INDUCTION LOG DEEP
 SN  .OHMM   05 040 16 00:   SHORT NORMAL 16"
 SPR .MV     05 010 01 00:   SPONTANEOUS POTENSIAL
 CALD.IN     45 280 60 00:   CALIPER FROM DENSITY LOG
 CORR.G/C3   45 356 01 00:   DENSITY CORRECTION
 DPHI.DEC    45 890 12 00:   DENSITY POROSITY SANDSTONE
 GRD .GAPI   45 310 01 00:   GAMMA RAY FROM DENSITY LOG
 RHOB.G/C3   45 350 01 00:   BULK DENSITY
~PARAMETER INFORMATION
#MNEM.UNIT          VALUE    DESCRIPTION
#----------   ------------   ------------------------------
 PD  .                 GL:   PERMANENT DATUM
 EPD .F              5147:   ELEVATION PERMANENT DATUM
 LMF .                 KB:   LOG MEASURED FROM
 DAPD.F                 4:   FEET ABOVE PERMANENT DATUM
 DMF .                 KB:   DRILLING MEASURED FROM
 EKB .F              5151:   KELLING BUSHING
 EGL .F              5147:   GROUND LEVEL
 DATE.        28-JAN-1978:   RUN DATE
 RUN .                  1:   RUN NUMBER
 DD  .F               675:   DEPTH DRILLER
 DL  .F               678:   DEPTH LOGGER
 BLI .F               677:   BOTTOM LOG INTERVAL
 TLI .F                40:   TOP LOG INTERVAL
 CS  .IN            8.625:   CASING SIZE
 CBD .F                40:   CASING BOTTOM DRILLER
 CBL .F                40:   CASING BOTTOM LOGGER
 BS  .IN            7.875:   BIT SIZE
 BSD .F               675:   BIT SIZE AT DEPTH
 DFT .                KCL:   DRILLING FLUID TYPE
 DFD .                8.6:   DRILLING FLUID DENSITY
 DFV .                .34:   DRILLING FLUID VISCOSITY
 DFPH.                9.5:   DRILLING FLUID PH
 MSS .           FLOWLINE:   MUD SAMPLE SOURCE
 RMS .OHMM           0.38:   RESISTIVITY MUD SAMPLE
 MST .F                60:   MUD SAMPLE TEMPERATURE
 RMF .OHMM           0.36:   RESISTIVITY MUD FILTRATE SAMPLE
 MFST.F                62:   MUD FILTRATE SAMPLE TEMPERATURE
 RMC .OHMM            0.7:   RESISTIVITY MUD CAKE
 MCST.F                63:   MUD CAKE SAMPLE TEMPERATURE
 MFSS.               MEAS:   MUD FILTRATE SAMPLE SOURCE
 MCSS.               MEAS:   MUD CAKE SAMPLE SOURCE
 RMB .OHMM           0.31:   RESISTIVITY MUD AT BHT
 BHT .F                76:   BOTTOM HOLE TEMPERATURE
 TCS .HRS               3:   TIME CURCULATED STOPPED
 MRT .F                76:   MAXIMUM RECORDED TEMPERATURE
 LUN .               2958:   LOGGING UNIT NUMBER
 LUL .             CASPER:   LOGGING UNIT LOCATION
 ENGI.           REYNOLDS:   RECORDING ENGINEER
 WITN.     MR. HARRINGTON:   WITNESSED BY
 CLNT.            A2DTECH:   CLIENT CODE
 ORIG.           5" PRINT:   ORIGIN OF DATA
 UWI .       490251056500:   UNIQUE WELL ID
 DICO. A2D Technologies, Inc.:   DIGITIZING COMPANY
~OTHER INFORMATION
~A   DEPT      ILD         SN        SPR       CALD       CORR       DPHI        GRD       RHOB   
# ...
  111.0000     8.1311     7.0285   -55.5422     8.7114     0.0837     0.1437   108.0689     2.4231
  111.5000     7.7550     6.7398   -57.7561     8.7143     0.0898     0.1425   108.8256     2.4239
  112.0000     7.4474     6.4833   -58.7777     8.7165     0.1005     0.1394   107.3747     2.4270
  112.5000     7.2511     6.4448   -59.9603     8.7034     0.1126     0.1364   104.5858     2.4301
  113.0000     7.2071     6.3641   -60.8155     8.7063     0.1263     0.1364   103.4260     2.4354
  113.5000     7.2133     6.3248   -61.2409     8.7085     0.1341     0.1363   102.2653     2.4362
  114.0000     7.2200     6.3322   -61.6718     8.7256     0.1371     0.1357   105.1044     2.4341
  114.5000     7.2258     6.3381   -61.7992     8.7131     0.1358     0.1327   105.2693     2.4416
  115.0000     7.1805     6.3442   -62.2193     8.7159     0.1360     0.1308   105.1441     2.4455
  115.5000     7.2373     6.3513   -62.4958     8.7179     0.1346     0.1299   105.7643     2.4479
  116.0000     7.2431     6.3572   -62.7779     8.7203     0.1348     0.1400   104.7515     2.4479
  116.5000     7.2503     6.3631   -63.3467     8.7227     0.1352     0.1397   104.1825     2.4348
  117.0000     7.2551     6.3690   -63.6178     8.7250     0.1426     0.1411   103.6192     2.4271
  117.5000     7.2618     6.3749   -63.8996     8.7125     0.1638     0.1504   103.9378     2.4175
  118.0000     7.2671     6.3810   -64.3197     8.6851     0.1955     0.1467   104.8480     2.4131
  118.5000     7.2734     6.4768   -64.6015     8.6578     0.1971     0.1429   105.3146     2.4140
  119.0000     7.2792     6.5727   -65.0224     8.6310     0.1973     0.1354   104.7456     2.4253
  119.5000     7.2850     6.5788   -65.5961     8.6333     0.1959     0.1278   104.0343     2.4425
  120.0000     7.1926     6.5849   -66.0407     8.6356     0.1871     0.1248   103.1695     2.4434
  120.5000     7.1983     6.5911   -66.5907     8.6379     0.1633     0.1187   102.3046     2.4525
  121.0000     7.1547     6.5519   -67.0162     8.6407     0.1349     0.1166   104.1025     2.4585
  121.5000     7.1604     6.5582   -67.4416     8.6430     0.1351     0.1456   105.1607     2.4377
  122.0000     7.1661     6.5656   -67.8725     8.6452     0.1353     0.1512   104.8876     2.4206
  122.5000     7.1718     6.5709   -68.2926     8.6475     0.1354     0.1527   105.8036     2.4117
  123.0000     7.1776     6.5779   -68.5691     8.6498     0.1341     0.1475   107.6014     2.4110
  123.5000     7.1847     6.5840   -69.0074     8.6526     0.1313     0.1463   106.5886     2.4164
  124.0000     7.1904     6.5901   -69.5636     8.6545     0.1282     0.1457   105.8660     2.4172
  124.5000     7.1961     6.5962   -69.6964     8.6572     0.1091     0.1447   106.1903     2.4180
  125.0000     7.2019     6.6102   -69.9675     8.6594     0.1018     0.1498   106.3609     2.4188
  125.5000     7.2573     6.6557   -70.1003     8.6617     0.0989     0.1518   107.1290     2.4115
  126.0000     7.3637     6.6619   -70.0733     8.6640     0.0931     0.1503   106.8559     2.4056
  126.5000     7.4261     6.7605   -70.0517     8.6664     0.0842     0.1473   105.1034     2.4102
  127.0000     7.5307     6.7668   -70.1791     8.6691     0.0814     0.1484   102.3155     2.4185
  127.5000     7.6411     6.7731   -70.1521     8.6714     0.0816     0.1508   101.1548     2.4148
  128.0000     7.7000     6.8734   -70.1305     8.6737     0.0818     0.1513    99.6982     2.4059
  128.5000     7.7061     6.8813   -70.2633     8.6759     0.0819     0.1528    99.5730     2.4053
  129.0000     7.8191     6.9832   -70.3907     8.6634     0.0821     0.1551    99.7437     2.4038
  129.5000     7.8794     6.9897   -70.5181     8.6657     0.0791     0.1497    99.0324     2.4062
  130.0000     7.9403     7.0445   -70.4911     8.6531     0.0704     0.1425   100.0907     2.4123
  130.5000     7.9480     7.0997   -70.4695     8.6406     0.0646     0.1398   100.7051     2.4283
  131.0000     7.9543     7.1063   -70.4471     8.6434     0.0632     0.1385   100.2840     2.4312
  131.5000     7.9606     7.1131   -70.4208     8.6308     0.0649     0.1397    99.5728     2.4305
  132.0000     8.0773     7.1704   -70.3992     8.6332     0.0696     0.1456    99.1517     2.4239
  132.5000     8.1396     7.1771   -70.5320     8.6360     0.0742     0.1480    99.6182     2.4187
  133.0000     8.2023     7.2326   -70.5050     8.6383     0.0774     0.1459   101.7120     2.4188
  133.5000     8.2091     7.1887   -70.4834     8.6406     0.0776     0.1440   101.1430     2.4219
  134.0000     8.1047     7.1477   -70.4618     8.6275     0.0777     0.1419   101.6095     2.4250
  134.5000     7.9988     7.1544   -70.4396     8.6303     0.0779     0.1410   102.2248     2.4310
  135.0000     7.8973     7.1613   -70.4131     8.6326     0.0781     0.1409   102.8440     2.4274
  135.5000     7.9036     7.1693   -70.3915     8.6350     0.0782     0.1397   104.6419     2.4252
  136.0000     7.9099     7.1809   -70.3699     8.6377     0.0784     0.1379   104.5167     2.4335
  136.5000     7.9163     7.2323   -70.3483     8.6397     0.0801     0.1369   104.3915     2.4351
  137.0000     7.9241     7.2890   -70.3267     8.6423     0.0817     0.1378   104.5621     2.4330
  137.5000     7.8760     7.2958   -70.3051     8.6445     0.0819     0.1362   104.4132     2.4331
  138.0000     7.8267     7.1533   -70.1341     8.6470     0.0790     0.1356   102.0985     2.4376
  138.5000     7.8345     7.1108   -70.1074     8.6492     0.0732     0.1332   104.0443     2.4400
  139.0000     7.7855     7.1191   -70.0858     8.6516     0.0689     0.1298   105.5406     2.4402
  139.5000     7.7932     7.1257   -70.0642     8.6542     0.0660     0.1292   101.7228     2.4417
  140.0000     7.7460     7.1323   -70.1970     8.6565     0.0612     0.1262   100.5621     2.4447
  140.5000     7.7537     7.0413   -70.1700     8.6439     0.0566     0.1283    98.6618     2.4471
  141.0000     7.7598     7.0479   -70.1483     8.6462     0.0516     0.1363   101.2050     2.4479
  141.5000     7.7660     7.0062   -70.1267     8.6491     0.0517     0.1356   101.8194     2.4375
  142.0000     7.8259     7.0142   -69.9553     8.6510     0.0549     0.1377   100.9546     2.4358
  142.5000     7.8321     7.0692   -69.9291     8.6536     0.0610     0.1395   100.5335     2.4317
  143.0000     7.7845     7.0758   -69.9074     8.6559     0.0702     0.1343   100.5562     2.4356
  143.5000     7.7909     7.0823   -69.8858     8.6582     0.0688     0.1336   101.7680     2.4409
  144.0000     7.7986     7.0401   -69.8642     8.6604     0.0630     0.1310   101.9387     2.4425
  144.5000     7.7497     7.0469   -69.8426     8.6633     0.0617     0.1348   101.9614     2.4478
  145.0000     7.7036     7.1024   -69.9702     8.6656     0.0589     0.1318   100.3569     2.4449
  145.5000     7.7104     7.1092   -69.9478     8.6678     0.0514     0.1282    98.3086     2.4435
  146.0000     7.7165     7.1170   -69.9214     8.6701     0.0397     0.1302    98.4793     2.4481
  146.5000     7.7227     7.1236   -69.8998     8.6724     0.0338     0.1344   100.2288     2.4481
  147.0000     7.7290     7.1302   -69.8781     8.6747     0.0370     0.1352   102.3766     2.4430
  147.5000     7.7365     7.1368   -69.8565     8.6770     0.0417     0.1367   102.6951     2.4371
  148.0000     7.7427     7.1436   -69.6859     8.6798     0.0508     0.1372   102.1262     2.4379
  148.5000     7.8024     7.1518   -69.6643     8.6821     0.0585     0.1417   101.2604     2.4283
  149.0000     7.8086     7.1076   -69.6423     8.6843     0.0677     0.1407   101.5799     2.4261
  149.5000     7.8148     7.1142   -69.6156     8.6866     0.0769     0.1376   102.0720     2.4307
  150.0000     7.7674     7.0720   -69.5994     8.6741     0.0815     0.1341   103.4005     2.4390
  150.5000     7.6674     7.0300   -69.6863     8.6615     0.0817     0.1325   102.3934     2.4459
  151.0000     7.4667     6.9899   -69.7668     8.6639     0.0803     0.1292   101.5285     2.4490
