~VERSION INFORMATION
 VERS.                2.0:   CWLS LOG ASCII STANDARD - VERSION 2.0
 WRAP.                 NO:   ONE LINE PER DEPTH STEP
~WELL INFORMATION
#MNEM.UNIT      DATA TYPE    INFORMATION
#----------   ------------   ------------------------------
 STRT.F           36.0000:   START DEPTH
 STOP.F          564.0000:   STOP DEPTH
 STEP.F            0.5000:   STEP LENGTH
 NULL.          -999.2500:   NO VALUE
 COMP.    FENIX & SCISSON:   COMPANY
 WELL.        NPR #73-S-3:   WELL
 FLD .             TEAPOT:   FIELD
 LOC .       S3 T38N R78W:   LOCATION
 CNTY.            NATRONA:   COUNTY
 STAT.            WYOMING:   STATE
 CTRY. UNITED STATES OF AMERICA:   COUNTRY
 SRVC.       Schlumberger:   SERVICE COMPANY
 DATE.        19-FEB-1977:   LOGDATE
 API .       490251027900:   API NUMBER
~CURVE INFORMATION
#MNEM.UNIT       API CODE    CURVE DESCRIPTION
#----------   ------------   ------------------------------
 DEPT.F                  :   
 SPR .MV     07 010 01 00:   SPONTANEOUS POTENTIAL
 ILD .OHMM   07 120 46 00:   INDUCTION LOG DEEP
 ILM .OHMM   07 120 44 00:   INDUCTION LOG MEDIUM
 LL8 .OHMM   07 220 08 00:   LATEROLOG-8 RES.
 CALD.IN     45 280 60 00:   CALIPER FROM DENSITY LOG
 CORR.G/C3   45 356 01 00:   DENSITY CORRECTION
 RHOB.G/C3   45 350 01 00:   BULK DENSITY
 DPHI.DEC    45 890 12 00:   DENSITY POROSITY SANDSTONE
 GRD .GAPI   45 310 01 00:   GAMMA RAY FROM DENSITY LOG
~PARAMETER INFORMATION
#MNEM.UNIT          VALUE    DESCRIPTION
#----------   ------------   ------------------------------
 PD  .                 GL:   PERMANENT DATUM
 EPD .F              5128:   ELEVATION PERMANENT DATUM
 LMF .                 GL:   LOG MEASURED FROM
 DAPD.F                 5:   FEET ABOVE PERMANENT DATUM
 DMF .                 KB:   DRILLING MEASURED FROM
 EKB .F              5133:   KELLING BUSHING
 EGL .F              5128:   GROUND LEVEL
 DATE.        19-FEB-1977:   RUN DATE
 RUN .                  1:   RUN NUMBER
 DD  .F               570:   DEPTH DRILLER
 DL  .F               565:   DEPTH LOGGER
 BLI .F               564:   BOTTOM LOG INTERVAL
 TLI .F                36:   TOP LOG INTERVAL
 CS  .IN            8.625:   CASING SIZE
 CBD .F                40:   CASING BOTTOM DRILLER
 CBL .F                41:   CASING BOTTOM LOGGER
 BS  .IN            7.875:   BIT SIZE
 BSD .F               570:   BIT SIZE AT DEPTH
 DFT .                FGM:   DRILLING FLUID TYPE
 DFD .                8.9:   DRILLING FLUID DENSITY
 DFV .                 31:   DRILLING FLUID VISCOSITY
 DFPH.                8.2:   DRILLING FLUID PH
 DFL .                9.2:   DRILLING FLUID LOSS
 MSS .            MUD PIT:   MUD SAMPLE SOURCE
 RMS .OHMM           .244:   RESISTIVITY MUD SAMPLE
 MST .F                78:   MUD SAMPLE TEMPERATURE
 RMF .OHMM           .233:   RESISTIVITY MUD FILTRATE SAMPLE
 MFST.F                68:   MUD FILTRATE SAMPLE TEMPERATURE
 RMC .OHMM            .36:   RESISTIVITY MUD CAKE
 MCST.F                78:   MUD CAKE SAMPLE TEMPERATURE
 MFSS.               MEAS:   MUD FILTRATE SAMPLE SOURCE
 MCSS.               CALC:   MUD CAKE SAMPLE SOURCE
 RMB .OHMM            .35:   RESISTIVITY MUD AT BHT
 BHT .F                55:   BOTTOM HOLE TEMPERATURE
 TCS .HRS               2:   TIME CURCULATED STOPPED
 MRT .F                55:   MAXIMUM RECORDED TEMPERATURE
 LUN .               7711:   LOGGING UNIT NUMBER
 LUL .               CSPR:   LOGGING UNIT LOCATION
 ENGI.                FIX:   RECORDING ENGINEER
 WITN.           VOORHEES:   WITNESSED BY
 CLNT.            A2DTECH:   CLIENT CODE
 ORIG.           5" PRINT:   ORIGIN OF DATA
 UWI .       490251027900:   UNIQUE WELL ID
 DICO. A2D Technologies, Inc.:   DIGITIZING COMPANY
~OTHER INFORMATION
~A   DEPT      SPR        ILD        ILM        LL8       CALD       CORR       RHOB       DPHI        GRD   
# ...
  182.0000   -53.4418     8.8622     8.3651     8.3411     9.4595     0.0457     2.4819     0.1002   120.2544
  182.5000   -53.4269     8.8678     8.3116     8.1759     9.4606     0.0390     2.4910     0.0951   119.0768
  183.0000   -53.4120     8.8733     8.1469     8.1249     9.4616     0.0458     2.4843     0.0959   118.4953
  183.5000   -53.6951     8.9401     8.1532     8.1300     9.4628     0.0368     2.4769     0.1004   115.6784
  184.0000   -54.1273     8.9457     8.1573     8.1350     9.4787     0.0414     2.4814     0.0998   111.2222
  184.5000   -54.4105     9.0131     8.1623     8.1962     9.4947     0.0339     2.4800     0.1016   110.6354
  185.0000   -54.8464     9.0187     8.1768     8.2579     9.5552     0.0287     2.4815     0.1004   110.5063
  185.5000   -55.2748     9.0243     8.2289     8.3774     9.6753     0.0355     2.4891     0.0962   111.4888
  186.0000   -55.5617     9.0300     8.2908     8.5572     9.7507     0.0423     2.5012     0.0901   113.8180
  186.5000   -55.8448     9.0356     8.3599     8.8012     9.7517     0.0506     2.5147     0.0832   114.7269
  187.0000   -56.2733     9.0412     8.5915     8.8674     9.6784     0.0611     2.5299     0.0750   116.5299
  187.5000   -56.4111     9.1093     8.6562     8.8729     9.5455     0.0672     2.5351     0.0650   117.5878
  188.0000   -56.5453     9.2414     8.6021     8.8176     9.4274     0.0432     2.4983     0.0768   118.0496
  188.5000   -56.5266     9.3110     8.6105     8.7026     9.3392     0.0388     2.4826     0.1003   116.7230
  189.0000   -56.5117     9.4459     8.7341     8.7080     9.3104     0.0290     2.4767     0.0960   110.4783
  189.5000   -56.4968     9.5829     8.7978     8.7736     9.2966     0.0457     2.4948     0.0855   107.5087
  190.0000   -56.3328     9.7218     8.7429     8.8998     9.3125     0.0517     2.5083     0.0981   107.6761
  190.5000   -56.3179     9.7950     8.8088     8.9668     9.3284     0.0372     2.4866     0.0966   108.2869
  191.0000   -56.1540     9.8688     8.9363     9.0965     9.3297     0.0328     2.4889     0.0948   109.9409
  191.5000   -55.9900     9.9432     9.1283     9.1649     9.3307     0.0270     2.4867     0.0947   112.6381
  192.0000   -55.6770    10.0181     9.2605     9.3940     9.3317     0.0211     2.4845     0.1007   115.0373
  192.5000   -55.2150    10.0243     9.3946     9.5299     9.3327     0.0196     2.4650     0.1125   116.3934
  193.0000   -54.9021    10.0998     9.3360     9.4705     9.3186     0.0241     2.4576     0.1164   116.8723
  193.5000   -54.4401    10.1061     9.2776     9.3470     9.2158     0.0159     2.4441     0.1218   117.7909
  194.0000   -53.9780    10.1823     9.1566     9.1305     9.0977     0.0137     2.4424     0.1278   118.5274
  194.5000   -53.6651    10.1187     9.0373     9.0425     9.0390     0.0205     2.4577     0.1196   117.2008
  195.0000   -53.5011    10.0556     8.9807     9.0170     9.0251     0.0183     2.4690     0.1100   117.0627
  195.5000   -53.4862     9.9913     8.9246     8.9608     9.0859     0.0146     2.4693     0.1124   117.2301
  196.0000   -53.6240     9.9289     8.8689     8.9664     9.1316     0.0169     2.4759     0.1042   115.3074
  196.5000   -53.7582     9.8669     8.8125     8.8494     9.1475     0.0192     2.4752     0.1042   114.4242
  197.0000   -53.7395     9.8746     8.8194     8.8547     9.1336     0.0260     2.4723     0.1057   116.3799
  197.5000   -53.4265     9.8808     8.8248     8.8602     9.1496     0.0291     2.4678     0.1132   119.0772
  198.0000   -53.2626     9.8869     8.9527     9.1757     9.1655     0.0171     2.4521     0.1186   119.8370
  198.5000   -53.0986     9.8931     8.9582     9.3085     9.1814     0.0148     2.4499     0.1192   119.7026
  199.0000   -53.2365     9.8992     8.9638     8.9379     9.1975     0.0164     2.4605     0.1161   118.8231
  199.5000   -53.8140    10.1121     8.9694     9.1298     9.2283     0.0180     2.4695     0.1131   115.5591
  200.0000   -54.1008    10.4727     9.0365     8.9316     9.2440     0.0195     2.4621     0.1164   111.6990
  200.5000   -54.4428    10.6253     9.0427    10.0646     9.2403     0.0238     2.4787     0.1095   111.0082
  201.0000   -54.7980    10.7801     9.0499    10.2814     9.2369     0.0282     2.4892     0.0965   110.3175
  201.5000   -54.9260    10.9371     9.0562    10.5029     9.2335     0.0324     2.4863     0.0974   109.6487
  202.0000   -55.0593    11.0964     9.1250    10.7291     9.2173     0.0323     2.4796     0.1094   108.1702
  202.5000   -55.1873    11.2580     9.2578    10.9602     9.1882     0.0257     2.4683     0.1151   107.5858
  203.0000   -55.3154    11.4219     9.3281    11.0434     9.1741     0.0356     2.4782     0.1036   105.1734
  203.5000   -55.2936    11.5883     9.5292    11.0510     9.1951     0.0484     2.4805     0.1033   102.5422
  204.0000   -55.2548    11.7716     9.7346    10.9829     9.3394     0.0537     2.5070     0.0861   103.8122
  204.5000   -54.8048    12.0242     9.9444    10.9152     9.3997     0.0432     2.5020     0.0939   105.8473
  205.0000   -54.4759    12.2680    10.1714    11.0739     9.3855     0.0215     2.4754     0.1054   106.7533
  205.5000   -54.1610    12.3740    10.4479    11.3905     9.3565     0.0253     2.4838     0.0993   107.0631
  206.0000   -53.8460    12.6278    10.6858    11.7161     9.3275     0.0328     2.4943     0.0930   106.1806
  206.5000   -53.5290    13.0209    10.9784    12.1341     9.3131     0.0344     2.4981     0.0911   102.1685
  207.0000   -53.2099    13.9438    11.2924    12.1424     9.2992     0.0314     2.4870     0.0993    99.9419
  207.5000   -52.8909    14.3314    11.5355    12.0676     9.2848     0.0330     2.4908     0.0934    99.5095
  208.0000   -52.5718    14.4318    11.2894    12.2431     9.2857     0.0383     2.4758     0.0947    99.5212
  208.5000   -52.2527    14.2443    11.0084    12.9441     9.2567     0.0391     2.4759     0.1097    99.6820
  209.0000   -52.0809    14.2575    11.1760    13.4984     9.1830     0.0158     2.4609     0.1130    99.8428
  209.5000   -51.9127    14.5617    11.4158    13.3233     9.1094     0.0106     2.4504     0.1205   100.1526
  210.0000   -51.7426    14.6724    11.6554    12.6191     9.1290     0.0167     2.4655     0.1118   100.6114
  210.5000   -51.5726    14.7840    11.6634    12.2013     9.2598     0.0212     2.4753     0.1099   101.8174
  211.0000   -51.5516    14.4918    11.5883    11.9605     9.2308     0.0213     2.4589     0.1180   103.0214
  211.5000   -51.5306    14.2054    11.4409    11.7245     9.1869     0.0251     2.4529     0.1195   102.7351
  212.0000   -51.6586    13.8292    11.4488    11.6522     9.1725     0.0281     2.4530     0.1141   100.3623
  212.5000   -51.7866    13.4629    11.4567    11.5011     9.1735     0.0312     2.4553     0.1180   101.2682
  213.0000   -51.9146    13.1968    11.4646    11.4302     9.1742     0.0229     2.4283     0.1291   102.1742
  213.5000   -52.0479    13.0251    11.4725    11.3597     9.1898     0.0290     2.4457     0.1206   102.3349
  214.0000   -52.0217    12.8559    11.4804    11.2124     9.1905     0.0313     2.4668     0.1122   100.2603
  214.5000   -52.1550    12.7765    11.5676    11.0669     9.1169     0.0366     2.4600     0.1156    98.4836
  215.0000   -52.2830    12.6976    11.7360    10.8485     9.1473     0.0431     2.4766     0.1121    97.4521
  215.5000   -52.2567    12.7067    11.7441    10.8560     9.2671     0.0509     2.4790     0.1079    97.1654
  216.0000   -52.3900    12.7155    11.6716    10.7891     9.3423     0.0288     2.4475     0.1197    98.5189
  216.5000   -52.3637    12.7243    11.5994    11.0975     9.3443     0.0323     2.4580     0.1159    98.3816
  217.0000   -52.4918    12.6436    11.6076    10.8040     9.3586     0.0346     2.4603     0.1172    97.7914
  217.5000   -52.4708    12.7419    11.5357    10.5908     9.3893     0.0249     2.4469     0.1223    97.6599
  218.0000   -52.4498    12.7507    11.4646    10.7448     9.3454     0.0225     2.4575     0.1156   102.8584
