~VERSION INFORMATION
 VERS.                2.0:   CWLS LOG ASCII STANDARD - VERSION 2.0
 WRAP.                 NO:   ONE LINE PER DEPTH STEP
~WELL INFORMATION
#MNEM.UNIT      DATA TYPE    INFORMATION
#----------   ------------   ------------------------------
 STRT.F            4.0000:   START DEPTH
 STOP.F          747.0000:   STOP DEPTH
 STEP.F            0.5000:   STEP LENGTH
 NULL.          -999.2500:   NO VALUE
 COMP.          U.S. NAVY:   COMPANY
 WELL. RES 3 TEAPOT DOM #61S-34:   WELL
 FLD .        TRAPOT DOME:   FIELD
 LOC .      S34 T39N R78W:   LOCATION
 CNTY.            NATRONA:   COUNTY
 STAT.            WYOMING:   STATE
 CTRY. UNITED STATES OF AMERICA:   COUNTRY
 SRVC.      NL McCullough:   SERVICE COMPANY
 DATE.        11-AUG-1961:   LOGDATE
 API .       490250656900:   API NUMBER
~CURVE INFORMATION
#MNEM.UNIT       API CODE    CURVE DESCRIPTION
#----------   ------------   ------------------------------
 DEPT.F                  :   
 GRN .GAPI   35 310 30 00:   GAMMA RAY
 NEUT.NAPI   35 330 22 00:   NEUTRON POROSITY
~PARAMETER INFORMATION
#MNEM.UNIT          VALUE    DESCRIPTION
#----------   ------------   ------------------------------
 PD  .                 GL:   PERMANENT DATUM
 EPD .F              5043:   ELEVATION PERMANENT DATUM
 LMF .                 KB:   LOG MEASURED FROM
 DAPD.F                 5:   FEET ABOVE PERMANENT DATUM
 DMF .                 KB:   DRILLING MEASURED FROM
 EKB .F              5048:   KELLING BUSHING
 EGL .F              5043:   GROUND LEVEL
 DATE.        11-AUG-1961:   RUN DATE
 RUN .                  1:   RUN NUMBER
 DD  .F               750:   DEPTH DRILLER
 DL  .F             748.5:   DEPTH LOGGER
 BLI .F               747:   BOTTOM LOG INTERVAL
 TLI .F                 0:   TOP LOG INTERVAL
 BS  .IN            7.875:   BIT SIZE
 BSD .F               750:   BIT SIZE AT DEPTH
 DFT .       OIL EMULSION:   DRILLING FLUID TYPE
 DFD .                9.5:   DRILLING FLUID DENSITY
 ENGI.            JACKSON:   RECORDING ENGINEER
 WITN.          JORGENSON:   WITNESSED BY
 CLNT.            A2DTECH:   CLIENT CODE
 ORIG.        2" 5" PRINT:   ORIGIN OF DATA
 UWI .       490250656900:   UNIQUE WELL ID
 DICO. A2D Technologies, Inc.:   DIGITIZING COMPANY
~OTHER INFORMATION
~A    DEPT       GRN     NEUT   
# ...
  490.0000     6.2929   357.9233
  490.5000     6.3437   357.9325
  491.0000     6.4759   368.1670
  491.5000     6.5159   388.2277
  492.0000     6.5367   393.6655
  492.5000     6.5335   395.0559
  493.0000     6.5597   395.8212
  493.5000     6.6278   399.1466
  494.0000     6.7088   404.8089
  494.5000     6.7821   417.7982
  495.0000     6.8477   430.8254
  495.5000     6.9066   434.4669
  496.0000     7.0145   438.6431
  496.5000     7.0373   441.6837
  497.0000     7.0357   444.3315
  497.5000     7.0224   446.6348
  498.0000     7.0224   448.9994
  498.5000     7.0225   449.6539
  499.0000     7.0377   450.4174
  499.5000     7.0083   450.3971
  500.0000     6.8789   471.0317
  500.5000     6.7727   475.5832
  501.0000     6.8405   479.3798
  501.5000     6.9234   481.6666
  502.0000     6.9536   486.2180
  502.5000     6.8784   496.8083
  503.0000     6.6224   501.3597
  503.5000     6.8422   489.2988
  504.0000     6.8636   496.8752
  504.5000     6.8410   498.6934
  505.0000     6.8487   503.7135
  505.5000     7.0746   513.5538
  506.0000     7.1048   485.2785
  506.5000     7.1651   465.2830
  507.0000     7.0598   464.5504
  507.5000     7.1578   435.8939
  508.0000     7.3386   416.2901
  508.5000     7.2784   382.3440
  509.0000     7.2634   352.9271
  509.5000     7.0075   351.4341
  510.0000     6.6461   320.5130
  510.5000     6.7441   302.4189
  511.0000     6.4053   277.5310
  511.5000     6.3526   230.7525
  512.0000     6.7139   208.1236
  512.5000     6.8736   220.2292
  513.0000     6.7369   215.7224
  513.5000     6.6316   202.9122
  514.0000     6.7220   199.9151
  514.5000     6.7673   209.2712
  515.0000     7.0987   219.6872
  515.5000     7.5505   264.9049
  516.0000     7.5054   292.8568
  516.5000     7.4603   303.4471
  517.0000     7.2044   329.1343
  517.5000     7.0915   347.2731
  518.0000     7.1066   376.7291
  518.5000     7.3552   372.9827
  519.0000     7.4833   375.2696
  519.5000     7.5662   393.4084
  520.0000     7.5663   413.0569
  520.5000     7.7395   420.6221
  521.0000     7.7081   394.2301
  521.5000     7.7397   393.4971
  522.0000     7.8678   377.6680
  522.5000     7.7022   376.9355
  523.0000     7.6872   371.7957
  523.5000     7.9132   354.2193
  524.0000     7.9660   343.7945
  524.5000     7.9058   343.8168
  525.0000     7.6724   368.7492
  525.5000     7.6499   367.2618
  526.0000     7.5822   349.9225
  526.5000     7.8007   327.2993
  527.0000     7.8911   311.4697
  527.5000     7.7180   306.9573
  528.0000     7.4315   311.5143
  528.5000     7.4169   328.8982
  529.0000     7.5419   356.0952
  529.5000     7.5677   365.1758
  530.0000     7.6054   370.4821
  530.5000     7.7862   375.0615
  531.0000     7.9595   367.8584
  531.5000     8.0424   343.8739
  532.0000     7.9672   339.6223
  532.5000     7.8995   366.0700
  533.0000     7.9071   378.9249
  533.5000     7.8093   404.6121
  534.0000     7.7340   405.3893
  534.5000     7.7944   400.1277
  535.0000     7.7116   398.6347
  535.5000     7.7343   398.6626
  536.0000     7.6515   396.4203
  536.5000     7.5612   360.9590
  537.0000     8.1059   355.7029
  537.5000     8.1412   342.1379
  538.0000     7.9530   339.8957
  538.5000     7.7196   339.9180
  539.0000     7.8703   339.9402
  539.5000     8.1490   341.4723
  540.0000     8.2620   331.5817
  540.5000     8.1417   331.7094
  541.0000     8.0815   341.5448
  541.5000     7.6448   346.8455
  542.0000     7.5018   300.8274
  542.5000     7.3965   307.6434
  543.0000     7.3023   351.4471
  543.5000     7.3816   392.9863
  544.0000     7.2084   426.2221
  544.5000     7.3672   422.4702
  545.0000     7.5635   420.2224
  545.5000     7.6379   409.6823
  546.0000     7.4893   402.1561
  546.5000     7.2163   399.9138
  547.0000     7.0884   399.1812
  547.5000     7.0202   417.3203
  548.0000     7.0057   396.2065
  548.5000     7.0631   455.4559
  549.0000     7.2318   459.6644
  549.5000     7.2469   464.9706
  550.0000     7.2691   466.2138
  550.5000     7.3135   455.9310
  551.0000     7.3524   446.1179
  551.5000     7.3599   439.3242
  552.0000     7.4428   396.2976
  552.5000     7.4051   399.4678
  553.0000     7.3675   415.2497
  553.5000     7.3668   407.2877
  554.0000     7.4955   399.3170
  554.5000     7.6317   398.5622
  555.0000     7.5633   399.3170
  555.5000     7.5783   423.4723
  556.0000     7.6235   423.4723
  556.5000     7.8494   428.0014
  557.0000     8.3163   440.0791
  557.5000     8.5497   397.0525
  558.0000     8.4744   379.6909
  558.5000     8.5346   335.1546
  559.0000     8.2636   332.8802
  559.5000     8.3313   374.3045
  560.0000     8.4443   417.4335
  560.5000     8.2560   394.0331
  561.0000     8.2636   377.4263
  561.5000     8.0075   375.1618
  562.0000     8.0678   335.9095
  562.5000     8.0904   321.5672
  563.0000     8.0377   289.8634
  563.5000     8.3840   289.1085
  564.0000     8.3539   268.7275
  564.5000     7.9172   267.2178
  565.0000     7.7666   274.0115
  565.5000     7.7214   289.1085
  566.0000     7.8494   357.0453
  566.5000     7.7421   339.6837
  567.0000     7.6072   342.3118
  567.5000     7.6386   351.7613
  568.0000     7.7440   387.2394
  568.5000     7.9774   363.8389
  569.0000     8.2711   341.1934
  569.5000     8.2410   339.6837
  570.0000     8.1958   369.8778
  570.5000     8.2108   370.6327
  571.0000     8.0527   371.3875
  571.5000     7.9473   381.2006
  572.0000     7.9849   349.4968
  572.5000     7.6963   335.1043
  573.0000     7.6160   360.5749
  573.5000     7.5708   394.3754
  574.0000     7.3072   439.3242
  574.5000     7.2997   444.6082
  575.0000     7.3072   420.4529
  575.5000     7.3223   412.1495
  576.0000     7.4804   409.8850
  576.5000     7.4202   427.2466
  577.0000     7.4277   421.2078
  577.5000     7.4654   418.1884
  578.0000     7.5331   434.7951
  578.5000     7.2213   458.1956
  579.0000     6.9369   457.4407
  579.5000     6.5617   458.1956
  580.0000     6.5467   473.3932
  580.5000     6.5693   466.1815
  581.0000     6.6370   460.4601
  581.5000     6.8102   458.9504
  582.0000     6.9307   461.9698
  582.5000     7.0587   484.6154
  583.0000     7.1855   512.5449
  583.5000     7.1409   513.2998
  584.0000     7.4503   503.4867
  584.5000     7.7139   496.6930
  585.0000     7.5231   492.1639
  585.5000     7.3148   500.4673
  586.0000     7.0136   486.1251
  586.5000     6.9081   457.4407
  587.0000     6.9307   453.7865
  587.5000     7.0889   412.5303
  588.0000     7.2169   392.5233
  588.5000     7.3298   344.9677
  589.0000     7.3524   323.0769
  589.5000     7.4127   340.4385
  590.0000     7.0889   374.4069
  590.5000     6.8159   504.9964
  591.0000     6.7801   537.4551
  591.5000     6.8855   526.8871
  592.0000     6.7048   522.3580
  592.5000     6.5693   571.4235
  593.0000     6.5693   572.1783
  593.5000     6.4563   580.2158
  594.0000     6.3735   593.3141
  594.5000     6.4864   546.5132
  595.0000     6.6521   536.7002
  595.5000     6.3509   537.4551
  596.0000     5.9819   557.0813
  596.5000     6.0045   593.3141
  597.0000     5.8877   682.3868
  597.5000     5.3343   698.9935
  598.0000     4.4307   715.6003
  598.5000     4.3554   720.1294
  599.0000     4.3479   687.6707
  599.5000     4.3855   658.2315
  600.0000     4.4840   599.4810
  600.5000     4.6568   539.7236
  601.0000     4.9958   522.3176
  601.5000     5.0185   520.7883
  602.0000     4.9434   516.4141
  602.5000     4.7101   529.2689
  603.0000     4.7027   550.4271
  603.5000     4.6200   548.1849
  604.0000     4.3717   546.6975
  604.5000     4.3041   530.1131
  605.0000     4.1386   512.0134
  605.5000     4.0860   521.0995
  606.0000     4.1614   518.0969
  606.5000     4.1616   537.7509
  607.0000     4.1844   560.4188
  607.5000     4.2448   588.3707
  608.0000     4.2976   589.9027
  608.5000     4.0116   602.7576
  609.0000     3.8988   651.1826
  609.5000     3.8914   659.4161
  610.0000     3.9292   645.5493
  610.5000     4.1101   630.7820
  611.0000     4.5244   627.0245
