~VERSION INFORMATION
 VERS.                2.0:   CWLS LOG ASCII STANDARD - VERSION 2.0
 WRAP.                 NO:   ONE LINE PER DEPTH STEP
~WELL INFORMATION
#MNEM.UNIT      DATA TYPE    INFORMATION
#----------   ------------   ------------------------------
 STRT.F           20.0000:   START DEPTH
 STOP.F          505.0000:   STOP DEPTH
 STEP.F            0.5000:   STEP LENGTH
 NULL.          -999.2500:   NO VALUE
 COMP.    FENIX & SCISSON:   COMPANY
 WELL.   NPR #3 #56-SX-10:   WELL
 FLD .             TEAPOT:   FIELD
 LOC .      S10 T38N R78W:   LOCATION
 CNTY.            NATRONA:   COUNTY
 STAT.            WYOMING:   STATE
 CTRY. UNITED STATES OF AMERICA:   COUNTRY
 SRVC.              Welex:   SERVICE COMPANY
 DATE.        01-MAY-1980:   LOGDATE
 API .       490251081300:   API NUMBER
~CURVE INFORMATION
#MNEM.UNIT       API CODE    CURVE DESCRIPTION
#----------   ------------   ------------------------------
 DEPT.F                  :   
 ILD .OHMM   07 120 46 00:   INDUCTION LOG DEEP
 ILM .OHMM   07 120 44 00:   INDUCTION LOG MEDIUM
 SGRD.OHMM   07 220 05 00:   SHALLOW GUARD RESISTIVITY
 SPR .MV     07 010 01 00:   SPONATANEOUS POTENTIAL FROM RES.
 CALD.IN     45 280 60 00:   CALIPER FROM DENSITY LOG
 DPHI.DEC    45 890 12 00:   DENSITY POROSITY SANDSTONE
 DRHO.G/C3   45 356 01 00:   DENSITY CORRECTION
 GRD .GAPI   45 310 01 00:   GAMMA RAY FROM DENSITY LOG
 RHOB.G/C3   45 350 01 00:   BULK DENSITY
~PARAMETER INFORMATION
#MNEM.UNIT          VALUE    DESCRIPTION
#----------   ------------   ------------------------------
 PD  .                 GL:   PERMANENT DATUM
 EPD .F              5180:   ELEVATION PERMANENT DATUM
 LMF .                 KB:   LOG MEASURED FROM
 DAPD.F                 4:   FEET ABOVE PERMANENT DATUM
 DMF .                 KB:   DRILLING MEASURED FROM
 EKB .F              5184:   KELLING BUSHING
 EGL .F              5180:   GROUND LEVEL
 DATE.        01-MAY-1980:   RUN DATE
 RUN .                  1:   RUN NUMBER
 DD  .F               489:   DEPTH DRILLER
 DL  .F               506:   DEPTH LOGGER
 BLI .F               504:   BOTTOM LOG INTERVAL
 TLI .F                30:   TOP LOG INTERVAL
 BS  .IN            7.875:   BIT SIZE
 BSD .F               489:   BIT SIZE AT DEPTH
 DFT .    WATER BASED MUD:   DRILLING FLUID TYPE
 DFD .                9.9:   DRILLING FLUID DENSITY
 DFV .                 46:   DRILLING FLUID VISCOSITY
 MSS .                PIT:   MUD SAMPLE SOURCE
 RMS .OHMM           0.99:   RESISTIVITY MUD SAMPLE
 MST .F                75:   MUD SAMPLE TEMPERATURE
 RMF .OHMM           0.78:   RESISTIVITY MUD FILTRATE SAMPLE
 MFST.F                75:   MUD FILTRATE SAMPLE TEMPERATURE
 RMC .OHMM           1.18:   RESISTIVITY MUD CAKE
 MCST.F                75:   MUD CAKE SAMPLE TEMPERATURE
 MFSS.               MEAS:   MUD FILTRATE SAMPLE SOURCE
 MCSS.               MEAS:   MUD CAKE SAMPLE SOURCE
 BHT .F               100:   BOTTOM HOLE TEMPERATURE
 TCS .HRS               1:   TIME CURCULATED STOPPED
 MRT .F               100:   MAXIMUM RECORDED TEMPERATURE
 LUN .               9685:   LOGGING UNIT NUMBER
 LUL .             CASPER:   LOGGING UNIT LOCATION
 ENGI.            TOTHILL:   RECORDING ENGINEER
 WITN.           DINSMORE:   WITNESSED BY
 CLNT.            A2DTECH:   CLIENT CODE
 ORIG.           5" PRINT:   ORIGIN OF DATA
 UWI .       490251081300:   UNIQUE WELL ID
 DICO. A2D Technologies, Inc.:   DIGITIZING COMPANY
~OTHER INFORMATION
~A   DEPT       ILD        ILM      SGRD        SPR       CALD       DPHI       DRHO        GRD       RHOB   
   20.0000    10.9769    11.1451  1014.1773   -31.0007  -999.2500  -999.2500  -999.2500  -999.2500  -999.2500
   20.5000     9.4935     9.9082   967.1143   -31.1458  -999.2500  -999.2500  -999.2500  -999.2500  -999.2500
   21.0000     7.5043     8.9314   927.7826   -31.4374  -999.2500  -999.2500  -999.2500  -999.2500  -999.2500
   21.5000     5.8503     8.1067   883.9128   -31.4316  -999.2500  -999.2500  -999.2500  -999.2500  -999.2500
   22.0000     4.6565     7.5125   847.9648   -31.5767  -999.2500  -999.2500  -999.2500  -999.2500  -999.2500
   22.5000     4.4344     7.2570   802.2982   -31.3901  -999.2500  -999.2500  -999.2500  -999.2500  -999.2500
   23.0000     4.0001     7.0589   759.0908   -49.0523  -999.2500  -999.2500  -999.2500  -999.2500  -999.2500
   23.5000     3.6313     6.9619   698.6033   -47.7220  -999.2500  -999.2500  -999.2500  -999.2500  -999.2500
   24.0000     3.7080     6.9139   518.8054   -32.8430  -999.2500  -999.2500  -999.2500    75.4132  -999.2500
   24.5000     3.7601     6.9139    24.0253   -23.3247  -999.2500  -999.2500  -999.2500    82.1005  -999.2500
   25.0000     3.7090     6.9139   126.4537   -30.3443    10.5085  -999.2500  -999.2500    86.8599  -999.2500
   25.5000     3.6564     6.9619    21.1535   -29.7391    10.3109  -999.2500  -999.2500    89.8968  -999.2500
   26.0000     3.8141     7.0589    50.0297   -29.1353    10.1134     0.2599     0.0072    93.4459     2.2232
   26.5000     3.9239     7.0589   206.6831   -28.8305     9.9308     0.2550     0.0057    96.1722     2.2332
   27.0000     3.9494     7.0102   595.8126   -28.9756     9.6344     0.2458     0.0184    97.9949     2.2558
   27.5000     3.8423     6.6788   902.4542   -28.9683     9.9800     0.2374     0.0343    97.1067     2.2581
   28.0000     3.7638     6.4516   927.7826   -28.8129    10.1604     0.2308     0.0463    96.4445     2.2513
   28.5000     3.6870     6.3191   836.3101   -28.8071     9.6976     0.2308     0.0599    97.8153     2.2694
   29.0000     3.5621     6.2755   723.1974   -28.4983     9.3543     0.2256     0.0764    98.9603     2.2815
   29.5000     3.4414     6.1466   352.1356   -27.7150     9.1457     0.2134     0.0959    99.8794     2.2898
   30.0000     3.3479     6.1042    39.5410   -27.4428     8.8024     0.2127     0.0989   101.0244     2.2883
   30.5000     3.2345     5.9784    38.4616   -27.4369     8.6687     0.2166     0.0825   102.6393     2.2594
   31.0000     3.1249     5.8524    36.3505   -26.8332     8.5602     0.2382     0.0675   104.4443     2.2478
   31.5000     3.0191     5.6897    28.1613   -26.0799     8.4165     0.2412     0.0601   105.3667     2.2959
   32.0000     2.9574     5.5024    13.8117   -26.0741     8.3127     0.2175     0.0927   106.2858     2.3372
   32.5000     2.9155     5.3521    10.4722   -25.9187     8.1191     0.1857     0.1396   106.9790     2.3493
   33.0000     2.8742     5.3152    21.0654   -25.3150     7.8956     0.1806     0.1232   108.1239     2.3448
   33.5000     2.8383     5.3152    29.7737   -24.5618     7.8218     0.1790     0.1037   108.8818     2.3546
   34.0000     2.8585     5.4644    29.9804   -24.2569     7.8527     0.1751     0.0693   109.7362     2.3524
   34.5000     2.8788     5.6178    28.5628   -24.1016     7.9286     0.1772     0.0738   110.6552     2.3660
   35.0000     2.9193     5.8156    29.5684   -23.7967     8.0205     0.1628     0.0798   111.5743     2.3998
   35.5000     3.0016     5.9788    28.1702   -23.7907     8.1405     0.1424     0.0754   112.2675     2.4163
   36.0000     3.0863     6.1466    25.9255   -23.7836     8.2014     0.1325     0.0784   112.7349     2.4449
   36.5000     3.2175     6.3191    25.5692   -23.7778     7.9778     0.1181     0.0859   112.9761     2.4627
   37.0000     3.3544     6.5419    26.1055   -23.7719     8.0088     0.1094     0.0798   111.1882     2.4652
   37.5000     3.5063     6.6826    26.8382   -23.9170     8.0395     0.1061     0.0647   109.1705     2.4465
   38.0000     3.6458     6.8738    27.2122   -24.0606     7.9060     0.1159     0.0711   107.3787     2.4668
   38.5000     3.8295     7.0589    26.1055   -24.0533     7.9819     0.1063     0.0741   106.2647     2.4624
   39.0000     3.9398     7.2070    24.5293   -23.1506     8.0428     0.1051     0.0651   105.3765     2.4586
   39.5000     4.1028     7.2570    22.7315   -22.3974     8.0139     0.1111     0.0667   104.7142     2.4617
   40.0000     4.1894     7.2570    20.4903   -22.5410     7.9850     0.1132     0.0532   104.2779     2.4482
   40.5000     4.1609     7.2570    20.2087   -23.1331     8.0012     0.1119     0.0458   103.8411     2.4565
   41.0000     4.1905     7.2570    20.3490   -23.2767     8.0172     0.1167     0.0248   103.6310     2.4414
   41.5000     4.3087     7.3251    20.2087   -23.2694     8.0332     0.1254     0.0204   102.9688     2.4446
   42.0000     4.3392     7.3582    18.2163   -23.5625     8.0641     0.1218     0.0189   102.4940     2.4296
   42.5000     4.3398     7.3074    15.3154   -23.7061     8.1699     0.1337     0.0023   102.0961     2.4108
   43.0000     4.3404     7.2570    14.7891   -23.8844     8.1710     0.1370     0.0010   102.5672     2.4161
   43.5000     4.4015     7.2070    14.5979   -24.1443     8.1570     0.1333     0.0190   103.2604     2.4357
   44.0000     4.5571     7.2692    14.1994   -24.1370     8.1733     0.1264     0.0220   104.4054     2.4252
   44.5000     4.7236     7.6953    13.3420   -24.2821     8.2491     0.1309     0.0146   105.5503     2.4313
   45.0000     4.8178     8.1630    12.3642   -24.2747     8.2651     0.1282     0.0191   106.6953     2.4298
   45.5000     4.9197     8.3342    12.1101   -24.1194     8.2212     0.1279     0.0161   107.6144     2.4359
   46.0000     5.0584     8.5090    12.1101   -24.1136     8.1771     0.1216     0.0327   108.5334     2.4524
   46.5000     5.2011     8.4504    12.1942   -23.9581     8.1783     0.1168     0.0345   109.4556     2.4449
   47.0000     5.3109     8.5090    12.0266   -23.6532     8.1344     0.1203     0.0298   110.4202     2.4382
   47.5000     5.4231     9.1187    11.9437   -23.4966     8.0606     0.1215     0.0283   111.9722     2.4383
   48.0000     5.5376     9.0558    11.8613   -23.1918     8.1667     0.1221     0.0409   112.8913     2.4480
   48.5000     5.6545     8.8086    11.6117   -23.0365     8.1827     0.1184     0.0629   113.5844     2.4587
   49.0000     5.6945     8.5681    11.2880   -23.0306     8.1388     0.1089     0.0734   114.0517     2.4631
   49.5000     5.7747     8.5090    10.4722   -23.0248     7.9751     0.1053     0.0689   114.0672     2.4512
   50.0000     5.8156     8.5681    10.0463   -23.0189     7.9310     0.1151     0.0600   114.7565     2.4392
   50.5000     5.8567     9.2507     9.9082   -22.8636     7.8871     0.1229     0.0570   113.8722     2.4422
   51.0000     5.8576     9.6480     9.9082   -22.8580     7.8135     0.1190     0.0735   112.9840     2.4558
   51.5000     5.8585     9.5713     9.9082   -22.8520     7.8902     0.1115     0.0856   113.2254     2.4836
   52.0000     5.9000     9.3100     9.9082   -22.8460     7.9204     0.1049     0.1021   113.0060     2.4994
   52.5000     5.9418     9.1820    10.0463   -22.8401     8.0114     0.0923     0.1111   111.3893     2.4844
   53.0000     5.9838     9.1820    10.1863   -22.9838     8.0573     0.0886     0.0931   110.3350     2.4777
   53.5000     5.9847     9.2458    10.1863   -22.9765     8.0584     0.1006     0.0872   109.6727     2.4845
   54.0000     6.0270     9.3746    10.1142   -22.9707     8.0743     0.0958     0.0738   109.0105     2.4643
   54.5000     6.0278     9.5713     9.8246   -23.1157     8.0155     0.1086     0.0558   109.2557     2.4545
   55.0000     6.0705     9.7047     9.5713   -23.1084     8.0165     0.1134     0.0409   110.1747     2.4503
   55.5000     6.1561     9.7720     9.7720   -23.1026     8.0025     0.1182     0.0274   110.6420     2.4298
   56.0000     6.1569     9.7047     9.9082   -22.9473     7.9405     0.1284     0.0124   109.9797     2.4261
