~VERSION INFORMATION
 VERS.                2.0:   CWLS LOG ASCII STANDARD - VERSION 2.0
 WRAP.                 NO:   ONE LINE PER DEPTH STEP
~WELL INFORMATION
#MNEM.UNIT      DATA TYPE    INFORMATION
#----------   ------------   ------------------------------
 STRT.F           75.0000:   START DEPTH
 STOP.F          859.0000:   STOP DEPTH
 STEP.F            0.5000:   STEP LENGTH
 NULL.          -999.2500:   NO VALUE
 COMP. U S NAVY/INTEX OIL CO:   COMPANY
 WELL.     NPR ##3 14S-35:   WELL
 FLD .             TEAPOT:   FIELD
 LOC .      S35 T39N R78W:   LOCATION
 CNTY.            NATRONA:   COUNTY
 STAT.            WYOMING:   STATE
 CTRY. UNITED STATES OF AMERICA:   COUNTRY
 SRVC. Schlumberger Well Surveying Corp:   SERVICE COMPANY
 DATE.        27-FEB-1961:   LOGDATE
 API .       490251023000:   API NUMBER
~CURVE INFORMATION
#MNEM.UNIT       API CODE    CURVE DESCRIPTION
#----------   ------------   ------------------------------
 DEPT.F                  :   
 GRN .CPS    35 310 30 00:   GAMMA RAY
 SPR .MV     05 010 01 00:   SPONTANEOUS POTENTIAL FROM RES.
 ILD .OHMM   05 120 46 00:   INDUCTION LOG DEEP
 ASN .OHMM   05 041 16 00:   AMPLIFIED SHORT NORMAL 16"
 CILD.MMHO   05 110 46 00:   CONDUCTIVITY INDUCTION LOG DEEP
~PARAMETER INFORMATION
#MNEM.UNIT          VALUE    DESCRIPTION
#----------   ------------   ------------------------------
 PD  .                 GL:   PERMANENT DATUM
 EPD .F              5110:   ELEVATION PERMANENT DATUM
 LMF .                 KB:   LOG MEASURED FROM
 DAPD.F                 4:   FEET ABOVE PERMANENT DATUM
 DMF .                 KB:   DRILLING MEASURED FROM
 EKB .F              5114:   KELLING BUSHING
 EGL .F              5110:   GROUND LEVEL
 DATE.            2-27-61:   RUN DATE
 RUN .                  1:   RUN NUMBER
 DD  .F               862:   DEPTH DRILLER
 DL  .F               860:   DEPTH LOGGER
 BLI .F               859:   BOTTOM LOG INTERVAL
 TLI .F                84:   TOP LOG INTERVAL
 CBD .F                12:   CASING BOTTOM DRILLER
 BS  .IN            7.875:   BIT SIZE
 BSD .F               862:   BIT SIZE AT DEPTH
 DFT .       GEL-OIL EMUL:   DRILLING FLUID TYPE
 DFD .                9.4:   DRILLING FLUID DENSITY
 DFV .                 33:   DRILLING FLUID VISCOSITY
 DFPH.                  8:   DRILLING FLUID PH
 DFL .               19.4:   DRILLING FLUID LOSS
 MSS .          FLOW LINE:   MUD SAMPLE SOURCE
 RMS .OHMM            .76:   RESISTIVITY MUD SAMPLE
 MST .F                73:   MUD SAMPLE TEMPERATURE
 RMF .OHMM            .52:   RESISTIVITY MUD FILTRATE SAMPLE
 MFST.F                73:   MUD FILTRATE SAMPLE TEMPERATURE
 RMC .OHMM            1.7:   RESISTIVITY MUD CAKE
 MCST.F                73:   MUD CAKE SAMPLE TEMPERATURE
 MFSS.                  M:   MUD FILTRATE SAMPLE SOURCE
 MCSS.                  M:   MUD CAKE SAMPLE SOURCE
 RMB .OHMM            .73:   RESISTIVITY MUD AT BHT
 BHT .F                77:   BOTTOM HOLE TEMPERATURE
 TCS .HRS               1:   TIME CURCULATED STOPPED
 MRT .F                77:   MAXIMUM RECORDED TEMPERATURE
 LUN .               2523:   LOGGING UNIT NUMBER
 LUL .               CSPR:   LOGGING UNIT LOCATION
 ENGI.             KNOBEL:   RECORDING ENGINEER
 WITN.          JORGENSEN:   WITNESSED BY
 CLNT.            A2DTECH:   CLIENT CODE
 ORIG.       2", 5" PRINT:   ORIGIN OF DATA
 UWI .       490251023000:   UNIQUE WELL ID
 DICO. A2D Technologies, Inc.:   DIGITIZING COMPANY
~OTHER INFORMATION
~A   DEPT      GRN        SPR        ILD        ASN       CILD   
# ...
  563.0000  -999.2500   -28.2118     7.7637    10.5556   128.3509
  563.5000  -999.2500   -28.1696     7.6756    10.0657   130.5216
  564.0000  -999.2500   -28.1292     7.5143     9.9167   132.6923
  564.5000  -999.2500   -28.0847     7.4265     9.9666   134.8630
  565.0000  -999.2500   -28.0489     7.2915     9.8969   137.0337
  565.5000  -999.2500   -28.0013     7.1612     9.7410   139.2045
  566.0000  -999.2500   -28.0598     7.0664     9.6275   141.3752
  566.5000  -999.2500   -28.2309     6.9798     9.5682   142.3541
  567.0000  -999.2500   -28.2471     7.0638     9.4917   141.7419
  567.5000  -999.2500   -28.3008     7.1686     9.4869   139.9508
  568.0000  -999.2500   -28.3340     7.2140     9.4837   138.1606
  568.5000  -999.2500   -28.3816     7.3265     9.5750   136.3722
  569.0000  -999.2500   -28.4020     7.4363     9.7051   134.3375
  569.5000  -999.2500   -28.3050     7.5079     9.8543   132.8553
  570.0000  -999.2500   -28.2050     7.6249    10.0079   131.1322
  570.5000  -999.2500   -28.1046     7.7195    10.1104   129.4072
  571.0000  -999.2500   -28.0054     7.8233    10.1651   127.6995
  571.5000  -999.2500   -27.9052     7.9232    10.2132   125.9893
  572.0000  -999.2500   -27.8059     8.0228    10.2611   124.2790
  572.5000  -999.2500   -27.7047     8.1282    10.3098   122.9041
  573.0000  -999.2500   -27.6162     8.2060    10.3574   122.0490
  573.5000  -999.2500   -27.6090     8.1962    10.4078   121.2274
  574.0000  -999.2500   -27.6094     8.2056    10.4139   121.9316
  574.5000  -999.2500   -27.6097     8.1780    10.4130   122.6092
  575.0000  -999.2500   -27.6087     8.0869    10.4135   123.2869
  575.5000  -999.2500   -27.6101     8.1127    10.4095   123.9645
  576.0000  -999.2500   -27.6070     8.0158    10.3566   124.6422
  576.5000  -999.2500   -27.6370     8.0022    10.2928   125.3198
  577.0000  -999.2500   -27.7268     7.9206    10.2314   125.9975
  577.5000  -999.2500   -27.8082     7.8963    10.1677   126.6751
  578.0000  -999.2500   -27.9860     7.8752    10.1074   127.3528
  578.5000  -999.2500   -28.2152     7.7877    10.0401   128.0305
  579.0000  -999.2500   -28.4498     7.7991    10.0059   128.9336
  579.5000  -999.2500   -28.6023     7.7954    10.0105   128.8196
  580.0000  -999.2500   -28.5197     7.7908    10.0078   128.1355
  580.5000  -999.2500   -28.4483     7.8197    10.0088   127.4514
  581.0000  -999.2500   -28.3694     7.9002    10.0154   126.7318
  581.5000  -999.2500   -28.2950     7.9151    10.1142   125.9988
  582.0000  -999.2500   -28.2206     8.1376    10.2261   125.2515
  582.5000  -999.2500   -28.2050     8.3385    10.4044   123.2953
  583.0000  -999.2500   -28.1836     8.5488    10.5681   121.3000
  583.5000  -999.2500   -28.1620     8.7527    10.7338   119.3047
  584.0000  -999.2500   -28.1402     8.9605    10.8978   117.4044
  584.5000  -999.2500   -28.1187     9.1661    11.0628   115.6198
  585.0000  -999.2500   -28.0969     9.3727    11.2274   113.8352
  585.5000  -999.2500   -28.0754     9.5789    11.3918   112.0506
  586.0000  -999.2500   -28.0537     9.7851    11.5566   110.1610
  586.5000  -999.2500   -28.0320     9.9912    11.7206   107.7465
  587.0000  -999.2500   -28.0103    10.1973    11.9062   105.1811
  587.5000  -999.2500   -27.9886    10.4035    12.1135   102.6157
  588.0000  -999.2500   -27.9669    10.6096    12.3680   100.0503
  588.5000  -999.2500   -27.9451    10.8158    12.6120    97.4849
  589.0000  -999.2500   -27.9234    11.0225    12.8684    94.9195
  589.5000  -999.2500   -27.9017    11.2293    13.1053    92.3541
  590.0000  -999.2500   -27.8800    11.4361    13.3849    89.7887
  590.5000  -999.2500   -27.8583    11.6417    13.5480    87.9879
  591.0000  -999.2500   -27.8366    11.8503    13.5261    87.2032
  591.5000  -999.2500   -27.8149    12.0510    13.5383    87.5453
  592.0000  -999.2500   -27.7932    12.2738    13.5222    87.8873
  592.5000  -999.2500   -27.7715    12.3712    13.4485    88.2438
  593.0000  -999.2500   -27.7498    11.9157    13.3751    88.6102
  593.5000  -999.2500   -27.7281    11.5510    13.3026    89.0342
  594.0000  -999.2500   -27.7064    11.4791    13.2303    89.9612
  594.5000  -999.2500   -27.6847    11.4684    13.1578    91.0607
  595.0000  -999.2500   -27.6630    11.3973    13.0854    92.0523
  595.5000  -999.2500   -27.6412    11.3199    13.0133    93.1791
  596.0000  -999.2500   -27.6198    11.2263    12.9403    94.2052
  596.5000  -999.2500   -27.6013    11.0756    12.8693    95.0704
  597.0000  -999.2500   -27.5850    11.0157    12.7948    95.0704
  597.5000  -999.2500   -27.5690    11.0154    12.7267    95.0704
  598.0000  -999.2500   -27.5529    11.0157    12.6478    95.0704
  598.5000  -999.2500   -27.5368    11.0167    12.6611    95.0704
  599.0000  -999.2500   -27.5207    11.0154    12.7453    95.0704
  599.5000  -999.2500   -27.5046    11.0179    12.8063    95.0704
  600.0000    52.6680   -27.4886    11.0146    12.8917    95.0704
  600.5000    53.2919   -27.4725    11.0222    12.9004    95.0704
  601.0000    54.9407   -27.4564    10.9670    12.8011    96.6964
  601.5000    54.2490   -27.4403    10.8264    12.6985    98.1212
  602.0000    57.8323   -27.4242    10.6891    12.4186    99.5529
  602.5000    61.7263   -27.4082    10.5554    12.1736   100.9745
  603.0000    60.4067   -27.3921    10.4013    11.9337   102.3992
  603.5000    59.8582   -27.3760    10.2384    11.8424   103.8254
  604.0000    65.3264   -27.3599    10.1121    11.7634   105.1359
  604.5000    63.6251   -27.3438     9.9781    11.6849   106.3988
  605.0000    60.1231   -27.3278     9.8842    11.6053   107.5652
  605.5000    56.6914   -27.3116     9.7877    11.5267   108.7391
  606.0000    54.5608   -27.2956     9.6692    11.4476   109.7550
  606.5000    53.1091   -27.2794     9.6351    11.3688   110.6853
  607.0000    54.1992   -27.2635     9.6239    11.2898   111.6156
  607.5000    56.0714   -27.2472     9.5256    11.2100   112.5459
  608.0000    58.3657   -27.2316     9.4922    11.1315   113.4762
  608.5000    60.8200   -27.2149     9.4306    11.0502   114.4064
  609.0000    59.4926   -27.2084     9.3856    10.9745   115.3367
  609.5000    61.2308   -27.2090     9.3287    10.8884   116.2577
  610.0000    64.5750   -27.2097     9.2838    10.8207   117.1760
  610.5000    61.4767   -27.2033     9.2207    10.7443   118.1783
  611.0000    62.8150   -27.1519     9.2584    10.8564   118.1730
  611.5000    64.6694   -27.1044     9.3872    11.1252   116.2328
  612.0000    61.0111   -27.0555     9.5006    11.3481   114.5488
  612.5000    56.0058   -27.0109     9.6074    11.5890   112.8662
  613.0000    57.4255   -26.9970     9.6603    11.8219   111.1840
  613.5000    60.6803   -26.9870     9.7084    12.0576   109.8551
  614.0000    62.3780   -26.9765     9.7582    12.3018   109.1403
  614.5000    59.5374   -26.9660     9.8020    12.3145   109.6488
  615.0000    61.6757   -26.9557     9.8178    12.0441   110.1643
  615.5000    60.1815   -26.9452     9.7822    11.7141   110.7232
  616.0000    59.3077   -26.9348     9.7083    11.3999   111.1792
  616.5000    63.2691   -26.9244     9.6869    11.0659   112.2332
  617.0000    66.2618   -26.9139     9.6020    10.8404   113.0902
  617.5000    69.2126   -26.9035     9.5443    10.7199   113.9453
  618.0000    71.2424   -26.8930     9.4215    10.5817   114.8018
  618.5000    74.5773   -26.8826     9.3766    10.4537   115.6596
  619.0000    70.4387   -26.8722     9.3451    10.3189   116.5178
  619.5000    73.7865   -26.8617     9.3019    10.2074   117.3715
  620.0000    76.0265   -26.8514     9.2275    10.1381   118.2130
  620.5000    66.9045   -26.8408     9.1267    10.0691   119.1373
  621.0000    68.2662   -26.8307     9.0652    10.0164   121.5191
  621.5000    70.4751   -26.8200     8.7896     9.9049   124.1549
  622.0000    72.5402   -26.8072     8.3218     9.7716   127.0986
  622.5000    71.6482   -26.7598     7.8928     9.6377   132.2535
  623.0000    73.9125   -26.6966     7.4484     9.5051   139.3511
  623.5000    69.4331   -26.6359     7.0073     9.0820   146.8192
