~VERSION INFORMATION
 VERS.                2.0:   CWLS LOG ASCII STANDARD - VERSION 2.0
 WRAP.                 NO:   ONE LINE PER DEPTH STEP
~WELL INFORMATION
#MNEM.UNIT      DATA TYPE    INFORMATION
#----------   ------------   ------------------------------
 STRT.F           70.0000:   START DEPTH
 STOP.F          990.0000:   STOP DEPTH
 STEP.F            0.5000:   STEP LENGTH
 NULL.          -999.2500:   NO VALUE
 COMP. U S NAVY/INTEX OIL CO:   COMPANY
 WELL.      NPR 3 #55 S-2:   WELL
 FLD .            WILDCAT:   FIELD
 LOC .       S2 T38N R78W:   LOCATION
 CNTY.            NATRONA:   COUNTY
 STAT.            WYOMING:   STATE
 CTRY. UNITED STATES OF AMERICA:   COUNTRY
 SRVC.         Lane Wells:   SERVICE COMPANY
 DATE.        23-MAR-1960:   LOGDATE
 API .       490250968000:   API NUMBER
~CURVE INFORMATION
#MNEM.UNIT       API CODE    CURVE DESCRIPTION
#----------   ------------   ------------------------------
 DEPT.F                  :   
 SPR .MV     05 010 01 00:   SPONTANEOUS POTENTIAL FROM RES.
 ASN .OHMM   05 041 16 00:   AMPLIFIED SHORT NORMAL 16"
 ILD .OHMM   05 120 46 00:   INDUCTION LOG DEEP
 CILD.MMHO   05 110 46 00:   CONDUCTIVITY INDUCTION LOG DEEP
~PARAMETER INFORMATION
#MNEM.UNIT          VALUE    DESCRIPTION
#----------   ------------   ------------------------------
 PD  .                 GL:   PERMANENT DATUM
 EPD .F              5163:   ELEVATION PERMANENT DATUM
 LMF .                 KB:   LOG MEASURED FROM
 DAPD.F                 5:   FEET ABOVE PERMANENT DATUM
 DMF .                 KB:   DRILLING MEASURED FROM
 EKB .F              5168:   KELLING BUSHING
 EGL .F              5163:   GROUND LEVEL
 DATE.        23-MAR-1960:   RUN DATE
 RUN .                  1:   RUN NUMBER
 DD  .F              1010:   DEPTH DRILLER
 DL  .F               992:   DEPTH LOGGER
 BLI .F               990:   BOTTOM LOG INTERVAL
 TLI .F                70:   TOP LOG INTERVAL
 CS  .IN            8.625:   CASING SIZE
 CBD .F                12:   CASING BOTTOM DRILLER
 BS  .IN            7.875:   BIT SIZE
 BSD .F              1010:   BIT SIZE AT DEPTH
 DFT .   GEL-OIL EMULSION:   DRILLING FLUID TYPE
 DFD .                9.5:   DRILLING FLUID DENSITY
 DFV .                 40:   DRILLING FLUID VISCOSITY
 MSS .           FLOWLINE:   MUD SAMPLE SOURCE
 RMS .OHMM            2.8:   RESISTIVITY MUD SAMPLE
 MST .F                74:   MUD SAMPLE TEMPERATURE
 RMF .OHMM            2.0:   RESISTIVITY MUD FILTRATE SAMPLE
 MFST.F                74:   MUD FILTRATE SAMPLE TEMPERATURE
 RMC .OHMM            3.9:   RESISTIVITY MUD CAKE
 MCST.F                74:   MUD CAKE SAMPLE TEMPERATURE
 MFSS.          MUD PRESS:   MUD FILTRATE SAMPLE SOURCE
 MCSS.          MUD PRESS:   MUD CAKE SAMPLE SOURCE
 RMB .OHMM            2.8:   RESISTIVITY MUD AT BHT
 BHT .F                74:   BOTTOM HOLE TEMPERATURE
 MRT .F                74:   MAXIMUM RECORDED TEMPERATURE
 LUN .             L-4474:   LOGGING UNIT NUMBER
 LUL .             CASPER:   LOGGING UNIT LOCATION
 ENGI.             NELSON:   RECORDING ENGINEER
 WITN.          JORGENSEN:   WITNESSED BY
 CLNT.            A2DTECH:   CLIENT CODE
 ORIG.       2", 5" PRINT:   ORIGIN OF DATA
 UWI .       490250968000:   UNIQUE WELL ID
 DICO. A2D Technologies, Inc.:   DIGITIZING COMPANY
~OTHER INFORMATION
~A   DEPT      SPR          ASN        ILD      CILD  
# ...
  581.0000   -44.9972     8.4974     7.3728   137.1012
  581.5000   -45.3447     8.4450     7.4097   135.7362
  582.0000   -45.6777     8.4162     7.5076   135.3112
  582.5000   -45.6760     8.5386     7.5747   133.0016
  583.0000   -45.5729     8.6573     7.6422   132.2709
  583.5000   -45.2636     8.8211     7.7095   131.4377
  584.0000   -44.9090     9.1021     7.8567   128.9022
  584.5000   -44.6616     9.3643     7.9935   127.5344
  585.0000   -44.3031     9.5180     8.1836   126.1676
  585.5000   -44.3019     9.6269     8.2383   123.9836
  586.0000   -44.4409     9.8589     8.4553   121.7768
  586.5000   -44.7937    10.1362     8.5639   117.9472
  587.0000   -44.8753    10.4135     8.7253   115.9890
  587.5000   -45.1160    10.6908     8.8605   112.4086
  588.0000   -45.3115    10.9681     8.9578   110.2013
  588.5000   -45.5296    11.2291     9.0665   107.6305
  589.0000   -45.6585    11.3545     9.1751   104.2450
  589.5000   -45.7939    11.4225     9.2661   102.2069
  590.0000   -45.7922    11.4905     9.3333   101.5106
  590.5000   -45.6544    11.5181     9.3685   101.5190
  591.0000   -45.5055    11.4767     9.2640   102.8984
  591.5000   -45.3781    11.4223     9.1951   102.9056
  592.0000   -45.2004    11.2291     9.1266   104.2857
  592.5000   -44.9658    11.0121     9.0578   105.6663
  593.0000   -44.7586    10.9026     8.9891   107.0476
  593.5000   -44.5378    10.7931     8.9204   107.5780
  594.0000   -44.4151    10.7419     8.8516   109.8078
  594.5000   -44.2773    10.7419     8.7608   110.6453
  595.0000   -44.2759    10.7418     8.7143   111.4931
  595.5000   -44.2746    10.7418     8.7136   112.5762
  596.0000   -44.4500    10.7418     8.6449   113.9560
  596.5000   -44.8181    10.7417     8.6441   114.0342
  597.0000   -45.1394    10.6056     8.6436   115.3434
  597.5000   -45.3620     9.9674     8.6428   116.7240
  598.0000   -45.5756     9.9227     8.6422   116.7312
  598.5000   -45.6327     9.8479     8.5734   116.7377
  599.0000   -45.4944     9.7526     8.5727   118.1181
  599.5000   -45.3028     9.6259     8.5040   118.1262
  600.0000   -44.9454     9.5510     8.5034   118.3582
  600.5000   -44.5775     9.4868     8.4668   119.4984
  601.0000   -44.2296     9.4489     8.4354   120.2519
  601.5000   -43.9848     9.4534     8.4354   120.8592
  602.0000   -43.9836     9.4761     8.4354   120.8506
  602.5000   -43.9891     9.5540     8.3673   122.2184
  603.0000   -44.1175     9.6393     8.3673   122.2116
  603.5000   -44.1161     9.5440     8.2993   120.8311
  604.0000   -44.2513     9.4505     8.2313   122.1988
  604.5000   -44.2500     9.3534     8.1959   122.1902
  605.0000   -44.2486     9.2910     8.1542   122.7793
  605.5000   -44.1104     9.2390     8.0272   123.6102
  606.0000   -43.9289     9.1765     7.9347   125.8149
  606.5000   -43.6980     9.1514     7.8912   127.6590
  607.0000   -43.6230     9.1208     7.7832   129.0242
  607.5000   -43.5588     9.0551     7.6735   132.4289
  608.0000   -43.4206     8.9554     7.5510   134.6331
  608.5000   -43.4194     8.8498     7.3859   137.2446
  609.0000   -43.4180     8.6451     7.2055   140.4169
  609.5000   -43.4167     8.2778     6.9859   144.1000
  610.0000   -43.3607     7.8837     6.7483   148.3053
  610.5000   -43.1405     7.7270     6.5306   153.8992
  611.0000   -43.0027     7.5707     6.4626   156.4412
  611.5000   -43.0055     7.5570     6.4626   157.8091
  612.0000   -43.1366     7.5755     6.4626   156.4284
  612.5000   -43.4426     7.6658     6.5306   155.6204
  613.0000   -43.6802     7.7660     6.5306   153.4017
  613.5000   -43.8798     7.9787     6.6748   150.9126
  614.0000   -44.0983     8.2267     6.8027   148.9651
  614.5000   -44.2227     8.3958     6.8707   145.3729
  615.0000   -44.2213     8.4684     6.9932   143.1545
  615.5000   -44.2199     8.5060     7.0757   142.3098
  616.0000   -43.8743     8.5499     7.1429   141.2632
  616.5000   -43.6530     8.6071     7.2109   139.8833
  617.0000   -43.3960     8.6838     7.2789   138.5027
  617.5000   -43.3470     8.7811     7.2789   138.4946
  618.0000   -43.2568     8.8706     7.2843   138.4890
  618.5000   -43.2554     8.9171     7.3469   138.4818
  619.0000   -43.2541     8.7818     7.2789   139.1804
  619.5000   -43.3892     8.7126     7.2789   139.8426
  620.0000   -43.5792     8.6041     7.2109   141.2076
  620.5000   -43.7992     8.4842     7.1429   142.5756
  621.0000   -44.1530     8.3455     7.1429   142.5684
  621.5000   -44.2349     8.4815     7.2109   142.5618
  622.0000   -44.3388     8.5742     7.2789   142.3170
  622.5000   -44.1393     8.7128     7.4693   138.4262
  623.0000   -43.9181     8.8576     7.6480   136.5066
  623.5000   -43.6967     8.9919     7.8231   134.2883
  624.0000   -43.6503     9.0392     7.8912   132.0697
  624.5000   -43.6488     8.9622     7.8876   131.5316
  625.0000   -43.6475     9.0527     7.7778   131.5240
  625.5000   -43.6462     9.1166     7.6680   132.1269
  626.0000   -43.6446     9.0655     7.6190   134.3311
  626.5000   -43.6434     8.9166     7.5166   136.5360
  627.0000   -43.6420     8.8027     7.4150   138.7406
  627.5000   -43.6407     8.6577     7.3469   141.1052
  628.0000   -43.7761     8.5513     7.3233   142.4725
  628.5000   -43.7744     8.4780     7.2109   143.9809
  629.0000   -43.7732     8.4538     7.1429   146.5784
  629.5000   -43.7719     8.4794     7.0748   147.9464
  630.0000   -43.9891     8.5368     7.0068   149.3130
  630.5000   -44.0710     8.5625     6.9787   150.6799
  631.0000   -44.1776     8.5317     6.9370   150.8842
  631.5000   -44.2350     8.4808     6.8707   152.0398
  632.0000   -44.3115     8.4404     6.8707   152.0330
  632.5000   -44.3989     8.3953     6.8707   152.0260
  633.0000   -44.4456     8.3175     6.8381   152.0193
  633.5000   -44.4439     8.2587     6.8027   150.6387
  634.0000   -44.4426     8.2766     6.8027   150.6310
  634.5000   -44.4289     8.3527     6.8027   150.6250
  635.0000   -44.1664     8.4320     6.8027   150.6181
  635.5000   -44.0287     8.4942     6.7655   150.6113
  636.0000   -43.8906     8.4844     6.7347   150.6043
  636.5000   -43.7527     8.4397     6.7347   150.5970
  637.0000   -43.6148     8.3831     6.6667   151.9643
  637.5000   -43.6132     8.3257     6.5986   151.9574
  638.0000   -43.6120     8.2763     6.5986   151.9492
  638.5000   -43.4740     8.2708     6.5306   153.3186
  639.0000   -43.4727     8.2625     6.5306   153.3100
  639.5000   -43.4713     8.2490     6.5306   154.6772
  640.0000   -43.3332     8.2290     6.4626   156.2270
  640.5000   -43.3320     8.1945     6.4626   157.4107
  641.0000   -43.3306     8.1489     6.4626   158.7775
  641.5000   -43.3292     8.0967     6.4626   158.7704
  642.0000   -43.3279     8.0310     6.4626   158.7638
  642.5000   -43.4630     7.9517     6.3946   158.7568
  643.0000   -43.5246     7.9086     6.3946   158.7492
  643.5000   -43.6066     7.9357     6.3946   158.7431
  644.0000   -43.7323     8.0397     6.4626   157.3625
  644.5000   -43.8677     8.2351     6.4626   156.4996
  645.0000   -43.8660     8.3612     6.5306   155.6550
  645.5000   -43.8647     8.5207     6.5306   153.2204
  646.0000   -43.8634     8.6603     6.6277   152.5914
  646.5000   -43.8618     8.7602     6.7347   150.3730
  647.0000   -43.8606     8.8335     6.7791   148.1545
  647.5000   -43.8592     8.8521     6.8027   147.3098
  648.0000   -43.7213     8.8607     6.8027   146.3182
  648.5000   -43.5833     8.8606     6.8027   146.3119
  649.0000   -43.5818     8.8443     6.8027   146.3049
  649.5000   -43.5273     8.8062     6.8027   146.2970
  650.0000   -43.4426     8.7676     6.8027   146.7492
  650.5000   -43.4412     8.7098     6.8027   147.6581
  651.0000   -43.4399     8.6441     6.7347   147.6511
  651.5000   -43.4384     8.5478     6.7229   149.0186
  652.0000   -43.4371     8.4250     6.5986   150.3836
  652.5000   -43.4426     8.3192     6.5714   150.3778
  653.0000   -43.5711     8.2034     6.5306   151.7444
  653.5000   -43.7065     8.0984     6.4880   153.1113
