~VERSION INFORMATION
 VERS.                2.0:   CWLS LOG ASCII STANDARD - VERSION 2.0
 WRAP.                 NO:   ONE LINE PER DEPTH STEP
~WELL INFORMATION
#MNEM.UNIT      DATA TYPE    INFORMATION
#----------   ------------   ------------------------------
 STRT.F          700.0000:   START DEPTH
 STOP.F         2111.0000:   STOP DEPTH
 STEP.F            0.5000:   STEP LENGTH
 NULL.          -999.2500:   NO VALUE
 COMP. FENIX & SCISSON INC:   COMPANY
 WELL.    35 SAX 34 #3-34:   WELL
 FLD .             TEAPOT:   FIELD
 LOC .      S34 T39N R78W:   LOCATION
 CNTY.            NATRONA:   COUNTY
 STAT.            WYOMING:   STATE
 CTRY. UNITED STATES OF AMERICA:   COUNTRY
 SRVC.            Unknown:   SERVICE COMPANY
 DATE.        29-MAY-1978:   LOGDATE
 API .       490251061700:   API NUMBER
~CURVE INFORMATION
#MNEM.UNIT       API CODE    CURVE DESCRIPTION
#----------   ------------   ------------------------------
 DEPT.F                  :   
 CALD.IN     45 280 60 00:   CALIPER FROM DENSITY LOG
 GRD .GAPI   45 310 01 00:   GAMMA RAY FROM DENSITY LOG
 RHOB.G/C3   45 350 01 00:   BULK DENSITY
 DPHI.DEC    45 890 00 00:   DENSITY POROSITY
 CORR.G/C3   45 356 01 00:   DENSITY CORRECTION
~PARAMETER INFORMATION
#MNEM.UNIT          VALUE    DESCRIPTION
#----------   ------------   ------------------------------
 PD  .                 GL:   PERMANENT DATUM
 EPD .F              5105:   ELEVATION PERMANENT DATUM
 LMF .                 KB:   LOG MEASURED FROM
 DAPD.F                10:   FEET ABOVE PERMANENT DATUM
 DMF .                 KB:   DRILLING MEASURED FROM
 EKB .F              5115:   KELLING BUSHING
 EGL .F              5105:   GROUND LEVEL
 DATE.          5-29-1978:   RUN DATE
 RUN .                  1:   RUN NUMBER
 DD  .F              2111:   DEPTH DRILLER
 DL  .F              2118:   DEPTH LOGGER
 BLI .F              2110:   BOTTOM LOG INTERVAL
 TLI .F               720:   TOP LOG INTERVAL
 CS  .IN            9.625:   CASING SIZE
 CBD .F               711:   CASING BOTTOM DRILLER
 CBL .F               721:   CASING BOTTOM LOGGER
 BS  .IN             8.75:   BIT SIZE
 BSD .F              2111:   BIT SIZE AT DEPTH
 DFT .                OIL:   DRILLING FLUID TYPE
 TCS .HRS               1:   TIME CURCULATED STOPPED
 LUN .               2958:   LOGGING UNIT NUMBER
 LUL .               CASP:   LOGGING UNIT LOCATION
 ENGI.             MILLER:   RECORDING ENGINEER
 WITN.           MCGINLEY:   WITNESSED BY
 CLNT.            A2DTECH:   CLIENT CODE
 ORIG.           5" PRINT:   ORIGIN OF DATA
 UWI .       490251061700:   UNIQUE WELL ID
 DICO. A2D Technologies, Inc.:   DIGITIZING COMPANY
~OTHER INFORMATION
~A   DEPT     CALD         GRD      RHOB       DPHI       CORR   
# ...
 1249.0000     9.7312    74.1701     2.3538     0.1279     0.2658
 1249.5000     9.7450    73.9943     2.3539     0.1309     0.2691
 1250.0000     9.7589    74.4640     2.3511     0.1261     0.2711
 1250.5000     9.7696    75.4838     2.3480     0.1319     0.2731
 1251.0000     9.7548    76.5421     2.3482     0.1389     0.2701
 1251.5000     9.7402    76.1458     2.3444     0.1314     0.2658
 1252.0000     9.7257    75.3370     2.3368     0.1249     0.2719
 1252.5000     9.7112    74.4986     2.3544     0.1209     0.2776
 1253.0000     9.6966    74.5399     2.3559     0.1271     0.2776
 1253.5000     9.6821    77.8745     2.3576     0.1329     0.2707
 1254.0000     9.6684    81.6976     2.3506     0.1274     0.2625
 1254.5000     9.6561    83.4776     2.3465     0.1208     0.2636
 1255.0000     9.6440    82.1769     2.3566     0.1143     0.2652
 1255.5000     9.6320    79.7135     2.3665     0.1094     0.2638
 1256.0000     9.6199    77.6536     2.3744     0.1225     0.2600
 1256.5000     9.6078    77.2750     2.3784     0.1293     0.2554
 1257.0000     9.5956    76.3351     2.3612     0.1301     0.2519
 1257.5000     9.5833    74.9094     2.3487     0.1313     0.2555
 1258.0000     9.5730    74.9032     2.3477     0.1315     0.2589
 1258.5000     9.6013    77.6797     2.3480     0.1314     0.2605
 1259.0000     9.6114    79.6689     2.3482     0.1325     0.2617
 1259.5000     9.6116    78.8142     2.3484     0.1317     0.2629
 1260.0000     9.6116    74.6821     2.3486     0.1304     0.2642
 1260.5000     9.6114    70.2209     2.3487     0.1286     0.2654
 1261.0000     9.6114    68.4465     2.3499     0.1245     0.2600
 1261.5000     9.6225    69.6101     2.3515     0.1381     0.2540
 1262.0000     9.6980    70.3199     2.3487     0.1417     0.2479
 1262.5000     9.7731    70.6042     2.3357     0.1429     0.2474
 1263.0000     9.8474    70.8521     2.3298     0.1394     0.2506
 1263.5000     9.8787    71.2324     2.3316     0.1350     0.2538
 1264.0000     9.8497    73.2350     2.3345     0.1317     0.2572
 1264.5000     9.8213    76.5693     2.3373     0.1427     0.2538
 1265.0000     9.7929    79.5688     2.3354     0.1495     0.2534
 1265.5000     9.7643    80.7342     2.3285     0.1515     0.2574
 1266.0000     9.7562    84.4093     2.3214     0.1464     0.2613
 1266.5000     9.7650    88.3394     2.3198     0.1393     0.2621
 1267.0000     9.7712    88.7271     2.3241     0.1385     0.2626
 1267.5000     9.7494    88.1276     2.3315     0.1440     0.2633
 1268.0000     9.7132    84.3729     2.3316     0.1457     0.2621
 1268.5000     9.6767    78.6446     2.3285     0.1456     0.2597
 1269.0000     9.6748    72.8602     2.3268     0.1461     0.2633
 1269.5000     9.6828    68.8146     2.3270     0.1421     0.2678
 1270.0000     9.6907    68.3194     2.3305     0.1369     0.2723
 1270.5000     9.6609    67.6052     2.3343     0.1356     0.2756
 1271.0000     9.6267    66.9296     2.3380     0.1341     0.2760
 1271.5000     9.5927    66.6042     2.3408     0.1363     0.2764
 1272.0000     9.5794    66.2532     2.3401     0.1311     0.2768
 1272.5000     9.5674    66.3308     2.3400     0.1178     0.2771
 1273.0000     9.5437    67.4452     2.3433     0.1166     0.2767
 1273.5000     9.5199    68.7615     2.3626     0.1127     0.2727
 1274.0000     9.5160    69.9220     2.3718     0.1066     0.2688
 1274.5000     9.5218    69.0083     2.3788     0.1005     0.2655
 1275.0000     9.5276    68.0216     2.3858     0.0998     0.2624
 1275.5000     9.5286    67.9036     2.3904     0.1067     0.2564
 1276.0000     9.5170    68.0584     2.3887     0.1121     0.2461
 1276.5000     9.5089    68.2189     2.3849     0.1186     0.2359
 1277.0000     9.5031    68.3987     2.3767     0.1245     0.2327
 1277.5000     9.4971    69.1152     2.3686     0.1269     0.2298
 1278.0000     9.4941    69.8641     2.3605     0.1263     0.2273
 1278.5000     9.5512    70.5720     2.3547     0.1215     0.2265
 1279.0000     9.5826    69.9875     2.3571     0.1170     0.2257
 1279.5000     9.5996    69.1020     2.3629     0.1206     0.2249
 1280.0000     9.6041    68.6568     2.3660     0.1218     0.2242
 1280.5000     9.5725    68.2718     2.3666     0.1210     0.2263
 1281.0000     9.5580    68.2694     2.3671     0.1177     0.2357
 1281.5000     9.5790    68.3820     2.3677     0.1145     0.2450
 1282.0000     9.5989    68.4902     2.3697     0.0978     0.2543
 1282.5000     9.5997    68.6679     2.3809     0.0847     0.2632
 1283.0000     9.5679    67.1554     2.4023     0.0842     0.2606
 1283.5000     9.5363    66.0150     2.4197     0.0845     0.2449
 1284.0000     9.5399    65.7746     2.4181     0.0920     0.2296
 1284.5000     9.5496    64.1338     2.4164     0.0974     0.2191
 1285.0000     9.5594    62.2250     2.4082     0.0988     0.2175
 1285.5000     9.5695    62.2057     2.4005     0.0984     0.2217
 1286.0000     9.5662    62.0752     2.3997     0.0974     0.2275
 1286.5000     9.5588    61.0557     2.3990     0.0996     0.2333
 1287.0000     9.5512    60.0139     2.3984     0.1070     0.2336
 1287.5000     9.5436    59.9383     2.3974     0.1098     0.2336
 1288.0000     9.5363    61.4348     2.3876     0.1202     0.2363
 1288.5000     9.5405    63.7275     2.3779     0.1337     0.2417
 1289.0000     9.5610    65.2421     2.3731     0.1384     0.2430
 1289.5000     9.5813    65.7791     2.3563     0.1432     0.2510
 1290.0000     9.6016    64.4220     2.3396     0.1479     0.2630
 1290.5000     9.6220    62.7994     2.3226     0.1546     0.2749
 1291.0000     9.6106    62.2540     2.3170     0.1585     0.2873
 1291.5000     9.5737    62.5032     2.3121     0.1462     0.2916
 1292.0000     9.5979    62.5726     2.3094     0.1354     0.2911
 1292.5000     9.6260    61.7537     2.3214     0.1245     0.2819
 1293.0000     9.6537    60.2969     2.3389     0.1287     0.2688
 1293.5000     9.6818    60.1852     2.3553     0.1356     0.2532
 1294.0000     9.6850    60.3875     2.3551     0.1397     0.2376
 1294.5000     9.6766    60.6056     2.3348     0.1413     0.2379
 1295.0000     9.6990    60.2352     2.3324     0.1425     0.2486
 1295.5000     9.7580    60.5457     2.3325     0.1356     0.2591
 1296.0000     9.7574    61.5442     2.3369     0.1300     0.2617
 1296.5000     9.7392    62.2225     2.3435     0.1283     0.2612
 1297.0000     9.7205    61.9720     2.3505     0.1265     0.2587
 1297.5000     9.7024    61.5478     2.3522     0.1261     0.2563
 1298.0000     9.7002    60.8153     2.3527     0.1340     0.2538
 1298.5000     9.7238    58.8271     2.3507     0.1381     0.2548
 1299.0000     9.7011    57.7627     2.3372     0.1445     0.2614
 1299.5000     9.6564    56.7447     2.3346     0.1561     0.2734
 1300.0000     9.6632    55.8130     2.3227     0.1601     0.2756
 1300.5000     9.6770    58.7213     2.3106     0.1533     0.2775
 1301.0000     9.6904    62.9061     2.3092     0.1515     0.2794
 1301.5000     9.6742    63.9654     2.3134     0.1468     0.2814
 1302.0000     9.6559    64.1999     2.3186     0.1401     0.2815
 1302.5000     9.6377    65.0138     2.3284     0.1353     0.2802
 1303.0000     9.6195    67.1683     2.3379     0.1337     0.2732
 1303.5000     9.6016    68.4383     2.3388     0.1348     0.2664
 1304.0000     9.6017    65.3630     2.3371     0.1441     0.2625
 1304.5000     9.6237    61.1514     2.3332     0.1525     0.2679
 1305.0000     9.6465    56.8514     2.3289     0.1520     0.2731
 1305.5000     9.6379    56.3915     2.3217     0.1453     0.2782
 1306.0000     9.6196    58.6960     2.3195     0.1404     0.2833
 1306.5000     9.6010    62.8247     2.3276     0.1377     0.2817
 1307.0000     9.5824    64.2326     2.3345     0.1361     0.2725
 1307.5000     9.5637    64.2783     2.3372     0.1320     0.2634
 1308.0000     9.5455    61.7366     2.3430     0.1274     0.2543
 1308.5000     9.5435    58.8134     2.3491     0.1228     0.2479
 1309.0000     9.5957    58.5432     2.3553     0.1182     0.2455
 1309.5000     9.6274    62.0399     2.3614     0.1153     0.2455
