~VERSION INFORMATION
 VERS.                2.0:   CWLS LOG ASCII STANDARD - VERSION 2.0
 WRAP.                 NO:   ONE LINE PER DEPTH STEP
~WELL INFORMATION
#MNEM.UNIT      DATA TYPE    INFORMATION
#----------   ------------   ------------------------------
 STRT.F            8.5000:   START DEPTH
 STOP.F         2140.0000:   STOP DEPTH
 STEP.F            0.5000:   STEP LENGTH
 NULL.          -999.2500:   NO VALUE
 COMP. LAWRENCE/ALLISON INC:   COMPANY
 WELL.   11-61 SHX #61-11:   WELL
 FLD .             TEAPOT:   FIELD
 LOC .      S11 T38N R78W:   LOCATION
 CNTY.            NATRONA:   COUNTY
 STAT.            WYOMING:   STATE
 CTRY. UNITED STATES OF AMERICA:   COUNTRY
 SRVC.      NL McCullough:   SERVICE COMPANY
 DATE.        04-MAY-1988:   LOGDATE
 API .       490251115600:   API NUMBER
~CURVE INFORMATION
#MNEM.UNIT       API CODE    CURVE DESCRIPTION
#----------   ------------   ------------------------------
 DEPT.F                  :   
 GRR .GAPI   81 310 01 00:   GAMMY RAY
 ROP .FT/HR  91 810 01 00:   RAT OF DRILLING PENETRATION
 TGAS.TC/CC  91 830 01 00:   TOTAL GAS UNIT
~PARAMETER INFORMATION
#MNEM.UNIT          VALUE    DESCRIPTION
#----------   ------------   ------------------------------
 PD  .                 GL:   PERMANENT DATUM
 EPD .F              5135:   ELEVATION PERMANENT DATUM
 LMF .                 KB:   LOG MEASURED FROM
 DAPD.F                 8:   FEET ABOVE PERMANENT DATUM
 DMF .                 KB:   DRILLING MEASURED FROM
 EKB .F              5143:   KELLING BUSHING
 EGL .F              5135:   GROUND LEVEL
 DATE.        04-MAY-1988:   RUN DATE
 RUN .                  1:   RUN NUMBER
 DD  .F              2140:   DEPTH DRILLER
 DL  .F               572:   DEPTH LOGGER
 BLI .F               568:   BOTTOM LOG INTERVAL
 CS  .IN              5.5:   CASING SIZE
 CBD .F               622:   CASING BOTTOM DRILLER
 BSD .F              2140:   BIT SIZE AT DEPTH
 DFT .         KCL/ WATER:   DRILLING FLUID TYPE
 TCS .HRS               1:   TIME CURCULATED STOPPED
 ENGI.               DALY:   RECORDING ENGINEER
 WITN.           MR. LOWL:   WITNESSED BY
 CLNT.            A2DTECH:   CLIENT CODE
 ORIG.           5" PRINT:   ORIGIN OF DATA
 UWI .       490251115600:   UNIQUE WELL ID
 DICO. A2D Technologies, Inc.:   DIGITIZING COMPANY
~OTHER INFORMATION
~A    DEPT      GRR       ROP       TGAS   
# ...
 1373.5000  -999.2500     0.3063     2.0208
 1374.0000  -999.2500     0.3064     2.0307
 1374.5000  -999.2500     0.3065     2.0406
 1375.0000  -999.2500     0.3066     2.0506
 1375.5000  -999.2500     0.3067     2.0605
 1376.0000  -999.2500     0.3068     2.0704
 1376.5000  -999.2500     0.3069     2.0803
 1377.0000  -999.2500     0.3070     2.0902
 1377.5000  -999.2500     0.3071     2.1001
 1378.0000  -999.2500     0.3072     2.1100
 1378.5000  -999.2500     0.3073     2.1199
 1379.0000  -999.2500     0.3074     2.1298
 1379.5000  -999.2500     0.3075     2.1397
 1380.0000  -999.2500     0.3076     2.1496
 1380.5000  -999.2500     0.2982     2.1595
 1381.0000  -999.2500     0.2983     2.1694
 1381.5000  -999.2500     0.2984     2.1793
 1382.0000  -999.2500     0.2890     2.1892
 1382.5000  -999.2500     0.3363     2.1992
 1383.0000  -999.2500     0.3647     2.2091
 1383.5000  -999.2500     0.3742     2.2190
 1384.0000  -999.2500     0.3743     2.2289
 1384.5000  -999.2500     0.3744     2.2388
 1385.0000  -999.2500     0.3745     2.2487
 1385.5000  -999.2500     0.3746     2.2586
 1386.0000  -999.2500     0.3747     2.2685
 1386.5000  -999.2500     0.3748     2.2784
 1387.0000  -999.2500     0.3749     2.2883
 1387.5000  -999.2500     0.3750     2.2982
 1388.0000  -999.2500     0.3751     2.3081
 1388.5000  -999.2500     0.3752     2.3180
 1389.0000  -999.2500     0.3753     2.3279
 1389.5000  -999.2500     0.3754     2.3379
 1390.0000  -999.2500     0.3755     2.3478
 1390.5000  -999.2500     0.3756     2.3577
 1391.0000  -999.2500     0.3757     2.3676
 1391.5000  -999.2500     0.3758     2.3775
 1392.0000  -999.2500     0.3758     2.3874
 1392.5000  -999.2500     0.3759     2.3973
 1393.0000  -999.2500     0.3760     2.4072
 1393.5000  -999.2500     0.3761     2.4171
 1394.0000  -999.2500     0.3762     2.4270
 1394.5000  -999.2500     0.3763     2.4369
 1395.0000  -999.2500     0.3764     2.4468
 1395.5000  -999.2500     0.3765     2.4567
 1396.0000  -999.2500     0.3766     2.4666
 1396.5000  -999.2500     0.3751     2.4765
 1397.0000  -999.2500     0.3673     2.4865
 1397.5000  -999.2500     0.3675     2.4964
 1398.0000  -999.2500     0.3675     2.5063
 1398.5000  -999.2500     0.3676     2.5162
 1399.0000  -999.2500     0.3677     2.5261
 1399.5000  -999.2500     0.3584     2.5360
 1400.0000  -999.2500     0.3585     2.5459
 1400.5000  -999.2500     0.3534     2.5558
 1401.0000  -999.2500     0.3398     2.5657
 1401.5000  -999.2500     0.3399     2.5756
 1402.0000  -999.2500     0.3400     2.5856
 1402.5000  -999.2500     0.3873     2.5962
 1403.0000  -999.2500     0.3968     2.6067
 1403.5000  -999.2500     0.4063     2.6172
 1404.0000  -999.2500     0.4064     2.6277
 1404.5000  -999.2500     0.4065     2.6383
 1405.0000  -999.2500     0.4067     2.6488
 1405.5000  -999.2500     0.4071     2.6593
 1406.0000  -999.2500     0.4074     2.6699
 1406.5000  -999.2500     0.4077     2.6804
 1407.0000  -999.2500     0.4081     2.6909
 1407.5000  -999.2500     0.4084     2.7014
 1408.0000  -999.2500     0.4088     2.7120
 1408.5000  -999.2500     0.4091     2.7225
 1409.0000  -999.2500     0.4095     2.7330
 1409.5000  -999.2500     0.4098     2.7436
 1410.0000  -999.2500     0.4101     2.7541
 1410.5000  -999.2500     0.4105     2.7646
 1411.0000  -999.2500     0.4108     2.7751
 1411.5000  -999.2500     0.4112     2.7857
 1412.0000  -999.2500     0.4115     2.7962
 1412.5000  -999.2500     0.4119     2.8067
 1413.0000  -999.2500     0.4122     2.8173
 1413.5000  -999.2500     0.4125     2.8278
 1414.0000  -999.2500     0.4129     2.8383
 1414.5000  -999.2500     0.4132     2.8488
 1415.0000  -999.2500     0.4136     2.8594
 1415.5000  -999.2500     0.4139     2.8699
 1416.0000  -999.2500     0.4143     2.8804
 1416.5000  -999.2500     0.4146     2.8910
 1417.0000  -999.2500     0.4149     2.9015
 1417.5000  -999.2500     0.4153     2.9120
 1418.0000  -999.2500     0.4156     2.9225
 1418.5000  -999.2500     0.4160     2.9331
 1419.0000  -999.2500     0.4163     2.9436
 1419.5000  -999.2500     0.4166     2.9541
 1420.0000  -999.2500     0.4170     2.9647
 1420.5000  -999.2500     0.4173     2.9752
 1421.0000  -999.2500     0.4176     2.9857
 1421.5000  -999.2500     0.4178     2.9962
 1422.0000  -999.2500     0.4181     3.0068
 1422.5000  -999.2500     0.4184     3.0173
 1423.0000  -999.2500     0.4187     3.0278
 1423.5000  -999.2500     0.4190     3.0402
 1424.0000  -999.2500     0.4192     2.6573
 1424.5000  -999.2500     0.4195     2.7202
 1425.0000  -999.2500     0.4198     2.7780
 1425.5000  -999.2500     0.4201     2.8358
 1426.0000  -999.2500     0.4204     2.8936
 1426.5000  -999.2500     0.4207     2.9514
 1427.0000  -999.2500     0.4210     3.0092
 1427.5000  -999.2500     0.4212     3.0670
 1428.0000  -999.2500     0.4215     3.1248
 1428.5000  -999.2500     0.4218     3.1827
 1429.0000  -999.2500     0.4221     3.2405
 1429.5000  -999.2500     0.4208     3.2983
 1430.0000  -999.2500     0.4132     3.3211
 1430.5000  -999.2500     0.4135     3.3119
 1431.0000  -999.2500     0.4232     3.6818
 1431.5000  -999.2500     0.4235     4.0566
 1432.0000  -999.2500     0.4238     4.0635
 1432.5000  -999.2500     0.4335     4.0703
 1433.0000  -999.2500     0.4338     4.0772
 1433.5000  -999.2500     0.4341     4.0840
 1434.0000  -999.2500     0.4343     4.0909
 1434.5000  -999.2500     0.4346     4.0977
 1435.0000  -999.2500     0.4255     4.1046
 1435.5000  -999.2500     0.4258     4.1114
 1436.0000  -999.2500     0.4261     4.1183
 1436.5000  -999.2500     0.4169     4.1252
 1437.0000  -999.2500     0.4116     4.1320
 1437.5000  -999.2500     0.4080     4.1389
 1438.0000  -999.2500     0.4083     4.1457
 1438.5000  -999.2500     0.4086     4.1526
 1439.0000  -999.2500     0.4089     4.1594
 1439.5000  -999.2500     0.4092     4.1663
 1440.0000  -999.2500     0.4095     4.1731
 1440.5000  -999.2500     0.4097     4.1800
 1441.0000  -999.2500     0.4100     4.1868
 1441.5000  -999.2500     0.4103     4.1937
 1442.0000  -999.2500     0.4106     4.2005
 1442.5000  -999.2500     0.4108     4.2074
 1443.0000  -999.2500     0.4111     4.2142
 1443.5000  -999.2500     0.4114     4.2211
 1444.0000  -999.2500     0.4117     4.2279
 1444.5000  -999.2500     0.4120     3.8552
 1445.0000  -999.2500     0.4123     3.0930
 1445.5000  -999.2500     0.4126     3.0856
 1446.0000  -999.2500     0.4129     3.1030
 1446.5000  -999.2500     0.4132     3.1350
 1447.0000  -999.2500     0.4134     3.1671
 1447.5000  -999.2500     0.4137     3.1992
 1448.0000  -999.2500     0.4140     3.2312
 1448.5000  -999.2500     0.4143     3.2633
 1449.0000  -999.2500     0.4146     3.2953
 1449.5000  -999.2500     0.4148     3.3274
 1450.0000  -999.2500     0.4151     3.3595
 1450.5000  -999.2500     0.4154     3.3915
 1451.0000  -999.2500     0.4157     3.4236
 1451.5000  -999.2500     0.4160     3.4556
 1452.0000  -999.2500     0.4162     3.4877
 1452.5000  -999.2500     0.4165     3.5198
 1453.0000  -999.2500     0.4168     3.5518
 1453.5000  -999.2500     0.4171     3.5839
 1454.0000  -999.2500     0.4174     3.6159
 1454.5000  -999.2500     0.4176     3.6480
 1455.0000  -999.2500     0.4179     3.6801
 1455.5000  -999.2500     0.4088     3.7121
 1456.0000  -999.2500     0.4091     3.7442
 1456.5000  -999.2500     0.4094     3.7762
 1457.0000  -999.2500     0.4097     3.8083
 1457.5000  -999.2500     0.4004     3.8404
 1458.0000  -999.2500     0.4008     3.8724
 1458.5000  -999.2500     0.4011     3.9045
 1459.0000  -999.2500     0.4014     3.9365
 1459.5000  -999.2500     0.4016     3.9686
 1460.0000  -999.2500     0.4019     4.0015
 1460.5000  -999.2500     0.4022     4.0878
 1461.0000  -999.2500     0.4025     4.1741
 1461.5000  -999.2500     0.4029     4.2671
 1462.0000  -999.2500     0.4033     4.2611
 1462.5000  -999.2500     0.4036     4.2547
 1463.0000  -999.2500     0.4040     4.2483
 1463.5000  -999.2500     0.4044     4.2419
 1464.0000  -999.2500     0.4048     4.2355
