~VERSION INFORMATION
 VERS.                2.0:   CWLS LOG ASCII STANDARD - VERSION 2.0
 WRAP.                 NO:   ONE LINE PER DEPTH STEP
~WELL INFORMATION
#MNEM.UNIT      DATA TYPE    INFORMATION
#----------   ------------   ------------------------------
 STRT.F           22.0000:   START DEPTH
 STOP.F          564.0000:   STOP DEPTH
 STEP.F            0.5000:   STEP LENGTH
 NULL.          -999.2500:   NO VALUE
 COMP.    FENIX & SCISSON:   COMPANY
 WELL. NPR # #3 12 - SX 11:   WELL
 FLD .             TEAPOT:   FIELD
 LOC .      S11 T38N R78W:   LOCATION
 CNTY.            NATRONA:   COUNTY
 STAT.            WYOMING:   STATE
 CTRY. UNITED STATES OF AMERICA:   COUNTRY
 SRVC.           BIRDWELL:   SERVICE COMPANY
 DATE.        29-NOV-1978:   LOGDATE
 API .       490251075500:   API NUMBER
~CURVE INFORMATION
#MNEM.UNIT       API CODE    CURVE DESCRIPTION
#----------   ------------   ------------------------------
 DEPT.F                  :   
 ILD .OHMM   05 120 46 00:   INDUCTION LOG DEEP
 SN  .OHMM   05 040 00 00:   SHORT NORMAL
 SPR .MV     05 010 01 00:   SPONTANEOUS POTENTIAL FROM RES.
 CALD.IN     45 280 60 00:   CALIPER FROM DENSITY LOG
 CORR.G/C3   45 356 01 00:   DENSITY CORRECTION
 DPHI.DEC    45 890 12 00:   DENSITY POROSITY SANDSTONE
 GRD .GAPI   45 310 01 00:   GAMMA RAY FROM DENSITY LOG
 RHOB.G/C3   45 350 01 00:   BULK DENSITY
~PARAMETER INFORMATION
#MNEM.UNIT          VALUE    DESCRIPTION
#----------   ------------   ------------------------------
 PD  .                 GL:   PERMANENT DATUM
 EPD .F              5143:   ELEVATION PERMANENT DATUM
 LMF .                 KB:   LOG MEASURED FROM
 DAPD.F                 4:   FEET ABOVE PERMANENT DATUM
 DMF .                 KB:   DRILLING MEASURED FROM
 EKB .F              5147:   KELLING BUSHING
 EGL .F              5143:   GROUND LEVEL
 DATE.        29-NOV-1978:   RUN DATE
 RUN .                  1:   RUN NUMBER
 DD  .F               562:   DEPTH DRILLER
 DL  .F               564:   DEPTH LOGGER
 BLI .F               564:   BOTTOM LOG INTERVAL
 TLI .F                30:   TOP LOG INTERVAL
 CS  .IN            8.625:   CASING SIZE
 CBL .F                48:   CASING BOTTOM LOGGER
 BS  .IN            7.875:   BIT SIZE
 BSD .F               562:   BIT SIZE AT DEPTH
 DFT .                KCL:   DRILLING FLUID TYPE
 DFD .                8.7:   DRILLING FLUID DENSITY
 DFV .                 36:   DRILLING FLUID VISCOSITY
 DFPH.               10.9:   DRILLING FLUID PH
 DFL .                 12:   DRILLING FLUID LOSS
 MSS .           FLOWLINE:   MUD SAMPLE SOURCE
 RMS .OHMM           0.34:   RESISTIVITY MUD SAMPLE
 MST .F                56:   MUD SAMPLE TEMPERATURE
 RMF .OHMM           0.32:   RESISTIVITY MUD FILTRATE SAMPLE
 MFST.F                59:   MUD FILTRATE SAMPLE TEMPERATURE
 RMC .OHMM            0.4:   RESISTIVITY MUD CAKE
 MCST.F                59:   MUD CAKE SAMPLE TEMPERATURE
 MFSS.               MEAS:   MUD FILTRATE SAMPLE SOURCE
 MCSS.               MEAS:   MUD CAKE SAMPLE SOURCE
 RMB .OHMM           0.33:   RESISTIVITY MUD AT BHT
 BHT .F                59:   BOTTOM HOLE TEMPERATURE
 TCS .HRS               1:   TIME CURCULATED STOPPED
 MRT .F                59:   MAXIMUM RECORDED TEMPERATURE
 LUN .               2958:   LOGGING UNIT NUMBER
 LUL .               CASP:   LOGGING UNIT LOCATION
 ENGI.             MILLER:   RECORDING ENGINEER
 WITN.           DINSMORE:   WITNESSED BY
 CLNT.            A2DTECH:   CLIENT CODE
 ORIG.           5" PRINT:   ORIGIN OF DATA
 UWI .       490251075500:   UNIQUE WELL ID
 DICO. A2D Technologies, Inc.:   DIGITIZING COMPANY
~OTHER INFORMATION
~A   DEPT      ILD         SN        SPR       CALD       CORR       DPHI         GRD      RHOB   
# ...
  265.0000     8.6406     9.2486   -27.9328     8.2139     0.0116     0.1352   106.0007     2.4601
  265.5000     8.5205     9.1187   -27.9240     8.2148     0.0160     0.1324   109.1631     2.4609
  266.0000     8.4018     9.0532   -27.9152     8.2157     0.0205     0.1277   107.3630     2.4669
  266.5000     8.3427     9.0508   -27.9064     8.2166     0.0220     0.1238   107.2160     2.4752
  267.0000     8.2839     9.0483   -27.8974     8.2175     0.0235     0.1181   107.5222     2.4865
  267.5000     8.2256     9.0459   -27.8866     8.2184     0.0250     0.1052   107.2259     2.4970
  268.0000     8.1677     8.9809   -27.8778     8.2193     0.0175     0.0941   104.8244     2.5293
  268.5000     7.9986     8.9710   -28.0198     8.2202     0.0085     0.0877   101.2198     2.5256
  269.0000     7.9422     8.8518   -28.1640     8.2213    -0.0036     0.1015    99.4196     2.5024
  269.5000     7.8319     8.7275   -28.3060     8.2221    -0.0006     0.1324   100.6271     2.4648
  270.0000     7.7230     8.7251   -28.7497     8.2230     0.0039     0.1468   103.0376     2.4393
  270.5000     7.5578     8.5431   -29.0407     8.2239     0.0069     0.1504   106.6711     2.4364
  271.0000     7.3043     8.4818   -29.1824     8.2248     0.0084     0.1525   107.1068     2.4304
  271.5000     6.9094     8.2475   -29.3244     8.2257     0.0084     0.1557   107.1122     2.4259
  272.0000     6.4014     7.9090   -29.6173     8.2266     0.0114     0.1639   107.7181     2.4214
  272.5000     5.9307     7.4801   -29.9101     8.1672     0.0113     0.1660   108.7752     2.4184
  273.0000     5.5329     6.9770   -30.2008     8.1229     0.0113     0.1675   108.1781     2.4124
  273.5000     5.1261     6.4181   -30.4958     8.0485     0.0113     0.1780   106.9789     2.3897
  274.0000     4.6193     5.9864   -30.7887     8.0193     0.0113     0.1945   108.0355     2.3699
  274.5000     4.1916     5.5838   -31.0793     8.0202     0.0113     0.2188   106.6877     2.3329
  275.0000     3.8566     5.0658   -31.0705     8.0211     0.0143     0.2335   105.7898     2.3089
  275.5000     3.6431     4.5840   -30.7601     8.0372     0.0158     0.2581   105.3432     2.2872
  276.0000     3.3565     4.0550   -29.3856     8.0833     0.0202     0.2857   104.2938     2.2339
  276.5000     3.0457     3.7302   -29.3846     8.1894     0.0277     0.2839   104.2994     2.2107
  277.0000     2.9607     3.4314   -29.5277     8.1001     0.0352     0.2779   103.7023     2.2122
  277.5000     2.9209     3.3366   -29.5167     8.0106     0.0277     0.2609   101.9023     2.2295
  278.0000     2.9408     3.3357   -29.5079     7.9360     0.0022     0.2309   101.3052     2.2926
  278.5000     3.0021     3.3816   -31.7616     7.9068     0.0082     0.2196   102.4025     2.3046
  279.0000     3.3770     3.4997   -32.2122     7.9832     0.0171     0.2129   104.4731     2.3212
  279.5000     3.6949     3.7501   -32.1724     8.1045     0.0171     0.1976   108.8384     2.3382
  280.0000     4.2731     4.1601   -30.5263     8.1807     0.0079     0.1712   109.8944     2.3932
  280.5000     4.8068     4.7155   -30.5175     8.1816     0.0021     0.1546   103.7345     2.4331
  281.0000     5.2592     5.2812   -30.6617     8.1825     0.0021     0.1480   104.3404     2.4376
  281.5000     5.7145     5.8792   -30.6507     8.1834     0.0051     0.1549   105.5479     2.4301
  282.0000     6.1295     6.4770   -30.6419     8.1845     0.0110     0.1552   107.2065     2.4286
  282.5000     6.4422     6.9402   -30.6331     8.1854     0.0155     0.1540   108.5643     2.4301
  283.0000     6.4262     7.1335   -30.6243     8.2013     0.0155     0.1519   110.6740     2.4332
  283.5000     6.3369     7.1316   -30.6154     8.2022     0.0140     0.1479   112.1822     2.4399
  284.0000     6.2489     7.1297   -30.6063     8.1278     0.0095     0.1395   117.6002     2.4490
  284.5000     6.1620     7.1778   -30.5956     7.9327     0.0050     0.1419   119.2888     2.4490
  285.0000     5.9102     7.1754   -30.8907     8.0543     0.0035     0.1491   116.4060     2.4429
  285.5000     5.7082     7.2736   -30.8797     8.1606     0.0049     0.1608   115.2074     2.4291
  286.0000     5.5900     7.2187   -31.0239     8.1916     0.0079     0.1659   115.5529     2.4108
  286.5000     5.5506     6.9663   -31.0129     8.1925     0.0171     0.1647   116.7212     2.4108
  287.0000     5.3956     6.5492   -31.0041     8.1934     0.0398     0.1610   117.7783     2.4138
  287.5000     5.3231     6.2372   -30.9953     8.1943     0.0472     0.1571   117.4819     2.4221
  288.0000     5.3222     6.1924   -30.9864     8.1952     0.0499     0.1490   113.7270     2.4326
  288.5000     5.3585     6.2342   -30.9774     8.1963     0.0499     0.1382   112.3769     2.4462
  289.0000     5.3950     6.3191   -30.9667     8.1670     0.0439     0.1362   111.9313     2.4597
  289.5000     5.5078     6.4502   -30.9579     8.1526     0.0258     0.1424   111.7854     2.4507
  290.0000     5.7010     6.5841   -30.7982     8.1236     0.0108     0.1474   111.6384     2.4432
  290.5000     5.9836     6.8145   -30.7894     8.0791     0.0048     0.1465   112.5462     2.4440
  291.0000     6.2802     7.0531   -30.6298     8.1706     0.0048     0.1438   116.6107     2.4486
  291.5000     6.5460     7.3081   -30.4701     8.2016     0.0048     0.1405   121.1265     2.4546
  292.0000     6.8768     7.6702   -30.4613     8.2025     0.0047     0.1348   120.2286     2.4614
  292.5000     7.2695     8.0394   -30.4525     8.2033     0.0062     0.1297   116.1729     2.4674
  293.0000     7.5681     8.3788   -30.4434     8.2042     0.0062     0.1317   112.3980     2.4704
  293.5000     7.7261     8.6121   -30.2819     8.2051     0.0077     0.1341   111.9713     2.4659
  294.0000     7.7790     8.8520   -30.1222     8.2060     0.0077     0.1365   113.1798     2.4599
  294.5000     7.8320     8.8496   -30.1134     8.1918     0.0077     0.1377   114.9888     2.4555
  295.0000     7.7766     8.8472   -29.8030     8.1777     0.0047     0.1386   116.6474     2.4532
  295.5000     7.6686     8.7230   -29.7942     8.1637     0.0031     0.1392   118.6067     2.4510
  296.0000     7.5620     8.6005   -29.7854     8.1493     0.0016     0.1404   119.8141     2.4495
  296.5000     7.5087     8.5973   -29.7765     8.1655     0.0016     0.1410   120.1182     2.4480
  297.0000     7.4559     8.4711   -29.7677     8.1814     0.0031     0.1424   119.3719     2.4481
  297.5000     7.4462     8.2426   -29.9271     8.1823     0.0046     0.1427   118.3237     2.4488
  298.0000     7.3002     8.1835   -30.3534     8.1832     0.0046     0.1427   116.2229     2.4481
  298.5000     7.1312     8.1247   -30.6463     8.1841     0.0076     0.1421   115.1747     2.4481
  299.0000     6.8570     8.0664   -30.7883     8.1850     0.0090     0.1406   114.4272     2.4504
  299.5000     6.6225     8.0084   -30.7773     8.1859     0.0075     0.1379   113.0783     2.4542
  300.0000     6.4408     7.8529   -30.9215     8.1868     0.0045     0.1375   105.1128     2.4557
  300.5000     6.2604     7.6755   -30.9114     8.1871     0.0044     0.1441   109.0258     2.4535
  301.0000     6.0431     7.4610   -30.9040     8.1874     0.0030     0.1525   116.5475     2.4400
  301.5000     5.8425     7.2138   -30.8966     8.1877     0.0031     0.1573   117.3024     2.4175
  302.0000     5.8014     6.9674   -30.7384     8.1880     0.0031     0.1693   118.6587     2.4047
  302.5000     5.8006     6.7763   -30.7310     8.1582     0.0031     0.1780   120.7670     2.3972
  303.0000     5.8402     6.5905   -30.7236     8.1283     0.0016     0.1759   122.7258     2.3972
  303.5000     5.8802     6.4993   -30.8673     8.1286     0.0001     0.1680   123.1789     2.3988
  304.0000     6.0027     6.5896   -30.8597     8.1440     0.0031     0.1585   122.5264     2.4055
  304.5000     6.1282     6.7277   -30.8522     8.1594     0.0046     0.1470   121.0266     2.4183
  305.0000     6.3873     6.9646   -30.8446     8.1898     0.0092     0.1381   116.1209     2.4393
