~VERSION INFORMATION
 VERS.                2.0:   CWLS LOG ASCII STANDARD - VERSION 2.0
 WRAP.                 NO:   ONE LINE PER DEPTH STEP
~WELL INFORMATION
#MNEM.UNIT      DATA TYPE    INFORMATION
#----------   ------------   ------------------------------
 STRT.M           36.0000:   START DEPTH
 STOP.M          687.0000:   STOP DEPTH
 STEP.M            0.5000:   STEP LENGTH
 NULL.          -999.2500:   NO VALUE
 COMP. LAWRENCE/ALLISON INC:   COMPANY
 WELL.    53-1-STX #15-15:   WELL
 FLD .             TEAPOT:   FIELD
 LOC .      S15 T38N R78W:   LOCATION
 CNTY.            NATRONA:   COUNTY
 STAT.            WYOMING:   STATE
 CTRY. UNITED STATES OF AMERICA:   COUNTRY
 SRVC.           Gearhart:   SERVICE COMPANY
 DATE.        29-AUG-1987:   LOGDATE
 API .       490251118700:   API NUMBER
~CURVE INFORMATION
#MNEM.UNIT       API CODE    CURVE DESCRIPTION
#----------   ------------   ------------------------------
 DEPT.M                  :   
 GRR .GAPI   07 310 01 00:   GAMMA RAY
 ILD .OHMM   07 120 46 00:   INDUCTION LOG DEEP
 ILM .OHMM   07 120 44 00:   INDUCTION LOG MEDIUM
~PARAMETER INFORMATION
#MNEM.UNIT          VALUE    DESCRIPTION
#----------   ------------   ------------------------------
 PD  .                 GL:   PERMANENT DATUM
 EPD .F              5237:   ELEVATION PERMANENT DATUM
 LMF .                 KB:   LOG MEASURED FROM
 DAPD.F              10.5:   FEET ABOVE PERMANENT DATUM
 DMF .                 KB:   DRILLING MEASURED FROM
 EKB .F              5247:   KELLING BUSHING
 EDF .F            5246.5:   DRILLING FLOOR
 EGL .F              5237:   GROUND LEVEL
 DATE.        29-AUG-1987:   RUN DATE
 RUN .                  1:   RUN NUMBER
 DD  .F               695:   DEPTH DRILLER
 DL  .F               696:   DEPTH LOGGER
 BLI .F               688:   BOTTOM LOG INTERVAL
 TLI .F                37:   TOP LOG INTERVAL
 CS  .IN            9.625:   CASING SIZE
 CBD .F                48:   CASING BOTTOM DRILLER
 CBL .F                49:   CASING BOTTOM LOGGER
 BS  .IN             8.75:   BIT SIZE
 BSD .F               695:   BIT SIZE AT DEPTH
 DFT .                AIR:   DRILLING FLUID TYPE
 TCS .HRS            0400:   TIME CURCULATED STOPPED
 MRT .F                80:   MAXIMUM RECORDED TEMPERATURE
 LUN .               7597:   LOGGING UNIT NUMBER
 LUL .           GILLETTE:   LOGGING UNIT LOCATION
 ENGI.         WEATHERMON:   RECORDING ENGINEER
 WITN.             STRONG:   WITNESSED BY
 CLNT.            A2DTECH:   CLIENT CODE
 ORIG.       2", 5" PRINT:   ORIGIN OF DATA
 UWI .       490251118700:   UNIQUE WELL ID
 DICO. A2D Technologies, Inc.:   DIGITIZING COMPANY
~OTHER INFORMATION
~A   DEPT       GRR       ILD        ILM   
# ...
  582.0000    87.0724    14.4530    14.4288
  582.5000    88.3094    14.4579    14.4347
  583.0000    88.3361    14.4619    14.4407
  583.5000    87.7510    14.4658    14.4466
  584.0000    88.3896    14.2699    14.5515
  584.5000    89.6266    14.0786    14.3572
  585.0000    90.8637    14.1802    14.0692
  585.5000    92.4033    14.0853    13.9764
  586.0000    93.3377    14.0901    13.8857
  586.5000    94.2723    13.9002    13.9893
  587.0000    93.3636    13.8072    13.8971
  587.5000    92.8128    13.8119    13.9042
  588.0000    93.4514    13.7203    13.9099
  588.5000    94.3858    13.7241    13.8196
  589.0000    95.0177    13.6320    13.8253
  589.5000    95.6496    13.4428    13.7354
  590.0000    96.5841    13.2683    13.4586
  590.5000    99.0314    13.3650    13.4642
  591.0000    99.0581    13.4614    13.5728
  591.5000    98.4797    13.6527    13.7583
  592.0000    98.2027    13.7513    13.7651
  592.5000    99.1383    13.5651    13.7708
  593.0000   100.6779    13.5697    13.6799
  593.5000   101.3098    13.6677    13.8778
  594.0000   100.3934    13.7663    13.9800
  594.5000    98.6468    13.6742    13.8878
  595.0000    98.0618    13.5836    13.7038
  595.5000    99.6080    13.4945    13.5195
  596.0000   100.8451    13.3125    13.3404
  596.5000   102.2259    13.3083    13.3459
  597.0000   102.7140    13.4124    13.3513
  597.5000   101.8330    13.5124    13.3568
  598.0000   101.5505    13.5043    13.2687
  598.5000   101.5839    13.2251    13.2755
  599.0000   103.1235    12.8819    13.0983
  599.5000   105.8734    12.9749    12.8343
  600.0000   108.0182    12.8883    12.6629
  600.5000   107.0801    12.8827    12.5807
  601.0000   104.7059    12.8029    12.5860
  601.5000   105.0796    12.8051    12.6919
  602.0000   108.4347    12.8957    12.9513
  602.5000   110.2702    12.8975    13.0467
  603.0000   107.2780    12.9888    13.1427
  603.5000   105.7919    13.1716    13.2395
  604.0000   100.0699    13.0825    13.1522
  604.5000   100.7018    12.9937    13.0668
  605.0000   102.2415    12.9809    12.9819
  605.5000   103.7812    13.0879    13.1697
  606.0000   105.3208    12.9994    13.1751
  606.5000   105.3999    12.9937    12.9992
  607.0000   104.1641    12.9132    12.9148
  607.5000   102.3755    12.9154    12.6532
  608.0000   101.1881    12.8277    12.5710
  608.5000   100.9163    12.6535    12.4905
  609.0000   100.9440    12.4813    12.4958
  609.5000   101.8843    12.3114    12.1594
  610.0000   104.6343    12.0601    11.9971
  610.5000   107.0816    11.9781    11.9501
  611.0000   109.5290    11.8155    11.7881
  611.5000   110.4636    11.7356    11.6277
  612.0000   110.1811    11.5759    11.4706
  612.5000   111.7275    11.4911    11.3938
  613.0000   114.1748    11.3411    11.2394
  613.5000   114.2016    11.1100    11.0797
  614.0000   110.2950    10.9584    10.8619
  614.5000   108.8079    10.7351    10.5673
  615.0000   109.4409    10.4434    10.2807
  615.5000   110.9806    10.2303     9.7286
  616.0000   111.3101     9.7478     8.9546
  616.5000   112.2724     9.0346     8.3572
  617.0000   114.5294     8.0888     7.8538
  617.5000   120.7768     7.2923     7.4837
  618.0000   124.7371     6.7587     6.9362
  618.5000   128.9999     6.3479     6.1246
  619.0000   138.1038     6.2651     5.2146
  619.5000   144.4846     6.3096     5.1530
  620.0000   146.0176     6.3543     5.6791
  620.5000   139.0919     6.5789     6.3458
  621.0000   128.2262     6.9543     6.9933
  621.5000   120.3861     7.6628     7.7068
  622.0000   118.5908     8.2129     8.5522
  622.5000   118.3207     8.9872     9.0412
  623.0000   117.7434     9.6325     9.6914
  623.5000   115.6522     9.9041    10.1749
  624.0000   112.3390    10.0435    10.4628
  624.5000   110.5315    10.1147    10.6109
  625.0000   110.2863    10.3402    10.6131
  625.5000   111.5301    10.6199    10.6157
  626.0000   114.8852    10.9952    10.7659
  626.5000   116.7275    11.3054    11.0706
  627.0000   116.7543    11.6242    11.3053
  627.5000   117.3862    11.8697    11.6252
  628.0000   117.7156    12.0367    12.0372
  628.5000   117.1373    12.2061    12.2075
  629.0000   115.9538    12.3779    12.5530
  629.5000   114.7703    12.6393    12.8191
  630.0000   114.1853    12.7288    13.0066
  630.5000   116.3368    12.9079    13.2907
  631.0000   118.1790    13.1805    13.4647
  631.5000   120.3238    13.3664    13.6553
  632.0000   119.6976    13.5545    13.8485
  632.5000   115.7691    13.5564    13.8513
  633.0000   113.0893    13.6523    13.8542
  633.5000   111.3606    13.7490    13.8570
  634.0000   110.7756    13.7509    14.0531
  634.5000   110.4998    13.7527    14.2520
  635.0000   110.5333    13.7546    14.2549
  635.5000   109.3498    13.7565    14.2578
  636.0000   105.4432    13.7583    14.0645
  636.5000   101.8391    13.7523    13.9703
  637.0000   102.7737    13.6672    13.7816
  637.5000   106.4313    13.5752    13.5948
  638.0000   110.3916    13.5771    13.5031
  638.5000   110.1158    13.5789    13.4133
  639.0000   108.3272    13.3936    13.4160
  639.5000   106.2360    13.2113    13.4187
  640.0000   108.0988    13.2136    13.5147
  640.5000   111.0650    13.2154    13.5175
  641.0000   114.1900    13.3089    13.6142
  641.5000   112.0988    13.3107    13.6170
  642.0000   110.3102    13.3125    13.6204
  642.5000   111.2447    13.2225    13.5285
  643.0000   113.0869    13.0277    13.4378
  643.5000   114.3240    12.6886    13.1642
  644.0000   114.9560    12.6904    12.8078
  644.5000   115.8905    12.5176    12.5470
  645.0000   117.4302    12.2621    12.2067
  645.5000   119.5750    12.0114    11.7937
  646.0000   119.2992    11.7666    11.5535
  646.5000   119.0227    11.5264    11.3183
  647.0000   118.4448    11.2911    11.2425
  647.5000   119.3848    11.2148    11.1672
  648.0000   120.6172    11.0622    11.0164
  648.5000   121.5522    10.9116    10.8670
  649.0000   121.5847    10.7631    10.6458
  649.5000   120.4013    10.5437    10.5739
  650.0000   123.1512    10.4721    10.3591
  650.5000   121.6339    10.4013    10.2892
  651.0000   122.9351    10.2601    10.2918
  651.5000   125.8699    10.1903    10.3654
  652.0000   125.5673    10.1218    10.3676
  652.5000   126.4750    10.0530    10.3697
  653.0000   127.3828     9.9165    10.3723
  653.5000   128.8956     9.9179    10.3744
  654.0000   128.8956     9.8508    10.3044
  654.5000   128.2905     9.7842    10.1652
  655.0000   127.6853     9.7856    10.0966
  655.5000   127.9879     9.7194     9.9598
  656.0000   128.8956     9.5874     9.8248
  656.5000   130.7110     9.5226     9.6921
  657.0000   131.3162     9.2639     9.4292
  657.5000   129.4252     9.0748     9.2372
  658.0000   127.0802     9.0131     9.1753
  658.5000   125.5673     9.0146     9.1139
  659.0000   124.6596     9.0159     9.1162
  659.5000   124.3570     8.9549     9.0546
  660.0000   125.2647     8.8943     9.0569
  660.5000   124.9622     8.8905     8.9342
  661.0000   124.6596     8.8354     8.6919
  661.5000   125.2647     8.6551     8.4561
  662.0000   127.0802     8.4202     8.2839
  662.5000   127.3828     8.2483     8.1153
  663.0000   126.1725     8.2494     8.0049
  663.5000   125.2647     8.3078     7.8423
  664.0000   125.9002     8.3667     7.7897
  664.5000   129.0015     8.3678     7.8458
  665.0000   129.1982     8.5445     8.1804
  665.5000   126.4750     8.6647     8.5292
  666.0000   123.4493     8.8477     9.2061
  666.5000   122.5416     9.1078     9.6654
  667.0000   122.5416     9.5063     9.9389
  667.5000   122.2390     9.8879    10.1496
  668.0000   121.0287    10.0271    10.3647
  668.5000   120.1210    10.3815    10.5845
  669.0000   122.2390    10.6007    10.8089
  669.5000   126.1725    10.6758    10.9619
  670.0000   128.2905    10.6772    11.0408
  670.5000   128.2450    10.5315    10.9668
  671.0000   124.6441    10.3885    10.7435
  671.5000  -999.2500    10.3183    10.5979
  672.0000  -999.2500    10.1779    10.6001
  672.5000  -999.2500    10.1090    10.5285
