~VERSION INFORMATION
 VERS.                2.0:   CWLS LOG ASCII STANDARD - VERSION 2.0
 WRAP.                 NO:   ONE LINE PER DEPTH STEP
~WELL INFORMATION
#MNEM.UNIT      DATA TYPE    INFORMATION
#----------   ------------   ------------------------------
 STRT.F           20.0000:   START DEPTH
 STOP.F          964.0000:   STOP DEPTH
 STEP.F            0.5000:   STEP LENGTH
 NULL.          -999.2500:   NO VALUE
 COMP. FENIX & SCISSON INC:   COMPANY
 WELL.    NPR-3 SX #58-11:   WELL
 FLD .             TEAPOT:   FIELD
 LOC .      S11 T38N R78W:   LOCATION
 CNTY.            NATRONA:   COUNTY
 STAT.            WYOMING:   STATE
 CTRY. UNITED STATES OF AMERICA:   COUNTRY
 SRVC.            Unknown:   SERVICE COMPANY
 DATE.        09-MAR-1978:   LOGDATE
 API .       490251060100:   API NUMBER
~CURVE INFORMATION
#MNEM.UNIT       API CODE    CURVE DESCRIPTION
#----------   ------------   ------------------------------
 DEPT.F                  :   
 SPR .MV     05 010 01 00:   SPONTANEOUS POTENTIAL FROM RES.
 SN  .OHMM   05 040 16 00:   SHORT NORMAL 16"
 ILD .OHMM   05 120 46 00:   INDUCTION LOG DEEP
 CALD.IN     45 280 60 00:   CALIPER
 GRD .GAPI   45 310 01 00:   GAMMA RAY FROM DENSITY LOG
 CORR.G/C3   45 356 01 00:   DENSITY CORRECTION
 RHOB.G/C3   45 350 01 00:   BULK DENSITY
 DPHI.DEC    45 890 12 00:   DENSITY POROSITY SANDSTONE
~PARAMETER INFORMATION
#MNEM.UNIT          VALUE    DESCRIPTION
#----------   ------------   ------------------------------
 PD  .                 GL:   PERMANENT DATUM
 EPD .F              5219:   ELEVATION PERMANENT DATUM
 LMF .                 KB:   LOG MEASURED FROM
 DAPD.F                 4:   FEET ABOVE PERMANENT DATUM
 DMF .                 KB:   DRILLING MEASURED FROM
 EKB .F              5223:   KELLING BUSHING
 EGL .F              5219:   GROUND LEVEL
 DATE.           3-9-1978:   RUN DATE
 RUN .                  1:   RUN NUMBER
 DD  .F               963:   DEPTH DRILLER
 DL  .F               966:   DEPTH LOGGER
 BLI .F               960:   BOTTOM LOG INTERVAL
 TLI .F                80:   TOP LOG INTERVAL
 CS  .IN            8.625:   CASING SIZE
 CBD .F                40:   CASING BOTTOM DRILLER
 BS  .IN            7.875:   BIT SIZE
 BSD .F               963:   BIT SIZE AT DEPTH
 DFT .         LIGNO SULF:   DRILLING FLUID TYPE
 DFD .                8.6:   DRILLING FLUID DENSITY
 DFV .                 30:   DRILLING FLUID VISCOSITY
 DFPH.               10.5:   DRILLING FLUID PH
 DFL .                4.8:   DRILLING FLUID LOSS
 MSS .          FLOW LINE:   MUD SAMPLE SOURCE
 RMS .OHMM            1.7:   RESISTIVITY MUD SAMPLE
 MST .F                60:   MUD SAMPLE TEMPERATURE
 RMF .OHMM            1.5:   RESISTIVITY MUD FILTRATE SAMPLE
 MFST.F                74:   MUD FILTRATE SAMPLE TEMPERATURE
 RMC .OHMM            2.8:   RESISTIVITY MUD CAKE
 MCST.F                68:   MUD CAKE SAMPLE TEMPERATURE
 MFSS.               MEAS:   MUD FILTRATE SAMPLE SOURCE
 MCSS.               MEAS:   MUD CAKE SAMPLE SOURCE
 RMB .OHMM           1.38:   RESISTIVITY MUD AT BHT
 BHT .F                74:   BOTTOM HOLE TEMPERATURE
 TCS .HRS               4:   TIME CURCULATED STOPPED
 MRT .F                74:   MAXIMUM RECORDED TEMPERATURE
 LUN .               2958:   LOGGING UNIT NUMBER
 LUL .               CASP:   LOGGING UNIT LOCATION
 ENGI.             MILLER:   RECORDING ENGINEER
 WITN.         HARRINGTON:   WITNESSED BY
 CLNT.            A2DTECH:   CLIENT CODE
 ORIG.      2" , 5" PRINT:   ORIGIN OF DATA
 UWI .       490251060100:   UNIQUE WELL ID
 DICO. A2D Technologies, Inc.:   DIGITIZING COMPANY
~OTHER INFORMATION
~A   DEPT      SPR         SN        ILD       CALD         GRD      CORR       RHOB       DPHI   
# ...
  222.5000   -29.1972     7.1537     6.5262     7.8556    77.5730     0.0415     2.4508     0.1103
  223.0000   -29.5916     6.9756     6.6339     7.8616    74.1102     0.0373     2.4687     0.1020
  223.5000   -29.1714     7.1386     6.7862     7.8635    70.6097     0.0248     2.4860     0.0920
  224.0000   -28.6069     7.5385     6.7781     7.8657    66.9202     0.0102     2.4956     0.0939
  224.5000   -28.0535     7.9611     6.7587     7.8679    64.6011     0.0098     2.4841     0.1207
  225.0000   -28.2002     8.3926     6.7393     7.8700    65.9811     0.0103     2.4693     0.1286
  225.5000   -28.4019     7.4429     6.7200     7.8722    70.0932     0.0116     2.4542     0.1342
  226.0000   -28.2896     7.5885     6.7007     7.8743    78.0201     0.0123     2.4427     0.1330
  226.5000   -28.2177     8.0166     6.6815     7.8765    85.8489     0.0132     2.4442     0.1318
  227.0000   -28.1844     7.5768     6.6619     7.8786    86.4234     0.0142     2.4424     0.1333
  227.5000   -28.1513     7.0479     6.4001     7.8808    86.1178     0.0150     2.4395     0.1359
  228.0000   -28.1183     6.5382     6.1425     7.8829    82.6426     0.0159     2.4370     0.1382
  228.5000   -28.0852     6.4202     5.8953     7.8851    81.0269     0.0169     2.4404     0.1278
  229.0000   -28.0509     6.3985     5.6937     7.8872    81.0650     0.0177     2.4460     0.1270
  229.5000   -28.0632     6.3760     5.6413     7.8894    80.3242     0.0186     2.4518     0.1262
  230.0000   -28.0883     6.3612     5.6721     7.8916    78.3972     0.0195     2.4542     0.1273
  230.5000   -28.1138     6.3692     5.6991     7.8937    76.3648     0.0204     2.4499     0.1284
  231.0000   -28.1393     6.3779     5.7263     7.8959    77.1337     0.0213     2.4467     0.1294
  231.5000   -28.1647     6.3865     5.7535     7.8980    78.0715     0.0222     2.4424     0.1286
  232.0000   -28.1901     6.3951     5.7809     7.9002    78.9719     0.0231     2.4441     0.1279
  232.5000   -28.2148     6.4042     5.7999     7.9023    81.3481     0.0240     2.4487     0.1270
  233.0000   -28.2444     6.4184     5.7636     7.9045    83.7761     0.0250     2.4470     0.1328
  233.5000   -28.4769     6.4174     5.7241     7.9067    82.8066     0.0272     2.4383     0.1429
  234.0000   -28.7365     6.4816     5.6848     7.9088    81.1580     0.0294     2.4303     0.1413
  234.5000   -28.9968     6.2881     5.6458     7.9110    80.8114     0.0317     2.4261     0.1376
  235.0000   -29.2484     6.1631     5.6070     7.9131    81.2992     0.0328     2.4324     0.1339
  235.5000   -29.2827     6.0740     5.5686     7.9153    81.7199     0.0304     2.4392     0.1340
  236.0000   -28.6027     6.0588     5.5303     7.9174    80.8330     0.0282     2.4411     0.1362
  236.5000   -28.2456     6.0415     5.4924     7.9196    79.5470     0.0259     2.4364     0.1389
  237.0000   -28.2455     6.0182     5.4871     7.9218    79.1873     0.0236     2.4347     0.1356
  237.5000   -28.2430     6.0372     5.4871     7.9239    78.7116     0.0214     2.4414     0.1317
  238.0000   -28.2433     6.0664     5.4871     7.9261    78.7791     0.0218     2.4475     0.1300
  238.5000   -28.2435     6.0958     5.4871     7.9282    82.1419     0.0231     2.4434     0.1317
  239.0000   -28.2435     6.1254     5.4871     7.9304    85.2983     0.0243     2.4387     0.1335
  239.5000   -28.2435     6.1552     5.4871     7.9325    88.9855     0.0255     2.4386     0.1364
  240.0000   -28.2435     6.1854     5.4871     7.9347    86.8725     0.0268     2.4362     0.1404
  240.5000   -28.2435     6.2163     5.4871     7.9368    82.2125     0.0280     2.4298     0.1443
  241.0000   -28.2435     6.2471     5.3809     7.9390    80.5915     0.0292     2.4267     0.1483
  241.5000   -28.2435     6.0195     5.2534     7.9405    79.6323     0.0305     2.4200     0.1517
  242.0000   -28.2436     5.7476     5.1280     7.9414    79.9564     0.0317     2.4123     0.1499
  242.5000   -28.2435     5.4897     4.9556     7.9423    81.8990     0.0329     2.4154     0.1484
  243.0000   -28.2431     5.2433     4.9581     7.9432    83.1488     0.0342     2.4168     0.1469
  243.5000   -28.2065     5.0986     4.8872     7.9441    81.1210     0.0353     2.4163     0.1441
  244.0000   -28.1061     5.1211     4.8587     7.9450    78.1623     0.0365     2.4222     0.1402
  244.5000   -28.0071     5.1392     4.8300     7.9459    75.0142     0.0323     2.4307     0.1350
  245.0000   -27.9104     5.1574     4.8010     7.9468    75.2090     0.0275     2.4352     0.1368
  245.5000   -27.9902     5.1757     4.7771     7.9477    77.2436     0.0224     2.4309     0.1396
  246.0000   -28.4214     5.1913     4.8014     7.9486    77.8641     0.0208     2.4265     0.1423
  246.5000   -28.8474     5.2275     4.8340     7.9496    77.7735     0.0209     2.4262     0.1421
  247.0000   -29.2749     5.2946     4.8667     7.9505    77.7873     0.0209     2.4320     0.1374
  247.5000   -29.6282     5.3625     4.8997     7.9514    77.8316     0.0209     2.4282     0.1453
  248.0000   -28.8420     5.4314     4.9329     7.9523    77.7577     0.0209     2.4248     0.1423
  248.5000   -28.2283     5.5011     4.9663     7.9532    77.7013     0.0209     2.4308     0.1358
  249.0000   -28.2045     5.5717     5.0032     7.9541    75.7617     0.0209     2.4346     0.1382
  249.5000   -28.1687     5.6432     5.0027     7.9550    73.0686     0.0208     2.4285     0.1422
  250.0000   -28.1328     5.6937     5.0376     7.9559    74.0113     0.0220     2.4212     0.1453
  250.5000   -28.0977     5.6881     5.0696     7.9568    78.8559     0.0241     2.4213     0.1453
  251.0000   -28.0624     5.6819     5.1022     7.9577    81.6270     0.0261     2.4224     0.1453
  251.5000   -28.0441     5.6757     5.1435     7.9586    80.3615     0.0280     2.4206     0.1473
  252.0000   -28.0440     5.6695     5.0828     7.9595    78.7842     0.0300     2.4156     0.1497
  252.5000   -28.0439     5.6633     5.0545     7.9604    76.8284     0.0323     2.4105     0.1506
  253.0000   -28.0439     5.6571     5.0263     7.9613    76.4126     0.0307     2.4137     0.1499
  253.5000   -28.0439     5.6512     4.9983     7.9622    77.0095     0.0264     2.4159     0.1492
  254.0000   -28.0439     5.6453     4.9705     7.9631    77.5677     0.0224     2.4136     0.1484
  254.5000   -28.0440     5.6203     4.9428     7.9640    77.4366     0.0186     2.4142     0.1477
  255.0000   -28.0437     5.5272     4.9152     7.9650    76.3779     0.0157     2.4173     0.1542
  255.5000   -28.0326     5.4356     4.8878     7.9659    75.4339     0.0143     2.4013     0.1581
  256.0000   -27.9793     5.3458     4.8648     7.9668    74.3430     0.0141     2.3968     0.1563
  256.5000   -27.9274     5.2574     4.8583     7.9677    75.0618     0.0249     2.3976     0.1533
  257.0000   -27.8762     5.2346     4.8517     7.9686    77.7166     0.0312     2.4039     0.1549
  257.5000   -27.8973     5.2089     4.8452     7.9695    78.8577     0.0204     2.4132     0.1477
  258.0000   -28.0275     5.1834     4.8387     7.9704    76.9045     0.0134     2.4188     0.1549
  258.5000   -28.1560     5.1580     4.8322     7.9713    74.6945     0.0127     2.3937     0.1668
  259.0000   -28.2862     5.1328     4.8257     7.9722    73.1393     0.0130     2.3800     0.1758
  259.5000   -28.4258     5.1076     4.7446     7.9731    72.6487     0.0138     2.3710     0.1827
  260.0000   -28.1719     4.9043     4.5321     7.9740    77.0506     0.0269     2.3598     0.2074
  260.5000   -27.8315     4.3846     4.2897     7.9750    85.2576     0.0401     2.3091     0.2136
  261.0000   -27.4870     3.9200     3.8254     7.9758    90.1122     0.0486     2.3061     0.2177
  261.5000   -27.1445     3.5047     3.4114     7.9769    92.7445     0.0606     2.3006     0.2164
  262.0000   -26.8004     3.3281     3.1233     7.9777    92.6882     0.0857     2.2965     0.2137
  262.5000   -26.7364     3.3013     3.1009     7.9784    88.5411     0.0545     2.3362     0.1905
