~VERSION INFORMATION
 VERS.                2.0:   CWLS LOG ASCII STANDARD - VERSION 2.0
 WRAP.                 NO:   ONE LINE PER DEPTH STEP
~WELL INFORMATION
#MNEM.UNIT      DATA TYPE    INFORMATION
#----------   ------------   ------------------------------
 STRT.F           44.0000:   START DEPTH
 STOP.F          666.0000:   STOP DEPTH
 STEP.F            0.5000:   STEP LENGTH
 NULL.          -999.2500:   NO VALUE
 COMP. FENIX & SCISSON INC:   COMPANY
 WELL.     NPR-3 #22SX-10:   WELL
 FLD .             TEAPOT:   FIELD
 LOC .      S10 T38N R78W:   LOCATION
 CNTY.            NATRONA:   COUNTY
 STAT.            WYOMING:   STATE
 CTRY. UNITED STATES OF AMERICA:   COUNTRY
 SRVC.            Unknown:   SERVICE COMPANY
 DATE.        11-JUL-1978:   LOGDATE
 API .       490251065600:   API NUMBER
~CURVE INFORMATION
#MNEM.UNIT       API CODE    CURVE DESCRIPTION
#----------   ------------   ------------------------------
 DEPT.F                  :   
 CALD.IN     45 280 60 00:   CALIPER FROM DENSITY LOG
 GRD .GAPI   45 310 01 00:   GAMMA RAY FROM DENSITY LOG
 CORR.G/C3   45 356 01 00:   DENSITY CORRECTION
 DPHI.DEC    45 890 12 00:   DENSITY POROSITY SANDSTONE
 RHOB.G/C3   45 350 01 00:   BULK DENSITY
 SPR .MV     05 010 01 00:   SPONTANEOUS POTENTIAL FROM RES.
 SN  .OHMM   05 040 16 00:   SHORT NORMAL 16"
 ILD .OHMM   05 120 46 00:   INDUCTION LOG DEEP
~PARAMETER INFORMATION
#MNEM.UNIT          VALUE    DESCRIPTION
#----------   ------------   ------------------------------
 PD  .                 GL:   PERMANENT DATUM
 EPD .F              5263:   ELEVATION PERMANENT DATUM
 LMF .                 KB:   LOG MEASURED FROM
 DAPD.F                 4:   FEET ABOVE PERMANENT DATUM
 DMF .                 KB:   DRILLING MEASURED FROM
 EKB .F              5267:   KELLING BUSHING
 EGL .F              5263:   GROUND LEVEL
 DATE.        11-JUL-1978:   RUN DATE
 RUN .                  1:   RUN NUMBER
 DD  .F               657:   DEPTH DRILLER
 DL  .F               666:   DEPTH LOGGER
 BLI .F               660:   BOTTOM LOG INTERVAL
 TLI .F                50:   TOP LOG INTERVAL
 CS  .IN            8.625:   CASING SIZE
 CBD .F                40:   CASING BOTTOM DRILLER
 BS  .IN            7.875:   BIT SIZE
 BSD .F               657:   BIT SIZE AT DEPTH
 DFT .                KCL:   DRILLING FLUID TYPE
 DFD .                8.6:   DRILLING FLUID DENSITY
 DFV .                 33:   DRILLING FLUID VISCOSITY
 DFPH.                9.0:   DRILLING FLUID PH
 DFL .                 14:   DRILLING FLUID LOSS
 MSS .           FLOWLINE:   MUD SAMPLE SOURCE
 RMS .OHMM            .16:   RESISTIVITY MUD SAMPLE
 MST .F                89:   MUD SAMPLE TEMPERATURE
 RMF .OHMM            .15:   RESISTIVITY MUD FILTRATE SAMPLE
 MFST.F                89:   MUD FILTRATE SAMPLE TEMPERATURE
 RMC .OHMM            .32:   RESISTIVITY MUD CAKE
 MCST.F                88:   MUD CAKE SAMPLE TEMPERATURE
 MFSS.               MEAS:   MUD FILTRATE SAMPLE SOURCE
 BHT .F                76:   BOTTOM HOLE TEMPERATURE
 TCS .HRS            0200:   TIME CURCULATED STOPPED
 MRT .F                76:   MAXIMUM RECORDED TEMPERATURE
 LUN .               2958:   LOGGING UNIT NUMBER
 LUL .               CASP:   LOGGING UNIT LOCATION
 ENGI.             MILLER:   RECORDING ENGINEER
 WITN.           MCGINLEY:   WITNESSED BY
 CLNT.            A2DTECH:   CLIENT CODE
 ORIG.           5" PRINT:   ORIGIN OF DATA
 UWI .       490251065600:   UNIQUE WELL ID
 DICO. A2D Technologies, Inc.:   DIGITIZING COMPANY
~OTHER INFORMATION
~A   DEPT     CALD         GRD      CORR       DPHI       RHOB        SPR         SN        ILD   
# ...
   84.5000     7.6843    71.5095     0.0006     0.2135     2.3178    -3.6633    11.1384    15.0714
   85.0000     7.5620    71.8001     0.0082     0.2078     2.3298    -3.6571    11.2205    15.3926
   85.5000     7.1367    71.9395     0.0139     0.1981     2.3568    -3.6509    11.3811    15.6130
   86.0000     7.1205    71.9274     0.0108     0.1880     2.3702    -3.6446    11.4649    15.8365
   86.5000     7.1498    71.7640     0.0137     0.1751     2.3860    -3.6384    11.6291    15.9636
   87.0000     7.2245    71.1893     0.0196     0.1517     2.4048    -3.6322    11.7956    16.2950
   87.5000     7.3143    66.6969     0.0211     0.1359     2.4343    -3.6260    12.0539    16.5283
   88.0000     7.4345    62.4969     0.0194     0.1187     2.4705    -3.6198    12.2208    16.7649
   88.5000     7.4638    60.8208     0.0194     0.1016     2.4936    -3.6136    12.2193    17.0049
   89.0000     7.4930    60.8088     0.0057     0.1160     2.5025    -3.6074    12.2056    16.7786
   89.5000     7.5223    60.7969    -0.0004     0.1578     2.4962    -3.6011    12.1920    16.3331
   90.0000     7.6576    60.7849     0.0086     0.1707     2.4272    -3.5897    12.1783    15.7887
   90.5000     7.8255    61.0755     0.0100     0.1764     2.3979    -3.5738    12.1650    15.1470
   91.0000     7.9131    65.4508     0.0009     0.1899     2.3948    -3.5579    11.7609    14.4187
   91.5000     7.9120    69.9774    -0.0052     0.2145     2.3866    -3.8576    11.3689    13.8768
   92.0000     7.9107    68.7552    -0.0053     0.2208     2.3490    -5.3026    10.9900    13.7866
   92.5000     7.9097    68.2924    -0.0024     0.2196     2.3317    -7.0672    10.6970    13.7946
   93.0000     7.8935    72.2108     0.0035     0.2082     2.3166    -8.5349    10.4835    13.7050
   93.5000     7.8924    72.9553     0.0079     0.2061     2.3256    -9.8544    10.2744    13.7130
   94.0000     7.8914    73.5515     0.0078     0.2050     2.3361   -10.7287    10.0694    13.8140
   94.5000     7.8600    73.2339     0.0063     0.1981     2.3451   -11.7514     9.8685    13.8205
   95.0000     7.8590    72.1630     0.0062     0.1933     2.3533   -12.9225     9.7945    13.9225
   95.5000     7.8428    70.7895     0.0046     0.1915     2.3631   -14.2463     9.6110    14.0265
   96.0000     7.8266    70.4690     0.0045     0.1885     2.3698   -15.9110     9.5496    14.1298
   96.5000     7.8255    75.7580     0.0044     0.1868     2.3743   -17.7670     9.4875    14.3321
   97.0000     7.8245    76.5324     0.0043     0.1805     2.3788   -18.4969     9.4269    14.3388
   97.5000     7.8234    78.8085     0.0027     0.1759     2.3833   -18.6294     9.3668    14.3455
   98.0000     7.8224    80.0922     0.0026     0.1703     2.3893   -18.4612     9.3079    13.9630
   98.5000     7.8213    76.4518     0.0025     0.1653     2.4013   -18.2969     9.1852    13.0416
   99.0000     7.8203    76.1416     0.0009     0.1621     2.4118   -16.9457     9.0020    11.9098
   99.5000     7.8192    76.1340     0.0008     0.1691     2.4178    -2.2092     8.7030    10.4777
  100.0000     7.8182    77.1358     0.0027     0.1637     2.4095    -5.0445     8.3755     9.5811
  100.5000     7.8174    83.1539     0.0057     0.1550     2.4042    -7.3307     7.9258     8.7112
  101.0000     7.8167    88.0628     0.0081     0.1565     2.4222    -9.6169     7.4430     7.9524
  101.5000     7.7703    90.0220     0.0079     0.1532     2.4296   -11.9030     7.0490     7.3462
  102.0000     7.6938    89.7118     0.0078     0.1499     2.4349   -14.3301     6.7683     7.0054
  102.5000     7.6476    88.3426     0.0062     0.1430     2.4416   -16.6895     6.5436     6.8195
  103.0000     7.6289    88.1856     0.0031     0.1415     2.4498   -18.4555     6.3700     6.7305
  103.5000     7.6008    89.0839     0.0015     0.1472     2.4473   -18.8861     6.2438     6.6874
  104.0000     7.5848    89.8346    -0.0001     0.1599     2.4258   -18.8716     6.1623     6.6925
  104.5000     7.5671    88.4654    -0.0017     0.1611     2.4165   -18.8571     6.1238     6.6965
  105.0000     7.5468    91.0278    -0.0018     0.1608     2.4176    -9.6438     6.0864     6.7006
  105.5000     7.5219    91.6272    -0.0019     0.1536     2.4258     0.4597     6.0901     6.7046
  106.0000     7.5060    88.1382    -0.0020     0.1584     2.4247    -0.3145     6.0938     6.7550
  106.5000     7.4901    86.3151    -0.0021     0.1647     2.4171    -1.5848     6.0975     6.7592
  107.0000     7.4893    85.3998    -0.0022     0.1686     2.4111    -2.7573     6.1012     6.8108
  107.5000     7.4886    83.2742    -0.0023     0.1635     2.3999    -3.9298     6.1048     6.8149
  108.0000     7.5031    80.2409    -0.0009     0.1576     2.4089    -4.9538     6.1085     6.8190
  108.5000     7.5327    78.7205    -0.0026     0.1537     2.4156    -6.1263     6.0703     6.8232
  109.0000     7.5620    77.8052    -0.0027     0.1543     2.4246    -7.5955     6.0740     6.7795
  109.5000     7.6069    76.8898    -0.0028     0.1576     2.4276    -9.2131     6.0778     6.7846
  110.0000     7.6365    76.2771    -0.0029     0.1549     2.4170   -10.5339     6.0823     6.7412
  110.5000     7.6660    78.9301    -0.0030     0.1525     2.4297   -12.1602     6.0860     6.7463
  111.0000     7.6652    82.1165    -0.0031     0.1585     2.4321   -13.5094     6.1317     6.7041
  111.5000     7.6644    86.8443    -0.0017     0.1588     2.4251   -14.9378     6.1777     6.7083
  112.0000     7.6636    92.1317    -0.0018     0.1564     2.4213   -16.2587     6.2240     6.7126
  112.5000     7.6629    93.1831    -0.0004     0.1526     2.4251   -17.4311     6.2708     6.7174
  113.0000     7.6621    92.2678    -0.0005     0.1505     2.4303   -18.6036     6.2746     6.7214
  113.5000     7.6614    84.9985     0.0009     0.1496     2.4325   -19.6277     6.3217     6.7719
  114.0000     7.6606    82.2391     0.0008     0.1424     2.4370   -20.6518     6.4130     6.7760
  114.5000     7.6597    80.8724     0.0022     0.1322     2.4474   -21.6758     6.4169     6.8272
  115.0000     7.6438    81.5733     0.0021     0.1352     2.4632   -22.8483     6.4652     6.8781
  115.5000     7.6279    83.5249     0.0020     0.1414     2.4616   -24.0208     6.4700     6.9297
  116.0000     7.6271    84.0547     0.0019     0.1468     2.4481   -25.5173     6.4739     7.0299
  116.5000     7.6112    79.7757     0.0003     0.1493     2.4383   -27.2523     6.5225     7.0827
  117.0000     7.5953    79.1982     0.0002     0.1480     2.4352   -28.7215     6.5264     7.1851
  117.5000     7.5947    80.8173     0.0001     0.1443     2.4397   -29.8939     6.6207     7.3393
  118.0000     7.5939    86.3036     0.0000     0.1434     2.4449   -31.0664     6.6248     7.4977
  118.5000     7.5932    86.4373     0.0014     0.1443     2.4472   -32.3872     6.6745     7.6061
  119.0000     7.6227    86.4296     0.0013     0.1452     2.4479   -33.5597     6.7246     7.6632
  119.5000     7.6839    86.2708     0.0011     0.1461     2.4441   -34.7321     6.7286     7.7207
  120.0000     7.7747    85.8094     0.0010     0.1464     2.4358   -35.7562     6.7792     7.7254
  120.5000     7.8635    83.6838     0.0024     0.1458     2.4312   -36.4835     6.7909     7.6760
  121.0000     7.9227    83.3736     0.0039     0.1446     2.4357   -37.3679     6.8352     7.5769
  121.5000     7.9068    83.2147     0.0068     0.1552     2.4469   -38.1325     6.8393     7.5296
  122.0000     7.8909    82.9046     0.0096     0.1574     2.4371   -39.4038     6.8435     7.4313
  122.5000     7.8750    83.5971     0.0095     0.1504     2.4228   -40.7246     6.7997     7.3824
  123.0000     7.8591    87.9449     0.0094     0.1438     2.4355   -42.1938     6.8048     7.2816
  123.5000     7.8432    91.2038     0.0078     0.1408     2.4445   -43.5147     6.7613     7.1943
  124.0000     7.8273    91.0430     0.0062     0.1402     2.4490   -44.8355     6.7664     7.1987
  124.5000     7.8113    89.5225     0.0061     0.1411     2.4505   -46.1563     6.7240     7.2031
