~VERSION INFORMATION
 VERS.                2.0:   CWLS LOG ASCII STANDARD - VERSION 2.0
 WRAP.                 NO:   ONE LINE PER DEPTH STEP
~WELL INFORMATION
#MNEM.UNIT      DATA TYPE    INFORMATION
#----------   ------------   ------------------------------
 STRT.F            0.0000:   START DEPTH
 STOP.F         2720.0000:   STOP DEPTH
 STEP.F            0.5000:   STEP LENGTH
 NULL.          -999.2500:   NO VALUE
 COMP. DEPARTMENT OF ENERGY:   COMPANY
 WELL.       NPR-3 #410-A:   WELL
 FLD . TEAPOT NAVAL RESERVE:   FIELD
 LOC .      S20 T39N R78W:   LOCATION
 CNTY.            NATRONA:   COUNTY
 STAT.            WYOMING:   STATE
 CTRY. UNITED STATES OF AMERICA:   COUNTRY
 SRVC.      NL McCullough:   SERVICE COMPANY
 DATE.        26-JUL-1965:   LOGDATE
 API .       490251144500:   API NUMBER
~CURVE INFORMATION
#MNEM.UNIT       API CODE    CURVE DESCRIPTION
#----------   ------------   ------------------------------
 DEPT.F                  :   
 GR  .GAPI   30 310 01 00:   GAMMA RAY
 CALI.IN     30 280 01 00:   CALIPER
~PARAMETER INFORMATION
#MNEM.UNIT          VALUE    DESCRIPTION
#----------   ------------   ------------------------------
 PD  .                 GL:   PERMANENT DATUM
 LMF .                 GL:   LOG MEASURED FROM
 DATE.            7-16-65:   RUN DATE
 RUN .                  1:   RUN NUMBER
 DD  .F              2720:   DEPTH DRILLER
 TLI .F              2100:   TOP LOG INTERVAL
 CS  .IN            6.875:   CASING SIZE
 DFT .              WATER:   DRILLING FLUID TYPE
 ENGI. FITZSIMMONE/COWLTHORPE:   RECORDING ENGINEER
 WITN.             HUDSON:   WITNESSED BY
 CLNT.            A2DTECH:   CLIENT CODE
 ORIG.           5" PRINT:   ORIGIN OF DATA
 UWI .       490251144500:   UNIQUE WELL ID
 DICO. A2D Technologies, Inc.:   DIGITIZING COMPANY
~OTHER INFORMATION
~A    DEPT      GR         CALI 
# ...
  729.0000  -999.2500     5.9769
  729.5000  -999.2500     5.9750
  730.0000  -999.2500     5.9732
  730.5000  -999.2500     5.9714
  731.0000  -999.2500     5.9696
  731.5000  -999.2500     5.9682
  732.0000  -999.2500     5.9668
  732.5000  -999.2500     5.9653
  733.0000  -999.2500     5.9638
  733.5000  -999.2500     5.9624
  734.0000  -999.2500     5.9609
  734.5000  -999.2500     5.9595
  735.0000  -999.2500     5.9580
  735.5000  -999.2500     5.9565
  736.0000  -999.2500     5.9551
  736.5000  -999.2500     5.9536
  737.0000  -999.2500     5.9522
  737.5000  -999.2500     5.9507
  738.0000  -999.2500     5.9498
  738.5000  -999.2500     5.9498
  739.0000  -999.2500     5.9498
  739.5000  -999.2500     5.9498
  740.0000  -999.2500     5.9498
  740.5000  -999.2500     5.9525
  741.0000  -999.2500     5.9593
  741.5000  -999.2500     5.9661
  742.0000  -999.2500     5.9729
  742.5000  -999.2500     5.9797
  743.0000  -999.2500     5.9863
  743.5000  -999.2500     5.9831
  744.0000  -999.2500     5.9687
  744.5000  -999.2500     5.9544
  745.0000  -999.2500     5.9401
  745.5000  -999.2500     5.9295
  746.0000  -999.2500     5.9297
  746.5000  -999.2500     5.9297
  747.0000  -999.2500     5.9297
  747.5000  -999.2500     5.9297
  748.0000  -999.2500     5.9297
  748.5000  -999.2500     5.9297
  749.0000  -999.2500     5.9297
  749.5000  -999.2500     5.9297
  750.0000  -999.2500     5.9297
  750.5000  -999.2500     5.9297
  751.0000  -999.2500     5.9297
  751.5000  -999.2500     5.9297
  752.0000  -999.2500     5.9297
  752.5000  -999.2500     5.9297
  753.0000  -999.2500     5.9297
  753.5000  -999.2500     5.9297
  754.0000  -999.2500     5.9297
  754.5000  -999.2500     5.9297
  755.0000  -999.2500     5.9297
  755.5000  -999.2500     5.9297
  756.0000  -999.2500     5.9297
  756.5000  -999.2500     5.9297
  757.0000  -999.2500     5.9297
  757.5000  -999.2500     5.9297
  758.0000  -999.2500     5.9297
  758.5000  -999.2500     5.9297
  759.0000  -999.2500     5.9296
  759.5000  -999.2500     5.9330
  760.0000  -999.2500     5.9375
  760.5000  -999.2500     5.9420
  761.0000  -999.2500     5.9464
  761.5000  -999.2500     5.9488
  762.0000  -999.2500     5.9434
  762.5000  -999.2500     5.9382
  763.0000  -999.2500     5.9332
  763.5000  -999.2500     5.9297
  764.0000  -999.2500     5.9297
  764.5000  -999.2500     5.9303
  765.0000  -999.2500     5.9337
  765.5000  -999.2500     5.9370
  766.0000  -999.2500     5.9403
  766.5000  -999.2500     5.9437
  767.0000  -999.2500     5.9470
  767.5000  -999.2500     5.9481
  768.0000  -999.2500     5.9339
  768.5000  -999.2500     5.9198
  769.0000  -999.2500     5.9057
  769.5000  -999.2500     5.8913
  770.0000  -999.2500     5.9007
  770.5000  -999.2500     5.9142
  771.0000  -999.2500     5.9277
  771.5000  -999.2500     5.9409
  772.0000  -999.2500     5.9474
  772.5000  -999.2500     5.9399
  773.0000  -999.2500     5.9326
  773.5000  -999.2500     5.9252
  774.0000  -999.2500     5.9179
  774.5000  -999.2500     5.9105
  775.0000  -999.2500     5.9031
  775.5000  -999.2500     5.8958
  776.0000  -999.2500     5.8908
  776.5000  -999.2500     5.9013
  777.0000  -999.2500     5.9117
  777.5000  -999.2500     5.9219
  778.0000  -999.2500     5.9280
  778.5000  -999.2500     5.9182
  779.0000  -999.2500     5.9088
  779.5000  -999.2500     5.8991
  780.0000  -999.2500     5.8907
  780.5000  -999.2500     5.9324
  781.0000  -999.2500     5.9656
  781.5000  -999.2500     5.9335
  782.0000  -999.2500     5.9105
  782.5000  -999.2500     5.9183
  783.0000  -999.2500     5.9254
  783.5000  -999.2500     5.9325
  784.0000  -999.2500     5.9396
  784.5000  -999.2500     5.9468
  785.0000  -999.2500     5.9480
  785.5000  -999.2500     5.9449
  786.0000  -999.2500     5.9418
  786.5000  -999.2500     5.9387
  787.0000  -999.2500     5.9356
  787.5000  -999.2500     5.9324
  788.0000  -999.2500     5.9302
  788.5000  -999.2500     5.9349
  789.0000  -999.2500     5.9396
  789.5000  -999.2500     5.9443
  790.0000  -999.2500     5.9492
  790.5000  -999.2500     5.9448
  791.0000  -999.2500     5.9388
  791.5000  -999.2500     5.9327
  792.0000  -999.2500     5.9267
  792.5000  -999.2500     5.9206
  793.0000  -999.2500     5.9145
  793.5000  -999.2500     5.9101
  794.0000  -999.2500     5.9135
  794.5000  -999.2500     5.9169
  795.0000  -999.2500     5.9202
  795.5000  -999.2500     5.9235
  796.0000  -999.2500     5.9268
  796.5000  -999.2500     5.9302
  797.0000  -999.2500     5.9335
  797.5000  -999.2500     5.9368
  798.0000  -999.2500     5.9401
  798.5000  -999.2500     5.9434
  799.0000  -999.2500     5.9469
  799.5000  -999.2500     5.9491
  800.0000  -999.2500     5.9338
  800.5000  -999.2500     5.9191
  801.0000  -999.2500     5.9174
  801.5000  -999.2500     5.9387
  802.0000  -999.2500     5.9598
  802.5000  -999.2500     5.9690
  803.0000  -999.2500     5.9669
  803.5000  -999.2500     5.9646
  804.0000  -999.2500     5.9622
  804.5000  -999.2500     5.9599
  805.0000  -999.2500     5.9577
  805.5000  -999.2500     5.9553
  806.0000  -999.2500     5.9531
  806.5000  -999.2500     5.9507
  807.0000  -999.2500     5.9667
  807.5000  -999.2500     5.9959
  808.0000  -999.2500     6.0252
  808.5000  -999.2500     6.0508
  809.0000  -999.2500     6.0488
  809.5000  -999.2500     6.0475
  810.0000  -999.2500     6.0462
  810.5000  -999.2500     6.0449
  811.0000  -999.2500     6.0436
  811.5000  -999.2500     6.0423
  812.0000  -999.2500     6.0410
  812.5000  -999.2500     6.0397
  813.0000  -999.2500     6.0384
  813.5000  -999.2500     6.0372
  814.0000  -999.2500     6.0359
  814.5000  -999.2500     6.0346
  815.0000  -999.2500     6.0333
  815.5000  -999.2500     6.0320
  816.0000  -999.2500     6.0307
  816.5000  -999.2500     6.0383
  817.0000  -999.2500     6.0539
  817.5000  -999.2500     6.0696
  818.0000  -999.2500     6.0852
  818.5000  -999.2500     6.1006
  819.0000  -999.2500     6.1026
  819.5000  -999.2500     6.0813
  820.0000  -999.2500     6.0603
  820.5000  -999.2500     6.0582
  821.0000  -999.2500     6.0827
  821.5000  -999.2500     6.1074
  822.0000  -999.2500     6.0993
  822.5000  -999.2500     6.0860
  823.0000  -999.2500     6.0725
  823.5000  -999.2500     6.0733
  824.0000  -999.2500     6.0771
  824.5000  -999.2500     6.0809
  825.0000  -999.2500     6.0847
  825.5000  -999.2500     6.0884
  826.0000  -999.2500     6.0849
  826.5000  -999.2500     6.0618
  827.0000  -999.2500     6.0397
  827.5000  -999.2500     6.0171
  828.0000  -999.2500     6.0201
  828.5000  -999.2500     6.0222
  829.0000  -999.2500     5.9969
  829.5000  -999.2500     5.9720
  830.0000  -999.2500     5.9511
  830.5000  -999.2500     5.9750
  831.0000  -999.2500     5.9916
  831.5000  -999.2500     5.9954
  832.0000  -999.2500     5.9995
  832.5000  -999.2500     6.0034
  833.0000  -999.2500     6.0074
  833.5000  -999.2500     6.0114
  834.0000  -999.2500     6.0153
  834.5000  -999.2500     6.0193
  835.0000  -999.2500     6.0234
  835.5000  -999.2500     6.0273
  836.0000  -999.2500     6.0241
  836.5000  -999.2500     5.9982
  837.0000  -999.2500     5.9732
  837.5000  -999.2500     5.9504
  838.0000  -999.2500     5.9549
  838.5000  -999.2500     5.9601
  839.0000  -999.2500     5.9651
  839.5000  -999.2500     5.9701
  840.0000  -999.2500     5.9751
  840.5000  -999.2500     5.9802
  841.0000  -999.2500     5.9853
  841.5000  -999.2500     5.9896
  842.0000  -999.2500     5.9835
  842.5000  -999.2500     5.9773
  843.0000  -999.2500     5.9711
  843.5000  -999.2500     5.9648
  844.0000  -999.2500     5.9586
  844.5000  -999.2500     5.9525
  845.0000  -999.2500     5.9551
  845.5000  -999.2500     5.9692
  846.0000  -999.2500     5.9833
  846.5000  -999.2500     5.9974
  847.0000  -999.2500     6.0114
  847.5000  -999.2500     6.0258
  848.0000  -999.2500     6.0158
  848.5000  -999.2500     5.9950
  849.0000  -999.2500     5.9738
  849.5000  -999.2500     5.9522
  850.0000  -999.2500     5.9665
