~VERSION INFORMATION
 VERS.                2.0:   CWLS LOG ASCII STANDARD - VERSION 2.0
 WRAP.                 NO:   ONE LINE PER DEPTH STEP
~WELL INFORMATION
#MNEM.UNIT      DATA TYPE    INFORMATION
#----------   ------------   ------------------------------
 STRT.F            6.0000:   START DEPTH
 STOP.F          534.0000:   STOP DEPTH
 STEP.F            0.5000:   STEP LENGTH
 NULL.          -999.2500:   NO VALUE
 COMP. LAWRENCE/ALLISON INC:   COMPANY
 WELL.     NPR3 #33-66 SX:   WELL
 FLD .          MPR NO. 3:   FIELD
 LOC .      S10 T38N R78W:   LOCATION
 CNTY.            NATRONA:   COUNTY
 STAT.            WYOMING:   STATE
 CTRY. UNITED STATES OF AMERICA:   COUNTRY
 SRVC.           Gearhart:   SERVICE COMPANY
 DATE.        20-JUN-1986:   LOGDATE
 API .       490251109300:   API NUMBER
~CURVE INFORMATION
#MNEM.UNIT       API CODE    CURVE DESCRIPTION
#----------   ------------   ------------------------------
 DEPT.F                  :   
 GRR .GAPI   07 310 01 00:   GAMMA RAY
 RILD.OHMM   07 120 46 00:   INDUCTION LOG DEEP
 RILM.OHMM   07 120 44 00:   INDUCTION LOG MEDIUM
~PARAMETER INFORMATION
#MNEM.UNIT          VALUE    DESCRIPTION
#----------   ------------   ------------------------------
 PD  .                 GL:   PERMANENT DATUM
 EPD .F              5213:   ELEVATION PERMANENT DATUM
 LMF .                 KB:   LOG MEASURED FROM
 DMF .                 KB:   DRILLING MEASURED FROM
 EKB .F              5218:   KELLING BUSHING
 EGL .F              5213:   GROUND LEVEL
 DATE.        20-JUN-1986:   RUN DATE
 RUN .                  1:   RUN NUMBER
 DD  .F               555:   DEPTH DRILLER
 DL  .F               548:   DEPTH LOGGER
 BLI .F               539:   BOTTOM LOG INTERVAL
 CS  .IN            8.625:   CASING SIZE
 CBD .F                47:   CASING BOTTOM DRILLER
 CBL .F                39:   CASING BOTTOM LOGGER
 BS  .IN            7.875:   BIT SIZE
 BSD .F               555:   BIT SIZE AT DEPTH
 DFT .                AIR:   DRILLING FLUID TYPE
 TCS .HRS            0300:   TIME CURCULATED STOPPED
 TLAB.HRS            0500:   TIME LOGGER AT BOTTOM
 MRT .F                64:   MAXIMUM RECORDED TEMPERATURE
 LUN .               7609:   LOGGING UNIT NUMBER
 LUL .           GILLETTE:   LOGGING UNIT LOCATION
 ENGI.            WANGLER:   RECORDING ENGINEER
 WITN.              FIVAS:   WITNESSED BY
 CLNT.            A2DTECH:   CLIENT CODE
 ORIG.           5" PRINT:   ORIGIN OF DATA
 UWI .       490251109300:   UNIQUE WELL ID
 DICO. A2D Technologies, Inc.:   DIGITIZING COMPANY
~OTHER INFORMATION
~A    DEPT     GRR       RILD       RILM   
# ...
   97.0000   124.7256     8.7693     8.7946
   97.5000   120.8079     8.7061     8.7925
   98.0000   117.5203     8.7041     8.7905
   98.5000   116.5701     8.7637     8.8507
   99.0000   116.2508     8.8232     8.9108
   99.5000   117.4340     8.9455     9.0339
  100.0000   117.9878     8.9434     9.0319
  100.5000   116.5440     8.9630     9.0294
  101.0000   116.1402     8.9797     9.0269
  101.5000   116.1616     8.9965     9.0244
  102.0000   117.0369     9.0011     9.0217
  102.5000   117.0274     8.9995     9.0192
  103.0000   116.1018     8.9983     9.0167
  103.5000   113.3489     9.0602     9.0142
  104.0000   108.4617     9.1226     9.0117
  104.5000   108.1478     9.1854     9.0726
  105.0000   108.4459     9.1841     9.0700
  105.5000   107.2150     9.3122     9.0674
  106.0000   105.0718     9.3781     9.0649
  106.5000   105.9774     9.4446     9.0624
  107.0000   107.1878     9.5059     8.9966
  107.5000   107.4859     9.5045     8.9293
  108.0000   106.8648     9.5032     8.7432
  108.5000   108.3801     9.4901     8.7407
  109.0000   112.3345     9.4340     8.7383
  109.5000   118.1181     9.2367     8.7973
  110.0000   121.7675     9.1070     8.8567
  110.5000   122.6731     8.8544     8.9791
  111.0000   121.1396     8.6692     9.1672
  111.5000   118.9964     8.5475     9.3586
  112.0000   117.7678     8.4276     9.4886
  112.5000   116.2344     8.4264     9.6198
  113.0000   112.2619     8.4252     9.6847
  113.5000   104.9358     8.4240     9.5467
  114.0000   100.9633     8.4229     9.4774
  114.5000   100.6291     8.6056     9.4086
  115.0000   106.1280     8.8024     9.2104
  115.5000   111.9522     8.9043     9.1436
  116.0000   116.5366     8.9656     9.1411
  116.5000   120.4604     9.0273     9.0747
  117.0000   122.0264     9.0261     9.0722
  117.5000   122.5461     9.0882     9.1334
  118.0000   117.9616     9.0869     9.1309
  118.5000   115.2086     9.0856     9.1925
  119.0000   110.6264     9.0844     9.1899
  119.5000   106.9588     9.0831     9.2526
  120.0000   106.3422     9.0816     9.3150
  120.5000   106.6380     9.0803     9.3118
  121.0000   106.9316     9.0157     9.1797
  121.5000   109.3615     9.0145     9.1131
  122.0000   113.3159     9.0765     9.0470
  122.5000   116.6627     9.0753     8.9820
  123.0000   116.9585     9.1380     9.0426
  123.5000   116.0326     9.1365     9.1036
  124.0000   114.8040     9.2640     9.1650
  124.5000   112.6608     9.3280     9.1618
  125.0000   112.0419     9.3923     9.1593
  125.5000   113.2524     9.5230     9.2212
  126.0000   114.1602     9.6562     9.2834
  126.5000   110.4903     9.8594     9.3460
  127.0000   107.1276     9.9970     9.4091
  127.5000   108.0332    10.2080     9.6062
  128.0000   108.9387    10.4228     9.8074
  128.5000   108.9296    10.5683    10.1541
  129.0000   107.0913    10.8668    10.4412
  129.5000   104.6432    11.1738    10.7366
  130.0000   104.3293    11.4097    10.9633
  130.5000   104.0051    11.7316    11.2019
  131.0000   103.0509    11.7299    11.5115
  131.5000   100.5518    11.8107    11.8372
  132.0000   100.6748    12.0596    12.1721
  132.5000   102.5559    12.3138    12.6045
  133.0000   102.1384    12.6616    13.1241
  133.5000    99.6903    12.9294    13.4942
  134.0000    94.8032    13.2046    13.8728
  134.5000    92.0502    13.4792    14.0655
  135.0000    90.8217    13.5720    14.2600
  135.5000    93.2516    13.5700    14.4571
  136.0000    98.4255    13.5530    14.3512
  136.5000   102.0749    13.4716    14.3472
  137.0000   100.8464    13.2821    14.2431
  137.5000    99.6178    13.0957    14.2391
  138.0000    99.3038    13.0155    13.9392
  138.5000   100.8191    12.9169    13.7415
  139.0000    99.2857    12.8185    13.4520
  139.5000    95.6181    12.8167    13.1686
  140.0000    94.3918    12.7256    12.8912
  140.5000    95.9048    12.6265    12.5316
  141.0000    96.8126    12.4467    12.3538
  141.5000    97.1084    12.3556    12.1786
  142.0000    95.2678    12.1954    12.0902
  142.5000    94.9035    12.0239    12.0025
  143.0000    96.4692    12.0222    11.9991
  143.5000    97.6796    12.0206    11.9121
  144.0000    98.8901    12.0189    11.9087
  144.5000    99.4909    12.0172    11.9380
  145.0000   100.0915    12.0156    11.9695
  145.5000    99.1677    12.0139    11.8887
  146.0000    98.2236    12.0122    11.6483
  146.5000    98.2958    12.0949    11.6312
  147.0000    99.4858    12.1782    11.5605
  147.5000    99.3852    12.2624    11.4760
  148.0000    96.9860    12.3468    11.5534
  148.5000    96.6720    12.4318    11.5502
  149.0000    96.9678    12.3430    11.6290
  149.5000    98.1783    12.3412    11.7889
  150.0000   100.3056    12.0831    11.9563
  150.5000    97.8659    11.9795    12.0004
  151.0000    97.8659    11.8665    12.0331
  151.5000   100.3049    11.6627    12.2011
  152.0000   100.9146    11.4188    12.4584
  152.5000    95.1219    11.3376    12.4567
  153.0000    92.2012    11.2569    12.2817
  153.5000    90.5488    11.1768    12.1091
  154.0000    93.1667    11.0973    11.8557
  154.5000    97.6738    11.0958    11.5265
  155.0000   100.0610    11.0168    11.2853
  155.5000   101.2195    11.0153    11.0491
  156.0000   102.1667    11.0138    10.9704
  156.5000   104.8872    11.0122    10.8923
  157.0000   106.0996    10.9339    10.8148
  157.5000   106.0976    10.7804    10.8133
  158.0000   101.5244    10.5549    10.8878
  158.5000    98.4756    10.2621    10.8862
  159.0000    98.7805    10.1180    10.8847
  159.5000    99.6951     9.9760    10.9597
  160.0000   101.2195     9.9050    10.8816
  160.5000   101.5244     9.7660    10.8042
  161.0000    99.3902     9.6289    10.7273
  161.5000    97.5610     9.4275    10.6509
  162.0000    97.8659     9.2303    10.3552
  162.5000    99.0854     9.0373     9.9276
  163.0000    99.6951     8.9730     9.5178
  163.5000   101.5244     8.9092     9.1248
  164.0000   105.4878     8.8458     8.7480
  164.5000   107.3171     8.8445     8.5649
  165.0000   105.1829     8.8433     8.5040
  165.5000   102.7439     8.8421     8.5028
  166.0000   100.3049     8.9029     8.5614
  166.5000   101.2195     9.0271     8.7419
  167.0000   101.2195     9.1531     8.9263
  167.5000   101.2195     9.2812     9.1146
  168.0000    98.7805     9.5430     9.1774
  168.5000    97.8659     9.7441     9.2406
  169.0000    97.8659     9.9495     9.4354
  169.5000    98.7805    10.0183     9.5672
  170.0000   100.3049    10.0872     9.7008
  170.5000   102.7439    10.0855     9.8363
  171.0000   105.1829    10.1549     9.9736
  171.5000   105.7927    10.1534    10.0424
  172.0000   103.6585    10.1520    10.3262
  172.5000   103.3537    10.1506    10.6181
  173.0000   107.0122    10.0784    10.9183
  173.5000   108.8415    10.0067    11.2269
  174.0000   109.7561     9.8662    11.6254
  174.5000   110.7287     9.7960    12.0380
  175.0000   111.9410     9.7264    12.1210
  175.5000   109.6250     9.5898    11.9507
  176.0000   101.9878     9.5216    11.7828
  176.5000   100.0000     9.4539    11.4556
  177.0000   102.5284     9.4525    11.1376
  177.5000   106.4482     9.3853    10.6777
  178.0000   108.5366     9.3185    10.2369
  178.5000   107.0091     9.3172     9.8142
  179.0000   104.8781     9.3159     9.7444
  179.5000   104.5732     9.3146     9.6075
  180.0000   106.4024     9.3133     9.5391
  180.5000   109.7561     9.3120     9.5377
  181.0000   106.4024     9.3107     9.6709
  181.5000   102.1341     9.3094     9.8060
  182.0000    98.1707     9.3081     9.9433
  182.5000    97.5610     9.2419    10.0117
  183.0000   100.0000     9.2406    10.0100
  183.5000   102.4390     9.2393     9.7321
  184.0000   106.0976     9.2380     9.3958
  184.5000   107.6219     9.1723     9.1992
  185.0000   108.8415     9.1451     9.1979
  185.5000   109.7561     9.0962     9.1324
  186.0000   110.6707     9.0474     9.1311
  186.5000   111.2805     8.9986     9.0664
  187.0000   109.7561     8.9648     9.1289
  187.5000   103.9634     8.9118     9.1918
