~VERSION INFORMATION
 VERS.                2.0:   CWLS LOG ASCII STANDARD - VERSION 2.0
 WRAP.                 NO:   ONE LINE PER DEPTH STEP
~WELL INFORMATION
#MNEM.UNIT      DATA TYPE    INFORMATION
#----------   ------------   ------------------------------
 STRT.F            3.0000:   START DEPTH
 STOP.F          587.0000:   STOP DEPTH
 STEP.F            0.5000:   STEP LENGTH
 NULL.          -999.2500:   NO VALUE
 COMP.   FLUOR DANIEL INC:   COMPANY
 WELL. NAVAL PETROLEUM RESERVE 3 STX- #1-3:   WELL
 FLD .          N.P.R. #3:   FIELD
 LOC .       S3 T38N R78W:   LOCATION
 CNTY.            NATRONA:   COUNTY
 STAT.            WYOMING:   STATE
 CTRY. UNITED STATES OF AMERICA:   COUNTRY
 SRVC.      Western Atlas:   SERVICE COMPANY
 DATE.        03-FEB-1995:   LOGDATE
 API .       490252269200:   API NUMBER
~CURVE INFORMATION
#MNEM.UNIT       API CODE    CURVE DESCRIPTION
#----------   ------------   ------------------------------
 DEPT.F                  :   
 GRR .GAPI   07 310 01 00:   GAMMA RAY FROM RES. LOG.
 RILD.OHMM   07 120 46 00:   INDUCTION LOG DEEP RESISTIVITY
 RILM.OHMM   07 120 44 00:   INDUCTION LOG MEDIUM RESISTIVITY
~PARAMETER INFORMATION
#MNEM.UNIT          VALUE    DESCRIPTION
#----------   ------------   ------------------------------
 PD  .                 GL:   PERMANENT DATUM
 EPD .F              5226:   ELEVATION PERMANENT DATUM
 LMF .                 KB:   LOG MEASURED FROM
 DAPD.F                10:   FEET ABOVE PERMANENT DATUM
 DMF .                 KB:   DRILLING MEASURED FROM
 EKB .F              5236:   KELLING BUSHING
 EDF .F              5235:   DRILLING FLOOR
 EGL .F              5226:   GROUND LEVEL
 DATE.         3-FEB-1995:   RUN DATE
 RUN .                  1:   RUN NUMBER
 DD  .F               595:   DEPTH DRILLER
 DL  .F               595:   DEPTH LOGGER
 BLI .F               587:   BOTTOM LOG INTERVAL
 CS  .IN            9.625:   CASING SIZE
 CBD .F                55:   CASING BOTTOM DRILLER
 CBL .F                55:   CASING BOTTOM LOGGER
 BS  .IN             8.75:   BIT SIZE
 BSD .F               595:   BIT SIZE AT DEPTH
 DFT .                AIR:   DRILLING FLUID TYPE
 MRT .F                90:   MAXIMUM RECORDED TEMPERATURE
 LUN .             HL6274:   LOGGING UNIT NUMBER
 LUL .             CASPER:   LOGGING UNIT LOCATION
 ENGI.        VERN RAUTIO:   RECORDING ENGINEER
 WITN.        STEVE HARDY:   WITNESSED BY
 CLNT.            A2DTECH:   CLIENT CODE
 ORIG.           5" PRINT:   ORIGIN OF DATA
 UWI .       490252269200:   UNIQUE WELL ID
 DICO. A2D Technologies, Inc.:   DIGITIZING COMPANY
~OTHER INFORMATION
~A    DEPT      GRR      RILD       RILM   
    3.0000    29.2620  -999.2500  -999.2500
    3.5000    28.2895  -999.2500  -999.2500
    4.0000    27.9988  -999.2500  -999.2500
    4.5000    29.4887  -999.2500  -999.2500
    5.0000    30.7807  -999.2500  -999.2500
    5.5000    31.1509  -999.2500  -999.2500
    6.0000    31.9708  -999.2500  -999.2500
    6.5000    34.6691  -999.2500  -999.2500
    7.0000    37.3858  -999.2500  -999.2500
    7.5000    38.2757  -999.2500  -999.2500
    8.0000    34.6906  -999.2500  -999.2500
    8.5000    28.1483  -999.2500  -999.2500
    9.0000    26.5371  -999.2500  -999.2500
    9.5000    32.7170  -999.2500  -999.2500
   10.0000    39.2191  -999.2500  -999.2500
   10.5000    45.9019  -999.2500  -999.2500
   11.0000    49.1983  -999.2500  -999.2500
   11.5000    51.5015  -999.2500  -999.2500
   12.0000    53.7626  -999.2500  -999.2500
   12.5000    54.6137  -999.2500  -999.2500
   13.0000    54.0835  -999.2500  -999.2500
   13.5000    53.5538  -999.2500  -999.2500
   14.0000    53.2669  -999.2500  -999.2500
   14.5000    53.1436  -999.2500  -999.2500
   15.0000    52.5928  -999.2500  -999.2500
   15.5000    52.9300  -999.2500  -999.2500
   16.0000    53.6447  -999.2500  -999.2500
   16.5000    54.3523  -999.2500  -999.2500
   17.0000    55.1527  -999.2500  -999.2500
   17.5000    56.8637  -999.2500  -999.2500
   18.0000    59.3666  -999.2500  -999.2500
   18.5000    59.5204  -999.2500  -999.2500
   19.0000    57.4728  -999.2500  -999.2500
   19.5000    55.7727  -999.2500  -999.2500
   20.0000    54.5230  -999.2500  -999.2500
   20.5000    54.6490  -999.2500  -999.2500
   21.0000    55.1361  -999.2500  -999.2500
   21.5000    56.5432  -999.2500  -999.2500
   22.0000    59.2975  -999.2500  -999.2500
   22.5000    62.4170  -999.2500  -999.2500
   23.0000    63.4080  -999.2500  -999.2500
   23.5000    62.5867  -999.2500  -999.2500
   24.0000    61.7572  -999.2500  -999.2500
   24.5000    60.9165  -999.2500  -999.2500
   25.0000    60.0762  -999.2500  -999.2500
   25.5000    59.2140  -999.2500  -999.2500
   26.0000    58.9884  -999.2500  -999.2500
   26.5000    59.7926  -999.2500  -999.2500
   27.0000    61.5211  -999.2500  -999.2500
   27.5000    64.6506  -999.2500  -999.2500
   28.0000    68.3379  -999.2500  -999.2500
   28.5000    72.1277  -999.2500  -999.2500
   29.0000    75.5808  -999.2500  -999.2500
   29.5000    73.6538  -999.2500  -999.2500
   30.0000    71.6030  -999.2500  -999.2500
   30.5000    69.5946  -999.2500  -999.2500
   31.0000    68.3706  -999.2500  -999.2500
   31.5000    68.3931  -999.2500  -999.2500
   32.0000    69.1177  -999.2500  -999.2500
   32.5000    69.8751  -999.2500  -999.2500
   33.0000    70.6464  -999.2500  -999.2500
   33.5000    69.7751  -999.2500  -999.2500
   34.0000    67.9632  -999.2500  -999.2500
   34.5000    68.5825  -999.2500  -999.2500
   35.0000    70.3803  -999.2500  -999.2500
   35.5000    71.2087  -999.2500  -999.2500
   36.0000    71.0238  -999.2500  -999.2500
   36.5000    70.3247  -999.2500  -999.2500
   37.0000    69.6233  -999.2500  -999.2500
   37.5000    69.5942  -999.2500  -999.2500
   38.0000    71.2132  -999.2500  -999.2500
   38.5000    71.6157  -999.2500  -999.2500
   39.0000    71.6744  -999.2500  -999.2500
   39.5000    72.6459  -999.2500  -999.2500
   40.0000    73.6089  -999.2500  -999.2500
   40.5000    74.4309  -999.2500  -999.2500
   41.0000    73.1474  -999.2500  -999.2500
   41.5000    71.8312  -999.2500  -999.2500
   42.0000    71.8747  -999.2500  -999.2500
   42.5000    72.1589  -999.2500  -999.2500
   43.0000    72.4511  -999.2500  -999.2500
   43.5000    72.7438  -999.2500  -999.2500
   44.0000    72.8577  -999.2500  -999.2500
   44.5000    72.8636  -999.2500  -999.2500
   45.0000    72.8250  -999.2500  -999.2500
   45.5000    71.7311  -999.2500  -999.2500
   46.0000    70.7908  -999.2500  -999.2500
   46.5000    71.6381  -999.2500  -999.2500
   47.0000    72.8570  -999.2500  -999.2500
   47.5000    72.1877  -999.2500  -999.2500
   48.0000    70.8955  -999.2500  -999.2500
   48.5000    72.4068  -999.2500  -999.2500
   49.0000    76.5863  -999.2500  -999.2500
   49.5000    80.7179  -999.2500  -999.2500
   50.0000    80.8988  -999.2500  -999.2500
   50.5000    78.3352  -999.2500  -999.2500
   51.0000    75.7185  -999.2500  -999.2500
   51.5000    73.0034  -999.2500  -999.2500
   52.0000    73.1630  -999.2500  -999.2500
   52.5000    83.2016  -999.2500  -999.2500
   53.0000    93.7570   781.7990     4.6009
   53.5000   104.5137     7.3240     2.7941
   54.0000   111.8929     2.7439     2.4985
   54.5000   114.5566     2.6929     3.1083
   55.0000   115.8794     5.1287     5.8016
   55.5000   116.1110     9.2313     8.0173
   56.0000   113.0077    41.6781    10.3649
   56.5000   105.6775    31.3472    13.4000
   57.0000    98.5312    15.3414    17.5413
   57.5000    94.5164     7.2878    15.6942
   58.0000    97.2461     7.3080    11.7380
   58.5000   104.8515     7.0678     8.6871
   59.0000   111.6492     6.7768     8.7679
   59.5000   115.8025     6.4123     9.1037
   60.0000   117.0972     6.1999     8.4384
   60.5000   117.3145     6.8664     7.1354
   61.0000   116.1691     7.4079     7.2986
   61.5000   115.2737     7.1887     7.4079
   62.0000   115.3478     6.9586     6.9945
   62.5000   116.5641     6.7359     6.6953
   63.0000   116.0299     6.4972     6.3752
   63.5000   113.0979     6.6234     6.5001
   64.0000   111.1165     6.8106     6.7608
   64.5000   111.1834     7.0032     7.0320
   65.0000   112.7825     7.0689     7.0689
   65.5000   113.5785     7.0689     7.0689
   66.0000   111.1311     7.0689     7.0689
   66.5000   108.8716     7.0689     7.0689
   67.0000   111.3222     7.0689     7.0473
   67.5000   114.7405     6.9728     6.9544
   68.0000   114.4316     6.8810     6.8627
   68.5000   112.3872     6.7903     6.7722
   69.0000   112.0439     6.7007     6.6828
   69.5000   112.0005     6.6123     6.5947
   70.0000   113.0542     6.5251     6.5077
   70.5000   114.3063     6.4366     6.4366
   71.0000   113.9926     6.4199     6.4098
   71.5000   110.2824     6.3983     6.3823
   72.0000   107.9289     6.3767     6.3549
   72.5000   109.6245     6.3552     6.3276
   73.0000   111.4055     6.3337     6.3004
   73.5000   112.0992     6.3123     6.2733
   74.0000   112.9203     6.2910     6.2464
   74.5000   115.9246     6.2698     6.2196
   75.0000   118.9436     6.2486     6.1929
   75.5000   120.6212     6.2276     6.1663
   76.0000   120.3066     6.2066     6.1421
   76.5000   118.7848     6.1999     6.2066
   77.0000   117.1552     6.2803     6.2669
   77.5000   116.3770     6.3734     6.3275
   78.0000   115.4206     6.4681     6.3889
   78.5000   114.5009     6.5642     6.4508
   79.0000   115.6304     6.6617     6.5133
   79.5000   115.2735     6.7606     6.5764
   80.0000   113.8732     6.8610     6.6402
   80.5000   112.5014     6.9629     6.7045
   81.0000   112.7445     7.0032     6.7695
   81.5000   113.0599     6.9879     6.8730
   82.0000   112.9284     6.9754     6.8558
   82.5000   111.9948     6.9630     6.8269
   83.0000   111.1411     6.9504     6.7981
   83.5000   113.0208     6.9374     6.7694
   84.0000   115.3533     6.9025     6.7454
   84.5000   117.6739     6.8408     6.7091
   85.0000   117.7667     6.7797     6.6614
   85.5000   117.1863     6.7190     6.6139
   86.0000   116.1755     6.6588     6.5675
   86.5000   116.8660     6.5992     6.5222
   87.0000   118.8877     6.5584     6.4366
   87.5000   119.5469     6.5584     6.4366
   88.0000   117.2971     6.6754     6.5394
   88.5000   114.5327     6.8468     6.6844
   89.0000   112.8673     7.0226     6.8326
   89.5000   112.1257     7.2028     6.9843
   90.0000   111.6680     7.3878     7.1394
   90.5000   111.8416     7.5774     7.2977
   91.0000   112.0330     7.7632     7.4597
   91.5000   110.8124     7.7495     7.6191
   92.0000   109.1513     7.7182     7.6191
   92.5000   109.8717     7.6871     7.6191
   93.0000   113.2693     7.6561     7.6191
   93.5000   118.7549     7.6252     7.6191
