~VERSION INFORMATION
 VERS.                2.0:   CWLS LOG ASCII STANDARD - VERSION 2.0
 WRAP.                 NO:   ONE LINE PER DEPTH STEP
~WELL INFORMATION
#MNEM.UNIT      DATA TYPE    INFORMATION
#----------   ------------   ------------------------------
 STRT.F           89.0000:   START DEPTH
 STOP.F         1360.0000:   STOP DEPTH
 STEP.F            0.5000:   STEP LENGTH
 NULL.          -999.2500:   NO VALUE
 COMP.           U S NAVY:   COMPANY
 WELL.     NPR 3 #85 S-11:   WELL
 FLD .             TEAPOT:   FIELD
 LOC .      S11 T38N R78W:   LOCATION
 CNTY.            NATRONA:   COUNTY
 STAT.            WYOMING:   STATE
 CTRY. UNITED STATES OF AMERICA:   COUNTRY
 SRVC.       Schlumberger:   SERVICE COMPANY
 DATE.        15-AUG-1966:   LOGDATE
 API .       490250959000:   API NUMBER
~CURVE INFORMATION
#MNEM.UNIT       API CODE    CURVE DESCRIPTION
#----------   ------------   ------------------------------
 DEPT.F                  :   
 SPR .MV     05 010 01 00:   SPONTANEOUS POTENTIAL FROM RES.
 CILD.MMHO   05 110 46 00:   CONDUCTIVITY INDUCTION LOG DEEP
 ASN .OHMM   05 041 16 00:   AMPLIFIED SHORT NORMAL 16"
 ILD .OHMM   05 120 46 00:   INDUCTION LOG DEEP
 GR  .GAPI   30 310 01 00:   GAMMA RAY
~PARAMETER INFORMATION
#MNEM.UNIT          VALUE    DESCRIPTION
#----------   ------------   ------------------------------
 PD  .                 GL:   PERMANENT DATUM
 EPD .F              5288:   ELEVATION PERMANENT DATUM
 LMF .                 KB:   LOG MEASURED FROM
 DAPD.F                 5:   FEET ABOVE PERMANENT DATUM
 DMF .                 KB:   DRILLING MEASURED FROM
 EKB .F            5286.9:   KELLING BUSHING
 EGL .F            5281.9:   GROUND LEVEL
 DATE.        15-AUG-1966:   RUN DATE
 RUN .                  1:   RUN NUMBER
 DD  .F              1360:   DEPTH DRILLER
 DL  .F              1361:   DEPTH LOGGER
 BLI .F              1360:   BOTTOM LOG INTERVAL
 TLI .F                88:   TOP LOG INTERVAL
 CS  .IN            8.625:   CASING SIZE
 CBD .F                12:   CASING BOTTOM DRILLER
 BS  .IN            7.875:   BIT SIZE
 BSD .F              1360:   BIT SIZE AT DEPTH
 DFT .          CHEM- GEL:   DRILLING FLUID TYPE
 DFD .                9.6:   DRILLING FLUID DENSITY
 DFV .                 60:   DRILLING FLUID VISCOSITY
 DFPH.                7.2:   DRILLING FLUID PH
 DFL .                6.4:   DRILLING FLUID LOSS
 MSS .         CIRCULATED:   MUD SAMPLE SOURCE
 RMS .OHMM           1.41:   RESISTIVITY MUD SAMPLE
 MST .F                72:   MUD SAMPLE TEMPERATURE
 RMF .OHMM           0.75:   RESISTIVITY MUD FILTRATE SAMPLE
 MFST.F                73:   MUD FILTRATE SAMPLE TEMPERATURE
 MFSS.               MEAS:   MUD FILTRATE SAMPLE SOURCE
 TCS .HRS             2.5:   TIME CURCULATED STOPPED
 LUN .               3527:   LOGGING UNIT NUMBER
 LUL .              CSPR.:   LOGGING UNIT LOCATION
 ENGI.               HAUG:   RECORDING ENGINEER
 WITN.             TUTTLE:   WITNESSED BY
 CLNT.            A2DTECH:   CLIENT CODE
 ORIG.       2", 5" PRINT:   ORIGIN OF DATA
 UWI .       490250959000:   UNIQUE WELL ID
 DICO. A2D Technologies, Inc.:   DIGITIZING COMPANY
~OTHER INFORMATION
~A   DEPT      SPR       CILD          ASN        ILD       GR   
# ...
  394.0000   -50.7030   180.6876     7.2159     5.5113    74.7787
  394.5000   -50.7076   181.4501     7.2308     5.5091    78.2262
  395.0000   -50.7129   181.9507     7.2551     5.5075    78.0549
  395.5000   -50.7167   182.4652     7.2907     5.5057    79.6258
  396.0000   -50.7212   182.9897     7.2905     5.5786    83.8486
  396.5000   -50.7265   183.7519     7.2439     5.5771    81.3720
  397.0000   -50.7303   185.5033     7.1944     5.5752    80.3593
  397.5000   -50.7348   187.5188     7.1544     5.5730    84.2754
  398.0000   -50.5879   189.0284     7.1460     5.6466    83.7929
  398.5000   -50.5924   188.7980     7.1719     5.6447    83.6182
  399.0000   -50.5970   186.8162     7.2443     5.6425    79.3562
  399.5000   -50.6024   182.8475     7.3468     5.7161    78.7164
  400.0000   -50.6061   180.8640     7.5000     5.7143    79.9612
  400.5000   -50.6106   181.6319     7.5600     5.6625    78.6856
  401.0000   -50.6152   183.8893     7.5475     5.3852    74.8970
  401.5000   -50.6197   185.1544     7.4543     5.1071    73.2957
  402.0000   -50.6243   186.9159     7.3142     5.0561    68.7332
  402.5000   -50.6288   191.4080     7.1840     5.0044    69.0685
  403.0000   -50.6333   196.1089     7.0170     4.9511    67.2939
  403.5000   -50.6380   201.9473     6.8781     4.9976    65.8685
  404.0000   -50.6424   208.6420     6.6660     5.0456    65.0662
  404.5000   -50.6470   209.5565     6.5949     5.0958    62.2217
  405.0000   -50.6517   204.0357     6.6225     5.2644    55.9157
  405.5000   -50.6561   196.7117     6.7783     5.4375    56.2179
  406.0000   -50.6606   191.1113     7.3661     5.6917    59.5095
  406.5000   -50.6654   184.7987     7.6692     5.7664    67.8360
  407.0000   -50.6697   179.7759     8.0549     5.8430    70.1867
  407.5000   -50.6389   175.2117     8.3610     5.9195    70.1711
  408.0000   -50.5273   170.6441     8.4728     5.9990    73.9347
  408.5000   -50.3803   165.8370     8.5965     6.2148    80.3762
  409.0000   -50.3848   159.7359     8.7008     6.2887    79.1019
  409.5000   -50.2382   154.2473     8.5822     6.2872    75.7853
  410.0000   -50.2396   156.6517     8.3249     6.2857    80.9650
  410.5000   -50.2411   162.6059     8.0665     6.1891    81.8997
  411.0000   -50.2426   168.4933     7.8569     5.9819    82.1987
  411.5000   -50.2441   171.4426     7.7581     5.8655    85.9623
  412.0000   -50.2457   174.4997     7.6636     5.7413    87.2407
  412.5000   -50.2472   176.1335     7.5862     5.6765    82.9480
  413.0000   -50.2487   177.6832     7.5389     5.5682    78.5301
  413.5000   -50.2502   179.7771     7.4834     5.4440    75.2102
  414.0000   -50.2517   180.9068     7.3748     5.3711    77.9092
  414.5000   -50.2532   182.2421     7.2859     5.3699    81.9638
  415.0000   -50.2547   185.0544     7.1888     5.3684    81.9416
  415.5000   -50.2562   187.1650     7.1183     5.3669    82.8732
  416.0000   -50.2577   189.5964     7.0915     5.3654    79.2009
  416.5000   -50.2592   190.3318     7.0728     5.3638    74.5062
  417.0000   -50.2607   190.3438     7.0726     5.3982    77.1685
  417.5000   -50.2623   189.6118     7.0769     5.5114    79.5161
  418.0000   -50.2638   189.6263     7.1175     5.5847    80.2934
  418.5000   -50.2653   188.7269     7.1732     5.6587    79.3338
  419.0000   -50.2668   186.6679     7.2501     5.8077    83.5694
  419.5000   -50.2683   185.1918     7.3730     5.9290    79.9382
  420.0000   -50.2698   181.9133     7.4543     5.9749    82.2858
  420.5000   -50.2713   177.7450     7.5605     6.0286    81.0146
  421.0000   -50.2728   175.6552     7.6737     6.1022    81.6315
  421.5000   -50.2743   173.2237     7.7843     6.1761    82.0941
  422.0000   -50.2758   171.0642     7.9011     6.1742    77.8304
  422.5000   -50.2774   169.8555     7.9794     6.1729    79.8634
  423.0000   -50.2789   168.1021     8.0331     6.1672    81.4243
  423.5000   -50.2804   166.1808     8.0945     6.0944    83.1425
  424.0000   -50.2819   164.0558     8.0833     6.0932    83.6052
  424.5000   -50.2834   161.4213     7.9942     6.0917    75.5654
  425.0000   -50.2849   163.6771     7.9133     5.9712    76.8116
  425.5000   -50.2864   168.6871     7.8161     5.8147    77.6067
  426.0000   -50.2879   181.6463     7.6663     5.3352    69.8638
  426.5000   -50.2894   185.5680     7.5513     5.2979    69.5012
  427.0000   -50.2909   187.7578     7.3826     5.2571    74.2443
  427.5000   -50.2924   190.6606     7.1874     5.2554    79.2799
  428.0000   -50.2940   193.1539     7.0538     5.2542    77.6787
  428.5000   -50.2955   193.6775     7.0189     5.2526    73.4202
  429.0000   -50.2970   193.2486     6.9933     5.2511    75.7678
  429.5000   -50.2985   192.6159     7.0082     5.2497    74.6277
  430.0000   -50.3000   190.7336     7.0449     5.2480    79.0438
  430.5000   -50.3015   189.6238     7.1283     5.2866    81.3914
  431.0000   -50.3030   189.2663     7.2108     5.3205    79.6482
  431.5000   -50.3045   189.2845     7.2334     5.3186    77.4330
  432.0000   -50.3060   190.0448     7.1881     5.3173    75.8472
  432.5000   -50.3075   190.0598     7.1092     5.3157    75.3627
  433.0000   -50.3090   190.8250     7.0017     5.3140    72.8328
  433.5000   -50.3106   191.0787     6.7960     5.3128    72.0368
  434.0000   -50.3121   193.0945     6.7363     5.3112    74.6990
  434.5000   -50.3086   199.2201     6.6903     5.3098    67.1312
  435.0000   -50.1667   207.3244     6.6572     5.3083    65.5485
  435.5000   -50.1712   205.8457     6.6193     5.2314    67.5783
  436.0000   -50.0244   204.7334     6.5693     5.1940    71.4993
  436.5000   -50.0288   202.7778     6.5314     5.0030    71.3295
  437.0000   -50.0030   202.1525     6.4614     4.9261    70.2156
  437.5000   -49.8864   202.1674     6.4483     4.8496    66.7417
  438.0000   -49.8909   203.7569     6.4632     4.8481    63.2678
  438.5000   -49.7437   207.4318     6.4630     4.8466    59.1646
  439.0000   -49.7492   210.4185     6.4628     4.9205    59.4668
  439.5000   -49.7530   214.1857     6.4228     4.9939    62.7584
  440.0000   -49.7576   216.1434     6.2065     5.1078    65.5782
  440.5000   -49.7621   216.4552     6.1581     5.2290    69.3416
  441.0000   -49.6144   211.9892     6.1309     5.3652    77.8375
  441.5000   -49.6200   209.3647     6.1909     5.5465    84.2704
  442.0000   -49.4727   204.7435     6.3661     5.6722    83.5087
  442.5000   -49.4520   198.5820     6.6810     5.8869    77.8534
  443.0000   -49.3303   195.0972     7.1392     6.1356    77.9806
  443.5000   -49.2692   190.2193     7.0906     6.2601    79.0808
  444.0000   -49.1877   183.6799     6.8226     6.4090    80.1106
  444.5000   -49.1933   180.4633     6.8827     6.4829    74.1162
  445.0000   -49.1970   173.9913     7.0482     6.4059    71.9010
  445.5000   -49.2016   167.7179     7.1836     6.4045    68.4271
  446.0000   -49.2061   166.5449     7.2802     6.3945    70.7747
  446.5000   -49.2106   166.5632     7.4536     6.2509    69.8182
  447.0000   -49.0640   168.0916     7.5596     6.1745    69.1795
  447.5000   -49.0682   170.6652     7.5588     6.0972    68.3772
  448.0000   -49.0727   174.8300     7.5000     5.9729    69.6234
  448.5000   -49.2294   178.0344     7.3633     5.8283    72.6004
  449.0000   -49.2939   181.6293     7.2856     5.5668    83.7589
  449.5000   -49.5510   183.8443     7.0538     5.3346    82.9597
  450.0000   -49.8485   195.5655     6.6850     5.1002    78.9699
  450.5000   -49.8985   204.7985     6.1968     5.0359    78.2155
  451.0000   -49.8578   212.1775     6.0371     5.0346    75.2152
  451.5000   -49.8621   218.0792     5.8852     5.0330    73.6337
  452.0000   -49.8667   222.7814     5.8411     5.0313    76.6095
  452.5000   -49.8717   225.3985     5.9312     5.0545    78.9587
  453.0000   -49.8758   222.0080     6.1156     5.1037    82.8813
  453.5000   -49.7285   214.6058     6.2570     5.2217    85.7052
  454.0000   -49.7341   210.3537     6.3825     5.2676    77.9821
  454.5000   -49.7379   205.5232     6.4407     5.3999    76.8699
