~VERSION INFORMATION
 VERS.                2.0:   CWLS LOG ASCII STANDARD - VERSION 2.0
 WRAP.                 NO:   ONE LINE PER DEPTH STEP
~WELL INFORMATION
#MNEM.UNIT      DATA TYPE    INFORMATION
#----------   ------------   ------------------------------
 STRT.F          700.0000:   START DEPTH
 STOP.F         2111.0000:   STOP DEPTH
 STEP.F            0.5000:   STEP LENGTH
 NULL.          -999.2500:   NO VALUE
 COMP. FENIX & SCISSON INC:   COMPANY
 WELL.    35 SAX 34 #3-34:   WELL
 FLD .             TEAPOT:   FIELD
 LOC .      S34 T39N R78W:   LOCATION
 CNTY.            NATRONA:   COUNTY
 STAT.            WYOMING:   STATE
 CTRY. UNITED STATES OF AMERICA:   COUNTRY
 SRVC.            Unknown:   SERVICE COMPANY
 DATE.        29-MAY-1978:   LOGDATE
 API .       490251061700:   API NUMBER
~CURVE INFORMATION
#MNEM.UNIT       API CODE    CURVE DESCRIPTION
#----------   ------------   ------------------------------
 DEPT.F                  :   
 CALD.IN     45 280 60 00:   CALIPER FROM DENSITY LOG
 GRD .GAPI   45 310 01 00:   GAMMA RAY FROM DENSITY LOG
 RHOB.G/C3   45 350 01 00:   BULK DENSITY
 DPHI.DEC    45 890 00 00:   DENSITY POROSITY
 CORR.G/C3   45 356 01 00:   DENSITY CORRECTION
~PARAMETER INFORMATION
#MNEM.UNIT          VALUE    DESCRIPTION
#----------   ------------   ------------------------------
 PD  .                 GL:   PERMANENT DATUM
 EPD .F              5105:   ELEVATION PERMANENT DATUM
 LMF .                 KB:   LOG MEASURED FROM
 DAPD.F                10:   FEET ABOVE PERMANENT DATUM
 DMF .                 KB:   DRILLING MEASURED FROM
 EKB .F              5115:   KELLING BUSHING
 EGL .F              5105:   GROUND LEVEL
 DATE.          5-29-1978:   RUN DATE
 RUN .                  1:   RUN NUMBER
 DD  .F              2111:   DEPTH DRILLER
 DL  .F              2118:   DEPTH LOGGER
 BLI .F              2110:   BOTTOM LOG INTERVAL
 TLI .F               720:   TOP LOG INTERVAL
 CS  .IN            9.625:   CASING SIZE
 CBD .F               711:   CASING BOTTOM DRILLER
 CBL .F               721:   CASING BOTTOM LOGGER
 BS  .IN             8.75:   BIT SIZE
 BSD .F              2111:   BIT SIZE AT DEPTH
 DFT .                OIL:   DRILLING FLUID TYPE
 TCS .HRS               1:   TIME CURCULATED STOPPED
 LUN .               2958:   LOGGING UNIT NUMBER
 LUL .               CASP:   LOGGING UNIT LOCATION
 ENGI.             MILLER:   RECORDING ENGINEER
 WITN.           MCGINLEY:   WITNESSED BY
 CLNT.            A2DTECH:   CLIENT CODE
 ORIG.           5" PRINT:   ORIGIN OF DATA
 UWI .       490251061700:   UNIQUE WELL ID
 DICO. A2D Technologies, Inc.:   DIGITIZING COMPANY
~OTHER INFORMATION
~A   DEPT     CALD         GRD      RHOB       DPHI       CORR   
# ...
  944.0000     9.5341    69.2719     2.3044     0.1603     0.2781
  944.5000     9.6005    68.5990     2.3038     0.1617     0.2753
  945.0000     9.6677    68.7348     2.3032     0.1576     0.2761
  945.5000     9.6414    69.5018     2.3030     0.1533     0.2875
  946.0000     9.6067    71.8136     2.3080     0.1234     0.2986
  946.5000     9.5733    74.5776     2.3253     0.1356     0.2928
  947.0000     9.5848    76.3775     2.3504     0.1523     0.2606
  947.5000     9.5991    76.3537     2.3356     0.1693     0.2281
  948.0000     9.6132    76.3632     2.3093     0.1622     0.2204
  948.5000     9.6271    76.3266     2.2937     0.1533     0.2600
  949.0000     9.6412    75.1992     2.2976     0.1444     0.2676
  949.5000     9.6629    71.3534     2.3126     0.1355     0.2643
  950.0000     9.7123    69.6151     2.3294     0.1346     0.2545
  950.5000     9.7606    68.0831     2.3330     0.1432     0.2341
  951.0000     9.8082    67.6165     2.3312     0.1438     0.2140
  951.5000     9.7773    67.1159     2.3288     0.1407     0.2064
  952.0000     9.7407    66.6067     2.3286     0.1334     0.2049
  952.5000     9.7124    66.8036     2.3317     0.1261     0.2090
  953.0000     9.7252    68.3816     2.3419     0.1214     0.2061
  953.5000     9.7374    69.9990     2.3548     0.1233     0.2018
  954.0000     9.7505    70.8718     2.3580     0.1299     0.1976
  954.5000     9.7073    67.4597     2.3525     0.1329     0.1934
  955.0000     9.7100    65.3542     2.3461     0.1272     0.2068
  955.5000     9.7363    65.4134     2.3462     0.1190     0.2253
  956.0000     9.7656    65.6718     2.3485     0.1267     0.2406
  956.5000     9.7143    65.8092     2.3658     0.1392     0.2273
  957.0000     9.6368    65.8400     2.3533     0.1421     0.2130
  957.5000     9.5687    65.8681     2.3337     0.1297     0.2369
  958.0000     9.5618    65.8961     2.3340     0.1261     0.2600
  958.5000     9.5547    65.9256     2.3500     0.1376     0.2673
  959.0000     9.4985    65.9539     2.3416     0.1458     0.2529
  959.5000     9.4326    65.9690     2.3287     0.1521     0.2624
  960.0000     9.3664    65.3347     2.3222     0.1405     0.2726
  960.5000     9.3005    63.8412     2.3163     0.1238     0.2768
  961.0000     9.2971    63.2842     2.3302     0.1374     0.2792
  961.5000     9.3023    64.6542     2.3516     0.1541     0.2742
  962.0000     9.3079    65.3718     2.3356     0.1440     0.2396
  962.5000     9.3107    64.5818     2.3134     0.1251     0.2640
  963.0000     9.2178    63.8329     2.3250     0.0934     0.2900
  963.5000     9.1686    63.7985     2.3370     0.1033     0.2933
  964.0000     9.2124    63.8082     2.3713     0.1154     0.2890
  964.5000     9.2549    64.0442     2.4001     0.1242     0.2533
  965.0000     9.2979    64.5864     2.3705     0.1209     0.2270
  965.5000     9.3247    64.6058     2.3578     0.1134     0.2623
  966.0000     9.3428    64.9652     2.3632     0.0727     0.2896
  966.5000     9.3338    66.5839     2.3867     0.0891     0.2811
  967.0000     9.2946    68.2066     2.4335     0.1070     0.2412
  967.5000     9.2924    68.6818     2.4128     0.1353     0.2007
  968.0000     9.3203    68.8264     2.3860     0.1300     0.1985
  968.5000     9.3709    68.9699     2.3589     0.1247     0.2289
  969.0000     9.4153    68.2077     2.3474     0.1218     0.2647
  969.5000     9.4256    66.6996     2.3547     0.1282     0.2966
  970.0000     9.4269    66.4910     2.3607     0.1385     0.2736
  970.5000     9.4123    66.2884     2.3435     0.1488     0.2533
  971.0000     9.4808    65.4481     2.3217     0.1581     0.2704
  971.5000     9.5621    62.1140     2.3120     0.1406     0.2923
  972.0000     9.5684    58.4762     2.3025     0.1171     0.2957
  972.5000     9.4995    57.5432     2.3248     0.0978     0.2994
  973.0000     9.4529    63.1597     2.3585     0.1078     0.2947
  973.5000     9.4585    68.6816     2.3904     0.1086     0.2688
  974.0000     9.4631    69.1425     2.3824     0.1138     0.2423
  974.5000     9.4679    69.0591     2.3701     0.1288     0.2162
  975.0000     9.4726    66.5078     2.3413     0.1437     0.1969
  975.5000     9.4773    63.3301     2.3123     0.1587     0.2132
  976.0000     9.4820    62.6790     2.2977     0.1700     0.2350
  976.5000     9.4866    64.4477     2.2835     0.1753     0.2493
  977.0000     9.4907    66.2599     2.2764     0.1845     0.2482
  977.5000     9.5193    67.4514     2.2671     0.1884     0.2504
  978.0000     9.5500    67.1853     2.2550     0.1912     0.2578
  978.5000     9.5633    66.7025     2.2529     0.1951     0.2630
  979.0000     9.5340    66.4222     2.2518     0.1999     0.2596
  979.5000     9.5056    66.1338     2.2489     0.2048     0.2564
  980.0000     9.4770    65.8432     2.2402     0.2092     0.2600
  980.5000     9.4484    66.4287     2.2318     0.2073     0.2654
  981.0000     9.4195    67.5917     2.2259     0.2056     0.2637
  981.5000     9.3947    68.0832     2.2260     0.2044     0.2621
  982.0000     9.4399    68.4419     2.2289     0.1964     0.2650
  982.5000     9.4873    68.7997     2.2355     0.1805     0.2711
  983.0000     9.4556    68.9851     2.2531     0.1649     0.2772
  983.5000     9.4131    68.9882     2.2713     0.1702     0.2783
  984.0000     9.4033    67.5664     2.2915     0.1787     0.2582
  984.5000     9.4231    64.8121     2.2810     0.1832     0.2316
  985.0000     9.4437    61.9845     2.2652     0.1802     0.2310
  985.5000     9.4253    61.3769     2.2560     0.1776     0.2735
  986.0000     9.3786    61.3217     2.2684     0.1679     0.2972
  986.5000     9.3339    61.2789     2.2741     0.1446     0.2989
  987.0000     9.3327    61.2391     2.2927     0.1163     0.2956
  987.5000     9.3353    60.6908     2.3320     0.1338     0.2929
  988.0000     9.2407    59.8755     2.3693     0.1561     0.2586
  988.5000     9.1316    59.7508     2.3353     0.1675     0.2175
  989.0000     9.0195    59.9282     2.2926     0.1645     0.2181
  989.5000     9.0129    60.1138     2.2762     0.1617     0.2259
  990.0000     9.0141    60.2989     2.2819     0.1726     0.2319
  990.5000     9.0377    60.4827     2.2801     0.1828     0.2329
  991.0000     9.0632    60.6641     2.2647     0.1860     0.2554
  991.5000     9.0887    60.8741     2.2627     0.1833     0.2964
  992.0000     9.1124    61.0159     2.2620     0.1804     0.2997
  992.5000     9.0990    60.3380     2.2637     0.1780     0.2990
  993.0000     9.0845    59.1729     2.2656     0.1881     0.2862
  993.5000     9.0840    59.6996     2.2651     0.2176     0.2481
  994.0000     9.1327    63.5622     2.2223     0.1762     0.2260
  994.5000     9.1818    67.4548     2.2059     0.1301     0.2562
  995.0000     9.1843    67.9599     2.2972     0.1317     0.2749
  995.5000     9.1670    66.5212     2.3570     0.1315     0.2393
  996.0000     9.1195    66.0376     2.3431     0.1338     0.2173
  996.5000     9.0721    66.1471     2.3380     0.1411     0.2253
  997.0000     9.0406    66.3581     2.3367     0.1477     0.2275
  997.5000     9.0879    66.6085     2.3284     0.1624     0.2319
  998.0000     9.1339    64.6948     2.3093     0.1774     0.2548
  998.5000     9.1793    62.3855     2.2903     0.1888     0.2784
  999.0000     9.2068    61.1404     2.2717     0.1639     0.3018
  999.5000     9.1732    60.9171     2.2689     0.1413     0.3235
 1000.0000     9.1414    60.4144     2.3011     0.1494     0.2975
 1000.5000     9.1145    59.9587     2.3225     0.1551     0.2573
 1001.0000     9.1313    60.2375     2.3034     0.1513     0.2643
 1001.5000     9.1475    61.0541     2.2982     0.1465     0.2769
 1002.0000     9.1632    63.2328     2.3164     0.1347     0.2759
 1002.5000     9.1671    65.6384     2.3326     0.1206     0.2685
 1003.0000     9.1498    68.0526     2.3487     0.1122     0.2611
 1003.5000     9.1337    70.3299     2.3695     0.1356     0.2508
 1004.0000     9.1404    70.4248     2.3547     0.1485     0.2272
 1004.5000     9.1485    69.2614     2.3300     0.1513     0.2059
