~VERSION INFORMATION
 VERS.                2.0:   CWLS LOG ASCII STANDARD - VERSION 2.0
 WRAP.                 NO:   ONE LINE PER DEPTH STEP
~WELL INFORMATION
#MNEM.UNIT      DATA TYPE    INFORMATION
#----------   ------------   ------------------------------
 STRT.F           24.5000:   START DEPTH
 STOP.F          750.0000:   STOP DEPTH
 STEP.F            0.5000:   STEP LENGTH
 NULL.          -999.2500:   NO VALUE
 COMP. FENIX & SCISSON INC:   COMPANY
 WELL.    NPR 3 SX #35-11:   WELL
 FLD .          N.P.R. #3:   FIELD
 LOC .      S11 T38N R78W:   LOCATION
 CNTY.            NATRONA:   COUNTY
 STAT.            WYOMING:   STATE
 CTRY. UNITED STATES OF AMERICA:   COUNTRY
 SRVC.            Unknown:   SERVICE COMPANY
 DATE.        23-FEB-1978:   LOGDATE
 API .       490251027200:   API NUMBER
~CURVE INFORMATION
#MNEM.UNIT       API CODE    CURVE DESCRIPTION
#----------   ------------   ------------------------------
 DEPT.F                  :   
 ILM .OHMM   07 120 44 00:   INDUCTION LOG MEDIUM
 ILD .OHMM   07 120 46 00:   INDUCTION LOG DEEP
 LL8 .OHMM   07 220 08 00:   LATEROLOG-8 RES.
 SPR .MV     07 010 01 00:   SPONTANEOUS POTENTIAL
 CALD.IN     45 280 60 00:   CALIPER FROM DENSITY LOG
 CORR.G/C3   45 356 01 00:   DENSITY CORRECTION
 DPHI.DEC    45 890 12 00:   DENSITY POROSITY SANDSTONE
 GRD .GAPI   45 310 01 00:   GAMMA RAY FROM DENSITY LOG
 RHOB.G/C3   45 350 01 00:   BULK DENSITY
 IL  .OHMM   05 120 40 00:   INDUCTION RESISTIVITY
 SN  .OHMM   05 040 16 00:   SHORT NORMAL 16"
 SPR1.MV     05 010 01 00:   SPONTANEOUS POTENTIAL INDUCTION ELECTRICAL LOG
~PARAMETER INFORMATION
#MNEM.UNIT          VALUE    DESCRIPTION
#----------   ------------   ------------------------------
 PD  .                 GL:   PERMANENT DATUM
 EPD .F              5204:   ELEVATION PERMANENT DATUM
 LMF .                 KB:   LOG MEASURED FROM
 DAPD.F                 4:   FEET ABOVE PERMANENT DATUM
 DMF .                 KB:   DRILLING MEASURED FROM
 EKB .F              5208:   KELLING BUSHING
 EGL .F              5204:   GROUND LEVEL
 DATE.        23-FEB-1978:   RUN DATE
 RUN .                  1:   RUN NUMBER
 DD  .F               755:   DEPTH DRILLER
 DL  .F               751:   DEPTH LOGGER
 BLI .F               745:   BOTTOM LOG INTERVAL
 TLI .F                45:   TOP LOG INTERVAL
 CS  .IN            8.625:   CASING SIZE
 CBD .F                40:   CASING BOTTOM DRILLER
 CBL .F                40:   CASING BOTTOM LOGGER
 BS  .IN            7.875:   BIT SIZE
 BSD .F               755:   BIT SIZE AT DEPTH
 DFT .         LIGNO SULF:   DRILLING FLUID TYPE
 DFD .                8.7:   DRILLING FLUID DENSITY
 DFV .                 33:   DRILLING FLUID VISCOSITY
 DFPH.                 10:   DRILLING FLUID PH
 DFL .                  4:   DRILLING FLUID LOSS
 MSS .           FLOWLINE:   MUD SAMPLE SOURCE
 RMS .OHMM            2.0:   RESISTIVITY MUD SAMPLE
 MST .F                60:   MUD SAMPLE TEMPERATURE
 RMF .OHMM            1.9:   RESISTIVITY MUD FILTRATE SAMPLE
 MFST.F                62:   MUD FILTRATE SAMPLE TEMPERATURE
 RMC .OHMM            3.5:   RESISTIVITY MUD CAKE
 MCST.F                60:   MUD CAKE SAMPLE TEMPERATURE
 MFSS.               MEAS:   MUD FILTRATE SAMPLE SOURCE
 RMB .OHMM           1.69:   RESISTIVITY MUD AT BHT
 BHT .F                71:   BOTTOM HOLE TEMPERATURE
 TCS .HRS               3:   TIME CURCULATED STOPPED
 MRT .F                71:   MAXIMUM RECORDED TEMPERATURE
 CLNT.            A2DTECH:   CLIENT CODE
 ORIG.           5" PRINT:   ORIGIN OF DATA
 UWI .       490251027200:   UNIQUE WELL ID
 DICO. A2D Technologies, Inc.:   DIGITIZING COMPANY
~OTHER INFORMATION
~A   DEPT      ILM        ILD        LL8        SPR       CALD       CORR       DPHI         GRD      RHOB         IL         SN       SPR1   
# ...
   52.5000     2.9243     2.9064     4.2650   -32.5929     8.3042     0.0307     0.3001    97.1094     2.1548     1.7954     3.4545   -23.0813
   53.0000     2.7056     2.6410     4.2095   -32.2764     8.3060     0.0248     0.3001    95.7887     2.1247     1.8097     3.4318   -22.9147
   53.5000     2.3245     2.3344     4.0696   -32.2570     8.3227     0.0385     0.3000    92.9844     2.1188     1.8530     3.4088   -22.7480
   54.0000     2.2390     2.2411     3.7481   -32.2374     8.3394     0.0326     0.3000    91.6884     2.1000     2.6865     3.3864   -22.6347
   54.5000     2.2560     2.2127     3.5984   -32.5150     8.3258     0.0289     0.3000    91.1088     2.0685     3.2301     4.4446   -22.7305
   55.0000     2.2576     2.2454     3.2014   -32.6441     8.3127     0.0388     0.2999    90.9809     2.0565     3.4046     6.2102   -22.9616
   55.5000     2.3547     2.3423     2.5496   -32.7780     8.2106     0.0230     0.2999    92.1975     2.0882     3.2626     6.2124   -23.0983
   56.0000     2.4391     2.4265     2.8901   -32.9070     7.9739     0.0147     0.2981    93.4089     2.1538     3.1128     6.1709   -23.2350
   56.5000     2.5793     2.6201     4.8607   -31.2481     8.0502     0.0217     0.2158    94.6202     2.2713     2.9455     6.0785   -23.3718
   57.0000     2.7276     2.8487     5.8225   -30.6342     8.1564     0.0232     0.1911    94.0129     2.3279     2.8458     6.0479   -23.5085
   57.5000     3.0272     3.1402     5.5910   -30.4660     8.2327     0.0173     0.1919    94.2386     2.3392     2.8072     6.0080   -23.5778
   58.0000     3.5997     3.5585     5.3676   -30.2979     8.2494     0.0158     0.1955    96.4702     2.3431     2.7885     6.0102   -23.6322
   58.5000     4.1069     3.9228     4.8757   -30.1297     8.2511     0.0220     0.1964   100.3269     2.3311     2.8880     6.0543   -23.7690
   59.0000     4.3731     4.4453     4.6166   -29.9616     8.2529     0.0251     0.1969   101.4167     2.3274     2.9701     6.1413   -23.9057
   59.5000     4.6245     4.6741     4.5252   -29.9420     8.2547     0.0221     0.1981   101.6076     2.3267     3.0546     6.4055   -24.0424
   60.0000     4.7573     4.7371     4.7207   -30.2196     8.2412     0.0191     0.1960   102.2222     2.3366     3.1854     6.5947   -24.2565
   60.5000     4.7606     4.7056     5.0280   -31.0965     8.2434     0.0194     0.1932   101.5913     2.3472     3.3916     6.5307   -24.4656
   61.0000     4.7639     4.5841     5.1020   -31.0720     8.2452     0.0225     0.1899   100.5903     2.3503     3.7388     7.0195   -24.6836
   61.5000     4.6696     4.5564     5.0347   -31.0565     8.2470     0.0263     0.1880   100.1810     2.3496     4.0646     7.2707   -24.9720
   62.0000     4.5771     4.4668     4.9284   -31.0371     8.2488     0.0249     0.1907   101.7599     2.3452     4.2979     6.6439   -25.2605
   62.5000     4.3945     4.2304     4.8319   -30.7207     8.2506     0.0250     0.1946   105.6548     2.3310     4.3895     5.9456   -25.6362
   63.0000     4.1043     3.8706     4.7745   -30.4042     8.2522     0.0304     0.1988   108.1419     2.3250     4.4213     5.3934   -26.0763
   63.5000     3.5044     3.5171     4.7782   -29.9390     8.2541     0.0403     0.2035   107.2307     2.3213     4.4534     5.1030   -26.3339
   64.0000     3.2505     3.2628     4.3849   -29.3251     8.2557     0.0366     0.2198   105.1806     2.3026     4.4546     4.9636   -26.4706
   64.5000     3.0703     3.1115     3.8873   -29.1569     8.2577     0.0254     0.2417   105.2560     2.2663     4.4247     4.8994   -26.6073
   65.0000     2.9142     2.9673     3.7071   -29.1374     8.2595     0.0406     0.2462   108.6806     2.2520     4.3652     4.9011   -26.6467
   65.5000     2.8529     2.8096     3.1860   -29.1178     8.2613     0.0581     0.2447   110.4742     2.2486     4.2764     4.9028   -26.7311
   66.0000     2.7616     2.7927     2.5198   -29.0982     8.2631     0.0469     0.2485   110.9345     2.2532     4.1317     4.6918   -26.7665
   66.5000     2.7445     2.7377     2.2262   -30.2674     8.2649     0.0326     0.2461   106.4871     2.2440     3.7502     4.3894   -26.7515
   67.0000     2.8428     2.7406     3.8299   -31.1394     8.2667     0.0296     0.2087   100.8572     2.2893     3.4997     4.1531   -26.7365
   67.5000     3.0063     2.7429     5.0870   -31.5656     8.2832     0.0396     0.1915    95.6697     2.3261     3.3346     3.8482   -26.7216
   68.0000     3.1572     2.9617     4.4960   -31.8481     8.2853     0.0389     0.1872    92.2680     2.3402     3.0904     3.5658   -26.7066
   68.5000     3.2704     3.2424     3.9886   -31.6750     8.2867     0.0359     0.1845    92.5865     2.3484     2.8640     3.3504   -26.6916
   69.0000     3.4346     3.5497     3.8045   -31.3583     8.2885     0.0315     0.1923    96.6252     2.3409     2.7863     3.2366   -26.7899
   69.5000     3.6826     3.8594     3.7585   -30.4472     8.2905     0.0286     0.1962   101.1104     2.3350     2.7676     3.1708   -27.0419
   70.0000     3.8675     4.0259     3.9481   -30.2791     8.2923     0.0264     0.1998   103.3634     2.3283     2.7879     3.2166   -27.3303
   70.5000     3.9785     4.0572     4.1761   -30.4130     8.2941     0.0242     0.1874   103.9906     2.3284     2.8276     3.2402   -27.7380
   71.0000     4.0366     4.0599     4.3566   -30.3885     8.2959     0.0235     0.1819   103.7024     2.3473     2.9080     3.2637   -28.4104
   71.5000     4.0395     4.0352     4.5134   -30.5488     8.2977     0.0289     0.1783   103.8725     2.3534     3.0964     3.1976   -28.8447
   72.0000     4.0423     4.0412     4.5799   -30.6515     8.2995     0.0275     0.1740   103.0006     2.3602     3.5584     3.5017   -29.2790
   72.5000     3.9896     4.0420     4.5516   -30.6315     8.3010     0.0238     0.1791   102.1286     2.3656     3.8152     3.8885   -29.5637
   73.0000     3.9924     4.0175     4.5237   -30.6122     8.3028     0.0231     0.1833   102.4471     2.3536     3.9510     3.9997   -29.6986
   73.5000     3.9405     3.9657     4.4642   -30.5928     8.3048     0.0316     0.1787   103.8073     2.3552     4.0634     4.0572   -29.6838
   74.0000     3.8358     3.7819     4.3465   -30.2760     8.3066     0.0423     0.1742   103.8492     2.3590     4.1500     4.1732   -29.9684
   74.5000     3.7340     3.7331     3.9481   -29.8107     8.3084     0.0491     0.1768   102.5098     2.3668     4.2092     4.2925   -29.9537
   75.0000     3.6349     3.5356     3.5369   -29.3454     8.3102     0.0273     0.1919    98.8104     2.3494     4.2692     4.3643   -30.0886
   75.5000     3.3715     3.3717     3.7933   -29.3258     8.3120     0.0213     0.1997    95.8551     2.3307     4.2704     4.4167   -30.0738
   76.0000     3.1272     3.2601     4.1537   -29.3063     8.3138     0.0168     0.2017    96.1736     2.3224     4.2420     4.4491   -30.0590
   76.5000     3.0437     3.0453     4.2148   -29.5839     8.3154     0.0230     0.2071    99.1707     2.3142     4.2138     4.4507   -30.0443
   77.0000     3.0459     3.0262     3.3800   -29.5643     8.3025     0.0261     0.2164    99.7816     2.3045     4.1858     4.3903   -30.0295
   77.5000     3.0480     3.0294     2.7483   -29.8468     8.3043     0.0224     0.2393    97.4267     2.2707     4.1293     4.3011   -30.1644
   78.0000     3.0501     3.0104     3.0514   -29.8224     8.3058     0.0233     0.2450    95.2155     2.2557     4.0174     4.1899   -30.2994
   78.5000     3.0301     3.0136     4.0278   -29.8028     8.3078     0.0201     0.2326    92.8554     2.2505     3.9084     4.0713   -30.5840
   79.0000     2.9712     2.9340     4.2010   -29.6347     8.2943     0.0157     0.2208    92.2758     2.2785     3.7241     3.8789   -30.5689
   79.5000     2.8724     2.8174     3.9785   -29.1693     8.2812     0.0114     0.2084    95.5757     2.2966     3.5981     3.7475   -30.5544
   80.0000     2.8350     2.7811     3.5396   -28.8526     8.2834     0.0116     0.2255    98.2752     2.2907     3.4763     3.6459   -30.6961
