~VERSION INFORMATION
 VERS.                2.0:   CWLS LOG ASCII STANDARD - VERSION 2.0
 WRAP.                 NO:   ONE LINE PER DEPTH STEP
~WELL INFORMATION
#MNEM.UNIT      DATA TYPE    INFORMATION
#----------   ------------   ------------------------------
 STRT.F          350.0000:   START DEPTH
 STOP.F         2259.0000:   STOP DEPTH
 STEP.F            0.5000:   STEP LENGTH
 NULL.          -999.2500:   NO VALUE
 COMP. LAWRENCE/ALLISON INC:   COMPANY
 WELL.        45 X #33-33:   WELL
 FLD .             TEAPOT:   FIELD
 LOC .      S33 T39N R78W:   LOCATION
 CNTY.            NATRONA:   COUNTY
 STAT.            WYOMING:   STATE
 CTRY. UNITED STATES OF AMERICA:   COUNTRY
 SRVC.      NL McCullough:   SERVICE COMPANY
 DATE.        19-MAY-1988:   LOGDATE
 API .       490251119400:   API NUMBER
~CURVE INFORMATION
#MNEM.UNIT       API CODE    CURVE DESCRIPTION
#----------   ------------   ------------------------------
 DEPT.F                  :   
 ROP .MIN/FT 91 810 01 00:   RATE OF DRILLING PENETRATION
 GR  .GAPI   81 310 01 00:   GAMMA RAY
 TGAS.UNITS  91 830 01 00:   TOTAL GAS FROM HOTWIRE
~PARAMETER INFORMATION
#MNEM.UNIT          VALUE    DESCRIPTION
#----------   ------------   ------------------------------
 PD  .                 GL:   PERMANENT DATUM
 EPD .F              5198:   ELEVATION PERMANENT DATUM
 LMF .                 KB:   LOG MEASURED FROM
 DAPD.F                11:   FEET ABOVE PERMANENT DATUM
 DMF .                 KB:   DRILLING MEASURED FROM
 EKB .F              5209:   KELLING BUSHING
 EGL .F              5198:   GROUND LEVEL
 DATE.            5-19-88:   RUN DATE
 RUN .                  1:   RUN NUMBER
 DD  .F              2232:   DEPTH DRILLER
 DL  .F               750:   DEPTH LOGGER
 BLI .F               746:   BOTTOM LOG INTERVAL
 TLI .F               350:   TOP LOG INTERVAL
 CS  .IN                7:   CASING SIZE
 CBD .F               808:   CASING BOTTOM DRILLER
 DFT .              WATER:   DRILLING FLUID TYPE
 TCS .HRS            0830:   TIME CURCULATED STOPPED
 TLAB.HRS            0930:   TIME LOGGER AT BOTTOM
 ENGI.          SANGERTER:   RECORDING ENGINEER
 WITN.             NORMAN:   WITNESSED BY
 CLNT.            A2DTECH:   CLIENT CODE
 ORIG.           5" PRINT:   ORIGIN OF DATA
 UWI .       490251119400:   UNIQUE WELL ID
 DICO. A2D Technologies, Inc.:   DIGITIZING COMPANY
~OTHER INFORMATION
~A   DEPT      ROP          GR      TGAS   
# ...
 1988.0000     0.5271  -999.2500   118.8390
 1988.5000     0.4958  -999.2500   118.7666
 1989.0000     0.4854  -999.2500   118.6941
 1989.5000     0.4541  -999.2500   118.6217
 1990.0000     0.4228  -999.2500   118.5492
 1990.5000     0.4019  -999.2500   118.4768
 1991.0000     0.3706  -999.2500   118.4044
 1991.5000     0.3706  -999.2500   118.3319
 1992.0000     0.3601  -999.2500   118.2595
 1992.5000     0.3497  -999.2500   118.1870
 1993.0000     0.3374  -999.2500   118.1146
 1993.5000     0.3288  -999.2500   118.0422
 1994.0000     0.3184  -999.2500   117.9697
 1994.5000     0.3184  -999.2500   117.8973
 1995.0000     0.3184  -999.2500   117.8248
 1995.5000     0.3184  -999.2500   117.7524
 1996.0000     0.3288  -999.2500   117.6799
 1996.5000     0.3288  -999.2500   117.6075
 1997.0000     0.3288  -999.2500   117.5351
 1997.5000     0.3497  -999.2500   117.4626
 1998.0000     0.3601  -999.2500   117.3902
 1998.5000     0.3601  -999.2500   117.3177
 1999.0000     0.3706  -999.2500   117.2453
 1999.5000     0.3706  -999.2500   117.1729
 2000.0000     0.3706  -999.2500   117.1004
 2000.5000     0.3601  -999.2500   117.0280
 2001.0000     0.3288  -999.2500   116.9555
 2001.5000     0.3184  -999.2500   116.8831
 2002.0000     0.3184  -999.2500   116.8107
 2002.5000     0.3184  -999.2500   116.7382
 2003.0000     0.3184  -999.2500   116.6658
 2003.5000     0.3184  -999.2500   116.5933
 2004.0000     0.3184  -999.2500   116.5209
 2004.5000     0.3288  -999.2500   116.4484
 2005.0000     0.3079  -999.2500   116.3760
 2005.5000     0.2871  -999.2500   116.3036
 2006.0000     0.2766  -999.2500   116.2311
 2006.5000     0.2871  -999.2500   116.1587
 2007.0000     0.3184  -999.2500   116.0862
 2007.5000     0.3706  -999.2500   116.0138
 2008.0000     0.4019  -999.2500   115.9414
 2008.5000     0.4436  -999.2500   115.8689
 2009.0000     0.4436  -999.2500   115.7965
 2009.5000     0.4123  -999.2500   115.7240
 2010.0000     0.4019  -999.2500   115.6516
 2010.5000     0.3810  -999.2500   115.5792
 2011.0000     0.3601  -999.2500   115.5067
 2011.5000     0.3497  -999.2500   115.4343
 2012.0000     0.3288  -999.2500   115.3618
 2012.5000     0.3184  -999.2500   115.2894
 2013.0000     0.3184  -999.2500   115.2169
 2013.5000     0.2975  -999.2500   115.1445
 2014.0000     0.2871  -999.2500   115.0721
 2014.5000     0.2871  -999.2500   114.9996
 2015.0000     0.2871  -999.2500   114.9272
 2015.5000     0.2871  -999.2500   114.8547
 2016.0000     0.2975  -999.2500   114.7823
 2016.5000     0.3184  -999.2500   114.7099
 2017.0000     0.3184  -999.2500   114.6374
 2017.5000     0.3288  -999.2500   114.5650
 2018.0000     0.3497  -999.2500   114.4925
 2018.5000     0.3601  -999.2500   114.4201
 2019.0000     0.3914  -999.2500   114.3476
 2019.5000     0.4123  -999.2500   114.2752
 2020.0000     0.4436  -999.2500   114.2028
 2020.5000     0.4541  -999.2500   114.1303
 2021.0000     0.4645  -999.2500   114.0579
 2021.5000     0.4541  -999.2500   113.9854
 2022.0000     0.4436  -999.2500   113.9130
 2022.5000     0.4123  -999.2500   113.8406
 2023.0000     0.4019  -999.2500   113.7681
 2023.5000     0.3706  -999.2500   113.6957
 2024.0000     0.3601  -999.2500   113.6232
 2024.5000     0.3601  -999.2500   113.5508
 2025.0000     0.3601  -999.2500   113.4784
 2025.5000     0.3601  -999.2500   113.4059
 2026.0000     0.3601  -999.2500   113.3335
 2026.5000     0.3601  -999.2500   113.2610
 2027.0000     0.3497  -999.2500   113.1886
 2027.5000     0.3497  -999.2500   113.1161
 2028.0000     0.3392  -999.2500   113.0437
 2028.5000     0.3288  -999.2500   112.9713
 2029.0000     0.3288  -999.2500   112.8988
 2029.5000     0.3497  -999.2500   112.8264
 2030.0000     0.3497  -999.2500   112.7539
 2030.5000     0.3601  -999.2500   112.6815
 2031.0000     0.3601  -999.2500   112.6091
 2031.5000     0.3810  -999.2500   112.5366
 2032.0000     0.4123  -999.2500   112.4642
 2032.5000     0.4541  -999.2500   112.3917
 2033.0000     0.4958  -999.2500   112.3193
 2033.5000     0.5277  -999.2500   112.2468
 2034.0000     0.5689  -999.2500   112.1744
 2034.5000     0.6106  -999.2500   112.1020
 2035.0000     0.6106  -999.2500   112.0295
 2035.5000     0.6106  -999.2500   111.9571
 2036.0000     0.6106  -999.2500   111.8846
 2036.5000     0.6106  -999.2500   111.8122
 2037.0000     0.6420  -999.2500   111.7398
 2037.5000     0.6837  -999.2500   111.6673
 2038.0000     0.6211  -999.2500   111.5949
 2038.5000     0.5689  -999.2500   111.5224
 2039.0000     0.5271  -999.2500   111.4500
 2039.5000     0.5271  -999.2500   111.3776
 2040.0000     0.5271  -999.2500   111.3051
 2040.5000     0.5271  -999.2500   111.2327
 2041.0000     0.5271  -999.2500   111.1602
 2041.5000     0.5271  -999.2500   111.0878
 2042.0000     0.5167  -999.2500   111.0154
 2042.5000     0.4854  -999.2500   110.9429
 2043.0000     0.4436  -999.2500   110.8705
 2043.5000     0.4332  -999.2500   110.7980
 2044.0000     0.4123  -999.2500   110.7256
 2044.5000     0.4019  -999.2500   110.6531
 2045.0000     0.4019  -999.2500   110.5807
 2045.5000     0.4019  -999.2500   110.5083
 2046.0000     0.4019  -999.2500   110.4358
 2046.5000     0.4019  -999.2500   110.3634
 2047.0000     0.4123  -999.2500   110.2909
 2047.5000     0.4123  -999.2500   110.2185
 2048.0000     0.4332  -999.2500   110.1460
 2048.5000     0.4332  -999.2500   110.0736
 2049.0000     0.4436  -999.2500   110.0012
 2049.5000     0.4436  -999.2500   109.9287
 2050.0000     0.4541  -999.2500   109.8563
 2050.5000     0.4854  -999.2500   109.7838
 2051.0000     0.4958  -999.2500   109.7114
 2051.5000     0.4958  -999.2500   109.6390
 2052.0000     0.5167  -999.2500   109.5665
 2052.5000     0.4854  -999.2500   109.4941
 2053.0000     0.4749  -999.2500   109.4216
 2053.5000     0.4541  -999.2500   109.3492
 2054.0000     0.4436  -999.2500   109.2768
 2054.5000     0.4228  -999.2500   109.2043
 2055.0000     0.4123  -999.2500   109.1319
 2055.5000     0.4123  -999.2500   109.0594
 2056.0000     0.4123  -999.2500   108.9870
 2056.5000     0.4123  -999.2500   108.9146
 2057.0000     0.4123  -999.2500   108.8421
 2057.5000     0.4123  -999.2500   108.7697
 2058.0000     0.4332  -999.2500   108.6972
 2058.5000     0.4436  -999.2500   108.6248
 2059.0000     0.4436  -999.2500   108.5523
 2059.5000     0.4541  -999.2500   108.4799
 2060.0000     0.4541  -999.2500   108.4075
 2060.5000     0.4436  -999.2500   108.3350
 2061.0000     0.4436  -999.2500   108.2626
 2061.5000     0.4332  -999.2500   108.1901
 2062.0000     0.4123  -999.2500   108.1177
 2062.5000     0.4123  -999.2500   108.0453
 2063.0000     0.4019  -999.2500   107.9728
 2063.5000     0.4019  -999.2500   107.9004
 2064.0000     0.4019  -999.2500   107.8279
 2064.5000     0.3914  -999.2500   107.8121
 2065.0000     0.4019  -999.2500   103.6967
 2065.5000     0.4019  -999.2500   101.7036
 2066.0000     0.3914  -999.2500   101.7742
 2066.5000     0.3810  -999.2500    99.7459
 2067.0000     0.3706  -999.2500    95.6186
 2067.5000     0.3601  -999.2500    93.5962
 2068.0000     0.3601  -999.2500    93.6962
 2068.5000     0.3601  -999.2500    93.7668
 2069.0000     0.3601  -999.2500    89.6513
 2069.5000     0.3601  -999.2500    87.6112
 2070.0000     0.3601  -999.2500    87.7112
 2070.5000     0.3497  -999.2500    85.6652
 2071.0000     0.3601  -999.2500    85.7652
 2071.5000     0.3601  -999.2500    85.8358
 2072.0000     0.3706  -999.2500    85.4901
 2072.5000     0.3914  -999.2500    84.9675
 2073.0000     0.4019  -999.2500    84.4449
 2073.5000     0.4436  -999.2500    83.9223
 2074.0000     0.4749  -999.2500    83.3997
 2074.5000     0.4958  -999.2500    82.8771
 2075.0000     0.4958  -999.2500    82.3545
 2075.5000     0.4854  -999.2500    81.8319
 2076.0000     0.4854  -999.2500    81.3093
 2076.5000     0.4854  -999.2500    80.7867
 2077.0000     0.4854  -999.2500    80.2641
 2077.5000     0.4854  -999.2500    79.7415
 2078.0000     0.4854  -999.2500    79.2189
 2078.5000     0.4958  -999.2500    78.6963
