~VERSION INFORMATION
 VERS.                2.0:   CWLS LOG ASCII STANDARD - VERSION 2.0
 WRAP.                 NO:   ONE LINE PER DEPTH STEP
~WELL INFORMATION
#MNEM.UNIT      DATA TYPE    INFORMATION
#----------   ------------   ------------------------------
 STRT.F           38.0000:   START DEPTH
 STOP.F          637.0000:   STOP DEPTH
 STEP.F            0.5000:   STEP LENGTH
 NULL.          -999.2500:   NO VALUE
 COMP. FENIX & SCISSON INC:   COMPANY
 WELL.    NPR ##3 57-S-34:   WELL
 FLD .             TEAPOT:   FIELD
 LOC .      S34 T39N R78W:   LOCATION
 CNTY.            NATRONA:   COUNTY
 STAT.            WYOMING:   STATE
 CTRY. UNITED STATES OF AMERICA:   COUNTRY
 SRVC.              Welex:   SERVICE COMPANY
 DATE.        12-MAR-1977:   LOGDATE
 API .       490251030600:   API NUMBER
~CURVE INFORMATION
#MNEM.UNIT       API CODE    CURVE DESCRIPTION
#----------   ------------   ------------------------------
 DEPT.F                  :   
 SPR .MV     07 010 01 00:   SPONTANEOUS POTENTIAL
 ILM .OHMM   07 120 44 00:   INDUCTION LOG MEDIUM
 ILD .OHMM   07 120 46 00:   INDUCTION LOG DEEP
 SGRD.OHMM   07 221 05 00:   SHALLOW SHORT GUARD RESISTIVITY
 CALD.IN     45 280 60 00:   CALIPER FROM DENSITY LOG
 GRD .GAPI   45 310 01 00:   GAMMA RAY FROM DENSITY LOG
 CORR.G/C3   45 356 01 00:   DENSITY CORRECTION
 DPHI.DEC    45 890 12 00:   DENSITY POROSITY SANDSTONE
 RHOB.G/C3   45 350 01 00:   BULK DENSITY
~PARAMETER INFORMATION
#MNEM.UNIT          VALUE    DESCRIPTION
#----------   ------------   ------------------------------
 PD  .                 GL:   PERMANENT DATUM
 EPD .F              5107:   ELEVATION PERMANENT DATUM
 LMF .                 GL:   LOG MEASURED FROM
 DMF .                 GL:   DRILLING MEASURED FROM
 EGL .F              5107:   GROUND LEVEL
 DATE.          3-12-1977:   RUN DATE
 RUN .                  1:   RUN NUMBER
 DD  .F               650:   DEPTH DRILLER
 DL  .F               637:   DEPTH LOGGER
 BLI .F               636:   BOTTOM LOG INTERVAL
 TLI .F                46:   TOP LOG INTERVAL
 CS  .IN            8.625:   CASING SIZE
 CBD .F                45:   CASING BOTTOM DRILLER
 CBL .F                46:   CASING BOTTOM LOGGER
 BS  .IN            7.875:   BIT SIZE
 BSD .F               650:   BIT SIZE AT DEPTH
 DFT .            KCL MUD:   DRILLING FLUID TYPE
 DFD .                8.9:   DRILLING FLUID DENSITY
 DFV .                 35:   DRILLING FLUID VISCOSITY
 MSS .            MUD PIT:   MUD SAMPLE SOURCE
 RMS .OHMM            .53:   RESISTIVITY MUD SAMPLE
 MST .F                68:   MUD SAMPLE TEMPERATURE
 RMF .OHMM            .41:   RESISTIVITY MUD FILTRATE SAMPLE
 MFST.F                69:   MUD FILTRATE SAMPLE TEMPERATURE
 RMC .OHMM            .62:   RESISTIVITY MUD CAKE
 MCST.F                65:   MUD CAKE SAMPLE TEMPERATURE
 MFSS.           MEASURED:   MUD FILTRATE SAMPLE SOURCE
 MCSS.           MEASURED:   MUD CAKE SAMPLE SOURCE
 RMB .OHMM            .60:   RESISTIVITY MUD AT BHT
 BHT .F                60:   BOTTOM HOLE TEMPERATURE
 TCS .HRS               1:   TIME CURCULATED STOPPED
 MRT .F                60:   MAXIMUM RECORDED TEMPERATURE
 LUN .               0716:   LOGGING UNIT NUMBER
 LUL .             VERNAL:   LOGGING UNIT LOCATION
 ENGI.        E. CALLAHAN:   RECORDING ENGINEER
 WITN.         STUEBUNGER:   WITNESSED BY
 CLNT.            A2DTECH:   CLIENT CODE
 ORIG.           5" PRINT:   ORIGIN OF DATA
 UWI .       490251030600:   UNIQUE WELL ID
 DICO. A2D Technologies, Inc.:   DIGITIZING COMPANY
~OTHER INFORMATION
~A   DEPT      SPR        ILM        ILD       SGRD       CALD        GRD       CORR       DPHI       RHOB   
# ...
  111.0000  -999.2500     6.8826     5.9926  -999.2500     8.0761   117.5105     0.0827     0.1091     2.4762
  111.5000  -999.2500     6.8334     5.9914  -999.2500     8.0601   114.2535     0.0837     0.0991     2.4815
  112.0000  -999.2500     6.8316     5.9902  -999.2500     8.0594   112.8541     0.0837     0.0922     2.4838
  112.5000  -999.2500     6.8298     5.9891  -999.2500     8.0588   112.0739     0.0882     0.0923     2.4876
  113.0000  -999.2500     6.8753     6.0295  -999.2500     8.0427   111.7581     0.0928     0.0917     2.4953
  113.5000  -999.2500     6.8803     6.0744  -999.2500     8.0266   111.9067     0.0974     0.0870     2.4992
  114.0000  -999.2500     6.9194     6.1535  1960.2104     8.0105   113.2937     0.1051     0.0812     2.5045
  114.5000  -999.2500     6.9171     6.2377  1958.7759     7.9944   117.0026     0.0988     0.0954     2.5006
  115.0000  -999.2500     6.8203     6.3237  1957.3414     7.9938   117.3076     0.0864     0.0985     2.4882
  115.5000  -999.2500     6.8185     6.4547  1955.9069     7.9777   112.6559     0.0739     0.1004     2.4735
  116.0000  -999.2500     6.8211     6.4982  1655.7087     7.9926   112.3416     0.0537     0.1023     2.4673
  116.5000  -999.2500     6.8718     6.5043    12.5555     7.9919   113.8818     0.0490     0.1005     2.4696
  117.0000  -999.2500     6.9558     6.5408    24.2153     7.9913   115.1140     0.0598     0.0995     2.4811
  117.5000  -999.2500     7.0022     6.5391    13.0856     7.9907   115.7286     0.0675     0.1098     2.4796
  118.0000  -999.2500     7.0489     6.5378    20.0886     7.9901   115.2564     0.0550     0.1080     2.4733
  118.5000  -999.2500     7.0466     6.4915    16.0098     8.0049   113.2378     0.0488     0.1126     2.4640
  119.0000  -999.2500     7.0931     6.5352    16.6652     8.0043   112.4592     0.0441     0.1167     2.4577
  119.5000  -999.2500     7.0912     6.6250    18.1056     8.0037   113.2254     0.0425     0.1189     2.4538
  120.0000  -999.2500     7.0405     6.6697    12.4632     8.0031   113.5303     0.0427     0.1186     2.4523
  120.5000   -24.9686     7.0386     6.6680    16.7773     8.0025   115.9994     0.0472     0.1130     2.4546
  121.0000   -27.3692     6.9883     6.6207    12.0378     8.0018   116.7672     0.0581     0.1081     2.4701
  121.5000   -27.9761     6.9384     6.5284    14.1120     8.0167   117.2253     0.0654     0.1025     2.4762
  122.0000   -27.6825     6.9846     6.4773    11.7557     8.0316   118.3027     0.0561     0.1112     2.4723
  122.5000   -27.2430     7.1780     6.3914     6.7329     8.0309   118.4529     0.0498     0.1141     2.4638
  123.0000   -25.6060     7.3772     6.3023     7.6248     8.0458   118.6015     0.0482     0.1143     2.4653
  123.5000   -21.8762     7.5824     6.2576    10.0535     8.0452   119.2129     0.0606     0.1111     2.4730
  124.0000   -21.4350     7.7923     6.2998    10.7726     8.0601   121.6835     0.0652     0.1007     2.4776
  124.5000   -22.7892     8.0086     6.2986    11.1508     8.0594   123.8460     0.0666     0.1014     2.4791
  125.0000   -23.0936     7.8961     6.4741    10.8457     8.0588   120.1231     0.0666     0.1014     2.4776
  125.5000   -20.8604     7.7320     6.6082    10.9202     8.0581   117.7949     0.0603     0.0958     2.4775
  126.0000   -22.8108     7.4675     6.7455    11.1484     8.0576   117.7887     0.0634     0.0980     2.4875
  126.5000   -31.0392     7.3631     6.8385    11.1477     8.0569   116.0797     0.0602     0.0974     2.4891
  127.0000   -34.3348     7.4635     6.9802    11.0701     8.0408   114.0611     0.0508     0.0981     2.4774
  127.5000   -37.6305     7.5133     7.0273    10.9931     8.0402   112.9713     0.0415     0.1126     2.4666
  128.0000   -29.8667     7.5634     6.9290    11.0686     8.0396   116.6802     0.0414     0.1179     2.4521
  128.5000   -20.1578     7.5609     6.8798    11.4571     8.0390   117.1400     0.0475     0.1214     2.4424
  129.0000    -4.1710     7.5589     6.8310    11.6966     8.0384   117.7514     0.0475     0.1239     2.4393
  129.5000     0.6069     7.3509     6.8296    11.3766     8.0377   118.3644     0.0490     0.1226     2.4417
  130.0000    -0.4484     7.1915     6.9234    10.6895     8.0371   117.8938     0.0505     0.1168     2.4610
  130.5000    -3.5964     7.1467     6.9701    10.1085     8.0210   117.7328     0.0520     0.1128     2.4657
  131.0000    -4.2015     7.2443     6.8252     9.6349     8.0049   120.6678     0.0472     0.1146     2.4594
  131.5000    -5.1055     7.2419     6.6376     9.5019     8.0043   121.2823     0.0425     0.1187     2.4501
  132.0000    -7.3549     7.1406     6.4551     9.2421     8.0037   117.2498     0.0409     0.1221     2.4415
  132.5000    -8.8568     7.0879     6.3212     9.0518     8.0187   115.8519     0.0471     0.1227     2.4399
  133.0000   -11.1061     6.8940     6.2331     8.9269     8.0024   118.0114     0.0578     0.1190     2.4507
  133.5000   -15.3004     6.8447     6.2315     8.8648     8.0018   119.3983     0.0655     0.1126     2.4693
  134.0000   -18.4466     6.8429     6.2739     8.8640     8.0012   119.7033     0.0716     0.1110     2.4724
  134.5000   -20.2475     6.9363     6.4039     8.8634     8.0006   119.5407     0.0762     0.1110     2.4715
  135.0000   -21.0021     6.9825     6.4474     8.9245     8.0000   118.1413     0.0715     0.1067     2.4723
  135.5000   -19.6640     7.1269     6.3572     9.1110     7.9838   117.0515     0.0622     0.1033     2.4723
  136.0000   -17.4290     7.3750     6.2208     9.3012     7.9832   118.2837     0.0544     0.0996     2.4714
  136.5000   -16.9877     7.5797     5.6491     9.5665     7.9826   116.2651     0.0497     0.1035     2.4707
  137.0000   -21.0326     7.5777     4.9866     9.6271     7.9665   115.9509     0.0465     0.1030     2.4746
  137.5000   -25.9725     7.5235     4.4630     9.5599     7.9659   117.6459     0.0495     0.0975     2.4817
  138.0000   -27.7734     7.3165     6.7587     9.4280     7.9653   116.5561     0.0541     0.0895     2.4954
  138.5000   -28.2272     7.2637     6.8515     9.2979     7.9647   115.7759     0.0525     0.0845     2.4999
  139.0000   -27.3393     7.3126     6.9510     9.2973     7.9485   115.1505     0.0478     0.0849     2.4999
  139.5000   -27.0475     7.5150     6.9924     9.2967     7.9480   115.2991     0.0510     0.0809     2.5006
  140.0000   -29.4481     7.6704     6.9907     9.4254     7.9474   115.7895     0.0603     0.0784     2.5153
  140.5000   -32.2954     7.8833     6.9893     9.6891     7.9622   116.8362     0.0693     0.0825     2.5076
  141.0000   -32.9004     8.0515     6.9879     9.9601     7.9615   116.3375     0.0630     0.0871     2.5013
  141.5000   -31.7118     8.1561     7.0350    10.3098     7.9766   116.2046     0.0599     0.0887     2.4997
  142.0000   -28.5800     8.1534     7.0825    10.3807     7.9758   117.3313     0.0629     0.0794     2.5121
  142.5000   -23.5052     8.1512     7.1302    10.3001     7.9752   118.6920     0.0706     0.0763     2.5190
  143.0000   -19.7770     8.0372     7.0793    10.0960     7.9900   119.2820     0.0721     0.0751     2.5190
  143.5000   -20.6810     7.9248     7.0291     9.9566     8.0049   118.8111     0.0643     0.0841     2.5151
  144.0000   -23.6777     7.8135     6.9792     9.6844     8.0043   117.3561     0.0611     0.0851     2.4980
  144.5000   -25.0302     7.7042     6.8345     9.5508     8.0191   117.5774     0.0688     0.0780     2.5143
  145.0000   -26.5321     7.6491     6.7857     9.2896     8.0185   117.8639     0.0858     0.0693     2.5305
  145.5000   -29.3797     7.5422     6.7375     9.0271     8.0179   116.9289     0.0764     0.0786     2.5227
  146.0000   -33.1253     7.5402     6.6436     8.7884     8.0329   119.2693     0.0701     0.0885     2.5028
  146.5000   -35.9725     7.5382     6.6423     8.6671     8.0321   120.0232     0.0639     0.0932     2.4901
  147.0000   -35.9797     7.5357     6.6410     8.6068     8.0316   119.9876     0.0623     0.1004     2.4870
