~VERSION INFORMATION
 VERS.                2.0:   CWLS LOG ASCII STANDARD - VERSION 2.0
 WRAP.                 NO:   ONE LINE PER DEPTH STEP
~WELL INFORMATION
#MNEM.UNIT      DATA TYPE    INFORMATION
#----------   ------------   ------------------------------
 STRT.F           19.5000:   START DEPTH
 STOP.F         1292.5000:   STOP DEPTH
 STEP.F            0.5000:   STEP LENGTH
 NULL.          -999.2500:   NO VALUE
 COMP. FENIX & SCISSON INC:   COMPANY
 WELL.  NPR-3 "SX" #74-14:   WELL
 FLD .             TEAPOT:   FIELD
 LOC .      S14 T38N R78W:   LOCATION
 CNTY.            NATRONA:   COUNTY
 STAT.            WYOMING:   STATE
 CTRY. UNITED STATES OF AMERICA:   COUNTRY
 SRVC.            Unknown:   SERVICE COMPANY
 DATE.        22-MAR-1978:   LOGDATE
 API .       490251060300:   API NUMBER
~CURVE INFORMATION
#MNEM.UNIT       API CODE    CURVE DESCRIPTION
#----------   ------------   ------------------------------
 DEPT.F                  :   
 SPR .MV     05 010 01 00:   SPONTANEOUS POTENTIAL
 SN  .OHMM   05 040 16 00:   SHORT NORMAL 16'
 ILD .OHMM   05 120 46 00:   INDUCTION LOG DEEP
 CALD.IN     45 280 60 00:   CALIPER
 GRD .GAPI   45 310 01 00:   GAMMA RAY FROM DENSITY LOG
 CORR.G/C3   45 356 01 00:   DENSITY CORRECTION
 RHOB.G/C3   45 350 01 00:   BULK DENSITY
 DPHI.DEC    45 890 12 00:   DENSITY POROSITY SANDSTONE
~PARAMETER INFORMATION
#MNEM.UNIT          VALUE    DESCRIPTION
#----------   ------------   ------------------------------
 PD  .                 GL:   PERMANENT DATUM
 EPD .F              5312:   ELEVATION PERMANENT DATUM
 LMF .                 KB:   LOG MEASURED FROM
 DMF .                 KB:   DRILLING MEASURED FROM
 EKB .F              5316:   KELLING BUSHING
 EGL .F              5312:   GROUND LEVEL
 DATE.          3-22-1978:   RUN DATE
 RUN .                  1:   RUN NUMBER
 DD  .F              1280:   DEPTH DRILLER
 DL  .F              1292:   DEPTH LOGGER
 BLI .F              1286:   BOTTOM LOG INTERVAL
 TLI .F                50:   TOP LOG INTERVAL
 CS  .IN            8.625:   CASING SIZE
 CBD .F                50:   CASING BOTTOM DRILLER
 CBL .F                50:   CASING BOTTOM LOGGER
 BS  .IN            7.875:   BIT SIZE
 BSD .F              1280:   BIT SIZE AT DEPTH
 DFT .                KCL:   DRILLING FLUID TYPE
 DFD .                8.6:   DRILLING FLUID DENSITY
 DFV .                 31:   DRILLING FLUID VISCOSITY
 DFPH.               10.5:   DRILLING FLUID PH
 DFL .               11.6:   DRILLING FLUID LOSS
 MSS .            MUD PIT:   MUD SAMPLE SOURCE
 RMS .OHMM            .38:   RESISTIVITY MUD SAMPLE
 MST .F                52:   MUD SAMPLE TEMPERATURE
 RMF .OHMM            .32:   RESISTIVITY MUD FILTRATE SAMPLE
 MFST.F                66:   MUD FILTRATE SAMPLE TEMPERATURE
 RMC .OHMM             .4:   RESISTIVITY MUD CAKE
 MCST.F                68:   MUD CAKE SAMPLE TEMPERATURE
 MFSS.           MEASURED:   MUD FILTRATE SAMPLE SOURCE
 RMB .OHMM            .24:   RESISTIVITY MUD AT BHT
 BHT .F                82:   BOTTOM HOLE TEMPERATURE
 TCS .HRS               4:   TIME CURCULATED STOPPED
 MRT .F                82:   MAXIMUM RECORDED TEMPERATURE
 LUN .               2958:   LOGGING UNIT NUMBER
 LUL .               CASP:   LOGGING UNIT LOCATION
 ENGI.            POINTER:   RECORDING ENGINEER
 WITN.           MCGINLEY:   WITNESSED BY
 CLNT.            A2DTECH:   CLIENT CODE
 ORIG.        2" 5" PRINT:   ORIGIN OF DATA
 UWI .       490251060300:   UNIQUE WELL ID
 DICO. A2D Technologies, Inc.:   DIGITIZING COMPANY
~OTHER INFORMATION
~A   DEPT      SPR         SN        ILD       CALD         GRD      CORR       RHOB       DPHI   
# ...
 1234.5000   -41.3467     9.8977     9.7764     8.0423    91.7336     0.0265     2.4766     0.0931
 1235.0000   -41.5568     9.9772     9.6705     8.0427    86.6571     0.0219     2.4709     0.0960
 1235.5000   -41.7394    10.0982     9.5649     8.0431    90.3340     0.0173     2.4663     0.0979
 1236.0000   -41.7333    10.0679     9.4767     8.0436    94.5692     0.0127     2.4659     0.0991
 1236.5000   -41.7316     9.9493     9.4207     8.0440    97.4499     0.0082     2.4641     0.1003
 1237.0000   -41.7301     9.8321     9.3620     8.0444   101.3481     0.0094     2.4599     0.0998
 1237.5000   -41.7429     9.7163     9.3034     8.0448   103.6288     0.0110     2.4556     0.0985
 1238.0000   -42.0765     9.6020     9.2450     8.0452   100.5080     0.0138     2.4606     0.0971
 1238.5000   -43.3138     9.4890     9.1869     8.0456    98.1978     0.0197     2.4673     0.0970
 1239.0000   -43.4501     9.3774     9.1292     8.0461    95.8434     0.0200     2.4666     0.0986
 1239.5000   -43.5455     9.2671     9.0697     8.0465    93.7548     0.0200     2.4655     0.0977
 1240.0000   -43.0269     9.1581     8.9298     8.0469    94.3696     0.0200     2.4646     0.0967
 1240.5000   -43.0845     9.0508     8.7731     8.0473    95.2986     0.0200     2.4650     0.0962
 1241.0000   -43.3190     8.9483     8.6191     8.0477    95.4283     0.0200     2.4655     0.0972
 1241.5000   -43.3277     8.8474     8.4671     8.0482    96.0956     0.0200     2.4644     0.0982
 1242.0000   -43.3269     8.7290     8.3176     8.0486    96.9314     0.0199     2.4628     0.1004
 1242.5000   -43.3268     8.6136     8.1709     8.0490    99.7898     0.0221     2.4609     0.1030
 1243.0000   -43.3267     8.5291     8.1028     8.0494   101.5621     0.0254     2.4578     0.1012
 1243.5000   -43.3218     8.4454     8.0395     8.0498   103.1002     0.0287     2.4605     0.0994
 1244.0000   -43.5405     8.3625     7.9714     8.0502   101.7509     0.0320     2.4625     0.0977
 1244.5000   -43.8403     8.2805     7.9039     8.0506   100.0108     0.0353     2.4645     0.0981
 1245.0000   -44.1186     7.9456     7.6513     8.0511   110.5167     0.0386     2.4636     0.1009
 1245.5000   -44.3250     7.5077     7.1805     8.0515   124.0184     0.0384     2.4625     0.1036
 1246.0000   -44.5567     7.0938     6.8638     8.0519   130.8210     0.0360     2.4564     0.1073
 1246.5000   -44.7909     6.6999     6.0233     8.0523   118.9172     0.0320     2.4503     0.1154
 1247.0000   -45.0259     6.2509     5.3022     8.0527   106.2747     0.0204     2.4381     0.1235
 1247.5000   -45.2686     5.8319     5.1575     8.0532   101.4776     0.0084     2.4125     0.1316
 1248.0000   -45.5137     5.3513     5.1102     8.0536    99.1177     0.0161     2.4014     0.1369
 1248.5000   -45.3144     5.4378     5.3879     8.0540    97.2097     0.0294     2.4146     0.1098
 1249.0000   -45.8507     5.8162     5.6379     8.0544    99.5480     0.0304     2.4472     0.0854
 1249.5000   -46.5546     6.4946     5.9401     8.0548   100.4203     0.0308     2.4862     0.0860
 1250.0000   -46.7975     7.2520     6.3495     8.0552    99.6488     0.0312     2.4850     0.0866
 1250.5000   -46.3819     8.0285     6.7872     8.0557    97.7008     0.0316     2.4836     0.0870
 1251.0000   -45.9930     8.2940     7.2553     8.0561    99.9014     0.0319     2.4844     0.0870
 1251.5000   -45.5049     8.5155     7.7551     8.0565   101.2438     0.0301     2.4876     0.0822
 1252.0000   -45.0263     8.7433     8.2355     8.0569   101.9770     0.0283     2.4913     0.0813
 1252.5000   -44.6138     8.9584     8.7258     8.0573   102.6763     0.0266     2.4939     0.0802
 1253.0000   -44.2258     9.1484     8.7231     8.0577   103.0043     0.0249     2.4943     0.0798
 1253.5000   -43.8274     9.3425     8.8785     8.0582   103.2506     0.0244     2.4940     0.0811
 1254.0000   -43.6812     9.5292     8.9789     8.0586   104.7795     0.0253     2.4936     0.0822
 1254.5000   -43.6136     9.6939     9.0508     8.0590   106.9903     0.0263     2.4939     0.0811
 1255.0000   -43.5495     9.8614     9.2656     8.0595   111.6710     0.0281     2.4944     0.0788
 1255.5000   -43.4851    10.0319     9.4678     8.0626   110.7740     0.0366     2.4948     0.0745
 1256.0000   -43.4204    10.2031     9.6745     8.0658   106.6029     0.0413     2.5074     0.0673
 1256.5000   -43.3558    10.3032     9.8857     8.0690   101.7663     0.0397     2.5160     0.0662
 1257.0000   -43.2910    10.4031    10.1088     8.0722   101.5918     0.0334     2.5151     0.0679
 1257.5000   -43.2265    10.5039    10.1970     8.0754   101.5894     0.0275     2.5143     0.0747
 1258.0000   -43.1624    10.6056    10.2896     8.0786   101.6009     0.0258     2.5044     0.0794
 1258.5000   -43.1351    10.7084    10.3828     8.0818   100.9897     0.0238     2.4929     0.0801
 1259.0000   -43.1660    10.8071    10.4766     8.0850   100.2219     0.0166     2.4906     0.0821
 1259.5000   -43.1961    10.8932    10.5713     8.0882    99.4660     0.0097     2.4884     0.0866
 1260.0000   -43.2265    10.9801    10.6669     8.0914    99.8377     0.0099     2.4814     0.0935
 1260.5000   -43.2569    11.0676    10.7671     8.0946   105.6252     0.0101     2.4682     0.0998
 1261.0000   -43.2874    11.0993    10.8877     8.0977   107.8679     0.0153     2.4647     0.0998
 1261.5000   -43.3177    11.1220    10.8873     8.1009   108.1490     0.0211     2.4617     0.0969
 1262.0000   -43.3246    11.1448    10.8799     8.1041   101.5956     0.0268     2.4677     0.0930
 1262.5000   -43.1301    11.1676    10.7750     8.1073    96.7401     0.0318     2.4745     0.0894
 1263.0000   -42.7041    11.1904    10.7848     8.1105    97.0133     0.0300     2.4805     0.0891
 1263.5000   -42.2837    11.2133    10.7620     8.1137    98.0216     0.0282     2.4805     0.0911
 1264.0000   -41.9008    11.2363    10.7517     8.1169    95.6554     0.0329     2.4785     0.0935
 1264.5000   -41.7979    11.2592    10.7407     8.1201    93.8908     0.0359     2.4742     0.0896
 1265.0000   -41.6845    11.2920    10.7297     8.1233    96.1940     0.0360     2.4785     0.0850
 1265.5000   -41.5642    11.2608    10.7187     8.1264    98.8888     0.0382     2.4876     0.0846
 1266.0000   -41.6112    11.2066    10.7078     8.1296    98.8062     0.0390     2.4888     0.0817
 1266.5000   -41.7203    11.1526    10.6968     8.1328    99.1364     0.0346     2.4972     0.0774
 1267.0000   -41.8314    11.0986    10.6860     8.1360    98.3941     0.0332     2.4964     0.0781
 1267.5000   -41.9426    11.0450    10.6362     8.1392    94.2103     0.0323     2.4940     0.0797
 1268.0000   -42.0535    10.9916    10.5814     8.1424    95.6670     0.0312     2.4915     0.0834
 1268.5000   -42.1639    10.9385    10.5268     8.1456    96.6331     0.0300     2.4896     0.0827
 1269.0000   -42.2744    10.8856    10.4726     8.1488    96.3057     0.0299     2.4903     0.0822
 1269.5000   -42.3089    10.8330    10.4187     8.1520    98.7626     0.0299     2.4897     0.0839
 1270.0000   -42.2669    10.7806    10.3650     8.1552    99.9614     0.0299     2.4875     0.0829
 1270.5000   -42.2251    10.7285    10.3117     8.1582    96.7410     0.0299     2.4877     0.0814
 1271.0000   -42.1854    10.6767    10.2586     8.1536    95.4548     0.0299     2.4909     0.0819
 1271.5000   -42.1431    10.6251    10.2057     8.1486    90.7056     0.0299     2.4905     0.0825
 1272.0000   -42.4695    10.5684    10.1532     8.1436    96.5676     0.0299     2.4892     0.0831
 1272.5000   -43.0459    10.4963    10.1009     8.1387   103.2202     0.0299     2.4885     0.0837
 1273.0000   -43.3240    10.4247    10.0489     8.1337   102.7869     0.0299     2.4885     0.0843
 1273.5000   -43.3279    10.3536     9.9751     8.1287   103.0143     0.0299     2.4881     0.0848
 1274.0000   -43.3144    10.2829     9.8666     8.1237   106.4359     0.0300     2.4875     0.0854
 1274.5000   -42.9874    10.2128     9.7592     8.1188   109.4680     0.0329     2.4852     0.0859
