~VERSION INFORMATION
 VERS.                2.0:   CWLS LOG ASCII STANDARD - VERSION 2.0
 WRAP.                 NO:   ONE LINE PER DEPTH STEP
~WELL INFORMATION
#MNEM.UNIT      DATA TYPE    INFORMATION
#----------   ------------   ------------------------------
 STRT.F           84.0000:   START DEPTH
 STOP.F          860.0000:   STOP DEPTH
 STEP.F            0.5000:   STEP LENGTH
 NULL.          -999.2500:   NO VALUE
 COMP.               NAVY:   COMPANY
 WELL. 52-S-11  NPR #3 #52S-11:   WELL
 FLD .        TEAPOT DOME:   FIELD
 LOC .      S11 T38N R78W:   LOCATION
 CNTY.            NATRONA:   COUNTY
 STAT.            WYOMING:   STATE
 CTRY. UNITED STATES OF AMERICA:   COUNTRY
 SRVC.       Schlumberger:   SERVICE COMPANY
 DATE.        01-JUL-1962:   LOGDATE
 API .       490250637300:   API NUMBER
~CURVE INFORMATION
#MNEM.UNIT       API CODE    CURVE DESCRIPTION
#----------   ------------   ------------------------------
 DEPT.F                  :   
 ASN .OHMM   05 041 16 00:   AMPLIFIED SHORT NORMAL 16"
 CILD.MMHO   05 110 46 00:   CONDUCTIVITY INDUCTION LOG DEEP
 ILD .OHMM   05 120 46 00:   INDUCTION LOG DEEP
 SPR .MV     05 010 01 00:   SPONTANEOUS POTENTIAL FROM RES.
 GR  .GAPI   30 310 01 00:   GAMMA RAY
~PARAMETER INFORMATION
#MNEM.UNIT          VALUE    DESCRIPTION
#----------   ------------   ------------------------------
 LMF .                 KB:   LOG MEASURED FROM
 DMF .                 KB:   DRILLING MEASURED FROM
 EKB .F              5191:   KELLING BUSHING
 EGL .F              5186:   GROUND LEVEL
 DATE.           7-1-1962:   RUN DATE
 RUN .                  1:   RUN NUMBER
 DD  .F               860:   DEPTH DRILLER
 DL  .F               861:   DEPTH LOGGER
 BLI .F               860:   BOTTOM LOG INTERVAL
 TLI .F                91:   TOP LOG INTERVAL
 CBD .F                10:   CASING BOTTOM DRILLER
 BS  .IN             6.75:   BIT SIZE
 BSD .F               860:   BIT SIZE AT DEPTH
 DFT .            GEL-OIL:   DRILLING FLUID TYPE
 DFD .               10.2:   DRILLING FLUID DENSITY
 DFV .                 45:   DRILLING FLUID VISCOSITY
 DFL .                  4:   DRILLING FLUID LOSS
 MSS .           FLOWLINE:   MUD SAMPLE SOURCE
 RMS .OHMM           5.54:   RESISTIVITY MUD SAMPLE
 MST .F                75:   MUD SAMPLE TEMPERATURE
 RMB .OHMM           5.19:   RESISTIVITY MUD AT BHT
 BHT .F                80:   BOTTOM HOLE TEMPERATURE
 TCS .HRS               1:   TIME CURCULATED STOPPED
 MRT .F                80:   MAXIMUM RECORDED TEMPERATURE
 LUN .               2503:   LOGGING UNIT NUMBER
 LUL .              CSPR.:   LOGGING UNIT LOCATION
 ENGI.             KNOBEL:   RECORDING ENGINEER
 WITN.          JORGENSEN:   WITNESSED BY
 CLNT.            A2DTECH:   CLIENT CODE
 ORIG.      2" & 5" PRINT:   ORIGIN OF DATA
 UWI .       490250637300:   UNIQUE WELL ID
 DICO. A2D Technologies, Inc.:   DIGITIZING COMPANY
~OTHER INFORMATION
~A   DEPT      ASN       CILD        ILD        SPR         GR   
# ...
  267.0000     3.9764   364.5777     2.9950   -27.0366  -999.2500
  267.5000     3.5495   389.5393     2.6203   -26.7390  -999.2500
  268.0000     3.3398   424.5725     2.4634   -26.2877  -999.2500
  268.5000     3.4225   431.9096     2.4581   -25.6839  -999.2500
  269.0000     3.5829   428.1796     2.5301   -25.2326  -999.2500
  269.5000     3.6431   423.6851     2.6753   -25.3910  -999.2500
  270.0000     3.4151   410.1270     2.9735   -26.0068  -999.2500
  270.5000     3.2932   382.9738     3.4235   -26.3177  -999.2500
  271.0000     3.5957   347.5125     3.8735   -26.6286  -999.2500
  271.5000     4.3527   278.8185     4.2476   -26.7870  -999.2500
  272.0000     4.6399   250.1548     4.5459   -26.7930  -999.2500
  272.5000     4.7152   225.2674     4.6937   -26.9514  -999.2500
  273.0000     4.6842   208.6883     4.6871   -26.9574  -999.2500
  273.5000     4.7896   201.9278     4.6819   -26.9634  -999.2500
  274.0000     4.8650   201.2085     4.6766   -26.9696  -999.2500
  274.5000     4.7581   208.0444     4.6714   -27.1281  -999.2500
  275.0000     4.8485   212.6133     4.6662   -27.1341  -999.2500
  275.5000     4.9085   214.9169     4.6608   -27.1414  -999.2500
  276.0000     4.8624   214.1982     4.6556   -27.1474  -999.2500
  276.5000     4.7709   214.9999     4.6502   -27.1534  -999.2500
  277.0000     4.6941   220.3240     4.5680   -27.0055  -999.2500
  277.5000     4.6005   227.1588     4.4869   -27.0130  -999.2500
  278.0000     4.4944   247.5887     4.2540   -27.0190  -999.2500
  278.5000     4.3841   258.9551     3.9453   -26.8710  -999.2500
  279.0000     4.2223   280.8956     3.5607   -26.7246  -999.2500
  279.5000     4.0399   304.3466     3.2520   -26.7321  -999.2500
  280.0000     3.8423   331.5741     3.0950   -26.5842  -999.2500
  280.5000     3.7205   355.0251     3.0139   -26.1344  -999.2500
  281.0000     3.6442   361.8598     3.0086   -25.8355  -999.2500
  281.5000     3.6436   356.6100     3.0034   -25.3842  -999.2500
  282.0000     3.8854   345.3178     3.2258   -25.2377  -999.2500
  282.5000     3.9607   332.5151     3.3723   -25.3964  -999.2500
  283.0000     3.8690   316.3390     3.5188   -25.7348  -999.2500
  283.5000     3.9139   291.6540     3.7412   -26.4767  -999.2500
  284.0000     4.3678   258.6177     4.1153   -27.2449  -999.2500
  284.5000     4.7763   228.4434     4.6421   -27.7083  -999.2500
  285.0000     4.9121   204.3113     4.9444   -27.7143  -999.2500
  285.5000     5.0630   190.7533     5.1707   -27.7203  -999.2500
  286.0000     5.1836   183.9929     5.4729   -27.5723  -999.2500
  286.5000     5.2588   181.7641     5.6811   -27.5798  -999.2500
  287.0000     5.2733   181.8013     5.7530   -27.4319  -999.2500
  287.5000     5.2576   182.5937     5.6706   -27.2870  -999.2500
  288.0000     5.2550   185.6520     5.3619   -27.2930  -999.2500
  288.5000     5.2081   193.2420     4.9773   -27.1463  -999.2500
  289.0000     5.1193   209.8955     4.5927   -27.1525  -999.2500
  289.5000     4.9066   231.0807     4.2081   -27.0061  -999.2500
  290.0000     4.6332   268.1269     3.8235   -26.8496  -999.2500
  290.5000     4.3902   292.8383     3.5147   -26.5608  -999.2500
  291.0000     3.9805   322.8342     3.2819   -26.2634  -999.2500
  291.5000     3.6920   349.8186     3.1249   -26.2694  -999.2500
  292.0000     3.5855   359.6745     3.0438   -26.1215  -999.2500
  292.5000     3.7515   363.4881     3.0385   -25.9750  -999.2500
  293.0000     3.6902   363.5252     3.1093   -25.9825  -999.2500
  293.5000     3.5684   359.7859     3.3315   -25.6822  -999.2500
  294.0000     3.6133   347.7385     3.4800   -25.5357  -999.2500
  294.5000     3.8400   311.5219     3.7125   -25.5432  -999.2500
  295.0000     4.0818   282.8581     4.1603   -25.5492  -999.2500
  295.5000     4.2782   249.6626     4.3108   -26.0126  -999.2500
  296.0000     4.4291   224.0200     4.5193   -26.1710  -999.2500
  296.5000     4.6558   217.2596     4.6658   -26.4819  -999.2500
  297.0000     4.7930   213.5202     4.8110   -26.7928  -999.2500
  297.5000     4.9146   212.0468     4.8829   -27.1036  -999.2500
  298.0000     5.0044   211.3287     4.9522   -27.1097  -999.2500
  298.5000     5.0625   210.6105     4.9470   -27.1158  -999.2500
  299.0000     5.0314   210.6570     4.9418   -26.9692  -999.2500
  299.5000     4.9399   210.6941     4.8606   -26.6718  -999.2500
  300.0000     4.7912   212.6141     4.7367   -26.5174  -999.2500
  300.5000     4.6468   217.5709     4.4678   -26.4380  -999.2500
  301.0000     4.5025   228.9447     4.1558   -26.3892  -999.2500
  301.5000     4.3581   240.3186     3.8574   -26.4005  -999.2500
  302.0000     4.2096   262.2664     3.7019   -26.2548  -999.2500
  302.5000     4.0878   284.2764     3.5464   -26.1114  -999.2500
  303.0000     3.9509   301.0736     3.3151   -25.5129  -999.2500
  303.5000     3.8594   303.9426     3.3113   -25.2148  -999.2500
  304.0000     3.9042   303.2301     3.3076   -25.2261  -999.2500
  304.5000     3.9339   308.5728     3.3038   -25.5400  -999.2500
  305.0000     3.7667   316.9255     3.3001   -25.7014  -999.2500
  305.5000     3.5519   328.2993     3.3732   -25.7105  -999.2500
  306.0000     3.4927   337.4073     3.3685   -25.7215  -999.2500
  306.5000     3.6284   340.4730     3.2889   -25.8811  -999.2500
  307.0000     3.5369   343.5387     3.0576   -25.7375  -999.2500
  307.5000     3.4605   361.7101     2.8262   -25.7469  -999.2500
  308.0000     3.3842   381.3921     2.6697   -25.6031  -999.2500
  308.5000     3.2926   413.1587     2.5093   -25.6144  -999.2500
  309.0000     3.1405   445.6806     2.3597   -25.4687  -999.2500
  309.5000     3.0490   457.8097     2.4319   -25.3253  -999.2500
  310.0000     3.0183   464.6518     2.5040   -25.3366  -999.2500
  310.5000     3.0630   447.4610     2.6511   -25.3456  -999.2500
  311.0000     3.2291   418.6795     2.7991   -25.3546  -999.2500
  311.5000     3.3497   390.7784     2.9481   -25.5161  -999.2500
  312.0000     3.2885   368.9196     3.1710   -25.8300  -999.2500
  312.5000     3.4091   333.4657     3.3949   -26.1439  -999.2500
  313.0000     3.7176   305.5646     3.5439   -26.4578  -999.2500
  313.5000     4.0069   270.1107     3.8427   -26.7717  -999.2500
  314.0000     4.2102   248.2519     3.9907   -27.0855  -999.2500
  314.5000     4.3308   235.4566     4.0630   -27.2470  -999.2500
  315.0000     4.3758   229.4588     4.1351   -27.4086  -999.2500
  315.5000     4.4205   227.9910     4.1312   -27.5701  -999.2500
  316.0000     4.4352   228.0373     4.1275   -27.6016  -999.2500
  316.5000     4.4345   232.6136     4.0478   -27.7426  -999.2500
  317.0000     4.3430   241.0369     4.0440   -27.7517  -999.2500
  317.5000     4.1909   255.3996     3.9636   -27.6082  -999.2500
  318.0000     3.9781   282.6072     3.7323   -27.6173  -999.2500
  318.5000     3.7806   304.5551     3.4250   -27.4716  -999.2500
  319.0000     3.6436   331.0347     3.0419   -27.1780  -999.2500
  319.5000     3.5218   367.3330     2.8106   -27.0323  -999.2500
  320.0000     3.4303   388.5256     2.7310   -26.5863  -999.2500
  320.5000     3.3539   384.7937     2.8031   -26.2904  -999.2500
  321.0000     3.4675   371.9984     2.8762   -26.1447  -999.2500
  321.5000     3.7162   356.9371     3.1750   -26.1560  -999.2500
  322.0000     3.7613   338.0995     3.3989   -26.3175  -999.2500
  322.5000     3.7454   314.7301     3.6986   -26.6314  -999.2500
  323.0000     3.8660   289.0949     4.0743   -27.0977  -999.2500
  323.5000     4.3048   263.4597     4.2982   -27.4116  -999.2500
  324.0000     4.7436   237.6222     4.5979   -27.7256  -999.2500
  324.5000     4.8945   216.4295     4.7536   -27.9038  -999.2500
  325.0000     5.0303   204.4307     4.8306   -28.2266  -999.2500
  325.5000     5.2115   198.6943     5.0410   -28.5170  -999.2500
  326.0000     5.3321   195.7177     5.1890   -28.6785  -999.2500
  326.5000     5.3769   192.7411     5.4129   -28.6875  -999.2500
  327.0000     5.4673   189.0092     5.6368   -28.8489  -999.2500
  327.5000     5.6636   184.5220     5.7857   -28.8579  -999.2500
