~VERSION INFORMATION
 VERS.                2.0:   CWLS LOG ASCII STANDARD - VERSION 2.0
 WRAP.                 NO:   ONE LINE PER DEPTH STEP
~WELL INFORMATION
#MNEM.UNIT      DATA TYPE    INFORMATION
#----------   ------------   ------------------------------
 STRT.F           89.0000:   START DEPTH
 STOP.F         1360.0000:   STOP DEPTH
 STEP.F            0.5000:   STEP LENGTH
 NULL.          -999.2500:   NO VALUE
 COMP.           U S NAVY:   COMPANY
 WELL.     NPR 3 #85 S-11:   WELL
 FLD .             TEAPOT:   FIELD
 LOC .      S11 T38N R78W:   LOCATION
 CNTY.            NATRONA:   COUNTY
 STAT.            WYOMING:   STATE
 CTRY. UNITED STATES OF AMERICA:   COUNTRY
 SRVC.       Schlumberger:   SERVICE COMPANY
 DATE.        15-AUG-1966:   LOGDATE
 API .       490250959000:   API NUMBER
~CURVE INFORMATION
#MNEM.UNIT       API CODE    CURVE DESCRIPTION
#----------   ------------   ------------------------------
 DEPT.F                  :   
 SPR .MV     05 010 01 00:   SPONTANEOUS POTENTIAL FROM RES.
 CILD.MMHO   05 110 46 00:   CONDUCTIVITY INDUCTION LOG DEEP
 ASN .OHMM   05 041 16 00:   AMPLIFIED SHORT NORMAL 16"
 ILD .OHMM   05 120 46 00:   INDUCTION LOG DEEP
 GR  .GAPI   30 310 01 00:   GAMMA RAY
~PARAMETER INFORMATION
#MNEM.UNIT          VALUE    DESCRIPTION
#----------   ------------   ------------------------------
 PD  .                 GL:   PERMANENT DATUM
 EPD .F              5288:   ELEVATION PERMANENT DATUM
 LMF .                 KB:   LOG MEASURED FROM
 DAPD.F                 5:   FEET ABOVE PERMANENT DATUM
 DMF .                 KB:   DRILLING MEASURED FROM
 EKB .F            5286.9:   KELLING BUSHING
 EGL .F            5281.9:   GROUND LEVEL
 DATE.        15-AUG-1966:   RUN DATE
 RUN .                  1:   RUN NUMBER
 DD  .F              1360:   DEPTH DRILLER
 DL  .F              1361:   DEPTH LOGGER
 BLI .F              1360:   BOTTOM LOG INTERVAL
 TLI .F                88:   TOP LOG INTERVAL
 CS  .IN            8.625:   CASING SIZE
 CBD .F                12:   CASING BOTTOM DRILLER
 BS  .IN            7.875:   BIT SIZE
 BSD .F              1360:   BIT SIZE AT DEPTH
 DFT .          CHEM- GEL:   DRILLING FLUID TYPE
 DFD .                9.6:   DRILLING FLUID DENSITY
 DFV .                 60:   DRILLING FLUID VISCOSITY
 DFPH.                7.2:   DRILLING FLUID PH
 DFL .                6.4:   DRILLING FLUID LOSS
 MSS .         CIRCULATED:   MUD SAMPLE SOURCE
 RMS .OHMM           1.41:   RESISTIVITY MUD SAMPLE
 MST .F                72:   MUD SAMPLE TEMPERATURE
 RMF .OHMM           0.75:   RESISTIVITY MUD FILTRATE SAMPLE
 MFST.F                73:   MUD FILTRATE SAMPLE TEMPERATURE
 MFSS.               MEAS:   MUD FILTRATE SAMPLE SOURCE
 TCS .HRS             2.5:   TIME CURCULATED STOPPED
 LUN .               3527:   LOGGING UNIT NUMBER
 LUL .              CSPR.:   LOGGING UNIT LOCATION
 ENGI.               HAUG:   RECORDING ENGINEER
 WITN.             TUTTLE:   WITNESSED BY
 CLNT.            A2DTECH:   CLIENT CODE
 ORIG.       2", 5" PRINT:   ORIGIN OF DATA
 UWI .       490250959000:   UNIQUE WELL ID
 DICO. A2D Technologies, Inc.:   DIGITIZING COMPANY
~OTHER INFORMATION
~A   DEPT      SPR       CILD          ASN        ILD       GR   
# ...
 1126.0000   -27.3327   190.3903     7.6186     5.1927    87.8063
 1126.5000   -27.3493   182.9716     7.6930     5.3418    91.1011
 1127.0000   -27.3626   178.5373     7.7524     5.3403    93.7665
 1127.5000   -27.3760   177.0895     7.8569     5.4141    91.0824
 1128.0000   -27.3893   178.6269     7.9623     5.4127    86.6677
 1128.5000   -27.4026   178.5717     8.0509     5.4111    88.5910
 1129.0000   -27.4160   175.7291     8.0673     5.4849    94.8306
 1129.5000   -27.4297   172.7991     8.2146     5.4834    90.9947
 1130.0000   -27.4459   172.8432     8.3794     5.4819    86.6281
 1130.5000   -27.4593   172.8872     8.4239     5.4804    88.0348
 1131.0000   -27.4726   174.4238     8.4380     5.4789    87.5535
 1131.5000   -27.4859   176.7066     8.4522     5.4774    88.9602
 1132.0000   -27.4992   179.7357     8.4360     5.4759    93.6710
 1132.5000   -27.5126   182.0186     8.4050     5.4744    93.8214
 1133.0000   -27.5259   181.3054     8.3439     5.3973    90.1910
 1133.5000   -27.5392   180.6031     8.2526     5.3958    92.8564
 1134.0000   -27.5525   179.9104     8.2066     5.3943    88.1269
 1134.5000   -27.5659   179.2090     8.2057     5.3928    89.2213
 1135.0000   -27.5794   177.7612     8.2198     5.4670    89.9964
 1135.5000   -27.5930   176.2638     8.2340     5.4651    94.2351
 1136.0000   -27.4579   174.0201     8.2331     5.5393    98.3166
 1136.5000   -27.4712   173.4157     8.2473     5.5374    95.7899
 1137.0000   -27.3299   175.7096     8.2448     5.4606    88.7004
 1137.5000   -27.1920   180.9775     8.1978     5.3838    84.7576
 1138.0000   -27.2086   187.7379     8.0637     5.2318    90.8050
 1138.5000   -27.0673   200.8625     7.8821     5.0797   100.0672
 1139.0000   -27.0840   212.4566     7.6553     4.9276    98.4298
 1139.5000   -27.0973   212.5006     7.3984     4.8508    91.6409
 1140.0000   -27.1107   212.5447     6.8854     4.8493    96.8237
 1140.5000   -27.1241   212.5887     6.6134     4.7725    94.2970
 1141.0000   -27.1377   215.6178     6.4770     4.5451    88.9382
 1141.5000   -26.9994   221.6320     6.4312     4.5436    86.8835
 1142.0000   -26.8647   227.6462     6.7463     4.3915    90.3356
 1142.5000   -26.8781   235.8992     6.8509     4.0888    87.9686
 1143.0000   -26.6869   253.1074     6.8650     3.7861    92.6770
 1143.5000   -26.7566   265.0918     6.6081     3.5587    95.8145
 1144.0000   -26.8162   284.5388     6.2157     3.4819    98.0102
 1144.5000   -26.8774   281.5977     5.4761     3.4804    90.1317
 1145.0000   -26.7386   279.4030     5.1716     3.4036    84.6156
 1145.5000   -26.7505   278.7007     5.0684     3.4021    82.6724
 1146.0000   -26.6077   277.9007     5.1155     3.3253    87.1143
 1146.5000   -26.4704   269.8446     5.3827     3.4066    93.3985
 1147.0000   -26.4828   243.7693     6.3004     3.8694   100.3120
 1147.5000   -26.6465   223.6640     6.7965     4.6260    97.2401
 1148.0000   -26.6586   201.3200     7.1270     5.0509    93.2129
 1148.5000   -26.6707   186.4387     7.2918     5.2000    98.1687
 1149.0000   -26.6853   179.7663     7.4113     5.2742   104.2082
 1149.5000   -26.6972   186.5268     7.5008     5.1970    99.4764
 1150.0000   -26.5544   202.2425     7.5604     4.9696    97.2080
 1150.5000   -26.5693   212.8678     7.3755     4.5288    92.8504
 1151.0000   -26.7330   229.9275     7.2150     3.9817    86.5475
 1151.5000   -26.7449   248.6211     6.8920     3.8266    86.6955
 1152.0000   -26.6021   251.6430     6.1775     3.8323    79.9229
 1152.5000   -26.4623   253.1724     5.7793     3.8177    86.5194
 1153.0000   -26.3225   254.7018     5.6069     3.7379    83.8353
 1153.5000   -26.1851   254.7388     5.5399     3.7335    94.3675
 1154.0000   -26.1976   252.4879     5.5552     3.8796    89.0087
 1154.5000   -26.0578   245.4227     6.2045     4.0344    89.7860
 1155.0000   -26.0749   229.4791     6.8134     4.2595    89.7766
 1155.5000   -26.2494   211.6117     7.4694     5.0699    93.7007
 1156.0000   -26.7011   189.2605     7.8392     5.5173    96.2087
 1156.5000   -27.1707   178.8496     8.1638     5.8140    91.6365
 1157.0000   -27.1826   171.4237     8.3981     5.9613    94.8009
 1157.5000   -27.0428   162.5054     8.5420     6.0321    93.6445
 1158.0000   -27.0547   159.5572     8.7010     6.0265    92.7746
 1158.5000   -26.9119   159.5940     8.8148     5.9468    86.6001
 1159.0000   -26.9269   158.8754     8.8834     5.9423    80.4164
 1159.5000   -26.7870   158.9214     8.9370     5.9378    81.1961
 1160.0000   -26.7990   158.2120     8.9604     5.9334    79.4560
 1160.5000   -26.8109   158.2489     8.9855     6.0053    85.4231
 1161.0000   -26.9746   157.5302     8.9925     5.9997    85.7307
 1161.5000   -27.2900   157.5763     9.0156     6.0708    87.9218
 1162.0000   -27.3020   157.6132     9.0241     6.0661    88.3867
 1162.5000   -27.1497   158.3963     9.0173     6.1371    84.4416
 1163.0000   -26.8478   159.1794     8.9796     6.1325    81.6002
 1163.5000   -26.5790   158.4700     8.9284     6.1280    78.1294
 1164.0000   -26.4392   158.5075     8.8891     6.1989    81.1094
 1164.5000   -26.2994   157.0512     8.8232     6.2784    83.7748
 1165.0000   -26.4660   155.4729     8.7864     6.4158    94.3070
 1165.5000   -26.4780   151.1639     8.9002     6.5609    93.6683
 1166.0000   -26.6416   147.4694     9.1947     6.6317    97.4350
 1166.5000   -26.6536   144.5120     9.3989     6.6273    91.7615
 1167.0000   -26.6655   151.2745     9.4976     6.4722    90.0214
 1167.5000   -26.5227   169.2218     9.5227     5.8653    89.2254
 1168.0000   -26.5376   184.2906     9.4089     5.0325    85.4399
 1168.5000   -26.5495   207.9156     9.1161     4.2751    83.3851
 1169.0000   -26.5615   241.7235     8.0853     3.8941    77.7116
 1169.5000   -26.4217   251.4618     7.3407     3.8896    74.8702
 1170.0000   -26.1301   249.2599     6.2045     3.9616    78.3222
 1170.5000   -25.8385   247.8042     5.6707     3.9560    80.9876
 1171.0000   -25.6987   246.3485     5.7092     3.9515    82.2369
 1171.5000   -25.4072   241.1615     5.8832     4.0226    84.1156
 1172.0000   -25.4221   232.2431     6.9196     4.3191    84.2658
 1172.5000   -26.1927   200.9367     8.6580     5.0677    82.0225
 1173.0000   -26.5082   172.6153     9.4671     6.3433    82.2430
 1173.5000   -26.5201   148.7716     9.9419     7.0178    81.9359
 1174.0000   -26.3773   130.8980    10.5932     7.3133    80.9220
 1174.5000   -26.3922   124.2184    10.6619     7.3929    80.2400
 1175.0000   -26.5559   125.7478    10.8057     7.3670    78.8313
 1175.5000   -26.5678   132.5011    10.7989     7.2235    77.1155
 1176.0000   -26.7315   137.0155    10.7921     7.1438    76.1621
 1176.5000   -26.7502   137.0524    10.8610     7.1393    65.2972
 1177.0000   -26.9074   135.5726    10.9296     7.1348    51.9142
 1177.5000   -26.9196   133.3335    10.9982     7.2068    46.0833
 1178.0000   -26.9339   131.0950    11.1421     7.3518    41.0391
 1178.5000   -26.9459   124.9881    11.4349     7.4980    39.1417
 1179.0000   -26.9578   119.3354    11.9554     7.7947    44.6391
 1179.5000   -27.2732   114.1484    12.4758     8.0914    45.4188
 1180.0000   -27.5886   110.4539    12.9962     8.5388    47.7672
 1180.5000   -28.0558   103.0281    14.4202     9.4379    55.3100
 1181.0000   -28.6747    95.6022    16.1455    10.2618    53.5699
 1181.5000   -29.9006    88.1764    17.6448    10.8597    51.5151
 1182.0000   -32.3405    80.7506    18.6923    11.9848    46.3136
 1182.5000   -34.1733    77.0561    19.2881    12.7333    40.1681
 1183.0000   -35.0957    72.6153    19.6579    13.0301    35.4386
 1183.5000   -36.0254    71.8967    19.9524    13.0256    31.9678
 1184.0000   -37.1067    71.9428    19.6445    12.7952    36.3824
 1184.5000   -37.7364    73.4721    19.1087    12.7066    35.0846
 1185.0000   -38.4848    75.0015    18.8027    12.6355    37.3995
 1185.5000   -39.1037    75.0384    18.8714    12.6301    45.6308
 1186.0000   -39.5709    75.0752    19.0154    12.8516    54.0488
 1186.5000   -39.8863    73.6196    19.2329    13.0741    55.5122
