~VERSION INFORMATION
 VERS.                2.0:   CWLS LOG ASCII STANDARD - VERSION 2.0
 WRAP.                 NO:   ONE LINE PER DEPTH STEP
~WELL INFORMATION
#MNEM.UNIT      DATA TYPE    INFORMATION
#----------   ------------   ------------------------------
 STRT.F           44.0000:   START DEPTH
 STOP.F          666.0000:   STOP DEPTH
 STEP.F            0.5000:   STEP LENGTH
 NULL.          -999.2500:   NO VALUE
 COMP. FENIX & SCISSON INC:   COMPANY
 WELL.     NPR-3 #22SX-10:   WELL
 FLD .             TEAPOT:   FIELD
 LOC .      S10 T38N R78W:   LOCATION
 CNTY.            NATRONA:   COUNTY
 STAT.            WYOMING:   STATE
 CTRY. UNITED STATES OF AMERICA:   COUNTRY
 SRVC.            Unknown:   SERVICE COMPANY
 DATE.        11-JUL-1978:   LOGDATE
 API .       490251065600:   API NUMBER
~CURVE INFORMATION
#MNEM.UNIT       API CODE    CURVE DESCRIPTION
#----------   ------------   ------------------------------
 DEPT.F                  :   
 CALD.IN     45 280 60 00:   CALIPER FROM DENSITY LOG
 GRD .GAPI   45 310 01 00:   GAMMA RAY FROM DENSITY LOG
 CORR.G/C3   45 356 01 00:   DENSITY CORRECTION
 DPHI.DEC    45 890 12 00:   DENSITY POROSITY SANDSTONE
 RHOB.G/C3   45 350 01 00:   BULK DENSITY
 SPR .MV     05 010 01 00:   SPONTANEOUS POTENTIAL FROM RES.
 SN  .OHMM   05 040 16 00:   SHORT NORMAL 16"
 ILD .OHMM   05 120 46 00:   INDUCTION LOG DEEP
~PARAMETER INFORMATION
#MNEM.UNIT          VALUE    DESCRIPTION
#----------   ------------   ------------------------------
 PD  .                 GL:   PERMANENT DATUM
 EPD .F              5263:   ELEVATION PERMANENT DATUM
 LMF .                 KB:   LOG MEASURED FROM
 DAPD.F                 4:   FEET ABOVE PERMANENT DATUM
 DMF .                 KB:   DRILLING MEASURED FROM
 EKB .F              5267:   KELLING BUSHING
 EGL .F              5263:   GROUND LEVEL
 DATE.        11-JUL-1978:   RUN DATE
 RUN .                  1:   RUN NUMBER
 DD  .F               657:   DEPTH DRILLER
 DL  .F               666:   DEPTH LOGGER
 BLI .F               660:   BOTTOM LOG INTERVAL
 TLI .F                50:   TOP LOG INTERVAL
 CS  .IN            8.625:   CASING SIZE
 CBD .F                40:   CASING BOTTOM DRILLER
 BS  .IN            7.875:   BIT SIZE
 BSD .F               657:   BIT SIZE AT DEPTH
 DFT .                KCL:   DRILLING FLUID TYPE
 DFD .                8.6:   DRILLING FLUID DENSITY
 DFV .                 33:   DRILLING FLUID VISCOSITY
 DFPH.                9.0:   DRILLING FLUID PH
 DFL .                 14:   DRILLING FLUID LOSS
 MSS .           FLOWLINE:   MUD SAMPLE SOURCE
 RMS .OHMM            .16:   RESISTIVITY MUD SAMPLE
 MST .F                89:   MUD SAMPLE TEMPERATURE
 RMF .OHMM            .15:   RESISTIVITY MUD FILTRATE SAMPLE
 MFST.F                89:   MUD FILTRATE SAMPLE TEMPERATURE
 RMC .OHMM            .32:   RESISTIVITY MUD CAKE
 MCST.F                88:   MUD CAKE SAMPLE TEMPERATURE
 MFSS.               MEAS:   MUD FILTRATE SAMPLE SOURCE
 BHT .F                76:   BOTTOM HOLE TEMPERATURE
 TCS .HRS            0200:   TIME CURCULATED STOPPED
 MRT .F                76:   MAXIMUM RECORDED TEMPERATURE
 LUN .               2958:   LOGGING UNIT NUMBER
 LUL .               CASP:   LOGGING UNIT LOCATION
 ENGI.             MILLER:   RECORDING ENGINEER
 WITN.           MCGINLEY:   WITNESSED BY
 CLNT.            A2DTECH:   CLIENT CODE
 ORIG.           5" PRINT:   ORIGIN OF DATA
 UWI .       490251065600:   UNIQUE WELL ID
 DICO. A2D Technologies, Inc.:   DIGITIZING COMPANY
~OTHER INFORMATION
~A   DEPT     CALD         GRD      CORR       DPHI       RHOB        SPR         SN        ILD   
# ...
  408.5000     7.8816    97.1558     0.0007     0.1608     2.4325   -71.6802     4.8104     4.6164
  409.0000     7.8855    92.3147    -0.0049     0.1631     2.4190   -71.6642     4.7806     4.6203
  409.5000     7.8894    91.7941    -0.0049     0.1567     2.4099   -71.6481     4.8177     4.6874
  410.0000     7.8934    87.2616    -0.0050     0.1474     2.4047   -71.4837     4.8876     4.8213
  410.5000     7.9275    86.2632    -0.0065     0.1435     2.4339   -71.4674     5.0273     4.9591
  411.0000     8.0185    87.7611    -0.0051     0.1408     2.4392   -71.4510     5.1716     5.1714
  411.5000     7.9278    91.7095    -0.0067     0.1373     2.4474   -71.4315     5.3625     5.4674
  412.0000     7.9127    92.3147    -0.0067     0.1274     2.4602   -71.4155     5.6367     5.7804
  412.5000     7.9129    91.4070    -0.0053     0.1232     2.4707   -71.3994     5.9869     6.0694
  413.0000     7.9120    90.1967    -0.0068     0.1256     2.4722   -71.3833     6.2432     6.3292
  413.5000     7.9113    89.8941    -0.0084     0.1385     2.4662   -71.3673     6.4659     6.6001
  414.0000     7.9105    89.5915    -0.0085     0.1403     2.4519   -71.3512     6.6050     6.7422
  414.5000     7.9097    88.3812    -0.0085     0.1298     2.4421   -71.4876     6.7010     6.7933
  415.0000     7.9089    88.6838    -0.0071     0.1349     2.4601   -71.3178     6.7055     6.8448
  415.5000     7.9082    89.2890    -0.0071     0.1358     2.4593   -71.3031     6.7100     6.8025
  416.0000     7.9074    89.5915    -0.0072     0.1349     2.4526   -71.2870     6.7608     6.8072
  416.5000     7.9066    88.5325    -0.0057     0.1358     2.4503   -71.2710     6.7189     6.7650
  417.0000     7.9058    88.2300    -0.0058     0.1319     2.4593   -71.4036     6.7236     6.7232
  417.5000     7.9051    88.2300    -0.0029     0.1355     2.4585   -71.3872     6.6820     6.6370
  418.0000     7.9043    87.1710    -0.0029     0.1292     2.4517   -71.3709     6.6367     6.5949
  418.5000     7.9035    86.4145    -0.0030     0.1268     2.4735   -71.5062     6.5545     6.5104
  419.0000     7.9028    86.1120    -0.0030     0.1268     2.4690   -71.4834     6.5144     6.4258
  419.5000     7.9020    86.8684    -0.0031     0.1268     2.4637   -71.6198     6.4305     6.3851
  420.0000     7.9012    91.4070    -0.0032     0.1283     2.4667   -71.5997     6.3897     6.3021
  420.5000     7.9004    93.5250    -0.0032     0.1341     2.4690   -71.7360     6.2645     6.1787
  421.0000     7.9155    93.2224    -0.0048     0.1416     2.4554   -71.7160     6.1832     6.0152
  421.5000     7.9308    92.0121    -0.0048     0.1575     2.4464   -71.6999     5.9783     5.8160
  422.0000     7.9309    92.6172    -0.0049     0.1611     2.4238   -71.8322     5.7407     5.5848
  422.5000     7.9311    93.9788    -0.0065     0.1638     2.4125   -71.8162     5.4372     5.2895
  423.0000     7.9464    94.4327    -0.0050     0.1674     2.4140   -71.8001     5.0794     5.0422
  423.5000     7.9465    94.2814    -0.0021     0.1758     2.4035   -71.9364     4.9450     4.8774
  424.0000     7.9467    94.2814     0.0057     0.1863     2.3824   -71.9164     4.8808     4.8472
  424.5000     7.9620    94.2814     0.0113     0.1845     2.3599   -71.7520     4.8842     4.8513
  425.0000     8.2092    94.1301     0.0065     0.1497     2.3899   -71.7359     4.9212     4.8881
  425.5000     9.1138    94.2814    -0.0053     0.1371     2.4237   -71.7196     5.0279     4.9933
  426.0000     9.1594    94.2814    -0.0069     0.1326     2.4425   -71.6835     5.1715     5.1008
  426.5000     7.9474    94.1301    -0.0085     0.1314     2.4575   -71.2386     5.3192     5.3191
  427.0000     7.9317    92.6172    -0.0100     0.1308     2.4643   -70.9258     5.5852     5.5851
  427.5000     7.9308    90.4992    -0.0101     0.1329     2.4657   -70.4647     6.0695     5.9455
  428.0000     7.9300    90.9531    -0.0101     0.1452     2.4575   -69.8552     6.5057     6.4168
  428.5000     7.9291    90.3480    -0.0102     0.1440     2.4424   -69.5424     6.8310     6.7841
  429.0000     7.9282    90.0454    -0.0118     0.1392     2.4349   -69.3779     7.0262     6.9779
  429.5000     7.9274    91.4596    -0.0118     0.1371     2.4454   -69.3619     7.1774     7.0308
  430.0000     7.9265    94.4327    -0.0104     0.1352     2.4499   -69.4982     7.1822     7.0841
  430.5000     7.9256    93.9243    -0.0089     0.1316     2.4514   -69.6305     7.1871     7.0890
  431.0000     7.9248    92.6172    -0.0030     0.1308     2.4620   -69.6105     7.1920     7.1428
  431.5000     7.9239    92.6172    -0.0030     0.1302     2.4664   -69.4447     7.1970     7.1486
  432.0000     7.9230    92.6172    -0.0031     0.1289     2.4633   -69.2803     7.2028     7.1033
  432.5000     7.9221    92.6172    -0.0032     0.1192     2.4788   -69.1172     7.2077     7.1093
  433.0000     7.9213    92.3147    -0.0032     0.1188     2.4867   -69.1009     7.2126     7.0642
  433.5000     7.9204    90.3480    -0.0033     0.1218     2.4873   -69.0824     7.2174     7.0701
  434.0000     7.9194    91.4070    -0.0033     0.1221     2.4781   -69.0650     7.2223     7.0749
  434.5000     7.9210    96.0968    -0.0034     0.1224     2.4760   -69.0490     7.2272     7.0797
  435.0000     7.9234    96.5507    -0.0035     0.1251     2.4783   -69.0329     7.2320     7.0845
  435.5000     7.9258    96.7020    -0.0035     0.1281     2.4748   -69.0182     7.2369     7.0893
  436.0000     7.9282    96.3994    -0.0036     0.1281     2.4602   -69.0030     7.1920     7.0941
  436.5000     7.9306    95.1891    -0.0036     0.1272     2.4572   -68.9866     7.1970     7.0989
  437.0000     7.9330    91.5582    -0.0037     0.1279     2.4722   -68.9687     7.2019     7.1037
  437.5000     7.9356    90.4992    -0.0038     0.1315     2.4692   -69.1010     7.2069     7.1575
  438.0000     7.9359    90.1967    -0.0038     0.1330     2.4602   -69.0861     7.2118     7.1133
  438.5000     7.9362    95.0378    -0.0039     0.1318     2.4571   -69.0689     7.2177     7.1183
  439.0000     7.9365    95.7943    -0.0039     0.1282     2.4601   -68.9045     7.2226     7.1241
  439.5000     7.9368    97.3071    -0.0040     0.1249     2.4669   -69.0382     7.2274     7.0789
  440.0000     7.9370    98.0635    -0.0026     0.1159     2.4751   -68.8724     7.2323     7.0364
  440.5000     7.9373    93.6762    -0.0026     0.1081     2.4871   -68.8561     7.2372     6.9929
  441.0000     7.9376    87.1710    -0.0027     0.1075     2.4976   -68.8398     7.1913     6.9497
  441.5000     7.9379    90.4992    -0.0027     0.1138     2.5006   -68.8234     7.1468     6.8594
  442.0000     7.9382    93.3737    -0.0028     0.1249     2.4863   -68.8042     7.0552     6.7704
  442.5000     7.9385    92.9198    -0.0029     0.1330     2.4788   -68.7881     6.9157     6.5912
  443.0000     7.9388    92.6172    -0.0029     0.1360     2.4690   -68.7721     6.6867     6.4611
  443.5000     7.9391    93.8275    -0.0030     0.1342     2.4502   -68.7560     6.4651     6.2901
  444.0000     7.9394   100.6354    -0.0030     0.1252     2.4465   -68.7400     6.2907     6.1236
  444.5000     7.9397   101.6944    -0.0031     0.1252     2.4712   -68.7239     6.1276     6.0027
  445.0000     7.9400    98.2148    -0.0032     0.1261     2.4727   -68.7079     6.0480     5.8439
  445.5000     7.9402    96.7020    -0.0032     0.1267     2.4712   -68.6918     5.9704     5.6867
  446.0000     7.9405    97.7610    -0.0033     0.1315     2.4659   -68.6758     5.9745     5.5338
  446.5000     7.9408    98.6687    -0.0018     0.1396     2.4622   -68.6597     5.9375     5.4293
  447.0000     7.9412    98.6687    -0.0019     0.1441     2.4479   -68.6436     5.9415     5.3588
  447.5000     7.9409    98.3661    -0.0020     0.1438     2.4351   -68.6276     5.9038     5.3257
  448.0000     7.7587    95.6430    -0.0020     0.1270     2.4471   -68.6113     5.9088     5.2928
  448.5000     7.6978    85.3555    -0.0021     0.1240     2.4689   -68.5950     5.9128     5.2601
