~VERSION INFORMATION
 VERS.                2.0:   CWLS LOG ASCII STANDARD - VERSION 2.0
 WRAP.                 NO:   ONE LINE PER DEPTH STEP
~WELL INFORMATION
#MNEM.UNIT      DATA TYPE    INFORMATION
#----------   ------------   ------------------------------
 STRT.F           50.0000:   START DEPTH
 STOP.F         1020.0000:   STOP DEPTH
 STEP.F            0.5000:   STEP LENGTH
 NULL.          -999.2500:   NO VALUE
 COMP. LAWRENCE/ALLISON INC:   COMPANY
 WELL.      28 STX #14-14:   WELL
 FLD .             TEAPOT:   FIELD
 LOC .      S14 T38N R78W:   LOCATION
 CNTY.            NATRONA:   COUNTY
 STAT.            WYOMING:   STATE
 CTRY. UNITED STATES OF AMERICA:   COUNTRY
 SRVC.            Unknown:   SERVICE COMPANY
 DATE.        22-OCT-1984:   LOGDATE
 API .       490251099000:   API NUMBER
~CURVE INFORMATION
#MNEM.UNIT       API CODE    CURVE DESCRIPTION
#----------   ------------   ------------------------------
 DEPT.F                  :   
 SPR .MV     07 010 01 00:   SPONTANEOUS POTENTIAL
 RILD.OHMM   07 120 46 00:   INDUCTION LOG DEEP RESISTIVITY
 RILM.OHMM   07 120 44 00:   INDUCTION LOG MEDIUM RESISTIVITY
 RFOC.OHMM   07 220 04 00:   RESISTIVITY FOCUSED LOG
 GRD .GAPI   45 310 01 00:   GAMMA RAY FROM DENSITY LOG
 CALD.IN     45 280 60 00:   CALIPER
 DEN .G/C3   45 350 01 00:   COMPENSATED BULK DENSTIY
 CORR.G/C3   45 356 01 00:   DENSITY CORRECTION
 PORD.DEC    45 890 12 00:   POROSITY DENSITY SANDSTONE
 CNC .DEC    42 890 03 00:   NEUTRON POROSITY SANDSTONE
 AC  .US/F   60 520 00 00:   ACOUSTIC SONIC
~PARAMETER INFORMATION
#MNEM.UNIT          VALUE    DESCRIPTION
#----------   ------------   ------------------------------
 PD  .                 GL:   PERMANENT DATUM
 EPD .F              5257:   ELEVATION PERMANENT DATUM
 LMF .                 KB:   LOG MEASURED FROM
 DAPD.F                12:   FEET ABOVE PERMANENT DATUM
 DMF .                 KB:   DRILLING MEASURED FROM
 EKB .F              5269:   KELLING BUSHING
 EGL .F              5257:   GROUND LEVEL
 DATE.           10-22-84:   RUN DATE
 RUN .                  1:   RUN NUMBER
 DD  .F              1020:   DEPTH DRILLER
 DL  .F              1019:   DEPTH LOGGER
 BLI .F              1017:   BOTTOM LOG INTERVAL
 TLI .F                52:   TOP LOG INTERVAL
 CS  .IN               16:   CASING SIZE
 CBD .F                40:   CASING BOTTOM DRILLER
 CBL .F                52:   CASING BOTTOM LOGGER
 BS  .IN            12.25:   BIT SIZE
 BSD .F              1020:   BIT SIZE AT DEPTH
 DFT .          GEL/WATER:   DRILLING FLUID TYPE
 DFD .                9.1:   DRILLING FLUID DENSITY
 DFV .                 35:   DRILLING FLUID VISCOSITY
 MSS .           FLOWLINE:   MUD SAMPLE SOURCE
 RMS .OHMM           2.04:   RESISTIVITY MUD SAMPLE
 MST .F                76:   MUD SAMPLE TEMPERATURE
 RMF .OHMM           1.53:   RESISTIVITY MUD FILTRATE SAMPLE
 MFST.F                76:   MUD FILTRATE SAMPLE TEMPERATURE
 RMC .OHMM           2.55:   RESISTIVITY MUD CAKE
 MCST.F                76:   MUD CAKE SAMPLE TEMPERATURE
 MFSS.               CALC:   MUD FILTRATE SAMPLE SOURCE
 MCSS.               CALC:   MUD CAKE SAMPLE SOURCE
 TCS .HRS               3:   TIME CURCULATED STOPPED
 MRT .F               100:   MAXIMUM RECORDED TEMPERATURE
 LUN .            HL 6307:   LOGGING UNIT NUMBER
 LUL .           GILLETTE:   LOGGING UNIT LOCATION
 ENGI.          CROSSBERG:   RECORDING ENGINEER
 WITN.            JOHNSON:   WITNESSED BY
 CLNT.            A2DTECH:   CLIENT CODE
 ORIG.       2", 5" PRINT:   ORIGIN OF DATA
 UWI .       490251099000:   UNIQUE WELL ID
 DICO. A2D Technologies, Inc.:   DIGITIZING COMPANY
~OTHER INFORMATION
~A   DEPT      SPR       RILD       RILM       RFOC        GRD        CALD       DEN       CORR       PORD          CNC       AC   
# ...
  629.5000   -58.3199     8.3143     6.6068     6.6122    96.2145    12.1649     2.4487    -0.0037     0.1355     0.2642    97.0295
  630.0000   -58.7473     8.2804     6.4189     6.5252    94.4737    12.1486     2.4546    -0.0032     0.1344     0.2734    96.1018
  630.5000   -59.1747     8.2403     6.2414     6.4394    92.3849    12.1323     2.4543     0.0046     0.1415     0.2846    95.1740
  631.0000   -59.6180     8.2005     6.1183     6.3548    90.7443    12.1160     2.4472     0.0245     0.1486     0.2898    95.2221
  631.5000   -59.6720     8.1608     6.0693     6.2712    91.1032    12.0997     2.4288     0.0455     0.1524     0.2902    95.6489
  632.0000   -59.5354     8.1213     6.0207     6.1887    91.3581    12.0836     2.4246     0.0580     0.1489     0.2894    96.3370
  632.5000   -59.3944     8.0820     5.9714     6.1431    90.7277    12.0673     2.4332     0.0438     0.1440     0.2878    97.0252
  633.0000   -59.2560     8.0429     5.9937     6.1870    90.0948    12.0498     2.4417     0.0204     0.1390     0.2897    97.7133
  633.5000   -59.1322     8.0040     6.0166     6.2224    90.5822    11.9692     2.4501     0.0144     0.1347     0.2963    98.4015
  634.0000   -58.8262     7.9460     6.0394     6.2579    91.6410    11.7982     2.4583     0.0229     0.1322     0.3007    99.0319
  634.5000   -58.5121     8.0081     6.0624     6.2937    91.4785    11.6298     2.4644     0.0358     0.1297     0.3043    98.8616
  635.0000   -58.1995     7.9717     6.0856     6.3100    89.7142    11.5387     2.4660     0.0490     0.1300     0.3077    98.6959
  635.5000   -57.8876     7.9412     6.1087     6.2840    89.5074    11.4357     2.4618     0.0606     0.1350     0.3112    98.8084
  636.0000   -57.5754     7.9495     6.1384     6.2646    90.5762    11.6498     2.4534     0.0816     0.1425     0.3146    99.0924
  636.5000   -57.2636     7.9578     6.1235     6.2452    92.6112    11.9040     2.4341     0.1031     0.1501     0.3181    99.3799
  637.0000   -56.9513     7.9660     6.1028     6.2259    91.4540    11.9396     2.4238     0.1100     0.1532     0.3078    99.2603
  637.5000   -56.6322     7.9743     6.0823     6.2067    87.9566    11.9222     2.4253     0.1053     0.1516     0.2934    99.0507
  638.0000   -56.5611     7.9826     6.0617     6.1875    84.6596    11.8989     2.4383     0.0902     0.1417     0.2744    98.8392
  638.5000   -56.5605     7.9910     6.0413     6.1684    85.7381    11.8757     2.4524     0.0754     0.1348     0.2678    98.6284
  639.0000   -56.5623     7.9995     6.0209     6.1494    89.0894    11.8526     2.4589     0.0647     0.1300     0.2785    98.4175
  639.5000   -56.8168     8.0080     6.0006     6.1304    91.0528    11.8287     2.4618     0.0652     0.1304     0.2810    98.2067
  640.0000   -57.3069     8.0132     5.9804     6.1115    91.8167    11.8224     2.4546     0.0674     0.1369     0.2755    98.0190
  640.5000   -57.7978     7.8892     5.9602     6.0926    90.8729    11.8209     2.4469     0.0672     0.1407     0.2697    97.9341
  641.0000   -58.2905     7.7914     5.9402     6.0763    89.7876    11.8195     2.4393     0.0646     0.1441     0.2710    98.0027
  641.5000   -58.7806     7.6950     5.9202     6.0632    88.7356    11.8181     2.4358     0.0622     0.1472     0.2790    98.1970
  642.0000   -59.2710     7.5999     5.8814     6.0500    89.0702    11.8167     2.4313     0.0687     0.1531     0.2934    98.4857
  642.5000   -59.6034     7.5060     5.8258     6.0369    89.9232    11.8152     2.4133     0.0759     0.1585     0.3019    98.7734
  643.0000   -59.8817     7.4132     5.7707     6.0238    92.6291    11.8138     2.4076     0.0905     0.1619     0.3074    99.0642
  643.5000   -60.1255     7.2924     5.7161     6.0107    95.3686    11.8124     2.4026     0.1078     0.1635     0.3129    99.1334
  644.0000   -59.8262     7.1552     5.6621     5.9977    93.6393    11.8109     2.4127     0.1253     0.1590     0.3184    98.7590
  644.5000   -59.5157     6.9883     5.4842     5.9847    90.6290    11.8095     2.4241     0.1259     0.1517     0.3194    98.2615
  645.0000   -59.2241     6.6921     5.2811     5.9714    88.7919    11.8081     2.4358     0.1247     0.1444     0.3219    97.9341
  645.5000   -58.5287     6.4084     5.0855     5.8090    87.7400    11.8067     2.4410     0.1181     0.1423     0.3291    97.9953
  646.0000   -57.7618     6.1368     4.8972     5.5680    87.0791    11.8052     2.4324     0.1013     0.1519     0.3370    98.3201
  646.5000   -56.9868     5.9168     4.7159     5.3304    86.7121    11.8039     2.4114     0.0888     0.1605     0.3426    99.1786
  647.0000   -56.2223     5.8485     4.5323     5.1029    87.1518    11.7980     2.3839     0.1170     0.1756     0.3327    99.9920
  647.5000   -55.5415     5.7778     4.5323     4.8852    88.1469    11.7912     2.3590     0.1364     0.1873     0.3183   100.6173
  648.0000   -55.5561     5.7032     4.6703     4.7455    88.2748    11.7853     2.3589     0.1414     0.1909     0.3092   102.1794
  648.5000   -55.9029     5.6510     4.8218     5.0620    87.3447    11.7435     2.4094     0.1378     0.1654     0.3055   103.7414
  649.0000   -56.3522     5.8044     4.9783     5.3589    87.3280    11.6851     2.4459     0.1343     0.1435     0.3017   104.8204
  649.5000   -56.8064     6.0040     5.1398     5.8090    91.6368    11.6260     2.4592     0.1372     0.1320     0.2998   104.5689
  650.0000   -57.2599     6.2105     5.3065     5.7366    94.6867    11.5676     2.4413     0.1593     0.1410     0.2956   103.6181
  650.5000   -57.7145     6.4240     5.4786     5.5954    92.5771    11.5188     2.4248     0.1810     0.1521     0.2991   102.2172
  651.0000   -58.1703     6.6456     5.5286     5.4973    90.2573    11.4982     2.4232     0.1910     0.1529     0.2996   100.8163
  651.5000   -58.6130     6.8552     5.5638     5.7248    87.9437    11.4764     2.4220     0.1891     0.1546     0.3001   100.0446
  652.0000   -58.7058     7.0205     5.5992     5.9924    85.8785    11.4514     2.4165     0.1884     0.1629     0.3006    99.8776
  652.5000   -57.6800     7.1767     5.6348     6.3100    86.1311    11.4008     2.3969     0.1977     0.1715     0.3010    99.6749
  653.0000   -56.7696     7.3366     5.6707     6.2395    91.0754    11.3509     2.3879     0.2059     0.1744     0.3012    99.2097
  653.5000   -56.7025     7.5007     5.7068     6.1354    97.8556    11.3008     2.3869     0.2052     0.1717     0.2953    98.7445
  654.0000   -56.6567     7.6688     5.7559     6.0329    99.1373    11.2502     2.4037     0.1902     0.1630     0.2985    98.3669
  654.5000   -56.6089     7.7946     5.7345     5.9323    96.5636    11.2546     2.4142     0.1757     0.1601     0.2993    98.2335
  655.0000   -56.5570     7.6451     5.6870     5.8986    96.0330    11.2644     2.3883     0.1741     0.1778     0.3000    98.5764
  655.5000   -56.4038     7.5265     5.6400     5.8770    95.8900    11.2739     2.3526     0.1887     0.2021     0.3006    99.0416
  656.0000   -56.2502     7.4098     5.5933     5.8556    93.4787    11.2834     2.3195     0.2150     0.2273     0.3012    99.5309
  656.5000   -55.9125     7.2949     5.5471     5.8342    91.8320    11.2929     2.2983     0.2079     0.2271     0.3018    98.9263
  657.0000   -55.3126     7.1818     5.5012     5.8130    93.3841    11.3024     2.2975     0.1964     0.2029     0.3025    98.2887
  657.5000   -54.7159     7.0704     5.4557     5.7323    96.0696    11.3117     2.3615     0.1826     0.1850     0.2905    98.3333
  658.0000   -54.1189     6.9608     5.3374     5.6395    98.0812    11.3216     2.3836     0.1602     0.1741     0.3186    99.0330
  658.5000   -53.5217     6.7109     5.2050     5.5481    98.3753    11.3564     2.3815     0.1426     0.1824     0.2994    99.7617
  659.0000   -52.9248     6.3810     5.0759     5.5166    96.6069    11.4819     2.3625     0.1377     0.1932     0.2997   100.5289
  659.5000   -52.3278     6.0673     4.9499     5.4851    92.9295    11.6524     2.3473     0.1310     0.1985     0.2994   100.5409
