~VERSION INFORMATION
 VERS.                2.0:   CWLS LOG ASCII STANDARD - VERSION 2.0
 WRAP.                 NO:   ONE LINE PER DEPTH STEP
~WELL INFORMATION
#MNEM.UNIT      DATA TYPE    INFORMATION
#----------   ------------   ------------------------------
 STRT.F           42.0000:   START DEPTH
 STOP.F          866.0000:   STOP DEPTH
 STEP.F            0.5000:   STEP LENGTH
 NULL.          -999.2500:   NO VALUE
 COMP. FENIX & SCISSON INC:   COMPANY
 WELL.      NPR-SX #47-11:   WELL
 FLD .             TEAPOT:   FIELD
 LOC .      S11 T38N R78W:   LOCATION
 CNTY.            NATRONA:   COUNTY
 STAT.            WYOMING:   STATE
 CTRY. UNITED STATES OF AMERICA:   COUNTRY
 SRVC.            Unknown:   SERVICE COMPANY
 DATE.        25-FEB-1978:   LOGDATE
 API .       490251058700:   API NUMBER
~CURVE INFORMATION
#MNEM.UNIT       API CODE    CURVE DESCRIPTION
#----------   ------------   ------------------------------
 DEPT.F                  :   
 SPR .MV     07 010 01 00:   SPONTANEOUS POTENTIAL
 SN  .OHMM   07 040 16 00:   SHORT NORMAL 16'
 ILD .OHMM   07 120 46 00:   INDUCTION LOG DEEP
 CORR.G/C3   45 356 01 00:   DENSITY CORRECTION
 RHOB.G/C3   45 350 01 00:   BULK DENSITY
 DPHI.DEC    45 890 12 00:   DENSITY POROSITY SANDSTONE
 CALD.IN     45 280 60 00:   CALIPER FROM DENSITY LOG
 GRD .GAPI   45 310 01 00:   GAMMA RAY FROM DENSITY LOG
~PARAMETER INFORMATION
#MNEM.UNIT          VALUE    DESCRIPTION
#----------   ------------   ------------------------------
 PD  .                 GL:   PERMANENT DATUM
 EPD .F              5202:   ELEVATION PERMANENT DATUM
 LMF .                 KB:   LOG MEASURED FROM
 DAPD.F                 4:   FEET ABOVE PERMANENT DATUM
 DMF .                 KB:   DRILLING MEASURED FROM
 EKB .F              5206:   KELLING BUSHING
 EGL .F              5202:   GROUND LEVEL
 DATE.            2-25-78:   RUN DATE
 RUN .                  1:   RUN NUMBER
 DD  .F               870:   DEPTH DRILLER
 DL  .F               870:   DEPTH LOGGER
 BLI .F               865:   BOTTOM LOG INTERVAL
 TLI .F                47:   TOP LOG INTERVAL
 CS  .IN            8.625:   CASING SIZE
 CBD .F                40:   CASING BOTTOM DRILLER
 CBL .F                47:   CASING BOTTOM LOGGER
 BS  .IN            7.875:   BIT SIZE
 BSD .F               870:   BIT SIZE AT DEPTH
 DFT .                KCL:   DRILLING FLUID TYPE
 DFD .                8.7:   DRILLING FLUID DENSITY
 DFV .                 35:   DRILLING FLUID VISCOSITY
 DFL .                4.8:   DRILLING FLUID LOSS
 MSS .         CIRCULATED:   MUD SAMPLE SOURCE
 RMS .OHMM            1.5:   RESISTIVITY MUD SAMPLE
 MST .F                70:   MUD SAMPLE TEMPERATURE
 RMF .OHMM            .75:   RESISTIVITY MUD FILTRATE SAMPLE
 MFST.F                74:   MUD FILTRATE SAMPLE TEMPERATURE
 RMC .OHMM            1.8:   RESISTIVITY MUD CAKE
 MCST.F                68:   MUD CAKE SAMPLE TEMPERATURE
 MFSS.              PRESS:   MUD FILTRATE SAMPLE SOURCE
 RMB .OHMM            1.5:   RESISTIVITY MUD AT BHT
 BHT .F                70:   BOTTOM HOLE TEMPERATURE
 TCS .HRS               2:   TIME CURCULATED STOPPED
 MRT .F                70:   MAXIMUM RECORDED TEMPERATURE
 LUN .               2958:   LOGGING UNIT NUMBER
 LUL .               CASP:   LOGGING UNIT LOCATION
 CLNT.            A2DTECH:   CLIENT CODE
 ORIG.        2" 5" PRINT:   ORIGIN OF DATA
 UWI .       490251058700:   UNIQUE WELL ID
 DICO. A2D Technologies, Inc.:   DIGITIZING COMPANY
~OTHER INFORMATION
~A   DEPT      SPR         SN        ILD       CORR       RHOB       DPHI         CALD      GRD   
# ...
   82.5000   -20.8346     5.1899     4.9191     0.0109     2.3832     0.1549     8.5694    96.6586
   83.0000   -20.8009     5.2008     4.9241     0.0125     2.3870     0.1618     8.5695    95.3382
   83.5000   -20.7804     5.2168     4.9291     0.0079     2.3908     0.1707     8.5696    96.6568
   84.0000   -20.7579     5.2327     4.9342     0.0024     2.3840     0.1728     8.5689    90.5573
   84.5000   -20.7344     5.2487     4.9392     0.0021     2.3683     0.1775     8.5532    88.4607
   85.0000   -20.7110     5.2646     4.9443     0.0042     2.3619     0.1792     8.5371    89.8536
   85.5000   -20.6875     5.2875     4.9492     0.0117     2.3554     0.1775     8.5212    91.6516
   86.0000   -20.6641     5.2646     4.9564     0.0235     2.3565     0.1808     8.5052    93.5737
   86.5000   -20.6407     5.2257     4.9268     0.0303     2.3587     0.1849     8.4893    93.7826
   87.0000   -20.6173     5.1870     4.8486     0.0386     2.3498     0.1694     8.4734    94.6503
   87.5000   -20.5938     5.1487     4.7716     0.0685     2.3436     0.1679     8.4649    97.0255
   88.0000   -20.5704     5.1107     4.6959     0.0699     2.3753     0.1697     8.4584    98.4044
   88.5000   -20.5470     5.0729     4.6460     0.0676     2.3711     0.1785     8.4517    99.7255
   89.0000   -20.5235     5.0355     4.6613     0.0606     2.3677     0.1857     8.4451   100.1983
   89.5000   -20.5000     5.0058     4.7089     0.0547     2.3589     0.1730     8.4386    99.3653
   90.0000   -20.4763     5.0368     4.7570     0.0759     2.3438     0.1561     8.4323    97.6739
   90.5000   -20.4542     5.0681     4.8056     0.0887     2.3861     0.1405     8.4537    94.6570
   91.0000   -20.4318     5.0995     4.8657     0.0858     2.4000     0.1521     8.5160    91.6214
   91.5000   -20.6306     5.1311     4.8657     0.0721     2.4133     0.1709     8.5785    89.5696
   92.0000   -21.0408     5.1629     4.8537     0.0217     2.4237     0.1684     8.6183    88.6274
   92.5000   -21.4086     5.1949     4.8087     0.0095     2.3682     0.1667     8.6292    87.2841
   93.0000   -21.1463     5.2271     4.7640     0.0084     2.3726     0.1728     8.6298    88.8982
   93.5000   -20.8377     5.2389     4.7197     0.0072     2.3741     0.1763     8.6343    90.7304
   94.0000   -20.5256     5.1272     4.6759     0.0059     2.3639     0.1773     8.6389    90.2655
   94.5000   -20.4548     5.0383     4.6325     0.0056     2.3561     0.1750     8.6435    90.2511
   95.0000   -20.5080     4.9510     4.5894     0.0091     2.3561     0.1701     8.6481    90.3933
   95.5000   -20.5633     4.8652     4.5468     0.0126     2.3610     0.1653     8.6527    88.9079
   96.0000   -20.6136     4.7809     4.5046     0.0135     2.3736     0.1618     8.6573    89.4296
   96.5000   -20.5251     4.6980     4.4627     0.0135     2.3789     0.1656     8.6618    87.1039
   97.0000   -20.4308     4.6460     4.4363     0.0135     2.3826     0.1639     8.6664    87.0193
   97.5000   -20.3367     4.6459     4.4442     0.0146     2.3825     0.1623     8.6685    85.8762
   98.0000   -20.2391     4.6779     4.4665     0.0158     2.3826     0.1602     8.6728    86.1744
   98.5000   -20.2863     4.7119     4.4889     0.0160     2.3858     0.1612     8.6786    88.0048
   99.0000   -20.3744     4.7460     4.5114     0.0127     2.3886     0.1682     8.6844    90.0271
   99.5000   -20.4021     4.7766     4.5340     0.0066     2.3826     0.1692     8.6876    90.2983
  100.0000   -20.3726     4.8039     4.5568     0.0041     2.3738     0.1690     8.6839    93.9353
  100.5000   -20.3430     4.8341     4.5796     0.0036     2.3728     0.1675     8.6804    93.1958
  101.0000   -20.3130     4.8644     4.6026     0.0053     2.3743     0.1646     8.6769    92.7812
  101.5000   -20.2829     4.8950     4.6257     0.0048     2.3746     0.1637     8.6733    91.9220
  102.0000   -20.2529     4.9564     4.6489     0.0040     2.3792     0.1659     8.6698    89.6944
  102.5000   -20.2231     5.0024     4.6722     0.0049     2.3801     0.1642     8.6663    88.1176
  103.0000   -20.2310     5.0024     4.6891     0.0074     2.3792     0.1661     8.6628    89.3836
  103.5000   -20.2447     5.0024     4.6963     0.0066     2.3812     0.1618     8.6592    90.5909
  104.0000   -20.2586     5.0024     4.7028     0.0108     2.3809     0.1568     8.6557    91.7604
  104.5000   -20.2723     5.0024     4.7093     0.0101     2.3912     0.1673     8.6522    92.3610
  105.0000   -20.2861     5.0024     4.7159     0.0036     2.3833     0.1655     8.6488    91.4432
  105.5000   -20.2998     5.0024     4.7224     0.0051     2.3777     0.1621     8.6475    93.2484
  106.0000   -20.3136     5.0024     4.7326     0.0068     2.3814     0.1628     8.6463    95.3996
  106.5000   -20.3273     5.0024     4.7157     0.0081     2.3819     0.1643     8.6451    94.7929
  107.0000   -20.3411     5.0024     4.6785     0.0072     2.3809     0.1694     8.6439    95.8578
  107.5000   -20.3548     5.0024     4.6416     0.0057     2.3783     0.1709     8.6427    97.2175
  108.0000   -20.3686     5.0024     4.6049     0.0098     2.3708     0.1731     8.6415    95.6352
  108.5000   -20.3823     5.0024     4.5685     0.0205     2.3659     0.1697     8.6402    93.6313
  109.0000   -20.3962     5.0024     4.5324     0.0311     2.3640     0.1697     8.6390    95.5450
  109.5000   -20.4102     5.0024     4.5190     0.0417     2.3670     0.1772     8.6378    94.7945
  110.0000   -20.4168     5.0024     4.5190     0.0426     2.3649     0.1821     8.6366    95.5341
  110.5000   -20.3494     4.8549     4.4974     0.0413     2.3508     0.1884     8.6354    92.4184
  111.0000   -20.2784     4.6957     4.4460     0.0399     2.3453     0.1970     8.6341    95.7937
  111.5000   -20.2076     4.5213     4.2624     0.0385     2.3297     0.2076     8.6329    97.9812
  112.0000   -20.1369     4.3244     4.0574     0.0376     2.3189     0.2162     8.6317   101.0465
  112.5000   -20.0661     4.1361     3.8623     0.0437     2.2894     0.2173     8.6305   103.2576
  113.0000   -19.9953     3.9564     3.6765     0.0488     2.2879     0.1903     8.6289   101.1704
  113.5000   -19.9247     3.7845     3.4997     0.0564     2.2862     0.1627     8.6407    99.6685
  114.0000   -19.8545     3.6201     3.3625     0.0682     2.3347     0.1695     8.6564    97.4910
  114.5000   -19.8371     3.5542     3.3305     0.0295     2.3804     0.1739     8.6722    93.9023
  115.0000   -19.8939     3.5871     3.3317     0.0085     2.3618     0.1659     8.6880    94.0416
  115.5000   -19.9487     3.6931     3.3301     0.0161     2.3684     0.1596     8.7042    92.8086
  116.0000   -20.0054     3.9221     3.3609     0.0237     2.3821     0.1563     8.7096    94.2712
  116.5000   -20.0196     4.1653     3.5092     0.0284     2.3915     0.1580     8.7116    92.7657
  117.0000   -20.0201     4.3551     3.7189     0.0226     2.3987     0.1586     8.7134    91.7099
  117.5000   -20.0200     4.4881     3.9421     0.0173     2.3911     0.1562     8.7153    92.8011
  118.0000   -20.0199     4.6686     4.1203     0.0134     2.3923     0.1606     8.7172    93.8445
  118.5000   -20.0199     4.8564     4.5719     0.0064     2.3907     0.1587     8.7191    92.7387
  119.0000   -20.0199     5.0507     4.7472     0.0055     2.3864     0.1606     8.7209    91.4434
  119.5000   -20.0199     5.1732     4.9108     0.0046     2.3868     0.1557     8.7228    92.1603
  120.0000   -20.0199     5.2657     5.0179     0.0053     2.3866     0.1587     8.7247    93.4493
  120.5000   -20.0199     5.3609     5.1300     0.0062     2.3934     0.1614     8.7266    94.6432
  121.0000   -20.0199     5.5374     5.2445     0.0070     2.3901     0.1561     8.7284    93.4363
  121.5000   -20.0199     5.6574     5.3616     0.0079     2.3887     0.1510     8.7303    91.9929
  122.0000   -20.0199     5.7434     5.4813     0.0088     2.4004     0.1466     8.7322    90.7119
  122.5000   -20.0199     5.8402     5.6407     0.0091     2.4024     0.1470     8.7341    90.5297
