~VERSION INFORMATION
 VERS.                2.0:   CWLS LOG ASCII STANDARD - VERSION 2.0
 WRAP.                 NO:   ONE LINE PER DEPTH STEP
~WELL INFORMATION
#MNEM.UNIT      DATA TYPE    INFORMATION
#----------   ------------   ------------------------------
 STRT.F           90.0000:   START DEPTH
 STOP.F         1312.0000:   STOP DEPTH
 STEP.F            0.5000:   STEP LENGTH
 NULL.          -999.2500:   NO VALUE
 COMP. US NAVY/ INTEX OIL CO:   COMPANY
 WELL. RES 3 TEAPOT DOME NPR "S' #42-2:   WELL
 FLD .             TEAPOT:   FIELD
 LOC .       S2 T38N R78W:   LOCATION
 CNTY.            NATRONA:   COUNTY
 STAT.            WYOMING:   STATE
 CTRY. UNITED STATES OF AMERICA:   COUNTRY
 SRVC. Schlumberger Well Surveying Corp:   SERVICE COMPANY
 DATE.        17-JUL-1964:   LOGDATE
 API .       490250646400:   API NUMBER
~CURVE INFORMATION
#MNEM.UNIT       API CODE    CURVE DESCRIPTION
#----------   ------------   ------------------------------
 DEPT.F                  :   
 GR  .GAPI   30 310 01 00:   GAMMA RAY
 CALS.IN     60 280 50 00:   CALIPER FROM SONIC LOG
 DT  .US/F   60 520 32 00:   INTERVAL TRANSIT TIME
 SPR .MV     05 010 01 00:   SPONTANEOUS POTENTIAL FROM RES.
 CILD.MMHO   05 110 46 00:   CONDUCTIVITY INDUCTION LOG DEEP
 ILD .OHMM   05 120 46 00:   INDUCTION LOG DEEP
 ASN .OHMM   05 040 16 00:   AMPLIFIED SHORT NORMAL 16"
~PARAMETER INFORMATION
#MNEM.UNIT          VALUE    DESCRIPTION
#----------   ------------   ------------------------------
 PD  .                 GL:   PERMANENT DATUM
 EPD .F              5142:   ELEVATION PERMANENT DATUM
 LMF .                 KB:   LOG MEASURED FROM
 DAPD.F                 8:   FEET ABOVE PERMANENT DATUM
 DMF .                 KB:   DRILLING MEASURED FROM
 EKB .F              5150:   KELLING BUSHING
 EGL .F              5142:   GROUND LEVEL
 DATE.          7-17-1964:   RUN DATE
 RUN .                  1:   RUN NUMBER
 DD  .F              1300:   DEPTH DRILLER
 DL  .F              1310:   DEPTH LOGGER
 BLI .F              1309:   BOTTOM LOG INTERVAL
 TLI .F               107:   TOP LOG INTERVAL
 CS  .IN            12.25:   CASING SIZE
 CBD .F                10:   CASING BOTTOM DRILLER
 BS  .IN               11:   BIT SIZE
 BSD .F              1300:   BIT SIZE AT DEPTH
 DFT .            GEL-OIL:   DRILLING FLUID TYPE
 DFD .                9.6:   DRILLING FLUID DENSITY
 DFV .                 63:   DRILLING FLUID VISCOSITY
 DFPH.                  8:   DRILLING FLUID PH
 DFL .                9.6:   DRILLING FLUID LOSS
 MSS .           FLOWLINE:   MUD SAMPLE SOURCE
 RMS .OHMM           2.07:   RESISTIVITY MUD SAMPLE
 MST .F                92:   MUD SAMPLE TEMPERATURE
 RMF .OHMM           1.42:   RESISTIVITY MUD FILTRATE SAMPLE
 MFST.F                92:   MUD FILTRATE SAMPLE TEMPERATURE
 RMC .OHMM           2.33:   RESISTIVITY MUD CAKE
 MCST.F                92:   MUD CAKE SAMPLE TEMPERATURE
 MFSS.                 FP:   MUD FILTRATE SAMPLE SOURCE
 MCSS.                 FP:   MUD CAKE SAMPLE SOURCE
 TCS .HRS               1:   TIME CURCULATED STOPPED
 LUN .               4507:   LOGGING UNIT NUMBER
 LUL .              CSPR.:   LOGGING UNIT LOCATION
 ENGI.             DANNER:   RECORDING ENGINEER
 WITN.          JORGENSEN:   WITNESSED BY
 CLNT.            A2DTECH:   CLIENT CODE
 ORIG.        2" 5" PRINT:   ORIGIN OF DATA
 UWI .       490250646400:   UNIQUE WELL ID
 DICO. A2D Technologies, Inc.:   DIGITIZING COMPANY
~OTHER INFORMATION
~A   DEPT       GR       CALS         DT        SPR        CILD         ILD        ASN 
   90.0000  -999.2500  -999.2500  -999.2500  -999.2500   177.6777     6.2563     6.5365
   90.5000  -999.2500  -999.2500  -999.2500   -52.3092   177.6777     6.2563     6.5365
   91.0000  -999.2500  -999.2500  -999.2500   -52.3092   177.6777     6.3006     5.1827
   91.5000  -999.2500  -999.2500  -999.2500   -52.3092   177.6777     6.3736     4.7012
   92.0000  -999.2500  -999.2500  -999.2500   -52.3092   179.3293     6.4466     4.2197
   92.5000  -999.2500  -999.2500  -999.2500   -52.3092   183.0330     6.5196     3.6537
   93.0000  -999.2500  -999.2500  -999.2500   -52.3092   186.2112     6.5925     3.6002
   93.5000  -999.2500  -999.2500  -999.2500   -52.3092   187.3906     6.6395     3.5852
   94.0000  -999.2500  -999.2500  -999.2500   -52.3092   188.9890     6.7019     3.4943
   94.5000  -999.2500  -999.2500  -999.2500   -52.3092   187.6432     6.7749     3.4421
   95.0000  -999.2500  -999.2500  -999.2500   -52.3092   184.3510     6.8479     3.3659
   95.5000  -999.2500  -999.2500  -999.2500   -52.3093   181.0588     6.9209     3.3627
   96.0000  -999.2500  -999.2500  -999.2500   -52.3092   177.7667     6.9939     3.2212
   96.5000  -999.2500  -999.2500  -999.2500   -52.3094   173.6737     7.0669     3.0412
   97.0000  -999.2500  -999.2500  -999.2500   -52.3091   172.7819     7.1398     3.0353
   97.5000  -999.2500  -999.2500  -999.2500   -52.3097   171.6526     7.2128     3.0123
   98.0000  -999.2500  -999.2500  -999.2500   -52.3087   170.4491     7.2858     3.0616
   98.5000  -999.2500  -999.2500  -999.2500   -52.3108   169.2614     7.3588     3.1023
   99.0000  -999.2500  -999.2500  -999.2500   -52.2942   168.0935     7.4319     3.1409
   99.5000  -999.2500  -999.2500  -999.2500   -52.2620   166.7216     7.5051     3.1879
  100.0000  -999.2500  -999.2500  -999.2500   -52.2334   163.0226     7.5782     3.0450
  100.5000  -999.2500  -999.2500  -999.2500   -52.2033   158.4424     7.6515     2.9214
  101.0000  -999.2500  -999.2500  -999.2500   -52.1736   152.7622     7.7242     2.9714
  101.5000  -999.2500  -999.2500  -999.2500   -52.1442   151.8794     7.7983     3.0097
  102.0000  -999.2500  -999.2500  -999.2500   -52.1137   150.8709     7.8705     3.0575
  102.5000  -999.2500  -999.2500  -999.2500   -52.1541   149.6496     7.9454     3.1041
  103.0000  -999.2500  -999.2500  -999.2500   -52.2206   148.0581     7.8377     3.1510
  103.5000  -999.2500  -999.2500  -999.2500   -52.2802   146.0410     7.6679     3.1486
  104.0000  -999.2500  -999.2500  -999.2500   -52.3457   145.0584     7.5092     3.0753
  104.5000  -999.2500  -999.2500  -999.2500   -52.4036   146.6467     7.3474     2.9695
  105.0000  -999.2500  -999.2500  -999.2500   -52.4760   152.7814     7.1831     2.8784
  105.5000  -999.2500  -999.2500  -999.2500   -52.4982   160.3669     7.0279     2.7716
  106.0000  -999.2500  -999.2500  -999.2500   -52.4440   167.9100     6.8489     2.7253
  106.5000  -999.2500  -999.2500  -999.2500   -52.3986   173.3911     6.7412     2.7351
  107.0000  -999.2500  -999.2500  -999.2500   -52.3481   174.9863     6.7369     3.5298
  107.5000  -999.2500  -999.2500  -999.2500   -52.3005   176.5645     6.7147     4.5040
  108.0000  -999.2500  -999.2500  -999.2500   -52.2511   178.1427     6.7001     5.5186
  108.5000  -999.2500  -999.2500  -999.2500   -52.2025   179.7355     6.6836     6.1612
  109.0000  -999.2500  -999.2500  -999.2500   -52.1533   180.7261     6.6631     6.2287
  109.5000  -999.2500  -999.2500  -999.2500   -52.1050   176.9299     6.6753     6.3574
  110.0000  -999.2500  -999.2500  -999.2500   -52.0559   172.6502     6.7337     6.4506
  110.5000  -999.2500  -999.2500  -999.2500   -52.0085   168.3750     6.7867     6.5721
  111.0000  -999.2500  -999.2500  -999.2500   -51.9567   163.7303     6.8430     6.5973
  111.5000  -999.2500  -999.2500  -999.2500   -51.9286   161.4175     6.8968     6.6146
  112.0000  -999.2500  -999.2500  -999.2500   -52.1502   158.7061     6.9590     6.6447
  112.5000  -999.2500  -999.2500  -999.2500   -52.4318   155.6815     7.0726     6.7512
  113.0000  -999.2500  -999.2500  -999.2500   -52.6810   152.4356     7.2005     6.8755
  113.5000  -999.2500  -999.2500  -999.2500   -52.6543   149.1956     7.3261     7.0001
  114.0000  -999.2500  -999.2500  -999.2500   -52.5779   145.9573     7.4525     7.1251
  114.5000  -999.2500  -999.2500  -999.2500   -52.5146   142.7174     7.5788     7.2496
  115.0000  -999.2500  -999.2500  -999.2500   -52.4434   139.4751     7.7046     7.3766
  115.5000  -999.2500  -999.2500  -999.2500   -52.3799   136.2322     7.8322     7.4921
  116.0000  -999.2500  -999.2500  -999.2500   -52.2974   134.0746     7.9514     7.5517
  116.5000  -999.2500  -999.2500  -999.2500   -52.1121   133.0634     7.9999     7.6050
  117.0000  -999.2500  -999.2500  -999.2500   -51.8988   132.8011     8.0384     7.6552
  117.5000  -999.2500  -999.2500  -999.2500   -51.7459   133.1373     8.0800     7.6675
  118.0000  -999.2500  -999.2500  -999.2500   -52.0089   133.4735     8.1190     7.6766
  118.5000  -999.2500  -999.2500  -999.2500   -52.3172   134.7953     8.1586     7.6844
  119.0000  -999.2500  -999.2500  -999.2500   -52.6267   137.0140     8.1338     7.6960
  119.5000  -999.2500  -999.2500  -999.2500   -52.8809   139.2327     8.0761     7.6820
  120.0000  -999.2500  -999.2500  -999.2500   -52.7865   141.4514     8.0249     7.6436
  120.5000  -999.2500  -999.2500  -999.2500   -52.6568   143.6702     7.9706     7.6113
  121.0000  -999.2500  -999.2500  -999.2500   -52.5351   144.9193     7.9179     7.5729
  121.5000  -999.2500  -999.2500  -999.2500   -52.4075   145.3638     7.8646     7.5068
  122.0000  -999.2500  -999.2500  -999.2500   -52.2866   145.8058     7.8111     7.4377
  122.5000  -999.2500  -999.2500  -999.2500   -52.1555   146.2468     7.7586     7.3727
  123.0000  -999.2500  -999.2500  -999.2500   -52.1109   146.6482     7.7038     7.3017
  123.5000  -999.2500  -999.2500  -999.2500   -52.1341   146.3504     7.6613     7.2831
  124.0000  -999.2500  -999.2500  -999.2500   -52.1452   146.0802     7.6693     7.3051
  124.5000  -999.2500  -999.2500  -999.2500   -52.1625   145.8090     7.6810     7.3193
  125.0000  -999.2500  -999.2500  -999.2500   -52.1764   145.5455     7.6922     7.3374
  125.5000  -999.2500  -999.2500  -999.2500   -52.1921   145.2766     7.7037     7.3534
  126.0000  -999.2500  -999.2500  -999.2500   -52.2071   145.0077     7.7147     7.3706
  126.5000  -999.2500  -999.2500  -999.2500   -52.2223   144.7387     7.7266     7.3873
  127.0000  -999.2500  -999.2500  -999.2500   -52.2377   145.5188     7.7369     7.4039
  127.5000  -999.2500  -999.2500  -999.2500   -52.2522   146.8635     7.7505     7.4165
  128.0000  -999.2500  -999.2500  -999.2500   -52.2684   148.2082     7.7500     7.3914
  128.5000  -999.2500  -999.2500  -999.2500   -52.2814   149.5529     7.6856     7.3563
  129.0000  -999.2500  -999.2500  -999.2500   -52.3007   150.8976     7.6229     7.2779
  129.5000  -999.2500  -999.2500  -999.2500   -52.2953   152.2422     7.5615     7.1707
  130.0000  -999.2500  -999.2500  -999.2500   -52.1780   153.5869     7.4976     7.0743
  130.5000  -999.2500  -999.2500  -999.2500   -52.0681   154.9316     7.4385     6.9942
  131.0000  -999.2500  -999.2500  -999.2500   -51.9565   156.2763     7.3715     6.9718
  131.5000  -999.2500  -999.2500  -999.2500   -51.8472   156.0781     7.3906     6.9526
  132.0000  -999.2500  -999.2500  -999.2500   -51.7373   155.2713     7.4587     6.9789
  132.5000  -999.2500  -999.2500  -999.2500   -51.7030   154.4949     7.5123     7.0411
  133.0000  -999.2500  -999.2500  -999.2500   -51.7075   153.6841     7.5722     7.0902
  133.5000  -999.2500  -999.2500  -999.2500   -51.7056   152.6741     7.6292     7.1439
  134.0000  -999.2500  -999.2500  -999.2500   -51.7062   152.7782     7.6869     7.1927
  134.5000  -999.2500  -999.2500  -999.2500   -51.7068   152.9156     7.7494     7.2554
  135.0000  -999.2500  -999.2500  -999.2500   -51.7046   153.0522     7.7322     7.2789
