~VERSION INFORMATION
 VERS.                2.0:   CWLS LOG ASCII STANDARD - VERSION 2.0
 WRAP.                 NO:   ONE LINE PER DEPTH STEP
~WELL INFORMATION
#MNEM.UNIT      DATA TYPE    INFORMATION
#----------   ------------   ------------------------------
 STRT.F           14.0000:   START DEPTH
 STOP.F          500.0000:   STOP DEPTH
 STEP.F            0.1000:   STEP LENGTH
 NULL.          -999.2500:   NO VALUE
 COMP. LAWRENCE/ALLISON INC:   COMPANY
 WELL.    72-46 SX #10-10:   WELL
 FLD .             TEAPOT:   FIELD
 LOC .      S10 T38N R78W:   LOCATION
 CNTY.            NATRONA:   COUNTY
 STAT.            WYOMING:   STATE
 CTRY. UNITED STATES OF AMERICA:   COUNTRY
 SRVC.           Gearhart:   SERVICE COMPANY
 DATE.        22-MAY-1988:   LOGDATE
 API .       490251122600:   API NUMBER
~CURVE INFORMATION
#MNEM.UNIT       API CODE    CURVE DESCRIPTION
#----------   ------------   ------------------------------
 DEPT.F                  :   
 GRR .GAPI   07 310 01 00:   GAMMA RAY
 RILD.OHMM   07 120 46 00:   INDUCTION LOG DEEP RESISTIVITY
 RILM.OHMM   07 120 44 00:   INDUCTION LOG MEDIUM RESISTIVITY
~PARAMETER INFORMATION
#MNEM.UNIT          VALUE    DESCRIPTION
#----------   ------------   ------------------------------
 PD  .                 GL:   PERMANENT DATUM
 EPD .F              5173:   ELEVATION PERMANENT DATUM
 LMF .                 KB:   LOG MEASURED FROM
 DAPD.F              10.2:   FEET ABOVE PERMANENT DATUM
 DMF .                 KB:   DRILLING MEASURED FROM
 EKB .F            5183.2:   KELLING BUSHING
 EGL .F              5173:   GROUND LEVEL
 DATE.        22-MAY-1988:   RUN DATE
 RUN .                  1:   RUN NUMBER
 DD  .F               505:   DEPTH DRILLER
 DL  .F               504:   DEPTH LOGGER
 BLI .F               500:   BOTTOM LOG INTERVAL
 TLI .F                50:   TOP LOG INTERVAL
 CS  .IN            9.625:   CASING SIZE
 CBD .F                52:   CASING BOTTOM DRILLER
 CBL .F                50:   CASING BOTTOM LOGGER
 BS  .IN             8.75:   BIT SIZE
 BSD .F               505:   BIT SIZE AT DEPTH
 DFT .                AIR:   DRILLING FLUID TYPE
 TLAB.HRS            1339:   TIME LOGGER AT BOTTOM
 LUN .               7597:   LOGGING UNIT NUMBER
 LUL .           GILLETTE:   LOGGING UNIT LOCATION
 ENGI.          HUCKFELDT:   RECORDING ENGINEER
 WITN.             STRONG:   WITNESSED BY
 CLNT.            A2DTECH:   CLIENT CODE
 ORIG.           5" PRINT:   ORIGIN OF DATA
 UWI .       490251122600:   UNIQUE WELL ID
 DICO. A2D Technologies, Inc.:   DIGITIZING COMPANY
~OTHER INFORMATION
~A   DEPT       GRR      RILD       RILM   
# ...
  105.0000   109.9847    12.2718    12.6324
  105.1000   109.7442    12.2718    12.6665
  105.2000   109.7479    12.2718    12.7198
  105.3000   109.5458    12.3295    12.7193
  105.4000   109.2981    12.3577    12.7187
  105.5000   109.0503    12.3577    12.7182
  105.6000   108.8024    12.3577    12.7177
  105.7000   108.5450    12.3577    12.7172
  105.8000   108.0656    12.3577    12.7166
  105.9000   107.5671    12.3577    12.7161
  106.0000   106.9347    12.3577    12.7155
  106.1000   106.1853    12.3577    12.6585
  106.2000   105.4087    12.3577    12.6260
  106.3000   104.3017    12.3577    12.6255
  106.4000   103.8562    12.3577    12.6249
  106.5000   103.8692    12.3577    12.6244
  106.6000   104.0061    12.3577    12.6239
  106.7000   104.0092    12.3577    12.6234
  106.8000   104.0220    12.3577    12.6229
  106.9000   104.3202    12.3577    12.6223
  107.0000   104.3227    12.3577    12.6218
  107.1000   104.4792    12.3577    12.6212
  107.2000   104.6332    12.3577    12.5585
  107.3000   104.6824    12.3577    12.5324
  107.4000   104.9438    12.3577    12.5319
  107.5000   104.9468    12.2890    12.5314
  107.6000   104.9498    12.2718    12.5308
  107.7000   104.9528    12.2718    12.5303
  107.8000   104.9558    12.2718    12.5297
  107.9000   104.9880    12.2718    12.5292
  108.0000   105.2667    12.2718    12.5287
  108.1000   105.2695    12.2718    12.5168
  108.2000   105.2724    12.2718    12.4405
  108.3000   105.3948    12.2718    12.4400
  108.4000   105.6487    12.2718    12.4394
  108.5000   105.9027    12.2718    12.4389
  108.6000   106.1984    12.2718    12.4384
  108.7000   106.4103    12.2718    12.4379
  108.8000   106.6642    12.2281    12.4373
  108.9000   107.0205    12.1580    12.4369
  109.0000   107.5738    12.1018    12.3885
  109.1000   108.3440    12.1018    12.3493
  109.2000   108.8390    12.0338    12.3313
  109.3000   109.5359    12.0176    12.2623
  109.4000   110.4303    11.9795    12.2617
  109.5000   111.4369    11.9340    12.2613
  109.6000   112.4430    11.9340    12.2180
  109.7000   113.5376    11.9340    12.1749
  109.8000   114.2271    11.8717    12.1744
  109.9000   114.2814    11.8511    12.1739
  110.0000   113.9118    11.8182    12.1734
  110.1000   113.4130    11.7687    12.1729
  110.2000   112.9146    11.7687    12.1724
  110.3000   112.3384    11.7687    12.1718
  110.4000   111.9171    11.7687    12.1630
  110.5000   111.4187    11.7687    12.0861
  110.6000   110.9201    11.7687    12.0857
  110.7000   110.4213    11.7549    12.0852
  110.8000   109.9178    11.6868    12.0847
  110.9000   109.4240    11.6868    12.0842
  111.0000   108.9254    11.6868    12.0837
  111.1000   108.5680    11.6868    12.0830
  111.2000   108.3202    11.6868    12.0826
  111.3000   108.0383    11.6868    12.0821
  111.4000   107.5010    11.6868    12.0816
  111.5000   107.5038    11.6868    12.0811
  111.6000   107.3291    11.6868    12.0806
  111.7000   107.0813    11.6868    12.0801
  111.8000   106.9041    11.6868    12.0796
  111.9000   106.8901    11.6868    12.0791
  112.0000   106.6062    11.6868    12.0786
  112.1000   106.6088    11.6868    12.0780
  112.2000   106.6119    11.6868    12.0775
  112.3000   106.6149    11.6868    12.0770
  112.4000   106.6180    11.6868    12.0765
  112.5000   106.6210    11.6868    12.0760
  112.6000   106.6241    11.6868    12.0756
  112.7000   106.6271    11.6868    12.0751
  112.8000   106.6301    11.6868    12.0745
  112.9000   106.6332    11.6868    12.0740
  113.0000   106.6362    11.6967    12.0735
  113.1000   106.6395    11.7687    12.0730
  113.2000   106.6423    11.7687    12.0725
  113.3000   106.6454    11.7687    12.0720
  113.4000   106.5218    11.7687    12.0714
  113.5000   106.3470    11.7687    12.1271
  113.6000   106.3500    11.7687    12.1551
  113.7000   106.3535    11.7687    12.1545
  113.8000   106.3561    11.8274    12.1540
  113.9000   106.1961    11.8511    12.1535
  114.0000   105.9483    11.8511    12.1530
  114.1000   105.7005    11.8663    12.1525
  114.2000   105.4526    11.9340    12.1520
  114.3000   105.2049    11.9340    12.1737
  114.4000   105.1568    11.9340    12.2362
  114.5000   105.0136    11.9340    12.2356
  114.6000   104.7659    11.9340    12.2351
  114.7000   104.5182    11.9340    12.2346
  114.8000   104.2559    11.9340    12.2341
  114.9000   104.0226    11.9340    12.2336
  115.0000   103.9574    11.9340    12.2359
  115.1000   103.7022    11.9340    12.3182
  115.2000   103.3546    11.9340    12.3767
  115.3000   103.3358    11.9281    12.4035
  115.4000   103.0567    11.8511    12.4319
  115.5000   102.8402    11.7328    12.5031
  115.6000   102.7580    11.6426    12.5764
  115.7000   102.6490    11.5759    12.5758
  115.8000   102.4013    11.5095    12.5753
  115.9000   102.1582    11.4435    12.6149
  116.0000   102.1619    11.3652    12.6624
  116.1000   101.9623    11.3652    12.6618
  116.2000   101.7144    11.3266    12.6613
  116.3000   101.5617    11.2861    12.6608
  116.4000   101.5233    11.2861    12.6603
  116.5000   101.2635    11.2861    12.6242
  116.6000   101.0277    11.2861    12.5711
  116.7000   100.9650    11.2861    12.5614
  116.8000   100.8365    11.2861    12.3957
  116.9000   100.6666    11.2861    12.3347
  117.0000   100.6454    11.2861    12.2186
  117.1000   100.3687    11.2861    12.1076
  117.2000   100.3714    11.2290    12.0229
  117.3000   100.3744    11.2077    11.8845
  117.4000   100.2631    11.1784    11.8159
  117.5000   100.0761    11.1142    11.7475
  117.6000   100.0865    11.0523    11.6411
  117.7000   100.3872    11.0523    11.5313
  117.8000   100.5943    11.0007    11.4547
  117.9000   101.1500    10.9755    11.3148
  118.0000   101.8081    10.9511    11.2535
  118.1000   102.3569    10.8883    11.1884
  118.2000   103.1417    10.8234    11.1237
  118.3000   103.8681    10.7637    11.0405
  118.4000   104.8111    10.7021    10.9189
  118.5000   105.8172    10.6734    10.8478
  118.6000   106.8235    10.6734    10.7930
  118.7000   107.8303    10.6669    10.7306
  118.8000   108.9440    10.5992    10.6685
  118.9000   108.4985    10.5449    10.6068
  119.0000   107.9999    10.5255    10.5454
  119.1000   107.6183    10.5255    10.4729
  119.2000   107.3073    10.5255    10.4726
  119.3000   106.8182    10.5231    10.4722
  119.4000   106.5272    10.4523    10.4485
  119.5000   106.3226    10.4523    10.3984
  119.6000   105.9214    10.4523    10.3979
  119.7000   105.5227    10.4523    10.3402
  119.8000   105.3206    10.4412    10.3247
  119.9000   105.3243    10.3796    10.3243
  120.0000   105.0838    10.3796    10.3239
  120.1000   105.0259    10.3796    10.3169
  120.2000   105.0290    10.3796    10.2511
  120.3000   105.1148    10.3796    10.2507
  120.4000   105.3686    10.3796    10.2503
  120.5000   105.6472    10.3796    10.2499
  120.6000   105.8764    10.3796    10.2495
  120.7000   106.3032    10.3386    10.2491
  120.8000   106.6886    10.3074    10.2485
  120.9000   106.9424    10.3074    10.2482
  121.0000   107.2087    10.3074    10.2477
  121.1000   107.7965    10.3074    10.2473
  121.2000   107.7990    10.2582    10.2469
  121.3000   107.9580    10.2358    10.2464
  121.4000   108.0073    10.2358    10.2460
  121.5000   107.8076    10.2358    10.2456
  121.6000   107.8113    10.2358    10.2452
  121.7000   107.5683    10.2358    10.2448
  121.8000   107.1283    10.1908    10.2443
  121.9000   106.7684    10.1646    10.2438
  122.0000   106.6058    10.1646    10.2434
  122.1000   106.5456    10.1646    10.2430
  122.2000   106.0033    10.1646    10.2426
  122.3000   105.7772    10.1114    10.2255
  122.4000   105.5295    10.0939    10.1705
  122.5000   105.2817    10.0939    10.1700
  122.6000   105.0338    10.0939    10.1696
  122.7000   104.7860    10.0939    10.1692
  122.8000   104.4997    10.0939    10.1687
  122.9000   104.0785    10.0939    10.1683
  123.0000   103.7383    10.0574    10.1679
  123.1000   103.3858    10.0237    10.1675
