~VERSION INFORMATION
 VERS.                2.0:   CWLS LOG ASCII STANDARD - VERSION 2.0
 WRAP.                 NO:   ONE LINE PER DEPTH STEP
~WELL INFORMATION
#MNEM.UNIT      DATA TYPE    INFORMATION
#----------   ------------   ------------------------------
 STRT.F           30.0000:   START DEPTH
 STOP.F          482.0000:   STOP DEPTH
 STEP.F            0.5000:   STEP LENGTH
 NULL.          -999.2500:   NO VALUE
 COMP. FENIX & SCISSON INC:   COMPANY
 WELL.        S 10 #72-10:   WELL
 FLD .             TEAPOT:   FIELD
 LOC .      S10 T38N R78W:   LOCATION
 CNTY.            NATRONA:   COUNTY
 STAT.            WYOMING:   STATE
 CTRY. UNITED STATES OF AMERICA:   COUNTRY
 SRVC.            Unknown:   SERVICE COMPANY
 DATE.        07-FEB-1978:   LOGDATE
 API .       490251056900:   API NUMBER
~CURVE INFORMATION
#MNEM.UNIT       API CODE    CURVE DESCRIPTION
#----------   ------------   ------------------------------
 DEPT.F                  :   
 CALD.IN     45 280 60 00:   CALIPER FROM DENSITY LOG
 CORR.G/C3   45 356 01 00:   DENSITY CORRECTION
 DPHI.DEC    45 890 12 00:   DENSITY POROSITY SANDSTONE
 GRD .GAPI   45 310 01 00:   GAMMA RAY FROM DENSITY LOG
 RHOB.G/C3   45 350 01 00:   BULK DENSITY
 SN  .OHMM   05 040 16 00:   SHORT NORMAL 16"
 SPR .MV     05 010 01 00:   SPONTANEOUS POTENTIAL FROM RES.
 ILD .OHMM   05 120 46 00:   INDUCTION LOG DEEP
~PARAMETER INFORMATION
#MNEM.UNIT          VALUE    DESCRIPTION
#----------   ------------   ------------------------------
 PD  .                 GL:   PERMANENT DATUM
 EPD .F              5174:   ELEVATION PERMANENT DATUM
 LMF .                 KB:   LOG MEASURED FROM
 DMF .                 KB:   DRILLING MEASURED FROM
 EKB .F              5177:   KELLING BUSHING
 EGL .F              5174:   GROUND LEVEL
 DATE.        07-FEB-1978:   RUN DATE
 RUN .                  1:   RUN NUMBER
 DD  .F               469:   DEPTH DRILLER
 DL  .F               482:   DEPTH LOGGER
 BLI .F               474:   BOTTOM LOG INTERVAL
 TLI .F                44:   TOP LOG INTERVAL
 CS  .IN            8.625:   CASING SIZE
 CBD .F                39:   CASING BOTTOM DRILLER
 CBL .F                42:   CASING BOTTOM LOGGER
 BS  .IN            7.875:   BIT SIZE
 BSD .F               469:   BIT SIZE AT DEPTH
 DFT .    LIGNO/SULF FULL:   DRILLING FLUID TYPE
 DFD .                8.7:   DRILLING FLUID DENSITY
 DFV .                 31:   DRILLING FLUID VISCOSITY
 DFPH.                  9:   DRILLING FLUID PH
 DFL .                4.8:   DRILLING FLUID LOSS
 MSS .           FLOWLINE:   MUD SAMPLE SOURCE
 RMS .OHMM             .9:   RESISTIVITY MUD SAMPLE
 MST .F                50:   MUD SAMPLE TEMPERATURE
 RMF .OHMM            .65:   RESISTIVITY MUD FILTRATE SAMPLE
 MFST.F                58:   MUD FILTRATE SAMPLE TEMPERATURE
 RMC .OHMM            1.2:   RESISTIVITY MUD CAKE
 MCST.F                58:   MUD CAKE SAMPLE TEMPERATURE
 MFSS.               MEAS:   MUD FILTRATE SAMPLE SOURCE
 RMB .OHMM            .55:   RESISTIVITY MUD AT BHT
 BHT .F                82:   BOTTOM HOLE TEMPERATURE
 TCS .HRS               3:   TIME CURCULATED STOPPED
 MRT .F                82:   MAXIMUM RECORDED TEMPERATURE
 LUN .               2958:   LOGGING UNIT NUMBER
 LUL .               CASP:   LOGGING UNIT LOCATION
 ENGI.            POINTER:   RECORDING ENGINEER
 WITN.         HARRINGTON:   WITNESSED BY
 CLNT.            A2DTECH:   CLIENT CODE
 ORIG.           5" PRINT:   ORIGIN OF DATA
 UWI .       490251056900:   UNIQUE WELL ID
 DICO. A2D Technologies, Inc.:   DIGITIZING COMPANY
~OTHER INFORMATION
~A   DEPT     CALD       CORR       DPHI         GRD      RHOB         SN        SPR        ILD   
# ...
  394.5000     8.0043     0.0888     0.1583    69.4133     2.3833    16.0195   -31.5737    18.0941
  395.0000     7.9896     0.1027     0.1537    68.5278     2.3893    15.9187   -31.5662    17.9740
  395.5000     7.9748     0.1150     0.1466    66.8983     2.4022    15.7116   -31.5588    17.8543
  396.0000     7.8262     0.1252     0.1396    65.1199     2.4105    15.7213   -31.7006    17.6088
  396.5000     7.9752     0.1299     0.1372    63.3397     2.4226    15.5144   -32.2921    17.3757
  397.0000     7.9753     0.1345     0.1386    64.0910     2.4256    15.5240   -32.4339    17.1411
  397.5000     7.9755     0.1137     0.1404    62.3145     2.4196    15.3172   -32.4246    17.0098
  398.0000     7.9756     0.1018     0.1419    61.1314     2.4167    15.1180   -32.7157    16.8710
  398.5000     7.9758     0.0959     0.1443    60.5435     2.4077    15.0228   -33.0086    16.5717
  399.0000     7.9759     0.0749     0.1488    61.7413     2.3995    14.8250   -33.2997    16.4605
  399.5000     7.9760     0.0872     0.1464    63.5343     2.4018    14.7294   -33.5908    16.1271
  400.0000     7.9762     0.1054     0.1421    65.3274     2.4146    14.5355   -33.7326    16.0190
  400.5000     7.9844     0.1116     0.1382    64.8839     2.4199    14.4189   -33.5733    15.8050
  401.0000     8.0071     0.1117     0.1339    65.3770     2.4162    14.1505   -32.8070    15.7053
  401.5000     7.9780     0.1148     0.1312    67.3528     2.4264    13.9628   -32.2119    15.2829
  402.0000     7.9760     0.1224     0.1267    70.3987     2.4456    13.6809   -32.5018    14.8719
  402.5000     7.9643     0.1270     0.1189    68.4127     2.4555    13.4980   -32.8184    14.4720
  403.0000     7.9650     0.1272     0.1182    65.4946     2.4533    13.3162   -32.9318    14.1809
  403.5000     7.9506     0.1077     0.1239    64.7528     2.4352    13.2297   -32.1745    13.9920
  404.0000     7.9662     0.1017     0.1299    66.5422     2.4360    13.3286   -32.0163    13.9020
  404.5000     7.9668     0.1003     0.1293    64.9082     2.4346    13.3341   -32.1589    13.8127
  405.0000     7.9673     0.1005     0.1299    65.0600     2.4256    13.2461   -32.4486    13.8195
  405.5000     7.9827     0.1077     0.1275    65.5094     2.4309    13.0704   -33.0345    13.7306
  406.0000     7.9684     0.1368     0.1187    66.5540     2.4535    12.9841   -33.3263    13.7373
  406.5000     7.9691     0.1279     0.1178    67.0026     2.4498    12.8996   -33.6160    13.7439
  407.0000     7.9697     0.1235     0.1223    67.8992     2.4559    12.8158   -33.7564    13.7505
  407.5000     7.9703     0.1492     0.1141    66.8605     2.4649    12.7325   -33.7453    13.7572
  408.0000     7.9709     0.1418     0.1129    64.4824     2.4665    12.7390   -33.7364    13.7639
  408.5000     7.9566     0.1298     0.1132    63.8902     2.4650    12.7443   -33.7275    13.6753
  409.0000     7.9572     0.1134     0.1213    63.7436     2.4575    12.7496   -33.5694    13.6820
  409.5000     7.9429     0.1059     0.1222    65.8306     2.4440    12.7549   -33.5605    13.6887
  410.0000     7.9286     0.1136     0.1198    69.2561     2.4524    12.7601   -33.5516    13.5064
  410.5000     7.9143     0.1152     0.1176    70.8960     2.4562    12.7654   -33.5428    13.5132
  411.0000     7.9000     0.1258     0.1145    71.3454     2.4625    12.7707   -33.5339    13.5198
  411.5000     7.8708     0.1681     0.1027    71.4971     2.4931    12.6876   -33.5250    13.4341
  412.0000     7.8565     0.1577     0.1019    71.9465     2.4774    12.6052   -33.5162    13.3461
  412.5000     7.8422     0.1141     0.1134    71.5030     2.4526    12.6104   -33.3580    13.1702
  413.0000     7.8429     0.0991     0.1296    71.8036     2.4263    12.6156   -33.1999    13.0855
  413.5000     7.8285     0.0962     0.1437    71.8066     2.4158    12.4470   -33.0418    12.9998
  414.0000     7.8143     0.1099     0.1413    72.2639     2.4113    12.4522   -32.8836    12.9177
  414.5000     7.8150     0.1991     0.1211    77.2544     2.4453    12.3712   -32.5761    12.7459
  415.0000     7.8156     0.2448     0.1090    78.6606     2.4777    12.3765   -32.2687    12.6624
  415.5000     7.8757     0.2750     0.0948    76.4990     2.5123    12.3816   -32.2393    12.5825
  416.0000     7.9953     0.2735     0.0803    74.8691     2.5199    12.3009   -31.9522    12.5001
  416.5000     8.0554     0.2204     0.0972    73.3131     2.5117    12.3073   -32.2423    12.5076
  417.0000     8.0263     0.1873     0.1044    71.3808     2.4786    12.2273   -32.2312    12.4257
  417.5000     7.9969     0.1754     0.1113    72.2773     2.4658    12.1465   -32.5230    12.3472
  418.0000     7.9827     0.1906     0.1152    72.5771     2.4599    12.1528   -32.8126    12.3532
  418.5000     7.9684     0.2238     0.1061    73.7713     2.4735    12.1578   -32.8016    12.3591
  419.0000     7.9691     0.2299     0.1001    73.9223     2.4788    12.1628   -32.7927    12.3651
  419.5000     7.9697     0.2270     0.0956    71.6939     2.4811    12.0825   -33.3830    12.2841
  420.0000     7.9703     0.2331     0.0916    69.6128     2.4992    12.0888   -33.9690    12.2915
  420.5000     7.9709     0.2423     0.0871    70.2117     2.5076    12.0102   -34.1093    12.2124
  421.0000     7.9715     0.2394     0.0838    70.8099     2.5136    12.0152   -34.2497    12.2183
  421.5000     7.9720     0.2229     0.0834    70.8128     2.5175    12.0201   -34.2409    12.1383
  422.0000     7.9726     0.1733     0.0872    71.1134     2.4986    12.0251   -34.3834    12.0602
  422.5000     7.9732     0.1523     0.0997    71.4139     2.4874    12.0301   -34.5238    11.9841
  423.0000     7.9738     0.1522     0.1023    71.5657     2.4859    11.9506   -34.6642    11.9056
  423.5000     7.9744     0.1525     0.0990    72.0151     2.4867    11.8729   -34.5039    11.8290
  424.0000     7.9750     0.1376     0.1014    72.4645     2.4785    11.8791   -33.4502    11.7529
  424.5000     7.9905     0.1407     0.1074    72.7650     2.4898    11.8006   -32.9936    11.5977
  425.0000     7.9911     0.1589     0.1026    73.0656     2.4921    11.7239   -32.8354    11.5232
  425.5000     7.9768     0.1726     0.0980    73.2174     2.4967    11.5672   -32.6773    11.4491
  426.0000     7.9775     0.1742     0.0869    72.6251     2.5042    11.4137   -32.9672    11.2969
  426.5000     7.9781     0.1345     0.0962    73.2233     2.4907    11.2612   -33.1075    11.1468
  427.0000     7.9787     0.1229     0.0992    75.6072     2.4863    11.1106   -33.0985    10.9985
  427.5000     7.9793     0.1143     0.1009    77.3983     2.4810    10.9621   -33.0896    10.9277
  428.0000     7.9798     0.1204     0.1012    75.4484     2.4803    10.8907   -33.2300    10.8575
  428.5000     7.9804     0.1401     0.0979    75.0208     2.4856    10.7453   -33.2209    10.7131
  429.0000     7.9810     0.1522     0.0934    75.0615     2.4992    10.6753   -33.5107    10.5706
  429.5000     7.9965     0.1538     0.0888    75.8195     2.5023    10.5326   -33.9496    10.3580
  430.0000     7.9971     0.1419     0.0933    76.3689     2.5031    10.3918   -34.0900    10.1496
  430.5000     8.0126     0.1359     0.1065    77.1166     2.4850    10.2530   -33.9296    10.0023
  431.0000     8.0131     0.1421     0.1059    77.8636     2.4867    10.0460   -33.4730     9.7453
  431.5000     8.0137     0.1512     0.1053    79.3547     2.4882     9.8423   -33.3149     9.5404
  432.0000     8.0143     0.1528     0.1059    82.1850     2.4875     9.7063   -33.1590     9.2823
  432.5000     8.0447     0.1273     0.1083    82.5769     2.4807     9.4498   -34.0434     9.0313
  433.0000     8.0601     0.1214     0.1129    81.8925     2.4665     9.1199   -33.7360     8.5597
  433.5000     8.0756     0.1170     0.1177    85.1700     2.4530     8.2562   -33.8764     7.8255
  434.0000     8.1060     0.1216     0.1226    88.1492     2.4455     7.2405   -34.6138     6.9104
  434.5000     8.0768     0.1353     0.1386    89.3426     2.4403     6.5761   -34.9057     6.2740
