~VERSION INFORMATION
 VERS.                2.0:   CWLS LOG ASCII STANDARD - VERSION 2.0
 WRAP.                 NO:   ONE LINE PER DEPTH STEP
~WELL INFORMATION
#MNEM.UNIT      DATA TYPE    INFORMATION
#----------   ------------   ------------------------------
 STRT.F            1.0000:   START DEPTH
 STOP.F          528.0000:   STOP DEPTH
 STEP.F            0.5000:   STEP LENGTH
 NULL.          -999.2500:   NO VALUE
 COMP. LAWRENCE/ALLISON INC:   COMPANY
 WELL.     78-31 STX #3-3:   WELL
 FLD .             TEAPOT:   FIELD
 LOC .       S3 T38N R78W:   LOCATION
 CNTY.            NATRONA:   COUNTY
 STAT.            WYOMING:   STATE
 CTRY. UNITED STATES OF AMERICA:   COUNTRY
 SRVC.           Gearhart:   SERVICE COMPANY
 DATE.        26-JUN-1988:   LOGDATE
 API .       490251123100:   API NUMBER
~CURVE INFORMATION
#MNEM.UNIT       API CODE    CURVE DESCRIPTION
#----------   ------------   ------------------------------
 DEPT.F                  :   
 GRR .GAPI   07 310 01 00:   GAMMA RAY
 RILD.OHMM   07 120 46 00:   INDUCTION LOG DEEP RESISTIVITY
 RILM.OHMM   07 120 44 00:   INDUCTION LOG MEDIUM RESISTIVITY
~PARAMETER INFORMATION
#MNEM.UNIT          VALUE    DESCRIPTION
#----------   ------------   ------------------------------
 PD  .                 GL:   PERMANENT DATUM
 EPD .F              5154:   ELEVATION PERMANENT DATUM
 LMF .                 KB:   LOG MEASURED FROM
 DAPD.F                10:   FEET ABOVE PERMANENT DATUM
 DMF .                 KB:   DRILLING MEASURED FROM
 EKB .F              5164:   KELLING BUSHING
 EGL .F              5154:   GROUND LEVEL
 DATE.        26-JUN-1988:   RUN DATE
 RUN .                  1:   RUN NUMBER
 DD  .F               520:   DEPTH DRILLER
 DL  .F               536:   DEPTH LOGGER
 BLI .F             527.5:   BOTTOM LOG INTERVAL
 TLI .F                51:   TOP LOG INTERVAL
 CS  .IN            9.625:   CASING SIZE
 CBD .F                51:   CASING BOTTOM DRILLER
 CBL .F                51:   CASING BOTTOM LOGGER
 BS  .IN             8.75:   BIT SIZE
 BSD .F               520:   BIT SIZE AT DEPTH
 DFT .                AIR:   DRILLING FLUID TYPE
 TLAB.HRS            1920:   TIME LOGGER AT BOTTOM
 MRT .F                70:   MAXIMUM RECORDED TEMPERATURE
 LUN .               7597:   LOGGING UNIT NUMBER
 LUL .           GILLETTE:   LOGGING UNIT LOCATION
 ENGI.          HUCKFELDT:   RECORDING ENGINEER
 WITN.              FIVAS:   WITNESSED BY
 CLNT.            A2DTECH:   CLIENT CODE
 ORIG.           5" PRINT:   ORIGIN OF DATA
 UWI .       490251123100:   UNIQUE WELL ID
 DICO. A2D Technologies, Inc.:   DIGITIZING COMPANY
~OTHER INFORMATION
~A    DEPT       GRR     RILD       RILM   
# ...
  183.0000   109.2223     9.0229     9.0531
  183.5000   109.9100     9.0856     9.1174
  184.0000   113.8704     9.1485     9.1821
  184.5000   116.9216     9.2762     9.2562
  185.0000   117.8464     9.3406     9.3784
  185.5000   114.2362     9.3398     9.4450
  186.0000   110.3160     9.4047     9.4458
  186.5000   107.9127     9.4697     9.5129
  187.0000   108.5397     9.5353     9.5804
  187.5000   110.3788     9.6685     9.7161
  188.0000   111.0061     9.6678     9.8537
  188.5000   111.0273     9.5980     9.9234
  189.0000   111.0000     9.4006     9.6509
  189.5000   110.7656     9.3347     9.4515
  190.0000   110.4887     9.2046     9.3865
  190.5000   108.6914     9.1401     9.3219
  191.0000   109.9245     9.0759     9.1933
  191.5000   112.6727     8.9496     9.2586
  192.0000   114.8148     8.8868     9.0770
  192.5000   116.9570     8.8245     8.8312
  193.0000   115.1597     8.7017     8.6513
  193.5000   112.4534     8.5210     8.5344
  194.0000   111.2570     8.3440     8.3606
  194.5000   110.0658     8.1707     8.1904
  195.0000   109.7889     7.9455     8.0797
  195.5000   110.7189     7.7264     7.9151
  196.0000   112.2550     7.3579     7.7001
  196.5000   113.7911     6.8142     7.3316
  197.0000   115.3312     6.0945     7.0135
  197.5000   116.2777     5.5197     6.4306
  198.0000   114.0849     4.8340     5.7138
  198.5000   112.6111     4.4274     4.9029
  199.0000   111.1737     3.8725     4.0630
  199.5000   109.9826     3.5121     3.5601
  200.0000   110.3065     3.1853     3.0549
  200.5000   112.1456     3.0122     2.7717
  201.0000   113.6817     2.9292     2.6040
  201.5000   112.7936     2.9086     2.5333
  202.0000   107.1606     2.9699     2.5341
  202.5000   100.9872     3.0537     2.5901
  203.0000   100.6953     3.1141     2.6940
  203.5000   105.8654     3.4564     2.9991
  204.0000   110.7288     3.8364     3.4012
  204.5000   113.1679     4.1701     3.8574
  205.0000   114.3949     4.5964     4.4984
  205.5000   113.4970     4.9270     4.9960
  206.0000   114.7277     5.3243     5.4338
  206.5000   115.3487     5.7910     5.9101
  207.0000   115.3636     6.3271     6.2950
  207.5000   114.7724     6.5047     6.6121
  208.0000   115.6969     6.5484     6.8014
  208.5000   116.9270     6.5462     6.9476
  209.0000   118.1540     6.5444     6.9500
  209.5000   119.0780     6.4971     6.9045
  210.0000   119.3959     6.3167     6.6239
  210.5000   120.0169     6.1413     6.3106
  211.0000   120.9408     5.9293     5.9288
  211.5000   122.7739     5.6453     5.6090
  212.0000   126.1221     5.3287     5.2697
  212.5000   128.8643     5.0115     5.0909
  213.0000   128.9069     4.9754     5.0220
  213.5000   125.8637     5.0788     4.9689
  214.0000   118.5740     5.1848     5.0035
  214.5000   117.0678     5.3303     5.1091
  215.0000   116.5144     5.5561     5.2536
  215.5000   117.4421     5.7517     5.4021
  216.0000   119.5782     5.9541     5.6725
  216.5000   122.6234     6.2068     5.9982
  217.0000   125.3655     6.4702     6.3427
  217.5000   126.5925     6.6513     6.6602
  218.0000   125.3953     6.8969     7.0920
  218.5000   122.0768     7.4317     7.5519
  219.0000   120.2735     7.8559     7.8199
  219.5000   119.3788     7.9092     7.9850
  220.0000   119.3942     8.0176     8.0404
  220.5000   119.4091     8.0154     8.0398
  221.0000   120.0545     8.0132     7.9832
  221.5000   122.0030     8.0110     7.9271
  222.0000   125.2150     8.0088     7.8165
  222.5000   126.4420     7.9510     7.7075
  223.0000   125.5478     7.7843     7.6000
  223.5000   123.1384     7.5116     7.4940
  224.0000   124.3654     7.3416     7.3380
  224.5000   125.2894     7.0051     7.2357
  225.0000   126.2134     6.7632     6.9381
  225.5000   124.1070     6.2622     6.5147
  226.0000   121.6977     5.9209     6.2033
  226.5000   119.5909     5.7565     5.9033
  227.0000   122.0304     5.5966     5.6593
  227.5000   124.5001     5.5951     5.1816
  228.0000   127.3092     5.6327     4.9243
  228.5000   128.1357     5.7502     4.9933
  229.0000   128.1543     5.8304     5.2067
  229.5000   127.1499     5.9142     5.5443
  230.0000   125.9509     6.2030     6.0289
  230.5000   124.4484     6.5571     6.3751
  231.0000   123.8526     6.9313     6.7885
  231.5000   124.4782     7.3269     7.1783
  232.0000   127.5280     7.6378     7.4851
  232.5000   130.5779     7.7435     7.6968
  233.0000   131.8068     7.8495     7.9144
  233.5000   130.3042     7.9581     7.9707
  234.0000   129.0642     8.0112     8.1377
  234.5000   130.6376     8.0649     8.1942
  235.0000   131.5630     8.1760     8.1935
  235.5000   129.7370     8.1736     8.1929
  236.0000   129.8533     8.1709     8.1923
  236.5000   130.7010     8.1687     8.1918
  237.0000   128.5915     8.1665     8.1912
  237.5000   126.1785     8.1642     8.1906
  238.0000   124.9795     8.1620     8.1901
  238.5000   124.0839     8.1598     8.1895
  239.0000   124.4023     8.1576     8.1890
  239.5000   125.0243     8.1553     8.1884
  240.0000   125.9497     8.1531     8.1878
  240.5000   127.1785     8.1509     8.1873
  241.0000   128.4074     8.1486     8.1867
  241.5000   128.7258     8.1459     8.1779
  242.0000   127.5268     8.1437     8.0718
  242.5000   126.3278     8.1414     7.9593
  243.0000   126.3632     8.0827     7.8483
  243.5000   127.3091     7.8036     7.6314
  244.0000   130.9286     7.4819     7.4205
  244.5000   133.6750     7.2741     7.2155
  245.0000   133.6899     7.0721     6.9672
  245.5000   134.3118     6.8757     6.4513
  246.0000   134.6302     6.6848     6.0576
  246.5000   135.5519     6.5446     6.0150
  247.0000   133.7496     6.4521     6.0146
  247.5000   131.9436     6.3607     6.0564
  248.0000   130.1338     6.3148     6.2299
  248.5000   129.2420     6.2692     6.3204
  249.0000   128.9530     6.2675     6.3143
  249.5000   129.8788     6.3101     6.0971
  250.0000   131.1077     6.3079     5.7250
  250.5000   131.7257     6.3947     5.6452
  251.0000   131.1307     6.4829     5.7644
  251.5000   130.2352     6.5263     5.9689
  252.0000   128.4263     6.7091     6.2241
  252.5000   126.3139     6.8537     6.6277
  253.0000   124.5049     7.2394     6.9110
  253.5000   124.2104     7.7061     7.1562
  254.0000   124.2254     7.9779     7.4622
  254.5000   123.6304     7.9198     7.7270
  255.0000   122.1249     7.8626     7.9455
  255.5000   120.3160     7.4860     8.0567
  256.0000   118.5070     6.8833     8.1696
  256.5000   118.8225     6.4629     7.7714
  257.0000   120.0687     6.3716     7.0721
  257.5000   124.1074     6.3256     6.3190
  258.0000   127.7407     6.2777     5.5610
  258.5000   129.6044     6.2345     5.6389
  259.0000   131.0251     6.2325     5.7178
  259.5000   131.3405     6.3187     5.9207
  260.0000   131.3525     6.4952     6.3046
  260.5000   129.2401     6.7709     6.9037
  261.0000   126.8242     7.1794     7.4029
  261.5000   124.4082     7.6433     7.6656
  262.0000   124.1137     8.1371     8.3356
  262.5000   124.1287     8.5430     8.9383
  263.0000   123.8342     8.6620     9.1271
  263.5000   122.9387     8.8436     9.1904
  264.0000   120.8263     9.1560     9.2542
  264.5000   116.8929     9.3485     9.3838
  265.0000   115.6904     9.2175     9.4490
  265.5000   116.0064     9.0886     9.4484
  266.0000   117.8393     9.0245     9.7355
  266.5000   119.3688     9.4085    10.0603
  267.0000   121.8188     9.6060     9.9894
  267.5000   124.2742     9.6047     9.9887
  268.0000   125.8595     9.6034     9.9575
  268.5000   125.0168     9.5177     9.9178
  269.0000   120.6457     9.1431     9.7114
  269.5000   117.3193     9.0153     9.7107
  270.0000   115.8138     8.9514     9.6424
  270.5000   116.4328     9.0131     9.5746
  271.0000   117.9622     9.0749     9.5739
  271.5000   118.2747     9.2011     9.3746
  272.0000   114.6478     9.2642     9.5059
  272.5000   112.2289     9.1343     9.9818
  273.0000   111.9374     8.8202    10.0511
  273.5000   111.6489     8.3405     9.5706
