~VERSION INFORMATION
 VERS.                2.0:   CWLS LOG ASCII STANDARD - VERSION 2.0
 WRAP.                 NO:   ONE LINE PER DEPTH STEP
~WELL INFORMATION
#MNEM.UNIT      DATA TYPE    INFORMATION
#----------   ------------   ------------------------------
 STRT.F           48.0000:   START DEPTH
 STOP.F          484.0000:   STOP DEPTH
 STEP.F            0.5000:   STEP LENGTH
 NULL.          -999.2500:   NO VALUE
 COMP. BROWN JOHN E&C INC:   COMPANY
 WELL.    SX 10 #55-11-10:   WELL
 FLD .             TEAPOT:   FIELD
 LOC .      S10 T38N R78W:   LOCATION
 CNTY.            NATRONA:   COUNTY
 STAT.            WYOMING:   STATE
 CTRY. UNITED STATES OF AMERICA:   COUNTRY
 SRVC.       Schlumberger:   SERVICE COMPANY
 DATE.        29-SEP-1990:   LOGDATE
 API .       490251131800:   API NUMBER
~CURVE INFORMATION
#MNEM.UNIT       API CODE    CURVE DESCRIPTION
#----------   ------------   ------------------------------
 DEPT.F                  :   
 ILD .OHMM   07 120 46 00:   INDUCTION LOG DEEP
 ILM .OHMM   07 120 44 00:   INDUCTION LOG MEDIUM
 GRR .GAPI   07 310 01 00:   GAMMA RAY FROM RES. LOG.
~PARAMETER INFORMATION
#MNEM.UNIT          VALUE    DESCRIPTION
#----------   ------------   ------------------------------
 PD  .                 GL:   PERMANENT DATUM
 EPD .F              5216:   ELEVATION PERMANENT DATUM
 LMF .                 KB:   LOG MEASURED FROM
 DAPD.F                10:   FEET ABOVE PERMANENT DATUM
 DMF .                 KB:   DRILLING MEASURED FROM
 EKB .F              5226:   KELLING BUSHING
 EDF .F              5225:   DRILLING FLOOR
 EGL .F              5216:   GROUND LEVEL
 DATE.          9-29-1990:   RUN DATE
 RUN .                  1:   RUN NUMBER
 DD  .F               490:   DEPTH DRILLER
 DL  .F               490:   DEPTH LOGGER
 BLI .F               484:   BOTTOM LOG INTERVAL
 TLI .F                48:   TOP LOG INTERVAL
 CS  .IN            8.625:   CASING SIZE
 CBD .F                53:   CASING BOTTOM DRILLER
 CBL .F                53:   CASING BOTTOM LOGGER
 BS  .IN            7.875:   BIT SIZE
 BSD .F               490:   BIT SIZE AT DEPTH
 DFT .                AIR:   DRILLING FLUID TYPE
 TLAB.HRS            1855:   TIME LOGGER AT BOTTOM
 LUN .               6887:   LOGGING UNIT NUMBER
 LUL .               CODY:   LOGGING UNIT LOCATION
 ENGI.        MIKE FISHER:   RECORDING ENGINEER
 WITN.       GARRY STRONG:   WITNESSED BY
 CLNT.            A2DTECH:   CLIENT CODE
 ORIG.      2" & 5" PRINT:   ORIGIN OF DATA
 UWI .       490251131800:   UNIQUE WELL ID
 DICO. A2D Technologies, Inc.:   DIGITIZING COMPANY
~OTHER INFORMATION
~A   DEPT      ILD        ILM         GRR  
# ...
  139.0000     8.5740     8.5375   124.2630
  139.5000     8.6034     8.5375   125.9792
  140.0000     8.6348     8.5376   127.1397
  140.5000     8.6876     8.5467   125.7567
  141.0000     8.7408     8.5722   125.1619
  141.5000     8.7943     8.5974   125.2604
  142.0000     8.8482     8.6180   125.9308
  142.5000     8.9024     8.7257   126.5938
  143.0000     8.9569     8.8312   127.2582
  143.5000     9.0117     8.9374   127.8677
  144.0000     9.0669     9.0277   127.3813
  144.5000     9.1120     9.0277   126.1893
  145.0000     9.1844     9.0277   126.6954
  145.5000     9.2579     9.0277   128.6351
  146.0000     9.2832     9.0277   130.7892
  146.5000     9.2023     9.0250   130.6396
  147.0000     9.1475     8.9997   130.4393
  147.5000     9.0930     8.9744   130.0159
  148.0000     9.0388     8.9489   131.0916
  148.5000     8.9808     8.9304   132.9562
  149.0000     8.9030     8.8980   132.9315
  149.5000     8.8612     8.8653   132.1716
  150.0000     8.9725     8.8612   129.7257
  150.5000     8.9951     8.8612   126.2259
  151.0000     9.0180     8.8613   122.4739
  151.5000     9.0278     8.8610   118.6877
  152.0000     8.9495     8.8464   117.7991
  152.5000     8.8926     8.8078   119.6423
  153.0000     8.8462     8.7697   121.8814
  153.5000     8.7861     8.7317   123.9393
  154.0000     8.7264     8.6954   124.5009
  154.5000     8.6262     8.6762   125.9316
  155.0000     8.4900     8.6564   128.1831
  155.5000     8.4451     8.6367   130.0358
  156.0000     8.4275     8.6173   129.4898
  156.5000     8.4101     8.5204   128.2795
  157.0000     8.3926     8.4031   127.8528
  157.5000     8.3613     8.2875   129.0795
  158.0000     8.2951     8.1735   130.2771
  158.5000     8.2294     8.0611   128.7276
  159.0000     8.1642     7.9505   124.7794
  159.5000     7.9300     7.7462   121.9364
  160.0000     7.6552     7.5205   122.1568
  160.5000     7.3898     7.3016   122.9785
  161.0000     7.1337     7.0890   122.7645
  161.5000     6.8291     6.8990   123.6758
  162.0000     6.8684     6.7803   126.2086
  162.5000     6.9459     6.7032   129.8913
  163.0000     7.0252     6.8677   131.3655
  163.5000     7.1521     7.0154   131.0261
  164.0000     7.3374     7.1644   130.0495
  164.5000     7.5234     7.3037   130.0260
  165.0000     7.7150     7.4939   129.9501
  165.5000     7.8522     7.7071   128.5477
  166.0000     7.8726     7.7549   127.5342
  166.5000     7.9014     7.8080   129.5135
  167.0000     7.9286     7.8522   131.9316
  167.5000     7.9475     7.8518   132.1851
  168.0000     7.9665     7.8519   131.7589
  168.5000     7.9855     7.8515   131.3168
  169.0000     7.9993     7.8525   130.8819
  169.5000     7.9125     7.7602   130.6627
  170.0000     7.8334     7.6987   130.4129
  170.5000     7.7551     7.6377   131.4632
  171.0000     7.7071     7.5772   132.8425
  171.5000     7.6525     7.5172   133.6360
  172.0000     7.4011     7.3467   133.3206
  172.5000     7.1579     7.1145   131.3757
  173.0000     6.9227     6.8256   127.1566
  173.5000     6.6487     6.3672   122.9849
  174.0000     6.2886     5.9464   122.9455
  174.5000     5.9396     5.5899   124.7756
  175.0000     5.8846     5.4625   125.5626
  175.5000     5.9626     5.6059   125.5510
  176.0000     6.0286     5.8399   125.6052
  176.5000     6.1299     6.0825   126.8222
  177.0000     6.4296     6.3348   127.4897
  177.5000     6.7439     6.5977   126.6160
  178.0000     7.0880     6.8291   124.1796
  178.5000     7.2780     7.2307   121.7979
  179.0000     7.5351     7.4646   123.9530
  179.5000     7.7111     7.7063   126.9950
  180.0000     7.8348     7.7441   131.4873
  180.5000     7.9604     7.7886   134.5442
  181.0000     8.0129     7.8334   135.0048
  181.5000     8.0402     7.8783   136.0438
  182.0000     8.0677     7.9252   138.1572
  182.5000     8.1794     8.1098   140.8907
  183.0000     8.3184     8.3056   138.9061
  183.5000     8.4597     8.4585   135.4968
  184.0000     8.6233     8.4673   132.1047
  184.5000     8.6462     8.5010   131.4650
  185.0000     8.6692     8.5371   131.9520
  185.5000     8.6920     8.5893   130.9437
  186.0000     8.7549     8.6608   128.0770
  186.5000     8.8312     8.7330   125.0629
  187.0000     8.8818     8.8058   125.9525
  187.5000     8.9158     8.8612   129.2628
  188.0000     8.9499     8.8612   132.7840
  188.5000     8.9842     8.8612   136.4381
  189.0000     9.0277     8.8329   138.2889
  189.5000     9.0051     8.8018   137.0186
  190.0000     8.9744     8.7707   134.8739
  190.5000     8.9441     8.7398   132.4966
  191.0000     8.8946     8.6975   130.1117
  191.5000     8.8351     8.6987   128.4197
  192.0000     8.7782     8.5723   129.1537
  192.5000     8.6294     8.4735   130.8515
  193.0000     8.4932     8.3757   131.2248
  193.5000     8.3626     8.2790   130.4290
  194.0000     8.2525     8.1835   129.5483
  194.5000     8.1438     8.0890   128.6736
  195.0000     8.0366     7.9993   127.8001
  195.5000     7.8077     7.7612   126.9204
  196.0000     7.5214     7.4883   126.0242
  196.5000     7.2457     7.2250   127.0380
  197.0000     6.9800     6.7311   128.2609
  197.5000     6.6687     6.1882   128.7921
  198.0000     6.1049     5.6891   128.7451
  198.5000     5.5894     5.2303   131.0574
  199.0000     5.1135     4.7741   130.9612
  199.5000     4.5943     4.2997   128.7843
  200.0000     3.9116     3.8538   125.6220
  200.5000     3.3362     3.4543   123.8248
  201.0000     3.2058     3.0961   124.7370
  201.5000     3.0969     2.9234   125.2225
  202.0000     2.9929     2.9090   122.6560
  202.5000     2.9562     2.9007   118.4227
  203.0000     2.9951     2.9751   115.9815
  203.5000     3.0682     3.0682   117.2876
  204.0000     3.3956     3.2078   121.0771
  204.5000     3.7884     3.5775   126.2960
  205.0000     4.2266     4.0466   129.6172
  205.5000     4.7155     4.5626   131.4189
  206.0000     5.2143     4.9171   134.6744
  206.5000     5.5713     5.2909   138.7919
  207.0000     5.9255     5.6932   139.7928
  207.5000     6.2968     6.1260   137.8013
  208.0000     6.5833     6.4079   134.6628
  208.5000     6.7659     6.6411   133.3958
  209.0000     6.6572     6.5643   136.0340
  209.5000     6.5549     6.4194   141.6335
  210.0000     6.3231     6.2261   147.4822
  210.5000     6.0995     6.0362   152.9092
  211.0000     5.8863     5.7945   151.8770
  211.5000     5.7577     5.5483   149.5564
  212.0000     5.6073     5.4014   147.1003
  212.5000     5.4595     5.2762   144.9950
  213.0000     5.3160     5.2014   143.2308
  213.5000     5.1181     5.1789   140.7690
  214.0000     5.2459     5.1663   138.6123
  214.5000     5.4599     5.3836   138.4593
  215.0000     5.6826     5.5911   140.2696
  215.5000     5.9137     5.8121   143.3235
  216.0000     6.1562     6.0443   145.7013
  216.5000     6.5189     6.2677   145.1899
  217.0000     6.8218     6.5760   142.0387
  217.5000     7.1371     6.8993   140.4437
  218.0000     7.4669     7.2386   141.8997
  218.5000     7.8120     7.5946   146.0925
  219.0000     7.9965     7.9280   147.2618
  219.5000     8.0969     7.9535   144.9858
  220.0000     8.1495     7.9790   142.0866
  220.5000     8.0728     7.9993   139.4937
  221.0000     7.9768     7.8993   138.9041
  221.5000     7.8815     7.8173   138.2091
  222.0000     7.7874     7.7363   137.5095
  222.5000     7.6859     7.6558   137.1696
  223.0000     7.5322     7.5072   139.2832
  223.5000     7.3814     7.3383   142.1222
  224.0000     7.2349     7.1740   145.0143
  224.5000     7.0583     7.0213   146.1393
  225.0000     6.8536     6.7974   145.9906
  225.5000     6.6411     6.5796   145.6880
  226.0000     6.2629     6.2110   145.5180
  226.5000     5.8818     5.8393   146.3881
  227.0000     5.5211     5.4852   148.0595
  227.5000     5.1788     5.1376   150.3528
  228.0000     4.8855     4.8403   152.2598
  228.5000     4.9773     4.9829   148.3593
  229.0000     5.3191     5.1609   141.7179
  229.5000     5.8301     5.9396   139.8021
