~VERSION INFORMATION
 VERS.                2.0:   CWLS LOG ASCII STANDARD - VERSION 2.0
 WRAP.                 NO:   ONE LINE PER DEPTH STEP
~WELL INFORMATION
#MNEM.UNIT      DATA TYPE    INFORMATION
#----------   ------------   ------------------------------
 STRT.F           32.0000:   START DEPTH
 STOP.F          697.0000:   STOP DEPTH
 STEP.F            0.5000:   STEP LENGTH
 NULL.          -999.2500:   NO VALUE
 COMP.    FENIX & SCISSON:   COMPANY
 WELL.      NPR-3 #81S3-3:   WELL
 FLD .        TEAPOT DOME:   FIELD
 LOC .       S3 T38N R78W:   LOCATION
 CNTY.            NATRONA:   COUNTY
 STAT.            WYOMING:   STATE
 CTRY. UNITED STATES OF AMERICA:   COUNTRY
 SRVC.           BIRDWELL:   SERVICE COMPANY
 DATE.        11-JAN-1978:   LOGDATE
 API .       490251055400:   API NUMBER
~CURVE INFORMATION
#MNEM.UNIT       API CODE    CURVE DESCRIPTION
#----------   ------------   ------------------------------
 DEPT.F                  :   
 ILD .OHMM   05 120 46 00:   INDUCTION LOG DEEP
 SN  .OHMM   05 040 16 00:   SHORT NORMAL 16"
 SPR .MV     05 010 01 00:   SPONTANEOUS POTENTIAL FROM RES.
 CALD.IN     45 280 60 00:   CALIPER FROM DENSITY LOG
 DPHI.DEC    45 890 12 00:   DENSITY POROSITY SANDSTONE
 DRHO.G/C3   45 356 01 00:   DENSITY CORRECTION
 GRD .GAPI   45 310 01 00:   GAMMA RAY FROM DENSITY LOG
 RHOB.G/C3   45 350 01 00:   BULK DENSITY
~PARAMETER INFORMATION
#MNEM.UNIT          VALUE    DESCRIPTION
#----------   ------------   ------------------------------
 PD  .                 GL:   PERMANENT DATUM
 EPD .F              5119:   ELEVATION PERMANENT DATUM
 LMF .                 KB:   LOG MEASURED FROM
 DAPD.F                 4:   FEET ABOVE PERMANENT DATUM
 DMF .                 KB:   DRILLING MEASURED FROM
 EKB .F              5123:   KELLING BUSHING
 EGL .F              5119:   GROUND LEVEL
 DATE.        11-JAN-1978:   RUN DATE
 RUN .                  1:   RUN NUMBER
 DD  .F               695:   DEPTH DRILLER
 DL  .F               704:   DEPTH LOGGER
 BLI .F               697:   BOTTOM LOG INTERVAL
 TLI .F                40:   TOP LOG INTERVAL
 CS  .IN            8.625:   CASING SIZE
 CBD .F                40:   CASING BOTTOM DRILLER
 CBL .F                40:   CASING BOTTOM LOGGER
 BS  .IN            7.875:   BIT SIZE
 BSD .F               695:   BIT SIZE AT DEPTH
 DFT .                KCL:   DRILLING FLUID TYPE
 DFD .                8.6:   DRILLING FLUID DENSITY
 DFV .                 31:   DRILLING FLUID VISCOSITY
 DFPH.                9.5:   DRILLING FLUID PH
 DFL .                7.6:   DRILLING FLUID LOSS
 MSS .           FLOWLINE:   MUD SAMPLE SOURCE
 RMS .OHMM           0.32:   RESISTIVITY MUD SAMPLE
 MST .F                62:   MUD SAMPLE TEMPERATURE
 RMF .OHMM           0.32:   RESISTIVITY MUD FILTRATE SAMPLE
 MFST.F                62:   MUD FILTRATE SAMPLE TEMPERATURE
 RMC .OHMM            0.8:   RESISTIVITY MUD CAKE
 MCST.F                63:   MUD CAKE SAMPLE TEMPERATURE
 MFSS.               MEAS:   MUD FILTRATE SAMPLE SOURCE
 MCSS.               MEAS:   MUD CAKE SAMPLE SOURCE
 TCS .HRS               2:   TIME CURCULATED STOPPED
 LUN .               2958:   LOGGING UNIT NUMBER
 LUL .             CASPER:   LOGGING UNIT LOCATION
 ENGI.           REYNOLDS:   RECORDING ENGINEER
 WITN.         HARRINGTON:   WITNESSED BY
 CLNT.            A2DTECH:   CLIENT CODE
 ORIG.           5" PRINT:   ORIGIN OF DATA
 UWI .       490251055400:   UNIQUE WELL ID
 DICO. A2D Technologies, Inc.:   DIGITIZING COMPANY
~OTHER INFORMATION
~A   DEPT      ILD         SN        SPR       CALD       DPHI       DRHO         GRD      RHOB   
# ...
  518.0000    26.0798    18.9802   -31.2235     8.5730     0.1314     0.1488    66.0119     2.4140
  518.5000    26.0889    18.8685   -31.6865     8.5879     0.1355     0.1644    66.7642     2.3998
  519.0000    26.0990    18.6973   -31.2088     8.5735     0.1490     0.1790    69.3037     2.3780
  519.5000    26.1080    18.5261   -30.7536     8.5591     0.1628     0.1760    69.9043     2.3740
  520.0000    25.9343    18.3549   -30.2985     8.5595     0.1579     0.1746    68.2723     2.3833
  520.5000    25.0809    18.2325   -30.1418     8.5451     0.1519     0.1747    67.9787     2.3909
  521.0000    25.0878    18.2377   -30.7463     8.5455     0.1456     0.1747    68.4332     2.3969
  521.5000    24.9036    18.1165   -31.4704     8.5460     0.1398     0.1252    69.0353     2.4082
  522.0000    24.4147    17.9964   -31.4612     8.5911     0.1224     0.1192    69.9354     2.4210
  522.5000    24.0866    17.8771   -31.6049     8.6064     0.1076     0.1313    68.4510     2.4399
  523.0000    24.2609    17.6372   -31.7450     8.6068     0.1410     0.1434    66.5195     2.4062
  523.5000    23.6036    17.5191   -31.8887     8.6073     0.1506     0.1464    66.2259     2.3780
  524.0000    22.9640    17.5251   -32.1798     8.6077     0.1630     0.1495    65.9338     2.3745
  524.5000    22.4958    17.5299   -32.3217     8.6082     0.1509     0.1496    65.7906     2.3837
  525.0000    22.3464    17.5347   -32.3125     8.6086     0.1497     0.1496    65.7981     2.3927
  525.5000    22.3541    17.5394   -32.3051     8.6091     0.1455     0.1497    66.2511     2.3994
  526.0000    22.3602    17.5442   -32.1485     8.6095     0.1331     0.1317    66.7041     2.4197
  526.5000    22.5220    17.5490   -31.6934     8.6100     0.1241     0.0957    67.3047     2.4512
  527.0000    22.5277    17.5538   -32.5815     8.6105     0.1174     0.0822    66.7145     2.4715
  527.5000    22.5343    17.5586   -32.8745     8.6110     0.1111     0.0807    66.5714     2.4693
  528.0000    22.5404    17.5634   -31.6713     8.6113     0.1189     0.0868    65.9827     2.4145
  528.5000    22.5466    17.5683   -31.6418     8.6118     0.1436     0.0929    66.4357     2.4010
  529.0000    22.5528    17.5554   -31.8058     8.6123     0.1505     0.0960    67.4848     2.3942
  529.5000    22.5590    17.4565   -32.0969     8.6127     0.1517     0.0885    68.0869     2.3905
  530.0000    22.5652    17.3407   -32.3881     8.6132     0.1439     0.0690    66.1554     2.4003
  530.5000    22.5715    17.1069   -32.5299     8.6135     0.1327     0.0645    65.7127     2.4296
  531.0000    22.4214    16.8762   -32.5224     8.6289     0.1264     0.0643    67.8066     2.4372
  531.5000    21.9672    16.8819   -32.3657     8.6294     0.1378     0.0640    69.8989     2.4146
  532.0000    21.3720    16.7689   -32.2075     8.6298     0.1384     0.0638    69.9049     2.4132
  532.5000    20.9377    16.6588   -32.3494     8.6452     0.1354     0.0636    70.2089     2.4124
  533.0000    20.6535    16.5472   -32.9408     8.6605     0.1347     0.0634    71.2580     2.4140
  533.5000    20.3746    16.6679   -33.3812     8.6609     0.1371     0.0634    71.8601     2.4162
  534.0000    20.2393    16.6725   -33.5231     8.6019     0.1383     0.0620    71.8660     2.4200
  534.5000    20.1057    16.4465   -33.5139     8.5724     0.1365     0.0605    72.1700     2.4238
  535.0000    19.9714    16.1139   -33.5065     8.6772     0.1341     0.0591    72.9211     2.4276
  535.5000    19.8388    16.1063   -33.7977     8.6776     0.1326     0.0607    73.2251     2.4268
  536.0000    19.7071    16.0585   -34.0907     8.6631     0.1323     0.0637    73.0741     2.4231
  536.5000    19.5762    16.0108   -34.0814     8.6636     0.1329     0.0683    68.2586     2.4201
  537.0000    19.1797    15.9631   -34.3744     8.6788     0.1331     0.0759    66.0893     2.4186
  537.5000    19.1849    15.9154   -34.3652     8.6496     0.1325     0.0805    66.8778     2.4186
  538.0000    19.0575    15.8676   -34.5089     8.5757     0.1310     0.0850    68.5017     2.4224
  538.5000    18.9310    15.8199   -35.0967     8.6356     0.1280     0.0866    68.7899     2.4345
  539.0000    18.8053    15.7722   -34.4924     8.7105     0.1238     0.0836    68.6466     2.4458
  539.5000    18.7920    15.7245   -34.0372     8.7257     0.1162     0.0821    68.5035     2.4549
  540.0000    18.5577    15.7025   -34.0299     8.7113     0.1093     0.0792    68.5109     2.4594
  540.5000    18.4345    15.6126   -33.8731     8.6968     0.1069     0.0778    68.5168     2.4625
  541.0000    18.1855    15.6179   -34.0298     8.6676     0.1050     0.0764    67.3305     2.4662
  541.5000    18.1905    15.6222   -34.7986     8.6532     0.1089     0.0779    64.0577     2.4578
  542.0000    18.0685    15.6254   -35.0451     8.6386     0.1183     0.0795    65.5540     2.4444
  542.5000    17.9485    15.6136   -34.1404     8.6242     0.1213     0.0826    67.1992     2.4452
  543.0000    17.8293    15.6028   -33.9838     8.5949     0.1200     0.0826    67.3542     2.4512
  543.5000    17.7109    15.5920   -33.9764     8.5656     0.1113     0.0812    67.2096     2.4625
  544.0000    17.5933    15.5812   -33.9690     8.5661     0.1053     0.0782    67.6641     2.4686
  544.5000    17.5993    15.5704   -35.0083     8.5666     0.1031     0.0753    68.1171     2.4708
  545.0000    17.4813    15.5596   -35.4487     8.5968     0.0998     0.0753    68.6339     2.4754
  545.5000    17.3664    15.5483   -35.7398     8.6270     0.0968     0.0754    69.0232     2.4814
  546.0000    17.3712    15.5525   -36.0291     8.6423     0.0971     0.0755    68.2839     2.4777
  546.5000    17.2558    15.5568   -36.0217     8.6428     0.0983     0.0770    67.3957     2.4739
  547.0000    17.2605    15.2411   -36.1655     8.6730     0.1001     0.0771    67.8487     2.4755
  547.5000    17.1459    15.2453   -36.4566     8.6883     0.0989     0.0756    69.7920     2.4830
  548.0000    17.0321    15.2495   -36.7477     8.7036     0.0934     0.0757    71.2883     2.4905
  548.5000    17.0177    15.2537   -37.0370     8.7041     0.0883     0.0743    71.4417     2.4951
  549.0000    16.9239    15.2577   -37.0297     8.7194     0.0868     0.0728    71.0006     2.4958
  549.5000    16.9286    15.2411   -36.8730     8.7198     0.0907     0.0729    70.5609     2.4906
  550.0000    16.9333    15.2252   -36.8657     8.7203     0.0946     0.0699    65.0527     2.4838
  550.5000    16.9380    15.2094   -36.7090     8.7057     0.0930     0.0640    63.4192     2.4861
  551.0000    16.9427    15.1935   -36.5522     8.7063     0.0900     0.0625    64.3194     2.4922
  551.5000    16.9474    15.1777   -36.2463     8.6917     0.0879     0.0581    68.2001     2.4944
  552.0000    16.9521    15.1786   -36.0881     8.6923     0.0885     0.0551    69.1002     2.4907
  552.5000    16.9568    15.1828   -36.3792     8.6777     0.0900     0.0507    71.1926     2.4900
  553.0000    16.9615    15.0811   -36.9689     8.6783     0.0909     0.0477    74.6262     2.4900
  553.5000    16.9662    15.1080   -36.8122     8.6788     0.0921     0.0476    75.0792     2.4878
  554.0000    16.9709    15.1760   -36.0586     8.6642     0.0962     0.0554    74.9361     2.4735
  554.5000    16.9756    15.3046   -35.7527     8.6648     0.1045     0.0554    74.9421     2.4653
  555.0000    16.9803    15.4152   -35.7453     8.6652     0.1099     0.0570    75.0970     2.4608
  555.5000    16.9851    15.5266   -36.1857     8.6664     0.1063     0.0586    75.5500     2.4616
  556.0000    16.9872    15.7213   -36.7754     8.6685     0.1032     0.0617    75.5560     2.4661
  556.5000    16.9893    15.7235   -36.6774     8.6706     0.1117     0.0679    74.8167     2.4562
  557.0000    16.9915    15.7257   -36.6744     8.6727     0.1150     0.0770    73.1833     2.4502
  557.5000    16.9936    15.7278   -36.6714     8.6749     0.1141     0.0860    72.4391     2.4503
  558.0000    16.9958    15.7300   -36.6685     8.6770     0.1089     0.0904    71.5440     2.4533
