~VERSION INFORMATION
 VERS.                2.0:   CWLS LOG ASCII STANDARD - VERSION 2.0
 WRAP.                 NO:   ONE LINE PER DEPTH STEP
~WELL INFORMATION
#MNEM.UNIT      DATA TYPE    INFORMATION
#----------   ------------   ------------------------------
 STRT.F           46.0000:   START DEPTH
 STOP.F         2100.0000:   STOP DEPTH
 STEP.F            0.5000:   STEP LENGTH
 NULL.          -999.2500:   NO VALUE
 COMP. LAWRENCE/ALLISON INC:   COMPANY
 WELL.    58-21 SX #10-10:   WELL
 FLD .             TEAPOT:   FIELD
 LOC .      S10 T38N R78W:   LOCATION
 CNTY.            NATRONA:   COUNTY
 STAT.            WYOMING:   STATE
 CTRY. UNITED STATES OF AMERICA:   COUNTRY
 SRVC.           Gearhart:   SERVICE COMPANY
 DATE.        06-JUL-1987:   LOGDATE
 API .       490251114400:   API NUMBER
~CURVE INFORMATION
#MNEM.UNIT       API CODE    CURVE DESCRIPTION
#----------   ------------   ------------------------------
 DEPT.F                  :   
 GR  .GAPI   81 310 01 00:   GAMMA RAY
 TGAS.UNITS  91 830 01 00:   TOTAL GAS FROM HOTWIRE
 ROP .MIN/FT 91 810 01 00:   RAT OF DRILLING PENETRATION
~PARAMETER INFORMATION
#MNEM.UNIT          VALUE    DESCRIPTION
#----------   ------------   ------------------------------
 PD  .                 GL:   PERMANENT DATUM
 EPD .F              5219:   ELEVATION PERMANENT DATUM
 LMF .                 KB:   LOG MEASURED FROM
 DAPD.F                 8:   FEET ABOVE PERMANENT DATUM
 DMF .                 KB:   DRILLING MEASURED FROM
 EKB .F              5227:   KELLING BUSHING
 EDF .F              5225:   DRILLING FLOOR
 EGL .F              5219:   GROUND LEVEL
 DATE.             7-6-87:   RUN DATE
 RUN .                  1:   RUN NUMBER
 DD  .F               610:   DEPTH DRILLER
 DL  .F             531.5:   DEPTH LOGGER
 BLI .F               526:   BOTTOM LOG INTERVAL
 TLI .F                50:   TOP LOG INTERVAL
 BS  .IN            7.875:   BIT SIZE
 BSD .F               610:   BIT SIZE AT DEPTH
 DFT .              WATER:   DRILLING FLUID TYPE
 LUN .               6084:   LOGGING UNIT NUMBER
 LUL .           GILLETTE:   LOGGING UNIT LOCATION
 ENGI.                COX:   RECORDING ENGINEER
 WITN.               LOWE:   WITNESSED BY
 CLNT.            A2DTECH:   CLIENT CODE
 ORIG.           5" PRINT:   ORIGIN OF DATA
 UWI .       490251114400:   UNIQUE WELL ID
 DICO. A2D Technologies, Inc.:   DIGITIZING COMPANY
~OTHER INFORMATION
~A   DEPT        GR      TGAS        ROP   
# ...
 1229.0000  -999.2500     5.9447     0.4945
 1229.5000  -999.2500     5.6665     0.4937
 1230.0000  -999.2500     5.3860     0.4913
 1230.5000  -999.2500     5.2666     0.4888
 1231.0000  -999.2500     5.2644     0.4863
 1231.5000  -999.2500     5.2649     0.4837
 1232.0000  -999.2500     5.2988     0.4812
 1232.5000  -999.2500     5.3963     0.4786
 1233.0000  -999.2500     5.4927     0.4761
 1233.5000  -999.2500     5.5893     0.4736
 1234.0000  -999.2500     5.6858     0.4710
 1234.5000  -999.2500     5.7823     0.4685
 1235.0000  -999.2500     5.8788     0.4660
 1235.5000  -999.2500     5.9753     0.4634
 1236.0000  -999.2500     6.0720     0.4609
 1236.5000  -999.2500     6.1691     0.4583
 1237.0000  -999.2500     6.2640     0.4566
 1237.5000  -999.2500     6.2681     0.4590
 1238.0000  -999.2500     6.2670     0.4613
 1238.5000  -999.2500     6.2328     0.4636
 1239.0000  -999.2500     6.1378     0.4659
 1239.5000  -999.2500     6.0438     0.4682
 1240.0000  -999.2500     5.9496     0.4706
 1240.5000  -999.2500     5.8555     0.4729
 1241.0000  -999.2500     5.7614     0.4752
 1241.5000  -999.2500     5.6673     0.4775
 1242.0000  -999.2500     5.5732     0.4798
 1242.5000  -999.2500     5.4791     0.4809
 1243.0000  -999.2500     5.3850     0.4800
 1243.5000  -999.2500     5.2909     0.4791
 1244.0000  -999.2500     5.1968     0.4782
 1244.5000  -999.2500     5.1027     0.4773
 1245.0000  -999.2500     5.0085     0.4764
 1245.5000  -999.2500     4.9144     0.4755
 1246.0000  -999.2500     4.8219     0.4746
 1246.5000  -999.2500     4.7653     0.4737
 1247.0000  -999.2500     4.7506     0.4727
 1247.5000  -999.2500     4.3961     0.4718
 1248.0000  -999.2500     4.1275     0.4709
 1248.5000  -999.2500     3.7824     0.4700
 1249.0000  -999.2500     3.7820     0.4691
 1249.5000  -999.2500     3.7991     0.4688
 1250.0000  -999.2500     3.8151     0.4688
 1250.5000  -999.2500     3.8303     0.4688
 1251.0000  -999.2500     3.8456     0.4688
 1251.5000  -999.2500     3.8608     0.4688
 1252.0000  -999.2500     3.8760     0.4688
 1252.5000  -999.2500     3.8912     0.4688
 1253.0000  -999.2500     3.9064     0.4688
 1253.5000  -999.2500     3.9216     0.4688
 1254.0000  -999.2500     3.9368     0.4688
 1254.5000  -999.2500     3.9520     0.4688
 1255.0000  -999.2500     3.9672     0.4688
 1255.5000  -999.2500     3.9824     0.4688
 1256.0000  -999.2500     3.9976     0.4688
 1256.5000  -999.2500     4.0129     0.4688
 1257.0000  -999.2500     4.0281     0.4688
 1257.5000  -999.2500     4.0433     0.4688
 1258.0000  -999.2500     4.0585     0.4688
 1258.5000  -999.2500     4.0737     0.4688
 1259.0000  -999.2500     4.0889     0.4688
 1259.5000  -999.2500     4.1041     0.4688
 1260.0000  -999.2500     4.1193     0.4688
 1260.5000  -999.2500     4.1345     0.4688
 1261.0000  -999.2500     4.1497     0.4688
 1261.5000  -999.2500     4.1649     0.4688
 1262.0000  -999.2500     4.1802     0.4688
 1262.5000  -999.2500     4.1954     0.4685
 1263.0000  -999.2500     4.2106     0.4678
 1263.5000  -999.2500     4.2258     0.4973
 1264.0000  -999.2500     4.2410     0.5188
 1264.5000  -999.2500     4.2563     0.5384
 1265.0000  -999.2500     4.2618     0.5616
 1265.5000  -999.2500     4.2618     0.5851
 1266.0000  -999.2500     4.2618     0.6088
 1266.5000  -999.2500     4.2618     0.6299
 1267.0000  -999.2500     4.2618     0.6446
 1267.5000  -999.2500     4.2618     0.6417
 1268.0000  -999.2500     4.2618     0.6398
 1268.5000  -999.2500     4.2618     0.6379
 1269.0000  -999.2500     4.2618     0.6360
 1269.5000  -999.2500     4.2618     0.6341
 1270.0000  -999.2500     4.2618     0.6321
 1270.5000  -999.2500     4.2618     0.6302
 1271.0000  -999.2500     4.2618     0.6283
 1271.5000  -999.2500     4.2618     0.6264
 1272.0000  -999.2500     4.2618     0.6244
 1272.5000  -999.2500     4.2618     0.6225
 1273.0000  -999.2500     4.2618     0.6207
 1273.5000  -999.2500     4.2618     0.6198
 1274.0000  -999.2500     4.2618     0.5824
 1274.5000  -999.2500     4.2618     0.5394
 1275.0000  -999.2500     4.2618     0.4958
 1275.5000  -999.2500     4.2618     0.4816
 1276.0000  -999.2500     4.2618     0.4821
 1276.5000  -999.2500     4.2618     0.4829
 1277.0000  -999.2500     4.2618     0.4837
 1277.5000  -999.2500     4.2618     0.4845
 1278.0000  -999.2500     4.2618     0.4852
 1278.5000  -999.2500     4.2618     0.4860
 1279.0000  -999.2500     4.2618     0.4867
 1279.5000  -999.2500     4.2618     0.4875
 1280.0000  -999.2500     4.2618     0.4882
 1280.5000  -999.2500     4.2618     0.4890
 1281.0000  -999.2500     4.2618     0.4897
 1281.5000  -999.2500     4.2618     0.4905
 1282.0000  -999.2500     4.2618     0.4912
 1282.5000  -999.2500     4.2618     0.4920
 1283.0000  -999.2500     4.2618     0.4927
 1283.5000  -999.2500     4.2582     0.4940
 1284.0000  -999.2500     4.2569     0.4686
 1284.5000  -999.2500     4.3973     0.4315
 1285.0000  -999.2500     5.2492     0.3801
 1285.5000  -999.2500     6.4481     0.3336
 1286.0000  -999.2500     7.7734     0.3305
 1286.5000  -999.2500     8.9285     0.3285
 1287.0000  -999.2500     9.5043     0.3265
 1287.5000  -999.2500    11.2134     0.3244
 1288.0000  -999.2500    15.7086     0.3223
 1288.5000  -999.2500    50.0883     0.3203
 1289.0000  -999.2500   156.0334     0.3188
 1289.5000  -999.2500   171.2256     0.3194
 1290.0000  -999.2500   173.0109     0.3199
 1290.5000  -999.2500   173.6773     0.3205
 1291.0000  -999.2500   172.0949     0.3210
 1291.5000  -999.2500   155.9818     0.3215
 1292.0000  -999.2500   139.8802     0.3220
 1292.5000  -999.2500   123.8394     0.3225
 1293.0000  -999.2500   111.4899     0.3231
 1293.5000  -999.2500   103.0517     0.3236
 1294.0000  -999.2500    98.7868     0.3241
 1294.5000  -999.2500    96.3056     0.3246
 1295.0000  -999.2500    95.2744     0.3252
 1295.5000  -999.2500    94.2312     0.3257
 1296.0000  -999.2500    93.1485     0.3262
 1296.5000  -999.2500    92.4476     0.3267
 1297.0000  -999.2500    91.9097     0.3272
 1297.5000  -999.2500    91.6663     0.3278
 1298.0000  -999.2500    91.4192     0.3283
 1298.5000  -999.2500    91.1628     0.3288
 1299.0000  -999.2500    90.9069     0.3293
 1299.5000  -999.2500    90.6510     0.3298
 1300.0000  -999.2500    90.3951     0.3303
 1300.5000  -999.2500    90.1390     0.3309
 1301.0000  -999.2500    89.8834     0.3316
 1301.5000  -999.2500    89.6277     0.3460
 1302.0000  -999.2500    89.5160     0.4447
 1302.5000  -999.2500    89.5518     0.5680
 1303.0000  -999.2500    89.5869     0.6930
 1303.5000  -999.2500    89.6225     0.8185
 1304.0000  -999.2500    89.6580     0.9428
 1304.5000  -999.2500    89.6934     0.9700
 1305.0000  -999.2500    89.7289     0.9648
 1305.5000  -999.2500    89.7643     0.9582
 1306.0000  -999.2500    89.7997     0.9520
 1306.5000  -999.2500    89.8352     0.9462
 1307.0000  -999.2500    89.8706     0.9425
 1307.5000  -999.2500    89.9061     0.8664
 1308.0000  -999.2500    89.9415     0.7913
 1308.5000  -999.2500    89.9769     0.7690
 1309.0000  -999.2500    90.0124     0.7706
 1309.5000  -999.2500    90.0478     0.7748
 1310.0000  -999.2500    90.0833     0.7789
 1310.5000  -999.2500    90.1187     0.7830
 1311.0000  -999.2500    90.1541     0.7871
 1311.5000  -999.2500    90.1896     0.7912
 1312.0000  -999.2500    90.2250     0.7953
 1312.5000  -999.2500    90.2605     0.7994
 1313.0000  -999.2500    90.2959     0.8035
 1313.5000  -999.2500    90.3313     0.8076
 1314.0000  -999.2500    90.3668     0.8117
 1314.5000  -999.2500    90.4022     0.8159
 1315.0000  -999.2500    90.4377     0.8187
 1315.5000  -999.2500    90.4731     0.8076
 1316.0000  -999.2500    90.5085     0.7646
 1316.5000  -999.2500    90.5440     0.7255
 1317.0000  -999.2500    90.5794     0.6864
 1317.5000  -999.2500    90.6149     0.6475
 1318.0000  -999.2500    90.6503     0.6181
 1318.5000  -999.2500    90.6857     0.6199
 1319.0000  -999.2500    90.7212     0.6227
 1319.5000  -999.2500    90.7566     0.6254
