~VERSION INFORMATION
 VERS.                2.0:   CWLS LOG ASCII STANDARD - VERSION 2.0
 WRAP.                 NO:   ONE LINE PER DEPTH STEP
~WELL INFORMATION
#MNEM.UNIT      DATA TYPE    INFORMATION
#----------   ------------   ------------------------------
 STRT.F            0.0000:   START DEPTH
 STOP.F         3315.0000:   STOP DEPTH
 STEP.F            0.5000:   STEP LENGTH
 NULL.          -999.2500:   NO VALUE
 COMP. LAWRENCE/ALLISON INC     84-AX-:   COMPANY
 WELL.          SHX3 #1-3:   WELL
 FLD .            WILDCAT:   FIELD
 LOC .       S3 T38N R78W:   LOCATION
 CNTY.            NATRONA:   COUNTY
 STAT.            WYOMING:   STATE
 CTRY. UNITED STATES OF AMERICA:   COUNTRY
 SRVC.      Dresser Atlas:   SERVICE COMPANY
 DATE.        20-JAN-1986:   LOGDATE
 API .       490251104200:   API NUMBER
~CURVE INFORMATION
#MNEM.UNIT       API CODE    CURVE DESCRIPTION
#----------   ------------   ------------------------------
 DEPT.F                  :   
 SPR .MV     07 010 01 00:   SPONTANEOUS POTENTIAL
 RILD.OHMM   07 120 46 00:   INDUCTION LOG DEEP RESISTIVITY
 RILM.OHMM   07 120 44 00:   INDUCTION LOG MEDIUM RESISTIVITY
 RFOC.OHMM   07 220 04 00:   RESISTIVITY FOCUSED LOG
 AC  .US/F   60 520 00 00:   ACCOUSTIC
 CALD.IN     45 280 60 00:   CALIPER FROM DENSITY
 CORR.G/C3   45 356 01 00:   DENSITY CORRECTION
 DEN .G/C3   45 350 01 00:   COMPENSATED BULK DENSTIY
 PORD.DEC    45 890 12 00:   POROSITY DENSITY SANDSTONE
 CNC .DEC    42 890 03 00:   NEUTRON POROSITY SANDSTONE
 GRR .GAPI   07 310 01 00:   GAMMA RAY
~PARAMETER INFORMATION
#MNEM.UNIT          VALUE    DESCRIPTION
#----------   ------------   ------------------------------
 PD  .                 GL:   PERMANENT DATUM
 EPD .F              5136:   ELEVATION PERMANENT DATUM
 LMF .                 KB:   LOG MEASURED FROM
 DAPD.F                11:   FEET ABOVE PERMANENT DATUM
 DMF .                 KB:   DRILLING MEASURED FROM
 EKB .F              5147:   KELLING BUSHING
 EGL .F              5136:   GROUND LEVEL
 DATE.        26-JAN-1986:   RUN DATE
 RUN .                  1:   RUN NUMBER
 DD  .F              3320:   DEPTH DRILLER
 DL  .F              3317:   DEPTH LOGGER
 BLI .F              3315:   BOTTOM LOG INTERVAL
 CS  .IN            8.625:   CASING SIZE
 CBD .F               550:   CASING BOTTOM DRILLER
 CBL .F               592:   CASING BOTTOM LOGGER
 BS  .IN            7.875:   BIT SIZE
 BSD .F              3320:   BIT SIZE AT DEPTH
 DFT .        POLYMER KCL:   DRILLING FLUID TYPE
 DFD .                9.1:   DRILLING FLUID DENSITY
 DFV .                 38:   DRILLING FLUID VISCOSITY
 DFPH.                 10:   DRILLING FLUID PH
 DFL .                8.5:   DRILLING FLUID LOSS
 MSS .           FLOWLINE:   MUD SAMPLE SOURCE
 RMS .OHMM           .435:   RESISTIVITY MUD SAMPLE
 MST .F                72:   MUD SAMPLE TEMPERATURE
 RMF .OHMM           .352:   RESISTIVITY MUD FILTRATE SAMPLE
 MFST.F                72:   MUD FILTRATE SAMPLE TEMPERATURE
 RMC .OHMM            .54:   RESISTIVITY MUD CAKE
 MCST.F                72:   MUD CAKE SAMPLE TEMPERATURE
 MFSS.               MEAS:   MUD FILTRATE SAMPLE SOURCE
 MCSS.               MEAS:   MUD CAKE SAMPLE SOURCE
 RMB .OHMM            .29:   RESISTIVITY MUD AT BHT
 BHT .F               108:   BOTTOM HOLE TEMPERATURE
 TCS .HRS               3:   TIME CURCULATED STOPPED
 MRT .F               108:   MAXIMUM RECORDED TEMPERATURE
 LUN .               6274:   LOGGING UNIT NUMBER
 LUL .               GLTE:   LOGGING UNIT LOCATION
 ENGI.             RAUTIO:   RECORDING ENGINEER
 WITN.             STRONG:   WITNESSED BY
 CLNT.            A2DTECH:   CLIENT CODE
 ORIG.       2", 5" PRINT:   ORIGIN OF DATA
 UWI .       490251104200:   UNIQUE WELL ID
 DICO. A2D Technologies, Inc.:   DIGITIZING COMPANY
~OTHER INFORMATION
~A    DEPT     SPR       RILD       RILM       RFOC         AC       CALD       CORR        DEN       PORD        CNC        GRR   
# ...
 3294.0000   -39.8246     3.2540     3.3078     4.3792  -999.2500     8.0210     0.0806     2.4806     0.0981     0.2806  -999.2500
 3294.5000   -39.6696     3.2770     3.3331     4.4712  -999.2500     8.0354     0.0490     2.4731     0.1033     0.2800  -999.2500
 3295.0000   -39.6666     3.3695     3.4276     4.5024  -999.2500     8.0347     0.0205     2.4663     0.1115     0.2727  -999.2500
 3295.5000   -39.6636     3.5130     3.5935     4.4403  -999.2500     8.0339     0.0174     2.4647     0.1139     0.2651  -999.2500
 3296.0000   -39.6606     3.7138     3.7719     4.2299  -999.2500     8.0332     0.0221     2.4686     0.1118     0.2558  -999.2500
 3296.5000   -39.6576     3.9535     3.9867     4.1142  -999.2500     8.0324     0.0326     2.4731     0.1064     0.2468  -999.2500
 3297.0000   -39.6546     4.2086     4.2431     4.4712  -999.2500     8.0470     0.0339     2.4777     0.1018     0.2351  -999.2500
 3297.5000   -39.6516     4.4492     4.4537     5.2445  -999.2500     8.0309     0.0214     2.4837     0.0988     0.2237  -999.2500
 3298.0000   -39.8007     4.6387     4.6425     5.3217  -999.2500     8.0302     0.0143     2.4896     0.0970     0.2207  -999.2500
 3298.5000   -39.9490     4.7367     4.7725     5.3178  -999.2500     8.0294     0.0188     2.4955     0.0961     0.2240  -999.2500
 3299.0000   -39.9452     4.6073     4.6412     5.6603  -999.2500     8.0287     0.0278     2.5015     0.0934     0.2297  -999.2500
 3299.5000   -39.9422     4.3587     4.2402     6.4129  -999.2500     8.0279     0.0354     2.5068     0.0867     0.2382  -999.2500
 3300.0000   -39.9392     4.0107     3.8738     7.1160  -999.2500     8.0261     0.0252     2.5055     0.0860     0.2466  -999.2500
 3300.5000   -39.8312     3.7735     3.6532     6.4491  -999.2500     8.0184     0.0118     2.4903     0.0903     0.2554  -999.2500
 3301.0000   -39.7135     3.5344     3.4110     5.4788  -999.2500     8.0097     0.0038     2.4781     0.1054     0.2635  -999.2500
 3301.5000   -39.6369     3.2085     3.1786     4.7854  -999.2500     8.0086     0.0143     2.4728     0.1090     0.2765  -999.2500
 3302.0000   -39.7882     3.0980     3.0937     4.2563  -999.2500     7.9923     0.0233     2.4675     0.1105     0.2955  -999.2500
 3302.5000   -39.9395     3.0969     3.1603     4.1105  -999.2500     7.9912     0.0293     2.4623     0.1123     0.3015  -999.2500
 3303.0000   -39.9395     3.1189     3.3341     3.9697  -999.2500     7.9901     0.0323     2.4577     0.1147     0.2936  -999.2500
 3303.5000   -39.9395     3.2294     3.5712     3.7809  -999.2500     7.9738     0.0263     2.4562     0.1165     0.2804  -999.2500
 3304.0000   -39.7882     3.3856     3.7988     3.7026  -999.2500     7.9727     0.0233     2.4622     0.1173     0.2771  -999.2500
 3304.5000   -39.3343     3.5529     4.0691     4.2232  -999.2500     7.9565     0.0233     2.4742     0.1131     0.2771  -999.2500
 3305.0000   -38.7292     3.7028     4.2984     5.1275  -999.2500     7.9402     0.0293     2.4908     0.1016     0.2813  -999.2500
 3305.5000   -37.8215     3.8858     4.4781     5.6494  -999.2500     7.9391     0.0474     2.5066     0.0895  -999.2500  -999.2500
 3306.0000   -37.5189     4.0496     4.5376     5.7275  -999.2500     7.9228     0.0744     2.5194     0.0813  -999.2500  -999.2500
 3306.5000   -37.2163     4.1622     4.5668     5.7664  -999.2500     7.9217     0.0955     2.5239     0.0786  -999.2500  -999.2500
 3307.0000   -37.2163     4.2779     4.6589     5.8864  -999.2500     7.9206     0.0605     2.5253     0.0768  -999.2500  -999.2500
 3307.5000   -37.2163     4.3362     4.8201     5.8447  -999.2500     7.9192     0.0427     2.5253     0.0749  -999.2500  -999.2500
 3308.0000   -37.3676     4.3348     4.9524     5.5283  -999.2500     7.9181     0.0398     2.5268     0.0746  -999.2500  -999.2500
 3308.5000   -37.3676     4.3033     5.0883     5.3021  -999.2500     7.9019     0.0579     2.5298     0.0749  -999.2500  -999.2500
 3309.0000   -37.3676     4.2721     5.1918     5.2976  -999.2500     7.9007     0.0699     2.5352     0.0736  -999.2500  -999.2500
 3309.5000   -37.3676     4.2706     5.2617     5.8003  -999.2500     7.8996     0.0820     2.5413     0.0700  -999.2500  -999.2500
 3310.0000   -37.3676     4.2396     5.2571     6.3465  -999.2500     7.8834     0.0895     2.5448     0.0649  -999.2500  -999.2500
 3310.5000   -37.3676     4.2382     5.2535     6.8532  -999.2500     7.8823     0.0759     2.5485     0.0642  -999.2500  -999.2500
 3311.0000   -37.3676     4.2328     5.2499     7.0399  -999.2500     7.8811     0.0624     2.5530     0.0627  -999.2500  -999.2500
 3311.5000   -37.5189     4.2057     5.2463     6.9417  -999.2500     7.8649     0.0534     2.5583     0.0590  -999.2500  -999.2500
 3312.0000   -37.6702     4.2042     5.2427     6.8923  -999.2500     7.8184     0.0504     2.5538     0.0530  -999.2500  -999.2500
 3312.5000   -37.8215     4.2028     5.2391     7.0360  -999.2500     7.7870     0.0579     2.5462     0.0567  -999.2500  -999.2500
 3313.0000   -38.1241     4.2014     5.1993     7.2830  -999.2500     7.7556     0.0714     2.5454     0.0668  -999.2500  -999.2500
 3313.5000   -38.1241     4.1709     5.2320     7.5912  -999.2500     7.7394     0.0896     2.5514     0.0644  -999.2500  -999.2500
 3314.0000   -38.1241     4.1694     5.2283     7.5374  -999.2500     7.7231     0.1065     2.5612     0.0541  -999.2500  -999.2500
 3314.5000   -37.9641     4.1680     5.2247     6.9343  -999.2500     7.7220     0.1251     2.5717     0.0493  -999.2500  -999.2500
 3315.0000   -37.6702     4.1667     5.2211     6.4463  -999.2500     7.7209     0.1425     2.5776     0.0452  -999.2500  -999.2500
