~VERSION INFORMATION
 VERS.                2.0:   CWLS LOG ASCII STANDARD - VERSION 2.0
 WRAP.                 NO:   ONE LINE PER DEPTH STEP
~WELL INFORMATION
#MNEM.UNIT      DATA TYPE    INFORMATION
#----------   ------------   ------------------------------
 STRT.F           86.0000:   START DEPTH
 STOP.F          708.0000:   STOP DEPTH
 STEP.F            0.5000:   STEP LENGTH
 NULL.          -999.2500:   NO VALUE
 COMP. U S NAVY/INTEX OIL CO:   COMPANY
 WELL.      33 S-11 #3-11:   WELL
 FLD .             TEAPOT:   FIELD
 LOC .      S11 T38N R78W:   LOCATION
 CNTY.            NATRONA:   COUNTY
 STAT.            WYOMING:   STATE
 CTRY. UNITED STATES OF AMERICA:   COUNTRY
 SRVC.       Schlumberger:   SERVICE COMPANY
 DATE.        11-JUL-1962:   LOGDATE
 API .       490250636000:   API NUMBER
~CURVE INFORMATION
#MNEM.UNIT       API CODE    CURVE DESCRIPTION
#----------   ------------   ------------------------------
 DEPT.F                  :   
 SPR .MV     05 010 01 00:   SPONTANEOUS POTENTIAL FROM RES.
 CILD.MMHO   05 110 46 00:   CONDUCTIVITY INDUCTION LOG DEEP
 ILD .OHMM   05 120 46 00:   INDUCTION LOG DEEP
 ASN .OHMM   05 041 16 00:   AMPLIFIED SHORT NORMAL 16"
 GR  .GAPI   30 310 01 00:   GAMMA RAY
~PARAMETER INFORMATION
#MNEM.UNIT          VALUE    DESCRIPTION
#----------   ------------   ------------------------------
 PD  .                 GL:   PERMANENT DATUM
 EPD .F              5171:   ELEVATION PERMANENT DATUM
 LMF .                 KB:   LOG MEASURED FROM
 DAPD.F                 5:   FEET ABOVE PERMANENT DATUM
 DMF .                 KB:   DRILLING MEASURED FROM
 EKB .F              5176:   KELLING BUSHING
 EGL .F              5171:   GROUND LEVEL
 DATE.            7-11-62:   RUN DATE
 RUN .                  1:   RUN NUMBER
 DD  .F               710:   DEPTH DRILLER
 DL  .F               709:   DEPTH LOGGER
 BLI .F               708:   BOTTOM LOG INTERVAL
 TLI .F                86:   TOP LOG INTERVAL
 BS  .IN             6.75:   BIT SIZE
 BSD .F               710:   BIT SIZE AT DEPTH
 DFT .            GEL/OIL:   DRILLING FLUID TYPE
 DFD .               10.3:   DRILLING FLUID DENSITY
 DFV .                 50:   DRILLING FLUID VISCOSITY
 DFL .                3.7:   DRILLING FLUID LOSS
 RMS .OHMM           5.66:   RESISTIVITY MUD SAMPLE
 MST .F                77:   MUD SAMPLE TEMPERATURE
 RMF .OHMM           4.44:   RESISTIVITY MUD FILTRATE SAMPLE
 MFST.F                77:   MUD FILTRATE SAMPLE TEMPERATURE
 RMC .OHMM            5.9:   RESISTIVITY MUD CAKE
 MCST.F                77:   MUD CAKE SAMPLE TEMPERATURE
 TCS .HRS               1:   TIME CURCULATED STOPPED
 LUN .               2503:   LOGGING UNIT NUMBER
 LUL .               CSPR:   LOGGING UNIT LOCATION
 ENGI.             DANNER:   RECORDING ENGINEER
 WITN.          JORGENSEN:   WITNESSED BY
 CLNT.            A2DTECH:   CLIENT CODE
 ORIG.       2", 5" PRINT:   ORIGIN OF DATA
 UWI .       490250636000:   UNIQUE WELL ID
 DICO. A2D Technologies, Inc.:   DIGITIZING COMPANY
~OTHER INFORMATION
~A   DEPT      SPR        CILD         ILD        ASN       GR   
# ...
  574.0000   -64.1604    44.5189    18.9858    19.8728    51.6122
  574.5000   -64.5031    42.0404    19.9316    20.8736    47.2612
  575.0000   -66.3456    39.5623    20.9145    21.4464    50.2498
  575.5000   -67.8139    36.8687    21.6355    21.9874    46.7222
  576.0000   -68.5768    37.0716    22.3661    22.5346    42.8412
  576.5000   -69.9050    37.2938    22.4896    23.4182    45.3139
  577.0000   -71.7271    37.5160    22.6413    24.4414    53.6173
  577.5000   -73.4360    37.7345    22.7600    25.4843    52.1480
  578.0000   -71.8704    37.8797    22.0551    25.7272    52.9383
  578.5000   -70.0298    39.3425    21.2962    23.4025    44.0289
  579.0000   -68.3342    40.8572    20.5380    21.4140    47.3672
  579.5000   -67.2136    42.3673    19.7791    20.1596    47.7056
  580.0000   -65.5322    43.8774    19.0361    22.4068    51.3680
  580.5000   -61.6116    45.3875    18.7402    23.6789    59.7395
  581.0000   -58.9344    46.8976    18.4302    22.8854    54.5736
  581.5000   -59.1339    48.4077    18.1199    22.3281    60.0780
  582.0000   -60.5495    49.9178    17.8390    21.7700    58.2144
  582.5000   -61.9759    50.4694    17.7281    21.3390    58.2516
  583.0000   -63.4224    48.5151    17.7223    21.2617    63.2802
  583.5000   -64.3165    46.5609    17.7332    21.1133    51.0585
  584.0000   -65.1819    44.6067    18.7825    20.6034    47.8563
  584.5000   -65.9025    42.6524    19.9527    20.3588    51.1982
  585.0000   -65.8853    40.6982    21.0618    22.6315    51.6810
  585.5000   -65.9034    38.7439    21.5855    24.1115    53.2854
  586.0000   -67.0121    37.8788    22.1247    23.1141    52.2230
  586.5000   -69.7761    37.8788    22.4871    22.4584    52.9429
  587.0000   -72.5079    37.8788    22.7494    23.5044    53.8356
  587.5000   -74.2697    37.8788    22.9905    24.9528    46.9125
  588.0000   -73.7029    37.8788    22.5705    24.2822    51.6021
  588.5000   -72.9083    39.1765    21.9034    23.3862    55.2432
  589.0000   -72.1511    41.2811    21.2316    22.4946    56.1590
  589.5000   -69.8809    43.3856    20.7181    21.5989    54.7456
  590.0000   -67.7324    44.9591    20.5814    21.1220    56.8712
  590.5000   -67.1787    44.9502    20.4621    21.1609    48.1433
  591.0000   -66.5990    44.9492    20.0863    21.2713    52.3897
  591.5000   -66.0699    44.9476    19.5580    20.9415    54.6822
  592.0000   -66.6803    45.4875    19.0232    20.5257    51.8527
  592.5000   -66.0643    46.5640    18.4862    19.9847    49.3609
  593.0000   -65.2070    47.6417    18.0246    18.8003    60.6037
  593.5000   -64.4492    48.7177    17.6178    18.5812    57.2600
  594.0000   -64.9104    49.7937    17.2150    18.5524    59.5911
  594.5000   -65.3884    50.8698    16.8125    18.0033    46.6364
  595.0000   -65.3272    51.9458    16.4094    17.4567    49.0008
  595.5000   -64.9386    53.0218    16.0064    16.9924    45.3944
  596.0000   -65.1212    54.0986    15.6206    16.9144    54.1841
  596.5000   -65.7403    55.1765    15.3623    16.8953    53.8150
  597.0000   -66.1055    56.2475    15.3382    16.8795    55.0836
  597.5000   -65.5982    56.8281    15.5229    16.8631    57.7182
  598.0000   -65.2791    55.8050    15.7040    16.8463    49.9859
  598.5000   -65.0773    54.7820    15.8783    16.8285    53.0806
  599.0000   -64.8823    53.7589    16.1616    16.8278    53.6637
  599.5000   -65.5041    52.7359    16.4538    17.0414    53.3133
  600.0000   -66.8014    51.7128    16.7467    17.2525    59.9487
  600.5000   -67.7354    50.6898    17.0449    17.4625    64.1863
  601.0000   -67.4999    49.6667    17.2792    17.6779    59.4497
  601.5000   -67.3586    48.6437    17.4425    17.6869    60.8479
  602.0000   -67.6581    47.9798    17.6306    17.3365    59.4085
  602.5000   -67.5384    49.1601    17.5824    17.0396    61.0768
  603.0000   -66.3658    50.7199    17.5432    16.8094    56.4454
  603.5000   -65.1959    52.2808    17.2385    16.6678    59.5312
  604.0000   -64.0749    53.8393    16.9198    16.5172    63.3361
  604.5000   -63.7951    55.0505    16.6010    16.3653    62.5035
  605.0000   -63.5504    55.8905    16.2831    16.2136    62.1032
  605.5000   -63.3023    55.6209    15.9625    16.0606    67.0970
  606.0000   -63.0539    55.3514    15.6494    16.0131    66.1674
  606.5000   -62.8033    55.0819    15.3886    15.9277    59.3698
  607.0000   -62.5202    55.7209    15.3379    15.8330    62.6371
  607.5000   -62.0982    56.4796    15.2062    15.7380    56.2054
  608.0000   -61.8078    57.2383    15.0737    15.6431    59.8478
  608.5000   -61.8139    57.9970    14.9408    15.5483    63.4076
  609.0000   -61.8104    58.7557    14.8080    15.4534    68.7213
  609.5000   -61.6754    59.5144    14.6752    15.3586    67.4067
  610.0000   -61.2775    60.2731    14.5425    15.2637    59.8724
  610.5000   -61.3174    61.0318    14.4097    15.1687    56.0559
  611.0000   -61.6230    61.7905    14.2768    15.0741    69.7257
  611.5000   -61.9282    62.5492    14.1438    14.9979    65.9543
  612.0000   -62.2152    62.8759    14.0090    14.9870    64.3483
  612.5000   -62.1082    61.7785    14.0484    14.9568    55.7172
  613.0000   -61.9427    60.6811    14.1376    14.9263    53.6953
  613.5000   -61.9534    59.5837    14.2266    14.8967    67.9512
  614.0000   -62.3692    58.4863    14.3044    14.9851    67.0036
  614.5000   -62.7580    57.3889    14.5061    15.0838    75.4153
  615.0000   -63.0401    57.3304    14.7057    15.1826    74.5191
  615.5000   -62.8853    58.1535    14.8032    15.2804    79.1597
  616.0000   -62.6053    58.9766    14.7088    15.3886    77.5686
  616.5000   -62.3240    59.7996    14.6121    15.2495    78.2121
  617.0000   -62.0355    60.6227    14.5147    15.1204    76.0383
  617.5000   -61.6521    61.4457    14.3879    14.9837    79.5148
  618.0000   -61.5402    62.2688    14.2063    14.8479    74.9888
  618.5000   -61.3803    63.0918    14.0241    14.7124    69.0389
  619.0000   -61.2177    63.9147    13.8416    14.5766    57.4188
  619.5000   -61.0461    64.7379    13.6592    14.4419    55.6731
  620.0000   -60.7001    65.5610    13.4768    14.2639    62.8567
  620.5000   -60.3328    66.4384    13.2944    14.0674    60.6619
  621.0000   -59.9672    67.4626    13.1120    13.8695    64.6651
  621.5000   -59.5930    68.4869    12.9296    13.6716    60.3841
  622.0000   -59.8794    69.5111    12.7472    13.4737    62.2133
  622.5000   -60.2302    70.5353    12.5648    13.2758    62.7001
  623.0000   -60.5896    71.5596    12.3824    13.0785    66.7605
  623.5000   -60.0016    72.5838    12.1996    12.8800    68.1941
  624.0000   -59.2119    73.6081    12.0176    12.6556    61.4974
  624.5000   -58.4281    74.6323    11.8638    12.4689    67.4607
  625.0000   -58.0033    75.6566    11.8347    12.4617    64.0891
  625.5000   -58.1540    76.6883    11.8009    12.4536    59.4051
  626.0000   -57.7342    77.1308    11.7667    12.4429    56.5235
  626.5000   -57.1767    76.8061    11.7326    12.4322    64.3836
  627.0000   -57.9251    76.4725    11.6985    12.4215    64.4859
  627.5000   -57.6674    76.1421    11.6643    12.4109    61.9644
  628.0000   -57.2541    75.8117    11.6302    12.4004    67.5823
  628.5000   -57.2428    75.4742    11.5960    12.3890    71.0018
  629.0000   -57.7132    75.7016    11.5619    12.3763    72.6397
  629.5000   -58.1656    77.1630    11.5277    12.2642    66.5207
  630.0000   -58.5640    78.6292    11.4940    12.1293    68.6017
  630.5000   -58.6251    80.0923    11.4623    11.9771    72.7830
  631.0000   -58.7202    81.5556    11.3800    11.8230    73.6037
  631.5000   -58.5182    83.0188    11.2906    11.6694    72.1009
  632.0000   -58.1080    84.4820    11.2014    11.5132    63.5155
  632.5000   -57.6946    85.4714    11.1128    11.3857    65.7682
  633.0000   -57.2812    86.0404    11.0604    11.4492    64.1181
  633.5000   -56.8644    86.6094    11.0602    11.4255    62.2991
  634.0000   -56.7445    87.1785    11.0571    11.3999    72.1964
  634.5000   -56.8410    87.7475    10.9316    11.3730    70.1963
