~VERSION INFORMATION
 VERS.                2.0:   CWLS LOG ASCII STANDARD - VERSION 2.0
 WRAP.                 NO:   ONE LINE PER DEPTH STEP
~WELL INFORMATION
#MNEM.UNIT      DATA TYPE    INFORMATION
#----------   ------------   ------------------------------
 STRT.F           20.5000:   START DEPTH
 STOP.F          725.0000:   STOP DEPTH
 STEP.F            0.5000:   STEP LENGTH
 NULL.          -999.2500:   NO VALUE
 COMP. FENIX & SCISSON INC:   COMPANY
 WELL.       NPR 3 #67-27:   WELL
 FLD .             TEAPOT:   FIELD
 LOC .      S27 T39N R78W:   LOCATION
 CNTY.            NATRONA:   COUNTY
 STAT.            WYOMING:   STATE
 CTRY. UNITED STATES OF AMERICA:   COUNTRY
 SRVC.           BIRDWELL:   SERVICE COMPANY
 DATE.        15-SEP-1978:   LOGDATE
 API .       490251069400:   API NUMBER
~CURVE INFORMATION
#MNEM.UNIT       API CODE    CURVE DESCRIPTION
#----------   ------------   ------------------------------
 DEPT.F                  :   
 CALD.IN     45 280 60 00:   CALIPER
 GRD .GAPI   45 310 01 00:   GAMMA RAY FROM DENSITY LOG
 RHOB.G/C3   45 350 01 00:   BULK DENSITY
 DPHI.DEC    45 890 12 00:   DENSITY POROSITY SANDSTONE
 CORR.G/C3   45 356 01 00:   DENSITY CORRECTION
 SPR .MV     05 010 01 00:   SPONTANEOUS POTENTIAL FROM RES.
 ILD .OHMM   05 120 46 00:   INDUCTION LOG DEEP
 SN  .OHMM   05 040 16 00:   SHORT NORMAL 16"
~PARAMETER INFORMATION
#MNEM.UNIT          VALUE    DESCRIPTION
#----------   ------------   ------------------------------
 PD  .                 GL:   PERMANENT DATUM
 EPD .F              5027:   ELEVATION PERMANENT DATUM
 LMF .                 KB:   LOG MEASURED FROM
 DAPD.F                 4:   FEET ABOVE PERMANENT DATUM
 DMF .                 KB:   DRILLING MEASURED FROM
 EKB .F              5031:   KELLING BUSHING
 EGL .F              5027:   GROUND LEVEL
 DATE.            9-15-78:   RUN DATE
 RUN .                  1:   RUN NUMBER
 DD  .F               728:   DEPTH DRILLER
 DL  .F               719:   DEPTH LOGGER
 BLI .F               713:   BOTTOM LOG INTERVAL
 TLI .F                30:   TOP LOG INTERVAL
 CS  .IN            8.625:   CASING SIZE
 CBD .F                34:   CASING BOTTOM DRILLER
 CBL .F                34:   CASING BOTTOM LOGGER
 BS  .IN            7.875:   BIT SIZE
 BSD .F               728:   BIT SIZE AT DEPTH
 DFT .            KCL MUD:   DRILLING FLUID TYPE
 DFD .                  9:   DRILLING FLUID DENSITY
 DFV .                 46:   DRILLING FLUID VISCOSITY
 DFPH.                  9:   DRILLING FLUID PH
 DFL .                7.6:   DRILLING FLUID LOSS
 MSS .          FLOW LINE:   MUD SAMPLE SOURCE
 RMS .OHMM            .34:   RESISTIVITY MUD SAMPLE
 MST .F                68:   MUD SAMPLE TEMPERATURE
 RMF .OHMM             .3:   RESISTIVITY MUD FILTRATE SAMPLE
 MFST.F                68:   MUD FILTRATE SAMPLE TEMPERATURE
 RMC .OHMM            .38:   RESISTIVITY MUD CAKE
 MCST.F                70:   MUD CAKE SAMPLE TEMPERATURE
 MFSS.               MEAS:   MUD FILTRATE SAMPLE SOURCE
 MCSS.               MEAS:   MUD CAKE SAMPLE SOURCE
 RMB .OHMM            .32:   RESISTIVITY MUD AT BHT
 BHT .F                72:   BOTTOM HOLE TEMPERATURE
 TCS .HRS               2:   TIME CURCULATED STOPPED
 MRT .F                72:   MAXIMUM RECORDED TEMPERATURE
 LUN .               2958:   LOGGING UNIT NUMBER
 LUL .               CASP:   LOGGING UNIT LOCATION
 ENGI.           REYNOLDS:   RECORDING ENGINEER
 WITN.           DINSMORE:   WITNESSED BY
 CLNT.            A2DTECH:   CLIENT CODE
 ORIG.           5" PRINT:   ORIGIN OF DATA
 UWI .       490251069400:   UNIQUE WELL ID
 DICO. A2D Technologies, Inc.:   DIGITIZING COMPANY
~OTHER INFORMATION
~A   DEPT     CALD        GRD       RHOB       DPHI       CORR        SPR        ILD         SN   
# ...
  263.5000     7.9824   116.9670     2.4751     0.1276    -0.0056   -44.3022     6.9916     7.0071
  264.0000     7.9639   116.4823     2.4724     0.1285    -0.0039   -44.4964     6.9915     6.9727
  264.5000     7.9626   116.2869     2.4698     0.1317    -0.0023   -44.7552     6.9921     6.8530
  265.0000     8.0204   117.2251     2.4609     0.1372    -0.0014   -45.0157     6.9952     6.6446
  265.5000     8.0760   118.5321     2.4514     0.1444    -0.0005   -45.2757     6.9915     6.3753
  266.0000     8.1306   119.0416     2.4370     0.1550     0.0003   -45.5321     6.6799     6.0360
  266.5000     8.1579   120.4251     2.4158     0.1726     0.0011   -45.6426     5.3485     5.6583
  267.0000     8.1098   122.6999     2.3721     0.2008     0.0104   -45.4693     4.2824     5.1359
  267.5000     8.1203   124.9596     2.3138     0.2290     0.0304   -45.3105     3.4061     4.5330
  268.0000     8.1301   124.8199     2.2669     0.2962     0.0520   -45.4803     3.0180     4.3021
  268.5000     8.1398   124.2387     2.1560     0.3174     0.0673   -45.6711     2.6555     3.1932
  269.0000     8.1475   123.9193     2.0662     0.3160     0.0629   -45.8723     2.2703     2.9515
  269.5000     8.1594   123.6658     2.0489     0.3147     0.0810   -45.5105     2.2703     2.7223
  270.0000     7.7692   123.4171     2.0331     0.3133     0.0989   -45.0116     2.2913     2.4611
  270.5000     8.9844   123.1832     2.0035     0.3120     0.1131   -44.5093     2.4255     2.2913
  271.0000     9.5110   121.8985     1.9729     0.3106     0.0908   -44.0080     2.6331     2.4832
  271.5000     9.5817   120.3024     1.9806     0.3052     0.0329   -43.5076     3.0536     2.6582
  272.0000     7.8511   117.1560     1.9942     0.2988     0.0156   -43.0088     3.4773     2.8454
  272.5000     8.0536   113.5717     2.0305     0.2923     0.0105   -42.4886     3.9211     3.1092
  273.0000     8.1379   110.9041     2.2925     0.2263     0.0182   -41.5084     4.8854     3.5090
  273.5000     8.1086   111.2390     2.3488     0.1936     0.0256   -40.5065     6.2501     3.9601
  274.0000     8.0956   113.3347     2.4041     0.1699     0.0319   -39.6745     7.6451     4.4698
  274.5000     8.1293   115.4093     2.4032     0.1728     0.0331   -39.6641     8.9773     5.0579
  275.0000     8.1423   117.4836     2.3981     0.1758     0.0344   -39.6387     8.9720     5.7822
  275.5000     8.1224   118.5322     2.3958     0.1787     0.0342   -39.6111     8.6565     6.4348
  276.0000     8.1383   117.2816     2.3982     0.1783     0.0270   -39.5832     8.2816     6.3490
  276.5000     8.2089   115.7769     2.4144     0.1673     0.0198   -39.5573     7.9219     6.3173
  277.0000     8.2396   114.2619     2.4320     0.1436     0.0126   -39.5367     7.5775     6.5570
  277.5000     8.2152   113.4785     2.4437     0.1538     0.0155   -39.4542     7.2542     6.8008
  278.0000     8.1872   114.1542     2.4313     0.1705     0.0269   -38.0466     7.2542     6.6766
  278.5000     8.6071   114.8869     2.4078     0.1775     0.0413   -36.5919     7.9215     7.0875
  279.0000     9.0898   114.7347     2.3973     0.1733     0.0603   -35.1503     8.4311     7.5184
  279.5000     8.2038   114.5298     2.4013     0.1681     0.0793   -34.2643     8.9751     7.9755
  280.0000     8.1726   114.3270     2.4095     0.1670     0.0978   -34.2068     9.4010     8.3167
  280.5000     8.1446   114.2989     2.4169     0.1668     0.1112   -34.1346     9.6364     8.6098
  281.0000     8.1995   114.2943     2.4203     0.1585     0.1010   -33.8794     9.8760     8.9133
  281.5000     8.4354   114.3610     2.4306     0.1486     0.0860   -33.3486    10.1223     9.2192
  282.0000     8.4387   113.8550     2.4511     0.1352     0.0710   -32.8225    10.3747     9.3973
  282.5000     8.1154   112.9499     2.4714     0.1176     0.0559   -32.2905    10.6335     9.5743
  283.0000     7.9840   112.1507     2.4912     0.1148     0.0398   -32.0637    10.8402     9.7545
  283.5000     7.9660   112.7358     2.4779     0.1258     0.0218   -31.9999    10.9728     9.9382
  284.0000     7.9479   114.0061     2.4628     0.1336     0.0115   -31.9390    11.1072    10.1253
  284.5000     7.9296   114.9152     2.4512     0.1413     0.0055   -31.8782    11.2429    10.3160
  285.0000     7.9109   114.8993     2.4416     0.1488     0.0037   -31.8171    11.3165    10.5102
  285.5000     7.9099   114.9956     2.4331     0.1558     0.0056   -31.7560    11.3535    10.7082
  286.0000     7.9100   115.2946     2.4224     0.1622     0.0080   -31.6949    11.3910    10.9100
  286.5000     7.9102   115.3581     2.4110     0.1681     0.0070   -31.6338    11.4325    11.1154
  287.0000     7.9014   114.9020     2.4024     0.1755     0.0051   -31.5727    11.4748    11.2250
  287.5000     7.8898   114.4530     2.3948     0.1812     0.0033   -31.5116    11.5172    11.2802
  288.0000     7.8782   113.9764     2.3924     0.1815     0.0015   -31.4505    11.5601    11.3362
  288.5000     7.8666   114.7531     2.3993     0.1761     0.0006   -31.3894    11.6027    11.3924
  289.0000     7.8548   115.8404     2.4063     0.1724    -0.0002   -31.3283    11.7581    11.4489
  289.5000     7.8631   116.2163     2.4132     0.1671    -0.0010   -31.2669    11.9352    11.5057
  290.0000     7.8857   116.4163     2.4201     0.1608    -0.0019   -31.2042    12.1148    11.5628
  290.5000     7.9084   116.5783     2.4241     0.1579    -0.0021   -31.1469    12.2973    11.6202
  291.0000     7.9311   116.7143     2.4275     0.1571    -0.0002   -31.2510    12.4822    11.6778
  291.5000     7.9538   116.8314     2.4328     0.1537     0.0016   -31.9408    12.6703    11.7358
  292.0000     7.9764   116.9284     2.4384     0.1505     0.0034   -32.2471    12.8481    11.7940
  292.5000     7.9901   116.4409     2.4439     0.1473     0.0053   -32.1251    13.3307    11.9462
  293.0000     7.9900   115.9595     2.4494     0.1441     0.0058   -32.0025    14.0060    12.2087
  293.5000     7.9900   114.7711     2.4547     0.1424     0.0060   -31.9302    14.6681    12.4770
  294.0000     7.9900   112.5139     2.4617     0.1173     0.0063   -32.8332    15.3616    12.7302
  294.5000     7.9898   110.9681     2.4975     0.0770     0.0066   -32.9790    16.0878    13.2742
  295.0000     7.9857   110.2987     2.5321     0.0539     0.0069   -32.8229    16.8483    13.8007
  295.5000     7.9815   110.1372     2.5670     0.0431     0.0072   -32.7989    17.4169    14.3481
  296.0000     7.9773   109.8148     2.5947     0.0443     0.0075   -33.2361    17.2843    14.8505
  296.5000     7.9731   109.4744     2.6030     0.0626     0.0078   -33.6520    17.1386    15.3078
  297.0000     7.9686   109.2941     2.5851     0.0873     0.0081   -33.7011    16.9821    15.1323
  297.5000     7.9624   110.2865     2.5373     0.1131     0.0084   -33.7009    16.3686    14.8803
  298.0000     7.9564   113.6680     2.4869     0.1419     0.0087   -33.7053    15.5527    14.3890
  298.5000     7.9504   114.9034     2.4367     0.1568     0.0090   -33.7344    14.7844    13.6739
  299.0000     7.9444   115.7981     2.4231     0.1599     0.0093   -32.4761    14.0541    12.9945
  299.5000     7.9384   116.0145     2.4247     0.1574     0.0094   -31.4777    13.3579    12.3488
  300.0000     7.9324   116.1389     2.4278     0.1551     0.0093   -31.4598    12.7049    11.7351
  300.5000     7.9264   116.2646     2.4310     0.1599     0.0091   -31.4298    12.2200    11.1520
  301.0000     7.9204   116.3904     2.4263     0.1641     0.0089   -31.3999    11.9116    10.7325
  301.5000     7.9144   116.4546     2.4197     0.1675     0.0087   -31.3693    11.8007    10.4524
  302.0000     7.9084   116.0517     2.4158     0.1639     0.0086   -31.3384    11.7627    10.3324
  302.5000     7.9023   115.6896     2.4229     0.1595     0.0084   -31.2969    11.7268    10.2032
  303.0000     7.8961   115.8339     2.4314     0.1550     0.0082   -31.8266    11.6909    10.1320
  303.5000     7.8908   116.0862     2.4379     0.1536     0.0080   -32.5621    11.6550    10.0543
