~VERSION INFORMATION
 VERS.                2.0:   CWLS LOG ASCII STANDARD - VERSION 2.0
 WRAP.                 NO:   ONE LINE PER DEPTH STEP
~WELL INFORMATION
#MNEM.UNIT      DATA TYPE    INFORMATION
#----------   ------------   ------------------------------
 STRT.F           30.0000:   START DEPTH
 STOP.F         3375.5000:   STOP DEPTH
 STEP.F            0.5000:   STEP LENGTH
 NULL.          -999.2500:   NO VALUE
 COMP.       INTEX OIL CO:   COMPANY
 WELL.   NPR ##3 57-SX-34:   WELL
 FLD .             TEAPOT:   FIELD
 LOC .      S34 T39N R78W:   LOCATION
 CNTY.            NATRONA:   COUNTY
 STAT.            WYOMING:   STATE
 CTRY. UNITED STATES OF AMERICA:   COUNTRY
 SRVC.       Schlumberger:   SERVICE COMPANY
 DATE.        12-AUG-1967:   LOGDATE
 API .       490251023200:   API NUMBER
~CURVE INFORMATION
#MNEM.UNIT       API CODE    CURVE DESCRIPTION
#----------   ------------   ------------------------------
 DEPT.F                  :   
 SPR .MV     07 010 01 00:   SPONTANEOUS POTENTIAL
 ILD .OHMM   07 120 46 00:   INDUCTION LOG DEEP
 ASN .OHMM   05 041 16 00:   AMPLIFIED SHORT NORMAL 16"
 CILD.MMHO   07 110 46 00:   CONDUCTIVITY INDUCTION LOG DEEP
 LL8 .OHMM   07 220 08 00:   LATEROLOG-8 RES.
 ILM .OHMM   07 120 44 00:   INDUCTION LOG MEDIUM
 CALD.IN     45 280 60 00:   CALIPER
 GRD .GAPI   45 310 01 00:   GAMMA RAY FROM DENSITY LOG
 RHOB.G/C3   45 350 01 00:   BULK DENSITY
 DPHI.DEC    45 890 12 00:   DENSITY POROSITY SANDSTONE
 CORR.G/C3   45 356 01 00:   DENSITY CORRECTION
~PARAMETER INFORMATION
#MNEM.UNIT          VALUE    DESCRIPTION
#----------   ------------   ------------------------------
 PD  .                 GL:   PERMANENT DATUM
 EPD .F              5084:   ELEVATION PERMANENT DATUM
 LMF .                 KB:   LOG MEASURED FROM
 DAPD.F                12:   FEET ABOVE PERMANENT DATUM
 DMF .                 KB:   DRILLING MEASURED FROM
 EKB .F              5096:   KELLING BUSHING
 EGL .F              5084:   GROUND LEVEL
 DATE.            8-12-67:   RUN DATE
 RUN .                  2:   RUN NUMBER
 DD  .F              3380:   DEPTH DRILLER
 DL  .F              3371:   DEPTH LOGGER
 BLI .F              3368:   BOTTOM LOG INTERVAL
 TLI .F               630:   TOP LOG INTERVAL
 CS  .IN            10.75:   CASING SIZE
 CBD .F               643:   CASING BOTTOM DRILLER
 BS  .IN            9.875:   BIT SIZE
 BSD .F              3380:   BIT SIZE AT DEPTH
 DFT .               CHEM:   DRILLING FLUID TYPE
 DFD .                9.4:   DRILLING FLUID DENSITY
 DFV .                 48:   DRILLING FLUID VISCOSITY
 DFPH.                8.5:   DRILLING FLUID PH
 DFL .                3.6:   DRILLING FLUID LOSS
 MSS .          FLOW LINE:   MUD SAMPLE SOURCE
 RMS .OHMM           2.81:   RESISTIVITY MUD SAMPLE
 MST .F                88:   MUD SAMPLE TEMPERATURE
 RMF .OHMM            1.7:   RESISTIVITY MUD FILTRATE SAMPLE
 MFST.F                86:   MUD FILTRATE SAMPLE TEMPERATURE
 MFSS.                  M:   MUD FILTRATE SAMPLE SOURCE
 RMB .OHMM           2.03:   RESISTIVITY MUD AT BHT
 BHT .F               122:   BOTTOM HOLE TEMPERATURE
 TCS .HRS             2.5:   TIME CURCULATED STOPPED
 MRT .F               122:   MAXIMUM RECORDED TEMPERATURE
 LUN .               7030:   LOGGING UNIT NUMBER
 LUL .               CSPR:   LOGGING UNIT LOCATION
 ENGI.             SCHODE:   RECORDING ENGINEER
 WITN.                MAY:   WITNESSED BY
 CLNT.            A2DTECH:   CLIENT CODE
 ORIG.   1" 2.5" 5" PRINT:   ORIGIN OF DATA
 UWI .       490251023200:   UNIQUE WELL ID
 DICO. A2D Technologies, Inc.:   DIGITIZING COMPANY
~OTHER INFORMATION
~A   DEPT      SPR        ILD        ASN       CILD        LL8        ILM       CALD         GRD      RHOB       DPHI       CORR   
# ...
 2500.5000   -32.3412     3.8565  -999.2500  -999.2500     5.1377     4.3715    12.0121    93.2868     2.5191     0.0872     0.0382
 2501.0000   -32.3414     3.9256  -999.2500  -999.2500     5.9369     4.5245    12.0013    94.9717     2.5603     0.0607     0.0500
 2501.5000   -32.3409     3.9959  -999.2500  -999.2500     5.8305     4.5453    11.9950    97.3044     2.5443     0.0517     0.0912
 2502.0000   -32.3415     4.0675  -999.2500  -999.2500     5.4237     4.5719    11.9856    98.0045     2.5203     0.0491     0.1011
 2502.5000   -32.3425     4.1405  -999.2500  -999.2500     5.4482     4.5991    11.9753    97.3339     2.5701     0.0461     0.0798
 2503.0000   -32.3690     4.2147  -999.2500  -999.2500     5.5226     4.6267    11.9646    96.6848     2.5649     0.0497     0.0623
 2503.5000   -32.3974     4.2903  -999.2500  -999.2500     5.4630     4.6544    11.9542    96.9375     2.5508     0.0560     0.0426
 2504.0000   -32.4268     4.3672  -999.2500  -999.2500     5.2310     4.6881    11.9437    98.2627     2.5414     0.0610     0.0330
 2504.5000   -32.4555     4.4455  -999.2500  -999.2500     5.3265     4.6136    11.9332    99.4549     2.5503     0.0579     0.0374
 2505.0000   -32.4845     4.5512  -999.2500  -999.2500     5.5728     4.7500    11.9228    97.9204     2.5478     0.0626     0.0395
 2505.5000   -32.5134     4.6593  -999.2500  -999.2500     5.8305     4.8900    11.9123    96.2911     2.5273     0.0673     0.0334
 2506.0000   -32.5424     4.7702  -999.2500  -999.2500     6.1002     5.0340    11.9018    96.0183     2.5151     0.0815     0.0192
 2506.5000   -32.5714     4.8836  -999.2500  -999.2500     6.3404     5.1824    11.8914    98.8509     2.5322     0.0618     0.0104
 2507.0000   -32.6002     4.9998  -999.2500  -999.2500     6.5255     5.3356    11.8809   101.2220     2.5430     0.0689     0.0109
 2507.5000   -32.6296     5.1187  -999.2500  -999.2500     6.7159     5.4937    11.8704   100.1017     2.5369     0.0665     0.0303
 2508.0000   -32.6577     5.2405  -999.2500  -999.2500     6.9119     5.6236    11.8599    97.2451     2.5330     0.0730     0.0548
 2508.5000   -32.6870     5.3651  -999.2500  -999.2500     7.1137     5.7003    11.8493    94.4378     2.5076     0.0852     0.0447
 2509.0000   -32.7182     5.4928  -999.2500  -999.2500     6.8335     5.7816    11.8390    91.6519     2.4876     0.0973     0.0382
 2509.5000   -32.7110     5.6249  -999.2500  -999.2500     6.5643     5.8759    11.8281    88.7781     2.4647     0.1094     0.0319
 2510.0000   -32.6021     5.6221  -999.2500  -999.2500     6.1556     5.9715    11.8180    87.6391     2.4441     0.1216     0.0258
 2510.5000   -32.4977     5.6212  -999.2500  -999.2500     6.2868     6.0687    11.8067    89.7617     2.4239     0.1337     0.0234
 2511.0000   -32.3774     5.6194  -999.2500  -999.2500     6.6273     6.1675    11.7975    92.6145     2.4214     0.1532     0.0561
 2511.5000   -32.3903     5.6169  -999.2500  -999.2500     6.9862     6.2679    11.8299    95.3515     2.4540     0.1275     0.1249
 2512.0000   -32.4997     5.6141  -999.2500  -999.2500     7.3646     6.2679    11.9080    94.0495     2.5297     0.0633     0.0971
 2512.5000   -32.5969     5.6121  -999.2500  -999.2500     7.9289     6.3822    12.0050    92.6264     2.6096     0.0224     0.0494
 2513.0000   -32.6938     5.9369  -999.2500  -999.2500     7.5785     6.3248    12.0568    94.5035     2.6018     0.0323     0.0984
 2513.5000   -32.7939     6.1063  -999.2500  -999.2500     7.0284     6.2679    12.1510    96.2302     2.5727     0.0487     0.1451
 2514.0000   -32.8914     6.3248  -999.2500  -999.2500     6.6173     6.7457    12.2767    97.1223     2.5367     0.0651     0.1930
 2514.5000   -32.9896     6.5511  -999.2500  -999.2500     8.0736     7.2599    12.8775    95.6677     2.5025     0.0815     0.2321
 2515.0000   -33.0909     6.7856  -999.2500  -999.2500     8.2209     7.8133    12.4800    94.2264     2.4595     0.1018     0.2367
 2515.5000   -33.1391     7.0284  -999.2500  -999.2500     8.3709     8.4089    12.0618    92.2644     2.5028     0.0887     0.2233
 2516.0000   -33.0487     7.2800  -999.2500  -999.2500    11.3426     9.0499    11.7103    89.4821     2.5845     0.0428     0.1149
 2516.5000   -32.9243     7.6473  -999.2500  -999.2500    20.3045    10.0302    11.6813    80.7939     2.5775     0.0493     0.0349
 2517.0000   -32.8008     7.6162  -999.2500  -999.2500    19.9406     9.5938    11.6768    78.0939     2.5494     0.0651     0.0419
 2517.5000   -32.6790     7.5585  -999.2500  -999.2500    13.1556     8.8799    11.7128    78.5804     2.5914     0.0408     0.1017
 2518.0000   -32.5552     7.5123  -999.2500  -999.2500     8.6792     8.2170    11.7931    83.8283     2.6189     0.0166     0.0095
 2518.5000   -32.4291     7.2824  -999.2500  -999.2500     7.7868     7.6029    11.8740    92.0653     2.5755     0.0344     0.0125
 2519.0000   -32.3622     7.0054  -999.2500  -999.2500     7.7168     7.2358    11.9570    94.8114     2.5515     0.0609     0.0536
 2519.5000   -32.4370     6.7398  -999.2500  -999.2500     7.6473     6.9950    12.0227    93.7773     2.5685     0.0547     0.0872
 2520.0000   -32.5113     6.4852  -999.2500  -999.2500     7.6473     7.0300    12.1005    92.9171     2.5556     0.0483     0.1210
 2520.5000   -32.5903     6.2407  -999.2500  -999.2500     8.1715     7.1227    12.0903    94.8474     2.5308     0.0699     0.1530
 2521.0000   -32.6540     6.0452  -999.2500  -999.2500     8.6357     7.2435    12.0232    98.4782     2.5009     0.0921     0.1242
 2521.5000   -32.7545     6.1556  -999.2500  -999.2500     9.1263     7.2435    11.9555    98.1452     2.5000     0.0872     0.0990
 2522.0000   -32.5766     6.0452  -999.2500  -999.2500     9.7618     7.2435    11.8918    97.1873     2.5367     0.0768     0.0724
 2522.5000   -33.1349     6.0429  -999.2500  -999.2500     8.9711     6.9994    11.8247    96.3512     2.5351     0.0665     0.0478
 2523.0000   -33.3050     5.9847  -999.2500  -999.2500     9.2582     7.1003    11.7988    96.1951     2.5575     0.0642     0.0463
 2523.5000   -33.4373     5.9992  -999.2500  -999.2500     9.4404     7.1742    11.8709   102.4471     2.5804     0.0390     0.0686
 2524.0000   -33.5596     5.9463  -999.2500  -999.2500     9.6739     7.2435    11.9633   107.5536     2.5568     0.0550     0.0905
 2524.5000   -33.7306     5.9081  -999.2500  -999.2500     8.4699     7.2435    12.0540   113.6110     2.5352     0.0710     0.1135
 2525.0000   -33.9007     5.8702  -999.2500  -999.2500     7.5103     6.8610    12.1418   114.6962     2.5126     0.0902     0.1358
 2525.5000   -34.0682     5.8305  -999.2500  -999.2500     8.1488     6.4987    12.2441   111.6750     2.4899     0.0927     0.1571
 2526.0000   -33.7945     6.1556  -999.2500  -999.2500     9.8504     7.2435    12.2045   102.4259     2.4800     0.0996     0.1572
 2526.5000   -33.3992     6.2679  -999.2500  -999.2500     9.4800     7.3757    12.0587    92.6701     2.4798     0.0972     0.1351
 2527.0000   -33.0039     6.6933  -999.2500  -999.2500     8.7441     7.5103    11.9314    89.2790     2.5257     0.0677     0.1104
 2527.5000   -33.0039     7.1137  -999.2500  -999.2500     8.0736     7.5103    11.8073    88.7127     2.5821     0.0382     0.0865
 2528.0000   -32.9928     7.1137  -999.2500  -999.2500     7.9289     7.5103    11.8000    91.4735     2.5819     0.0406     0.0621
 2528.5000   -32.9442     7.0672  -999.2500  -999.2500     7.9289     7.6848    11.7978    94.5437     2.5823     0.0445     0.0619
 2529.0000   -32.8957     6.8828  -999.2500  -999.2500     8.3426     7.7868    11.7998    94.4091     2.5919     0.0342     0.0862
 2529.5000   -32.9202     6.9025  -999.2500  -999.2500     8.6048     7.7015    11.7988    91.7289     2.5680     0.0492     0.1192
 2530.0000   -32.8213     6.7625  -999.2500  -999.2500     8.9989     7.4973    11.7993    90.2270     2.5464     0.0642     0.1123
 2530.5000   -32.7737     6.6443  -999.2500  -999.2500     8.4853     7.3262    11.7954    89.1405     2.5667     0.0574     0.0209
