~VERSION INFORMATION
 VERS.                2.0:   CWLS LOG ASCII STANDARD - VERSION 2.0
 WRAP.                 NO:   ONE LINE PER DEPTH STEP
~WELL INFORMATION
#MNEM.UNIT      DATA TYPE    INFORMATION
#----------   ------------   ------------------------------
 STRT.F           27.0000:   START DEPTH
 STOP.F          670.0000:   STOP DEPTH
 STEP.F            0.5000:   STEP LENGTH
 NULL.          -999.2500:   NO VALUE
 COMP. LAWRENCE/ALLISON INC:   COMPANY
 WELL. SX 11 WP 26 #26-11:   WELL
 FLD .           N.P.R #3:   FIELD
 LOC .      S11 T38N R78W:   LOCATION
 CNTY.            NATRONA:   COUNTY
 STAT.            WYOMING:   STATE
 CTRY. UNITED STATES OF AMERICA:   COUNTRY
 SRVC.            Unknown:   SERVICE COMPANY
 DATE.        11-SEP-1984:   LOGDATE
 API .       490251097700:   API NUMBER
~CURVE INFORMATION
#MNEM.UNIT       API CODE    CURVE DESCRIPTION
#----------   ------------   ------------------------------
 DEPT.F                  :   
 CNC .DEC    42 890 03 00:   NEUTRON POROSITY SANDSTONE
 AC  .US/F   60 520 00 00:   ACCOUSTIC SONIC
 SPR .MV     07 010 01 00:   SPONTANEOUS POTENTIAL
 RILD.OHMM   07 120 46 00:   INDUCTION LOG DEEP RESISTIVITY
 RILM.OHMM   07 120 44 00:   INDUCTION LOG MEDIUM RESISTIVITY
 RFOC.OHMM   07 220 04 00:   RESISTIVITY FOCUSED LOG
 GRD .GAPI   45 310 01 00:   GAMMA RAY FROM DENSITY LOG
 CALD.IN     45 280 60 00:   CALIPER FROM DENSITY LOG
 DEN .G/C3   45 350 01 00:   COMPENSATED BULK DENSTIY
 CORR.G/C3   45 356 01 00:   DENSITY CORRECTION
 PORD.DEC    45 890 12 00:   POROSITY DENSITY SANDSTONE
~PARAMETER INFORMATION
#MNEM.UNIT          VALUE    DESCRIPTION
#----------   ------------   ------------------------------
 PD  .                 GL:   PERMANENT DATUM
 EPD .F              5186:   ELEVATION PERMANENT DATUM
 LMF .                 GL:   LOG MEASURED FROM
 DMF .                 GL:   DRILLING MEASURED FROM
 EGL .F              5186:   GROUND LEVEL
 DATE.            9-11-84:   RUN DATE
 RUN .                  1:   RUN NUMBER
 DD  .F               672:   DEPTH DRILLER
 DL  .F               668:   DEPTH LOGGER
 BLI .F               668:   BOTTOM LOG INTERVAL
 TLI .F                45:   TOP LOG INTERVAL
 CS  .IN            8.625:   CASING SIZE
 CBD .F                42:   CASING BOTTOM DRILLER
 CBL .F                45:   CASING BOTTOM LOGGER
 BS  .IN            7.875:   BIT SIZE
 BSD .F               672:   BIT SIZE AT DEPTH
 DFT .          KCL WATER:   DRILLING FLUID TYPE
 MSS .               TANK:   MUD SAMPLE SOURCE
 RMS .OHMM            .36:   RESISTIVITY MUD SAMPLE
 MST .F                82:   MUD SAMPLE TEMPERATURE
 MFSS.                  C:   MUD FILTRATE SAMPLE SOURCE
 MCSS.                  C:   MUD CAKE SAMPLE SOURCE
 TCS .HRS               3:   TIME CURCULATED STOPPED
 MRT .F               100:   MAXIMUM RECORDED TEMPERATURE
 LUN .            HL 6307:   LOGGING UNIT NUMBER
 LUL .           GILLETTE:   LOGGING UNIT LOCATION
 ENGI.      FAHLSING/MACK:   RECORDING ENGINEER
 WITN.            JOHNSON:   WITNESSED BY
 CLNT.            A2DTECH:   CLIENT CODE
 ORIG.       2", 5" PRINT:   ORIGIN OF DATA
 UWI .       490251097700:   UNIQUE WELL ID
 DICO. A2D Technologies, Inc.:   DIGITIZING COMPANY
~OTHER INFORMATION
~A   DEPT      CNC          AC       SPR       RILD       RILM       RFOC        GRD       CALD        DEN       CORR       PORD   
# ...
  637.0000     0.3355   116.1150   -39.4530     2.8870     2.9820     6.2770   109.6640     7.7030     2.4400     0.0140     0.1520
  637.5000     0.3420   123.7820   -40.1540     2.5060     2.6290     5.1730   112.8820     7.7020     2.4230     0.0300     0.1660
  638.0000     0.3927   127.5110   -40.5510     2.4180     2.4790     4.0250   116.1070     7.7020     2.3910     0.0460     0.1920
  638.5000     0.3954   130.7870   -41.0080     2.3500     2.3930     3.3650   117.7450     7.7010     2.3410     0.0620     0.2190
  639.0000     0.3916   127.8980   -40.9700     2.3830     2.5490     3.4200   113.9120     7.7000     2.2910     0.0680     0.2450
  639.5000     0.3851   119.8340   -40.3690     2.4150     3.0720     3.8160   110.0910     7.7000     2.2430     0.0540     0.2600
  640.0000     0.3516   111.8660   -39.7800     2.5720     3.5960     5.0520   106.2830     7.7020     2.2540     0.0410     0.2420
  640.5000     0.3079   103.8970   -39.1930     3.0890     4.1190     6.3940   102.4650     7.7040     2.3160     0.0290     0.2010
  641.0000     0.3010   100.9540   -38.6050     3.6070     4.6420     7.7350    98.4850     7.7060     2.3850     0.0340     0.1600
  641.5000     0.2984    99.5120   -38.0160     4.1240     5.1650     8.7940    96.2310     7.7080     2.4530     0.0410     0.1190
  642.0000     0.2902    99.2830   -37.4290     4.6410     5.6880     9.1840    98.5510     7.7100     2.4970     0.0360     0.1050
  642.5000     0.2836    98.9110   -36.8420     5.1580     6.2110     8.2990   101.8970     7.7120     2.5040     0.0320     0.1060
  643.0000     0.2840    98.0650   -36.2510     5.6750     6.6660     8.5940   105.2550     7.7130     2.5030     0.0290     0.1070
  643.5000     0.2877    97.2190   -35.8990     6.1750     6.9370     9.0340   107.8870     7.7150     2.5010     0.0330     0.1080
  644.0000     0.2872    97.0030   -35.6680     6.6710     7.2070     9.4410   107.6400     7.7170     2.5000     0.0360     0.1070
  644.5000     0.2781    97.1280   -35.4410     7.2260     7.3270     9.3470   105.1170     7.7190     2.5050     0.0400     0.1050
  645.0000     0.2725    97.2900   -35.2170     7.2100     7.4420     9.3200   102.6520     7.7210     2.5090     0.0430     0.1030
  645.5000     0.2790    97.5570   -34.9930     7.1890     7.5580     9.2940   102.9630     7.7230     2.5130     0.0380     0.1010
  646.0000     0.2786    97.8240   -34.7680     7.1680     7.7100     9.2690   106.3560     7.7250     2.5180     0.0340     0.0980
  646.5000     0.2776    98.0900   -34.5450     7.1620     7.6810     9.2810   109.6630     7.7260     2.5130     0.0290     0.1010
  647.0000     0.2773    98.3570   -34.3240     7.1370     7.6380     9.3040   112.9660     7.7280     2.5060     0.0250     0.1060
  647.5000     0.2766    98.6240   -34.1300     7.1130     7.5960     9.3280   116.2820     7.7300     2.4990     0.0270     0.1100
  648.0000     0.2768    98.8380   -33.5770     7.0900     7.5540     9.3540   119.6940     7.7320     2.4920     0.0280     0.1130
  648.5000     0.2867    98.9140   -33.0380     7.0670     7.5110     9.3270   119.4810     7.7340     2.4890     0.0300     0.1150
  649.0000     0.2913    98.8120   -32.5000     7.0430     7.4690     9.1840   116.9520     7.7360     2.4870     0.0320     0.1170
  649.5000     0.2736    98.7180   -31.9600     7.0200     7.4310     9.2100   114.1630     7.7380     2.4860     0.0320     0.1170
  650.0000     0.2708    98.6240   -31.4100     6.9970     7.7350     9.2620   111.2950     7.7390     2.4840     0.0270     0.1180
  650.5000     0.2713    98.5300   -31.7370     6.9670     7.9260     9.3140   111.7250     7.7360     2.4830     0.0230     0.1180
  651.0000     0.2744    98.4360   -32.1370     7.0690     7.7130     9.3660   112.3850     7.7330     2.4830     0.0240     0.1180
  651.5000     0.2793    98.3420   -32.5390     7.1620     7.5610     9.4180   112.4570     7.7300     2.4830     0.0280     0.1190
  652.0000     0.2832    98.7540   -32.9390     7.0740     7.4080     9.4720   110.3540     7.7260     2.4800     0.0320     0.1190
  652.5000     0.2878    99.3520   -33.3410     7.0090     7.2560     9.5290   108.2220     7.7230     2.4770     0.0290     0.1200
  653.0000     0.2977    99.9490   -33.7410     6.9430     7.1620     9.1790   106.0690     7.7190     2.4780     0.0160     0.1200
  653.5000     0.2992    99.9250   -34.1340     6.8400     7.1860     8.6110  -999.2500     7.7160     2.4820     0.0030     0.1180
  654.0000     0.3010    99.4220   -34.5730     6.8990     7.3070     8.7590  -999.2500     7.7130     2.4930    -0.0100     0.1130
  654.5000     0.3055    98.9190   -34.4350     7.0440     7.4280     9.1170  -999.2500     7.7090     2.5040    -0.0240     0.1070
  655.0000     0.3104    98.4160   -34.3100     7.1880     7.5490     9.4760  -999.2500     7.7060     2.5110    -0.0330     0.1020
  655.5000     0.3126    97.9130   -34.1880     7.2950     7.6390     9.3460  -999.2500     7.7020     2.5020    -0.0140     0.1060
  656.0000     0.3063    97.4200   -34.0670     7.1560     7.5540     9.2010  -999.2500     7.6990     2.4980     0.0260     0.1090
  656.5000     0.2999    97.7010   -33.9450     7.0450     7.4870     9.2990  -999.2500     7.6960     2.5030     0.0570     0.1060
  657.0000     0.2928    98.0430   -33.8230     6.9030     7.4200     9.4410  -999.2500     7.6920     2.5070     0.0570     0.1030
  657.5000     0.2746    98.3850   -33.7010     6.9230     7.3530     9.5290  -999.2500     7.6890     2.5030     0.0430     0.1060
  658.0000     0.2560    98.7270   -33.5800     6.9510     7.2950     9.2570  -999.2500     7.6850     2.4980     0.0300     0.1090
  658.5000     0.2479    99.0700   -33.4590     6.9800     7.2950     8.9340  -999.2500     7.6820     2.5010     0.0320     0.1090
  659.0000     0.2401    98.9540   -33.3640     7.0080     7.2950     8.9660  -999.2500     7.6820     2.5080     0.0370     0.1060
  659.5000     0.2388    98.7710   -33.3670     7.0310     7.2950     9.0560  -999.2500     7.6880     2.5150     0.0430     0.1010
  660.0000     0.2385    98.7150   -33.3670     6.9390     7.2950     9.1450  -999.2500     7.6940     2.5220     0.0480     0.0970
  660.5000     0.2387  -999.2500  -999.2500     6.7050     7.0280     9.2350  -999.2500     7.6990     2.5180     0.0380     0.1000
  661.0000     0.2384  -999.2500  -999.2500     6.4720     6.7610     9.2690  -999.2500     7.7050     2.5100     0.0100     0.1040
  661.5000     0.2377  -999.2500  -999.2500     6.2380     6.4940     8.7090  -999.2500     7.7110     2.5020     0.0010     0.1090
  662.0000     0.2386  -999.2500  -999.2500     6.0040     6.2950     7.9610  -999.2500     7.7170     2.4970     0.0070     0.1120
  662.5000     0.2391  -999.2500  -999.2500     5.7660     6.5660     7.2130  -999.2500     7.7220     2.4930     0.0220     0.1150
  663.0000     0.2394  -999.2500  -999.2500     5.9110     6.5920     6.5320  -999.2500     7.7280     2.4880     0.0380     0.1180
  663.5000     0.2393  -999.2500  -999.2500     6.1050     6.5920     6.9700  -999.2500     7.7340     2.4860     0.0530     0.1190
  664.0000     0.2390  -999.2500  -999.2500     6.2380     6.5320     7.4990  -999.2500     7.7390     2.4980     0.0630     0.1070
  664.5000     0.2383  -999.2500  -999.2500     6.1810     6.5460     8.2220  -999.2500     7.7370     2.5200     0.0520     0.0950
  665.0000     0.2382  -999.2500  -999.2500     6.1810     6.5880     9.0070  -999.2500     7.7340     2.5420     0.0330     0.0820
  665.5000     0.2382  -999.2500  -999.2500     6.1810     6.5650     9.3550  -999.2500     7.7310     2.5630     0.0140     0.0700
  666.0000     0.2381  -999.2500  -999.2500  -999.2500  -999.2500  -999.2500  -999.2500     7.7280     2.5820     0.0090     0.0610
  666.5000     0.2390  -999.2500  -999.2500  -999.2500  -999.2500  -999.2500  -999.2500     7.7250  -999.2500     0.0240     0.0650
  667.0000     0.2396  -999.2500  -999.2500  -999.2500  -999.2500  -999.2500  -999.2500     7.7210  -999.2500     0.0460     0.0720
