~VERSION INFORMATION
 VERS.                2.0:   CWLS LOG ASCII STANDARD - VERSION 2.0
 WRAP.                 NO:   ONE LINE PER DEPTH STEP
~WELL INFORMATION
#MNEM.UNIT      DATA TYPE    INFORMATION
#----------   ------------   ------------------------------
 STRT.F          936.5000:   START DEPTH
 STOP.F         2325.5000:   STOP DEPTH
 STEP.F            0.5000:   STEP LENGTH
 NULL.          -999.2500:   NO VALUE
 COMP. LAWRENCE/ALLISON INC:   COMPANY
 WELL.  NPR 3 #45-1-SHX-3:   WELL
 FLD .             TEAPOT:   FIELD
 LOC .       S3 T38N R78W:   LOCATION
 CNTY.            NATRONA:   COUNTY
 STAT.            WYOMING:   STATE
 CTRY. UNITED STATES OF AMERICA:   COUNTRY
 SRVC.            Unknown:   SERVICE COMPANY
 DATE.        10-OCT-1991:   LOGDATE
 API .       490251092300:   API NUMBER
~CURVE INFORMATION
#MNEM.UNIT       API CODE    CURVE DESCRIPTION
#----------   ------------   ------------------------------
 DEPT.F                  :   
 TGAS.UNITS  91 830 01 00:   TOTAL GAS FROM HOTWIRE
 ROP .MIN/FT 91 810 01 00:   RATE OF DRILLING PENETRATION
~PARAMETER INFORMATION
#MNEM.UNIT          VALUE    DESCRIPTION
#----------   ------------   ------------------------------
 EKB .F              5199:   KELLING BUSHING
 EGL .F              5189:   GROUND LEVEL
 DATE.           10-10-91:   RUN DATE
 DD  .F              2325:   DEPTH DRILLER
 BLI .F              2324:   BOTTOM LOG INTERVAL
 TLI .F              1920:   TOP LOG INTERVAL
 CS  .IN            9.625:   CASING SIZE
 CBD .F               498:   CASING BOTTOM DRILLER
 ENGI.               HUSK:   RECORDING ENGINEER
 WITN.              TOWER:   WITNESSED BY
 CLNT.            A2DTECH:   CLIENT CODE
 ORIG.           5" PRINT:   ORIGIN OF DATA
 UWI .       490251092300:   UNIQUE WELL ID
 DICO. A2D Technologies, Inc.:   DIGITIZING COMPANY
~OTHER INFORMATION
~A   DEPT     TGAS          ROP 
# ...
 1301.0000  -999.2500     0.8101
 1301.5000  -999.2500     0.8091
 1302.0000  -999.2500     0.8081
 1302.5000  -999.2500     0.8071
 1303.0000  -999.2500     0.8061
 1303.5000  -999.2500     0.8051
 1304.0000  -999.2500     0.8042
 1304.5000  -999.2500     0.8032
 1305.0000  -999.2500     0.8022
 1305.5000  -999.2500     0.8012
 1306.0000  -999.2500     0.8002
 1306.5000  -999.2500     0.7992
 1307.0000  -999.2500     0.7983
 1307.5000  -999.2500     0.7973
 1308.0000  -999.2500     0.7963
 1308.5000  -999.2500     0.7953
 1309.0000  -999.2500     0.7943
 1309.5000  -999.2500     0.7933
 1310.0000  -999.2500     0.7924
 1310.5000  -999.2500     0.7914
 1311.0000  -999.2500     0.7904
 1311.5000  -999.2500     0.7894
 1312.0000  -999.2500     0.7884
 1312.5000  -999.2500     0.7874
 1313.0000  -999.2500     0.7864
 1313.5000  -999.2500     0.7855
 1314.0000  -999.2500     0.7845
 1314.5000  -999.2500     0.7835
 1315.0000  -999.2500     0.7825
 1315.5000  -999.2500     0.7815
 1316.0000  -999.2500     0.7805
 1316.5000  -999.2500     0.7794
 1317.0000  -999.2500     0.8850
 1317.5000  -999.2500     0.8853
 1318.0000  -999.2500     0.8858
 1318.5000  -999.2500     0.8863
 1319.0000  -999.2500     0.8868
 1319.5000  -999.2500     0.8873
 1320.0000  -999.2500     0.8878
 1320.5000  -999.2500     0.8883
 1321.0000  -999.2500     0.8888
 1321.5000  -999.2500     0.8893
 1322.0000  -999.2500     0.8898
 1322.5000  -999.2500     0.8903
 1323.0000  -999.2500     0.8908
 1323.5000  -999.2500     0.8913
 1324.0000  -999.2500     0.8918
 1324.5000  -999.2500     0.8923
 1325.0000  -999.2500     0.8928
 1325.5000  -999.2500     0.8933
 1326.0000  -999.2500     0.8938
 1326.5000  -999.2500     0.8943
 1327.0000  -999.2500     0.8948
 1327.5000  -999.2500     0.8953
 1328.0000  -999.2500     0.8958
 1328.5000  -999.2500     0.8963
 1329.0000  -999.2500     0.8968
 1329.5000  -999.2500     0.8973
 1330.0000  -999.2500     0.8978
 1330.5000  -999.2500     0.8983
 1331.0000  -999.2500     0.8988
 1331.5000  -999.2500     0.8993
 1332.0000  -999.2500     0.8998
 1332.5000  -999.2500     0.9003
 1333.0000  -999.2500     0.9008
 1333.5000  -999.2500     0.9013
 1334.0000  -999.2500     0.9018
 1334.5000  -999.2500     0.9023
 1335.0000  -999.2500     0.9028
 1335.5000  -999.2500     0.9033
 1336.0000  -999.2500     0.9038
 1336.5000  -999.2500     0.9043
 1337.0000  -999.2500     0.9048
 1337.5000  -999.2500     0.9053
 1338.0000  -999.2500     0.9058
 1338.5000  -999.2500     0.9063
 1339.0000  -999.2500     0.9068
 1339.5000  -999.2500     0.9073
 1340.0000  -999.2500     0.9078
 1340.5000  -999.2500     0.9083
 1341.0000  -999.2500     0.9088
 1341.5000  -999.2500     0.9093
 1342.0000  -999.2500     0.9098
 1342.5000  -999.2500     0.9103
 1343.0000  -999.2500     0.9108
 1343.5000  -999.2500     0.9113
 1344.0000  -999.2500     0.9118
 1344.5000  -999.2500     0.9123
 1345.0000  -999.2500     0.9128
 1345.5000  -999.2500     0.9133
 1346.0000  -999.2500     0.9138
 1346.5000  -999.2500     0.9143
 1347.0000  -999.2500     0.9148
 1347.5000  -999.2500     0.9153
 1348.0000  -999.2500     0.7874
 1348.5000  -999.2500     0.7841
 1349.0000  -999.2500     0.7808
 1349.5000  -999.2500     0.7775
 1350.0000  -999.2500     0.7744
 1350.5000  -999.2500     0.7745
 1351.0000  -999.2500     0.7747
 1351.5000  -999.2500     0.7748
 1352.0000  -999.2500     0.7749
 1352.5000  -999.2500     0.7751
 1353.0000  -999.2500     0.7752
 1353.5000  -999.2500     0.7753
 1354.0000  -999.2500     0.7755
 1354.5000  -999.2500     0.7756
 1355.0000  -999.2500     0.7757
 1355.5000  -999.2500     0.7758
 1356.0000  -999.2500     0.7760
 1356.5000  -999.2500     0.7761
 1357.0000  -999.2500     0.7762
 1357.5000  -999.2500     0.7764
 1358.0000  -999.2500     0.7765
 1358.5000  -999.2500     0.7766
 1359.0000  -999.2500     0.7767
 1359.5000  -999.2500     0.7769
 1360.0000  -999.2500     0.7770
 1360.5000  -999.2500     0.7771
 1361.0000  -999.2500     0.7773
 1361.5000  -999.2500     0.7774
 1362.0000  -999.2500     0.7775
 1362.5000  -999.2500     0.7777
 1363.0000  -999.2500     0.7778
 1363.5000  -999.2500     0.7779
 1364.0000  -999.2500     0.7780
 1364.5000  -999.2500     0.7782
 1365.0000  -999.2500     0.7783
 1365.5000  -999.2500     0.7784
 1366.0000  -999.2500     0.7786
 1366.5000  -999.2500     0.7787
 1367.0000  -999.2500     0.7788
 1367.5000  -999.2500     0.7790
 1368.0000  -999.2500     0.7791
 1368.5000  -999.2500     0.7792
 1369.0000  -999.2500     0.7793
 1369.5000  -999.2500     0.7795
 1370.0000  -999.2500     0.7796
 1370.5000  -999.2500     0.7797
 1371.0000  -999.2500     0.7799
 1371.5000  -999.2500     0.7800
 1372.0000  -999.2500     0.7801
 1372.5000  -999.2500     0.7802
 1373.0000  -999.2500     0.7804
 1373.5000  -999.2500     0.7805
 1374.0000  -999.2500     0.7806
 1374.5000  -999.2500     0.7808
 1375.0000  -999.2500     0.7809
 1375.5000  -999.2500     0.7810
 1376.0000  -999.2500     0.7812
 1376.5000  -999.2500     0.7813
 1377.0000  -999.2500     0.7814
 1377.5000  -999.2500     0.7815
 1378.0000  -999.2500     0.7817
 1378.5000  -999.2500     0.7818
 1379.0000  -999.2500     0.7819
 1379.5000  -999.2500     0.7821
 1380.0000  -999.2500     0.7822
 1380.5000  -999.2500     0.7823
 1381.0000  -999.2500     0.7823
 1381.5000  -999.2500     0.7823
 1382.0000  -999.2500     0.7823
 1382.5000  -999.2500     0.7823
 1383.0000  -999.2500     0.7823
 1383.5000  -999.2500     0.7823
 1384.0000  -999.2500     0.7823
 1384.5000  -999.2500     0.7822
 1385.0000  -999.2500     0.7822
 1385.5000  -999.2500     0.7822
 1386.0000  -999.2500     0.7822
 1386.5000  -999.2500     0.7822
 1387.0000  -999.2500     0.7822
 1387.5000  -999.2500     0.7822
 1388.0000  -999.2500     0.7822
 1388.5000  -999.2500     0.7822
 1389.0000  -999.2500     0.7822
 1389.5000  -999.2500     0.7822
 1390.0000  -999.2500     0.7822
 1390.5000  -999.2500     0.7821
 1391.0000  -999.2500     0.7821
 1391.5000  -999.2500     0.7821
 1392.0000  -999.2500     0.7821
 1392.5000  -999.2500     0.7821
 1393.0000  -999.2500     0.7821
 1393.5000  -999.2500     0.7821
 1394.0000  -999.2500     0.7821
 1394.5000  -999.2500     0.7821
 1395.0000  -999.2500     0.7821
 1395.5000  -999.2500     0.7821
 1396.0000  -999.2500     0.7821
 1396.5000  -999.2500     0.7820
 1397.0000  -999.2500     0.7820
 1397.5000  -999.2500     0.7820
 1398.0000  -999.2500     0.7820
 1398.5000  -999.2500     0.7820
 1399.0000  -999.2500     0.7820
 1399.5000  -999.2500     0.7820
 1400.0000  -999.2500     0.7820
 1400.5000  -999.2500     0.7816
 1401.0000  -999.2500     0.7812
 1401.5000  -999.2500     0.7807
 1402.0000  -999.2500     0.7803
 1402.5000  -999.2500     0.7799
 1403.0000  -999.2500     0.7795
 1403.5000  -999.2500     0.7791
 1404.0000  -999.2500     0.7786
 1404.5000  -999.2500     0.7782
 1405.0000  -999.2500     0.7778
 1405.5000  -999.2500     0.7774
 1406.0000  -999.2500     0.7769
 1406.5000  -999.2500     0.7765
 1407.0000  -999.2500     0.7761
 1407.5000  -999.2500     0.7757
 1408.0000  -999.2500     0.6626
 1408.5000  -999.2500     0.6631
 1409.0000  -999.2500     0.6637
 1409.5000  -999.2500     0.6647
 1410.0000  -999.2500     0.6656
 1410.5000  -999.2500     0.6665
 1411.0000  -999.2500     0.6675
 1411.5000  -999.2500     0.6684
 1412.0000  -999.2500     0.6693
 1412.5000  -999.2500     0.6703
 1413.0000  -999.2500     0.6712
 1413.5000  -999.2500     0.6721
 1414.0000  -999.2500     0.6731
 1414.5000  -999.2500     0.6740
 1415.0000  -999.2500     0.6750
 1415.5000  -999.2500     0.6759
 1416.0000  -999.2500     0.6768
 1416.5000  -999.2500     0.6778
 1417.0000  -999.2500     0.6787
 1417.5000  -999.2500     0.6796
 1418.0000  -999.2500     0.6807
 1418.5000  -999.2500     0.6810
 1419.0000  -999.2500     0.6813
 1419.5000  -999.2500     0.6816
 1420.0000  -999.2500     0.6820
 1420.5000  -999.2500     0.6823
 1421.0000  -999.2500     0.6826
 1421.5000  -999.2500     0.6830
 1422.0000  -999.2500     0.6833
