~VERSION INFORMATION
 VERS.                2.0:   CWLS LOG ASCII STANDARD - VERSION 2.0
 WRAP.                 NO:   ONE LINE PER DEPTH STEP
~WELL INFORMATION
#MNEM.UNIT      DATA TYPE    INFORMATION
#----------   ------------   ------------------------------
 STRT.F          190.0000:   START DEPTH
 STOP.F         3246.0000:   STOP DEPTH
 STEP.F            0.5000:   STEP LENGTH
 NULL.          -999.2500:   NO VALUE
 COMP. BROWN JOHN E&C INC:   COMPANY
 WELL.      STX-15 #84-15:   WELL
 FLD .             TEAPOT:   FIELD
 LOC .      S15 T38N R78W:   LOCATION
 CNTY.            NATRONA:   COUNTY
 STAT.            WYOMING:   STATE
 CTRY. UNITED STATES OF AMERICA:   COUNTRY
 SRVC.           BIRDWELL:   SERVICE COMPANY
 DATE.        17-MAR-1978:   LOGDATE
 API .       490251111600:   API NUMBER
~CURVE INFORMATION
#MNEM.UNIT       API CODE    CURVE DESCRIPTION
#----------   ------------   ------------------------------
 DEPT.F                  :   
 ILD .OHMM   05 120 46 00:   INDUCTION LOG DEEP
 SN  .OHMM   05 040 16 00:   SHORT NORMAL 16"
 SPR .MV     05 010 01 00:   SPONTANEOUS POTENTIAL FROM RES.
 GRD .GAPI   45 310 01 00:   GAMMA RAY FROM DENSITY LOG
 CALD.IN     45 280 60 00:   CALIPER
 RHOB.G/C3   45 350 01 00:   BULK DENSITY
 CORR.G/C3   45 356 01 00:   DENSITY CORRECTION
 DPHI.DEC    45 890 12 00:   DENSITY POROSITY SANDSTONE
~PARAMETER INFORMATION
#MNEM.UNIT          VALUE    DESCRIPTION
#----------   ------------   ------------------------------
 PD  .                 GL:   PERMANENT DATUM
 EPD .F              5241:   ELEVATION PERMANENT DATUM
 LMF .                 KB:   LOG MEASURED FROM
 DAPD.F                10:   FEET ABOVE PERMANENT DATUM
 DMF .                 KB:   DRILLING MEASURED FROM
 EKB .F              5251:   KELLING BUSHING
 EGL .F              5241:   GROUND LEVEL
 DATE.            3-17-78:   RUN DATE
 RUN .                  1:   RUN NUMBER
 DD  .F              3250:   DEPTH DRILLER
 DL  .F              3250:   DEPTH LOGGER
 BLI .F              3244:   BOTTOM LOG INTERVAL
 TLI .F               224:   TOP LOG INTERVAL
 CS  .IN            8.625:   CASING SIZE
 CBL .F               224:   CASING BOTTOM LOGGER
 BS  .IN            7.875:   BIT SIZE
 BSD .F              3250:   BIT SIZE AT DEPTH
 DFD .                8.9:   DRILLING FLUID DENSITY
 DFV .                 31:   DRILLING FLUID VISCOSITY
 DFPH.               10.5:   DRILLING FLUID PH
 DFL .                  8:   DRILLING FLUID LOSS
 MSS .           FLOWLINE:   MUD SAMPLE SOURCE
 RMS .OHMM            1.3:   RESISTIVITY MUD SAMPLE
 MST .F                70:   MUD SAMPLE TEMPERATURE
 RMF .OHMM            1.1:   RESISTIVITY MUD FILTRATE SAMPLE
 MFST.F                70:   MUD FILTRATE SAMPLE TEMPERATURE
 RMC .OHMM            1.4:   RESISTIVITY MUD CAKE
 MCST.F                70:   MUD CAKE SAMPLE TEMPERATURE
 MFSS.               MEAS:   MUD FILTRATE SAMPLE SOURCE
 MCSS.               MEAS:   MUD CAKE SAMPLE SOURCE
 RMB .OHMM            .77:   RESISTIVITY MUD AT BHT
 BHT .F               118:   BOTTOM HOLE TEMPERATURE
 TCS .HRS               6:   TIME CURCULATED STOPPED
 MRT .F               118:   MAXIMUM RECORDED TEMPERATURE
 LUN .               2958:   LOGGING UNIT NUMBER
 LUL .               CASP:   LOGGING UNIT LOCATION
 ENGI.             MILLER:   RECORDING ENGINEER
 WITN.           MCGINLEY:   WITNESSED BY
 CLNT.            A2DTECH:   CLIENT CODE
 ORIG.     1", 2.5" PRINT:   ORIGIN OF DATA
 UWI .       490251111600:   UNIQUE WELL ID
 DICO. A2D Technologies, Inc.:   DIGITIZING COMPANY
~OTHER INFORMATION
~A   DEPT      ILD         SN        SPR         GRD      CALD       RHOB       CORR       DPHI   
# ...
 2782.0000    24.6093    20.9110   -28.8179    63.2303     9.1226     2.4445     0.0399     0.1275
 2782.5000    23.9753    20.6812   -28.8558    63.5306     9.1715     2.4508     0.0444     0.1242
 2783.0000    23.4601    20.4543   -28.8939    66.8598     9.2214     2.4572     0.0491     0.1211
 2783.5000    22.9558    20.2313   -28.9238    69.0952     9.2705     2.4589     0.0509     0.1203
 2784.0000    22.4619    20.0100   -28.9588    70.0012     9.3235     2.4571     0.0462     0.1203
 2784.5000    21.9782    19.7912   -28.9923    71.1607     9.3529     2.4581     0.0416     0.1237
 2785.0000    21.2395    19.5747   -29.0255    74.2204     9.3496     2.4610     0.0369     0.1276
 2785.5000    21.2656    19.3606   -29.0595    77.2442     9.3501     2.4627     0.0321     0.1314
 2786.0000    21.3655    19.5532   -29.0929    77.9018     9.3505     2.4529     0.0273     0.1353
 2786.5000    21.4670    19.7477   -29.1263    74.2735     9.3501     2.4413     0.0251     0.1391
 2787.0000    21.5697    19.9441   -29.1612    67.1407     9.3496     2.4291     0.0289     0.1426
 2787.5000    21.6733    20.1425   -29.1922    60.3305     9.3514     2.4214     0.0325     0.1434
 2788.0000    21.7775    20.4640   -29.2304    55.7446     9.3513     2.4214     0.0360     0.1395
 2788.5000    21.8816    20.2983   -29.1938    54.9526     9.4410     2.4284     0.0401     0.1351
 2789.0000    22.0336    19.8900   -29.1441    56.1015     9.5525     2.4392     0.0377     0.1307
 2789.5000    21.6303    19.4898   -29.0920    63.2713     9.6618     2.4496     0.0326     0.1260
 2790.0000    20.9934    19.0977   -29.0424    68.2377     9.6658     2.4602     0.0276     0.1234
 2790.5000    20.3752    18.7135   -28.9922    75.2515     9.6693     2.4618     0.0220     0.1204
 2791.0000    19.7753    18.3370   -28.9393    81.8927     9.6659     2.4596     0.0228     0.1208
 2791.5000    19.1930    17.9661   -28.8935    82.8946     9.6682     2.4575     0.0294     0.1206
 2792.0000    18.6279    17.6032   -28.8364    77.4760     9.6727     2.4620     0.0353     0.1190
 2792.5000    18.0794    17.2479   -28.9263    77.3952     9.7371     2.4667     0.0418     0.1173
 2793.0000    17.6523    16.9004   -29.0466    78.1559     9.7910     2.4718     0.0423     0.1157
 2793.5000    17.5799    16.6958   -29.1700    79.1749     9.8491     2.4734     0.0373     0.1139
 2794.0000    17.5199    16.7521   -29.2897    79.7660     9.9050     2.4709     0.0329     0.1161
 2794.5000    17.4601    16.8092   -29.4120    79.7920     9.9625     2.4661     0.0287     0.1183
 2795.0000    17.4004    16.8665   -29.5327    79.8859     9.9927     2.4619     0.0240     0.1206
 2795.5000    17.3410    16.9223   -29.6527    80.5755    10.0028     2.4573     0.0198     0.1201
 2796.0000    17.2818    17.0119   -29.7789    81.3231    10.0144     2.4597     0.0166     0.1187
 2796.5000    17.2236    16.9223   -29.8898    80.3410    10.0260     2.4650     0.0227     0.1173
 2797.0000    17.1653    16.7005   -30.0261    79.1303    10.0372     2.4704     0.0279     0.1159
 2797.5000    17.1070    16.4815   -29.8401    77.9752    10.0487     2.4715     0.0334     0.1145
 2798.0000    17.0488    16.2655   -29.5918    79.9437    10.0602     2.4674     0.0389     0.1139
 2798.5000    16.8793    16.0522   -29.3300    81.9634    10.0715     2.4740     0.0402     0.1158
 2799.0000    16.5473    15.8174   -29.1997    84.2685    10.0830     2.4827     0.0402     0.1173
 2799.5000    16.2217    16.0783   -29.1535    85.7675    10.0945     2.4777     0.0402     0.1189
 2800.0000    15.9027    15.5313   -29.1019    86.5133    10.1033     2.4661     0.0402     0.1203
 2800.5000    15.5897    15.1281   -29.0509    86.5881    10.1010     2.4653     0.0422     0.1198
 2801.0000    15.2834    14.7358   -28.9999    86.7158    10.0980     2.4650     0.0446     0.1191
 2801.5000    14.9831    14.3548   -28.9493    87.1165    10.0948     2.4650     0.0475     0.1195
 2802.0000    14.6887    13.9847   -28.9006    86.9967    10.0917     2.4604     0.0455     0.1230
 2802.5000    14.4059    13.6318   -28.8428    85.1598    10.0886     2.4560     0.0401     0.1264
 2803.0000    14.4059    13.6120   -28.8776    85.1345    10.0854     2.4513     0.0346     0.1291
 2803.5000    14.4059    13.5846   -28.9702    86.0549    10.0823     2.4467     0.0337     0.1282
 2804.0000    14.4059    13.5573   -29.0548    84.4606    10.0792     2.4435     0.0387     0.1259
 2804.5000    14.4059    13.5300   -29.1382    83.1222    10.0760     2.4500     0.0428     0.1237
 2805.0000    14.4059    13.5027   -29.2244    83.2095    10.0729     2.4578     0.0475     0.1215
 2805.5000    14.4059    13.4755   -29.3090    83.2516    10.0698     2.4676     0.0374     0.1220
 2806.0000    14.4059    13.4484   -29.3923    81.7656    10.0666     2.4601     0.0290     0.1258
 2806.5000    14.1809    13.4213   -29.4809    80.2598    10.0636     2.4427     0.0315     0.1297
 2807.0000    13.9202    13.3942   -29.5618    81.0311    10.0586     2.4338     0.0341     0.1335
 2807.5000    13.6644    13.1515   -29.6257    83.0873    10.0539     2.4293     0.0368     0.1374
 2808.0000    13.3784    12.6669   -29.4918    84.9258    10.0491     2.4272     0.0395     0.1387
 2808.5000    12.9221    12.2002   -29.3714    86.3467    10.0443     2.4309     0.0424     0.1369
 2809.0000    12.4805    11.7507   -29.2403    84.0114    10.0396     2.4348     0.0431     0.1331
 2809.5000    12.0545    11.3177   -29.1140    82.2117    10.0348     2.4415     0.0388     0.1292
 2810.0000    11.6440    10.9007   -28.9875    84.9248    10.0301     2.4514     0.0376     0.1254
 2810.5000    11.2492    10.4991   -28.8590    91.5735    10.0253     2.4603     0.0427     0.1219
 2811.0000    10.8697    10.1123   -28.7324    98.2090    10.0241     2.4709     0.0474     0.1187
 2811.5000    10.4992     9.7732   -28.6070   104.7591    10.0242     2.4736     0.0525     0.1195
 2812.0000    10.5229     9.5943   -28.4732   111.9766    10.0242     2.4732     0.0476     0.1247
 2812.5000    10.3302     9.5943   -28.4456   110.7946    10.0242     2.4567     0.0402     0.1294
 2813.0000    10.5229    10.0799   -28.4954   102.4407    10.0242     2.4377     0.0327     0.1341
 2813.5000    10.9190    11.1625   -28.5375    89.4380    10.0242     2.4291     0.0369     0.1393
 2814.0000    11.8178    12.3615   -28.5786    84.7628    10.0242     2.4312     0.0415     0.1371
 2814.5000    12.7533    13.6892   -28.6226    78.7217    10.0243     2.4327     0.0469     0.1331
 2815.0000    13.7629    14.9205   -28.6648    78.2137    10.0243     2.4313     0.0518     0.1368
 2815.5000    14.8524    15.7196   -28.7057    79.2283    10.0242     2.4230     0.0566     0.1401
 2816.0000    16.0281    16.5614   -28.7527    78.4174    10.0245     2.4235     0.0628     0.1389
 2816.5000    17.6205    17.3291   -28.7897    77.2935    10.0242     2.4409     0.0570     0.1339
 2817.0000    17.5525    17.0585   -28.8169    76.1373    10.0238     2.4463     0.0409     0.1359
 2817.5000    17.4174    16.8228   -28.6180    77.4652    10.0262     2.4339     0.0287     0.1419
 2818.0000    17.2833    16.5904   -28.4298    81.2077    10.0045     2.4234     0.0321     0.1506
 2818.5000    17.1502    16.3948   -28.2296    81.4827     9.9576     2.4118     0.0348     0.1490
 2819.0000    17.0119    16.8368   -28.0354    75.7594     9.9156     2.4032     0.0383     0.1460
 2819.5000    17.5201    17.2318   -27.8393    71.7796     9.8658     2.4042     0.0415     0.1431
 2820.0000    18.0702    17.6360   -27.6437    71.9251     9.8920     2.4204     0.0447     0.1401
 2820.5000    18.6376    17.9814   -27.4482    71.5489     9.9393     2.4349     0.0479     0.1372
 2821.0000    19.2228    18.4429   -27.2498    71.1204     9.9764     2.4302     0.0512     0.1343
 2821.5000    19.8264    19.0640   -27.0610    69.8869     9.8568     2.4370     0.0544     0.1313
 2822.0000    20.4489    19.7060   -26.8644    68.2342     9.7366     2.4528     0.0576     0.1283
