~VERSION INFORMATION
 VERS.                2.0:   CWLS LOG ASCII STANDARD - VERSION 2.0
 WRAP.                 NO:   ONE LINE PER DEPTH STEP
~WELL INFORMATION
#MNEM.UNIT      DATA TYPE    INFORMATION
#----------   ------------   ------------------------------
 STRT.F           16.0000:   START DEPTH
 STOP.F         2438.0000:   STOP DEPTH
 STEP.F            0.5000:   STEP LENGTH
 NULL.          -999.2500:   NO VALUE
 COMP. FENIX & SCISSON INC:   COMPANY
 WELL.      15 SHX #27-27:   WELL
 FLD .             TEAPOT:   FIELD
 LOC .      S27 T39N R78W:   LOCATION
 CNTY.            NATRONA:   COUNTY
 STAT.            WYOMING:   STATE
 CTRY. UNITED STATES OF AMERICA:   COUNTRY
 SRVC.            Unknown:   SERVICE COMPANY
 DATE.        09-JUN-1978:   LOGDATE
 API .       490251064100:   API NUMBER
~CURVE INFORMATION
#MNEM.UNIT       API CODE    CURVE DESCRIPTION
#----------   ------------   ------------------------------
 DEPT.F                  :   
 CALD.IN     45 280 60 00:   CALIPER FROM DENSITY LOG
 GRD .GAPI   45 310 01 00:   GAMMA RAY FROM DENSITY LOG
 CORR.G/C3   45 356 01 00:   DENSITY CORRECTION
 RHOB.G/C3   45 350 01 00:   BULK DENSITY
 DPHI.DEC    45 890 10 00:   DENSITY POROSITY LIMESTONE
~PARAMETER INFORMATION
#MNEM.UNIT          VALUE    DESCRIPTION
#----------   ------------   ------------------------------
 PD  .                 GL:   PERMANENT DATUM
 EPD .F              5062:   ELEVATION PERMANENT DATUM
 LMF .                 KB:   LOG MEASURED FROM
 DAPD.F                10:   FEET ABOVE PERMANENT DATUM
 DMF .                 KB:   DRILLING MEASURED FROM
 EKB .F              5072:   KELLING BUSHING
 EGL .F              5062:   GROUND LEVEL
 DATE.        09-JUN-1978:   RUN DATE
 RUN .                  1:   RUN NUMBER
 DD  .F              2450:   DEPTH DRILLER
 DL  .F              2445:   DEPTH LOGGER
 BLI .F              2438:   BOTTOM LOG INTERVAL
 TLI .F                10:   TOP LOG INTERVAL
 CS  .IN            9.625:   CASING SIZE
 CBD .F               688:   CASING BOTTOM DRILLER
 CBL .F               694:   CASING BOTTOM LOGGER
 BS  .IN             8.75:   BIT SIZE
 BSD .F              2450:   BIT SIZE AT DEPTH
 DFT .           AIR MIST:   DRILLING FLUID TYPE
 TCS .HRS               1:   TIME CURCULATED STOPPED
 LUN .               2958:   LOGGING UNIT NUMBER
 LUL .                CPR:   LOGGING UNIT LOCATION
 ENGI.             MILLER:   RECORDING ENGINEER
 WITN.           MCGINLEY:   WITNESSED BY
 CLNT.            A2DTECH:   CLIENT CODE
 ORIG.           5" PRINT:   ORIGIN OF DATA
 UWI .       490251064100:   UNIQUE WELL ID
 DICO. A2D Technologies, Inc.:   DIGITIZING COMPANY
~OTHER INFORMATION
~A   DEPT     CALD         GRD      CORR       RHOB       DPHI   
# ...
 1846.0000     9.4217   104.3387     0.0154     2.4069     0.0932
 1846.5000     9.3000   112.8050     0.1108     2.4101     0.0056
 1847.0000     9.6851   110.9135     0.1355     2.5165     0.0062
 1847.5000     9.5637   100.8635     0.0864     2.5443     0.0247
 1848.0000     9.2429    89.6677     0.0141     2.4927     0.0424
 1848.5000     9.3520    86.1480     0.0173     2.4766     0.0486
 1849.0000     9.5987    89.2425     0.0329     2.4744     0.0464
 1849.5000     9.6460    90.3355     0.0345     2.4745     0.0467
 1850.0000     9.5287    91.5822     0.0254     2.4638     0.0578
 1850.5000     9.3112    92.6979     0.0192     2.4500     0.0842
 1851.0000     9.4053    90.8825     0.0202     2.4116     0.1058
 1851.5000     9.4376    82.5632     0.0966     2.3832     0.1027
 1852.0000     9.3626    81.4981     0.2014     2.4683     0.0003
 1852.5000     9.4328    87.1985     0.1338     2.5659     0.0184
 1853.0000     9.6424    92.4348     0.0306     2.5197     0.0425
 1853.5000     9.3219    95.5205     0.0723     2.4929     0.0255
 1854.0000     9.3236   109.0517     0.0816     2.5339     0.0153
 1854.5000     9.3252   110.7550     0.0448     2.5309     0.0332
 1855.0000     9.3422   112.1510    -0.0045     2.5048     0.0448
 1855.5000     9.4512   110.9356    -0.0062     2.4748     0.0550
 1856.0000     9.5296   104.2950     0.0111     2.4664     0.0291
 1856.5000     9.5926    99.9595     0.0698     2.5105     0.0204
 1857.0000     9.5942    97.6122     0.0599     2.5313     0.0262
 1857.5000     9.5337   101.7766     0.0484     2.5114     0.0250
 1858.0000     9.3368   108.7025     0.0516     2.5284     0.0252
 1858.5000     9.3231   108.8697     0.0332     2.5308     0.0284
 1859.0000     9.4172   107.0399     0.0209     2.5273     0.0326
 1859.5000     9.5415   105.0565     0.0179     2.5172     0.0329
 1860.0000     9.6199   103.6875     0.0180     2.5126     0.0319
 1860.5000     9.6368   104.1619     0.0164     2.5151     0.0303
 1861.0000     9.6078   107.7085     0.0155     2.5167     0.0300
 1861.5000     9.4101   109.8725     0.0137     2.5145     0.0318
 1862.0000     9.2278   109.8986     0.0122     2.5038     0.0327
 1862.5000     9.3215   110.8986     0.0154     2.5000     0.0339
 1863.0000     9.4765   112.3743     0.0201     2.5001     0.0339
 1863.5000     9.5242   114.3847     0.0279     2.5010     0.0311
 1864.0000     9.4798   120.5426     0.0373     2.5034     0.0289
 1864.5000     9.3588   126.0861     0.0435     2.5090     0.0278
 1865.0000     9.3604   125.3316     0.0405     2.5168     0.0273
 1865.5000     9.3621   120.8905     0.0265     2.5191     0.0282
 1866.0000     9.3641   121.8257     0.0083     2.4968     0.0380
 1866.5000     9.3658   121.9928     0.0162     2.4884     0.0444
 1867.0000     9.3674   122.0063     0.0317     2.4877     0.0435
 1867.5000     9.3533   123.2741     0.0595     2.4894     0.0296
 1868.0000     9.3401   130.1429     0.0688     2.5103     0.0222
 1868.5000     9.3417   144.9382     0.0504     2.5227     0.0240
 1869.0000     9.3434   155.5508     0.0058     2.5135     0.0431
 1869.5000     9.3757   172.6262    -0.0295     2.4766     0.0643
 1870.0000     9.4233   204.7319    -0.0109     2.4490     0.0622
 1870.5000     9.4403   199.5227     0.0123     2.4617     0.0482
 1871.0000     9.4420   185.4041     0.0262     2.4774     0.0414
 1871.5000     9.3980   180.1949     0.0264     2.4909     0.0444
 1872.0000     9.3839   191.6211    -0.0014     2.4779     0.0570
 1872.5000     9.3549   186.9842    -0.0105     2.4541     0.0592
 1873.0000     9.3263   186.3799    -0.0135     2.4526     0.0634
 1873.5000     9.3126   188.2401    -0.0134     2.4512     0.0671
 1874.0000     9.2985   185.6423    -0.0133     2.4497     0.0699
 1874.5000     9.2848   182.1228    -0.0147     2.4452     0.0714
 1875.0000     9.3022   179.2177    -0.0192     2.4376     0.0716
 1875.5000     9.3192   185.2220    -0.0253     2.4323     0.0719
 1876.0000     9.3209   216.2318    -0.0345     2.4301     0.0755
 1876.5000     9.2903   243.0075    -0.0359     2.4230     0.0916
 1877.0000     9.2321   250.0871    -0.0312     2.4131     0.0925
 1877.5000     9.1422   249.3326    -0.0219     2.4103     0.0884
 1878.0000     9.1281   235.2140    -0.0095     2.4166     0.0826
 1878.5000     9.1301   221.5563    -0.0063     2.4228     0.0810
 1879.0000     9.1625   210.6808    -0.0031     2.4260     0.0788
 1879.5000     9.2101   194.7945     0.0001     2.4300     0.0735
 1880.0000     9.2578   179.0481     0.0017     2.4393     0.0649
 1880.5000     9.2594   166.3888     0.0033     2.4479     0.0682
 1881.0000     9.2624   153.4659     0.0034     2.4495     0.0694
 1881.5000     9.2473   141.6090     0.0035     2.4473     0.0694
 1882.0000     9.1863   136.2462     0.0036     2.4481     0.0644
 1882.5000     9.1131   137.6422     0.0052     2.4530     0.0610
 1883.0000     9.0380   145.9518     0.0053     2.4591     0.0594
 1883.5000     9.1624   149.8044     0.0070     2.4638     0.0532
 1884.0000     9.2407   146.9028     0.0101     2.4709     0.0486
 1884.5000     9.2730   145.9946     0.0102     2.4740     0.0455
 1885.0000     9.2747   144.0112     0.0071     2.4757     0.0470
 1885.5000     9.2763   132.5391    -0.0038     2.4750     0.0494
 1886.0000     9.2627   118.2307    -0.0141     2.4728     0.0503
 1886.5000     9.2030   109.9493    -0.0156     2.4713     0.0515
 1887.0000     9.1279   103.0554    -0.0139     2.4706     0.0543
 1887.5000     9.0989    96.3821     0.0046     2.4707     0.0447
 1888.0000     9.1033    98.9334     0.0386     2.4870     0.0252
 1888.5000     9.2100    99.5580     0.0480     2.5173     0.0246
 1889.0000     9.2730    84.6747     0.0450     2.5236     0.0255
 1889.5000     9.2746    76.5470     0.0266     2.5482     0.0298
 1890.0000     9.2303    73.7921    -0.0072     2.5113     0.0390
 1890.5000     9.2008    89.9381    -0.0303     2.4890     0.0553
 1891.0000     9.1718   103.7765    -0.0302     2.4760     0.0537
 1891.5000     9.1739   112.0850    -0.0223     2.4668     0.0512
 1892.0000     9.1755   111.9449    -0.0160     2.4723     0.0512
 1892.5000     9.1772   105.7838    -0.0096     2.4732     0.0499
 1893.0000     9.1788   104.4451    -0.0020     2.4756     0.0426
 1893.5000     9.1959   111.9889    -0.0035     2.4795     0.0341
 1894.0000     9.1979   110.1591    -0.0065     2.4889     0.0350
 1894.5000     9.1904   108.0221    -0.0095     2.4944     0.0369
 1895.0000     9.1652   110.6470    -0.0125     2.4945     0.0387
 1895.5000     9.1564   111.1179    -0.0124     2.4938     0.0390
 1896.0000     9.2351   104.0688    -0.0107     2.4939     0.0380
 1896.5000     9.3135   101.1604    -0.0091     2.4940     0.0352
 1897.0000     9.3305   103.1742    -0.0090     2.4925     0.0355
 1897.5000     9.2861   103.9558    -0.0089     2.4934     0.0373
 1898.0000     9.1804   109.8065    -0.0088     2.4935     0.0373
 1898.5000     9.1667   115.0654    -0.0088     2.4936     0.0366
 1899.0000     9.2321   115.2099    -0.0071     2.4944     0.0359
 1899.5000     9.2624   115.9949    -0.0055     2.4961     0.0341
 1900.0000     9.2790   118.4123    -0.0039     2.4969     0.0345
 1900.5000     9.2324   119.5568    -0.0037     2.4962     0.0356
 1901.0000     9.1090   122.9513    -0.0036     2.4947     0.0352
 1901.5000     9.0233   124.6562    -0.0035     2.4933     0.0352
 1902.0000     9.0555   120.8311    -0.0034     2.4864     0.0361
 1902.5000     9.1797   118.2348    -0.0018     2.4810     0.0459
 1903.0000     9.2425   116.8674    -0.0016     2.4819     0.0456
 1903.5000     9.1977   111.6598    -0.0015     2.4868     0.0419
 1904.0000     9.1995   114.9008    -0.0030     2.4943     0.0354
 1904.5000     9.2471   118.1417    -0.0060     2.4936     0.0344
 1905.0000     9.2792   112.9341    -0.0090     2.4921     0.0369
 1905.5000     9.3268   107.7265    -0.0134     2.4930     0.0381
 1906.0000     9.3436   108.2601    -0.0087     2.4946     0.0370
 1906.5000     9.3144   112.6877    -0.0040     2.4985     0.0347
