~VERSION INFORMATION
 VERS.                2.0:   CWLS LOG ASCII STANDARD - VERSION 2.0
 WRAP.                 NO:   ONE LINE PER DEPTH STEP
~WELL INFORMATION
#MNEM.UNIT      DATA TYPE    INFORMATION
#----------   ------------   ------------------------------
 STRT.F           36.0000:   START DEPTH
 STOP.F          564.0000:   STOP DEPTH
 STEP.F            0.5000:   STEP LENGTH
 NULL.          -999.2500:   NO VALUE
 COMP.    FENIX & SCISSON:   COMPANY
 WELL.        NPR #73-S-3:   WELL
 FLD .             TEAPOT:   FIELD
 LOC .       S3 T38N R78W:   LOCATION
 CNTY.            NATRONA:   COUNTY
 STAT.            WYOMING:   STATE
 CTRY. UNITED STATES OF AMERICA:   COUNTRY
 SRVC.       Schlumberger:   SERVICE COMPANY
 DATE.        19-FEB-1977:   LOGDATE
 API .       490251027900:   API NUMBER
~CURVE INFORMATION
#MNEM.UNIT       API CODE    CURVE DESCRIPTION
#----------   ------------   ------------------------------
 DEPT.F                  :   
 SPR .MV     07 010 01 00:   SPONTANEOUS POTENTIAL
 ILD .OHMM   07 120 46 00:   INDUCTION LOG DEEP
 ILM .OHMM   07 120 44 00:   INDUCTION LOG MEDIUM
 LL8 .OHMM   07 220 08 00:   LATEROLOG-8 RES.
 CALD.IN     45 280 60 00:   CALIPER FROM DENSITY LOG
 CORR.G/C3   45 356 01 00:   DENSITY CORRECTION
 RHOB.G/C3   45 350 01 00:   BULK DENSITY
 DPHI.DEC    45 890 12 00:   DENSITY POROSITY SANDSTONE
 GRD .GAPI   45 310 01 00:   GAMMA RAY FROM DENSITY LOG
~PARAMETER INFORMATION
#MNEM.UNIT          VALUE    DESCRIPTION
#----------   ------------   ------------------------------
 PD  .                 GL:   PERMANENT DATUM
 EPD .F              5128:   ELEVATION PERMANENT DATUM
 LMF .                 GL:   LOG MEASURED FROM
 DAPD.F                 5:   FEET ABOVE PERMANENT DATUM
 DMF .                 KB:   DRILLING MEASURED FROM
 EKB .F              5133:   KELLING BUSHING
 EGL .F              5128:   GROUND LEVEL
 DATE.        19-FEB-1977:   RUN DATE
 RUN .                  1:   RUN NUMBER
 DD  .F               570:   DEPTH DRILLER
 DL  .F               565:   DEPTH LOGGER
 BLI .F               564:   BOTTOM LOG INTERVAL
 TLI .F                36:   TOP LOG INTERVAL
 CS  .IN            8.625:   CASING SIZE
 CBD .F                40:   CASING BOTTOM DRILLER
 CBL .F                41:   CASING BOTTOM LOGGER
 BS  .IN            7.875:   BIT SIZE
 BSD .F               570:   BIT SIZE AT DEPTH
 DFT .                FGM:   DRILLING FLUID TYPE
 DFD .                8.9:   DRILLING FLUID DENSITY
 DFV .                 31:   DRILLING FLUID VISCOSITY
 DFPH.                8.2:   DRILLING FLUID PH
 DFL .                9.2:   DRILLING FLUID LOSS
 MSS .            MUD PIT:   MUD SAMPLE SOURCE
 RMS .OHMM           .244:   RESISTIVITY MUD SAMPLE
 MST .F                78:   MUD SAMPLE TEMPERATURE
 RMF .OHMM           .233:   RESISTIVITY MUD FILTRATE SAMPLE
 MFST.F                68:   MUD FILTRATE SAMPLE TEMPERATURE
 RMC .OHMM            .36:   RESISTIVITY MUD CAKE
 MCST.F                78:   MUD CAKE SAMPLE TEMPERATURE
 MFSS.               MEAS:   MUD FILTRATE SAMPLE SOURCE
 MCSS.               CALC:   MUD CAKE SAMPLE SOURCE
 RMB .OHMM            .35:   RESISTIVITY MUD AT BHT
 BHT .F                55:   BOTTOM HOLE TEMPERATURE
 TCS .HRS               2:   TIME CURCULATED STOPPED
 MRT .F                55:   MAXIMUM RECORDED TEMPERATURE
 LUN .               7711:   LOGGING UNIT NUMBER
 LUL .               CSPR:   LOGGING UNIT LOCATION
 ENGI.                FIX:   RECORDING ENGINEER
 WITN.           VOORHEES:   WITNESSED BY
 CLNT.            A2DTECH:   CLIENT CODE
 ORIG.           5" PRINT:   ORIGIN OF DATA
 UWI .       490251027900:   UNIQUE WELL ID
 DICO. A2D Technologies, Inc.:   DIGITIZING COMPANY
~OTHER INFORMATION
~A   DEPT      SPR        ILD        ILM        LL8       CALD       CORR       RHOB       DPHI        GRD   
# ...
  328.0000   -52.9483     6.9312     6.0239     7.0863     9.3758     0.0198     2.4391     0.1259   123.1638
  328.5000   -53.0794     6.8407     5.8239     6.9939     9.3480     0.0213     2.4332     0.1295   127.0489
  329.0000   -53.3721     6.5680     5.4777     6.8084     9.3193     0.0236     2.4317     0.1341   132.2753
  329.5000   -53.6397     6.1772     5.1167     6.4040     9.3054     0.0245     2.4220     0.1382   133.1798
  330.0000   -53.6218     5.7303     4.9802     6.1915     9.2916     0.0177     2.4206     0.1435   132.4450
  330.5000   -53.7529     5.4267     5.0185     6.1953     9.2777     0.0155     2.4101     0.1492   129.3256
  331.0000   -53.7347     5.0688     5.1263     6.0310     9.2790     0.0171     2.4027     0.1516   127.5475
  331.5000   -53.7168     4.9675     5.0935     5.0820     9.2949     0.0246     2.3997     0.1513   127.5300
  332.0000   -53.6990     5.0403     5.0617     4.3118     9.2959     0.0246     2.3803     0.1609   127.7172
  332.5000   -53.6811     5.1128     5.1006     4.0557     9.2970     0.0247     2.3667     0.1741   127.7275
  333.0000   -53.5142     5.1869     5.2824     5.3793     9.2980     0.0237     2.3623     0.1762   127.5887
  333.5000   -53.4963     5.3350     5.5847     6.7996     9.2990     0.0188     2.3932     0.1545   127.1421
  334.0000   -53.3293     5.6795     5.8236     7.8603     9.0322     0.0203     2.4340     0.1331   125.3542
  334.5000   -53.1623     6.0463     6.1569     7.9195     8.7653     0.0181     2.4512     0.1217   125.0861
  335.0000   -52.8463     6.5259     6.5092     7.9244     8.6920     0.0144     2.4528     0.1201   126.7113
  335.5000   -52.5304     6.9473     6.8345     7.8750     8.6483     0.0190     2.4528     0.1192   131.0706
  336.0000   -52.2144     7.2448     7.0780     7.6662     8.6325     0.0213     2.4574     0.1174   132.4221
  336.5000   -52.0474     7.5031     7.2301     7.6184     8.6206     0.0161     2.4604     0.1180   131.3892
  337.0000   -52.1788     7.6644     7.2845     7.6488     8.6068     0.0184     2.4545     0.1200   128.2699
  337.5000   -52.1606     7.7755     7.2380     7.7063     8.6081     0.0199     2.4583     0.1194   127.5350
  338.0000   -51.9936     7.8882     7.2436     7.7910     8.5939     0.0237     2.4606     0.1173   127.3937
  338.5000   -51.6776     7.9476     7.3992     7.7958     8.5652     0.0305     2.4629     0.1153   127.1086
  339.0000   -51.5107     7.9525     7.4549     7.8007     8.5514     0.0343     2.4682     0.1142   127.1189
  339.5000   -51.6418     7.8486     7.4084     7.8057     8.5375     0.0283     2.4465     0.1232   127.1292
  340.0000   -51.6238     7.6930     7.3117     7.8103     8.5388     0.0246     2.4473     0.1196   126.9878
  340.5000   -51.6059     7.4887     7.1177     7.8152     8.5398     0.0232     2.4466     0.1220   126.2556
  341.0000   -51.5880     7.3909     6.9288     7.7399     8.5257     0.0225     2.4347     0.1259   123.8814
  341.5000   -51.7198     7.3436     6.8384     7.6127     8.5270     0.0183     2.4460     0.1210   122.6994
  342.0000   -51.5521     7.3493     6.8426     7.4620     8.5131     0.0090     2.4390     0.1276   122.8588
  342.5000   -51.5342     7.4558     6.8469     7.3646     8.5141     0.0098     2.4386     0.1249   123.7633
  343.0000   -51.3672     7.5108     6.8984     7.2936     8.5003     0.0136     2.4537     0.1185   126.0090
  343.5000   -51.3493     7.3125     6.9504     7.2481     8.5013     0.0167     2.4575     0.1185   129.4520
  344.0000   -51.3314     7.2657     6.9547     7.2277     8.5026     0.0107     2.4621     0.1155   129.9146
  344.5000   -51.1644     7.2204     6.9590     7.2323     8.5036     0.0258     2.4839     0.1034   130.0641
  345.0000   -50.6994     7.2260     6.9145     7.2367     8.5046     0.0296     2.4885     0.0959   130.2240
  345.5000   -50.3834     7.2304     6.8714     7.2912     8.5205     0.0259     2.4720     0.1112   130.2343
  346.0000   -49.9184     7.2349     6.6901     7.2957     8.5216     0.0139     2.4518     0.1196   129.9465
  346.5000   -49.4534     7.2894     6.5126     7.3505     8.5226     0.0170     2.4571     0.1178   127.2743
  347.0000   -49.1374     7.1942     6.2963     7.3545     8.5236     0.0147     2.4482     0.1205   126.5394
  347.5000   -48.8214     6.9551     6.0455     7.3591     8.5246     0.0201     2.4430     0.1237   128.8226
  348.0000   -48.8035     6.6779     5.7649     7.3637     8.5257     0.0247     2.4581     0.1193   130.8128
  348.5000   -49.0881     6.4117     5.8483     7.2676     8.5116     0.0241     2.4586     0.1147   132.7630
  349.0000   -49.8108     6.2414     6.0152     6.7891     8.5128     0.0269     2.4432     0.1240   134.3328
  349.5000   -50.5380     6.2015     6.1869     5.8000     8.5139     0.0322     2.4380     0.1267   135.5354
  350.0000   -50.8227     6.0377     6.2334     5.1282     8.5000     0.0360     2.4350     0.1315   136.4488
  350.5000   -51.0197     6.1675     6.3657     6.0102     8.4977     0.0291     2.4292     0.1362   136.5883
  351.0000   -51.2395     6.2569     6.1972     6.8529     8.4954     0.0226     2.4186     0.1407   136.7279
  351.5000   -51.5179     6.3041     5.9091     6.9521     8.4931     0.0294     2.4435     0.1199   135.2817
  352.0000   -52.3915     6.2647     5.2599     6.8145     8.4908     0.0264     2.4646     0.1169   131.5679
  352.5000   -52.5281     6.2256     5.1902     6.8657     8.4895     0.0250     2.4586     0.1133   128.5992
  353.0000   -52.5074     5.9775     5.4500     7.0615     8.4906     0.0303     2.4534     0.1175   126.5247
  353.5000   -52.4909     5.4692     5.4530     7.1146     8.4915     0.0273     2.4332     0.1256   125.1953
  354.0000   -52.6275     5.1786     5.0584     6.8785     8.4924     0.0288     2.4152     0.1313   124.3130
  354.5000   -53.0580     5.1110     4.5027     6.1238     8.4933     0.0191     2.3762     0.1466   123.7288
  355.0000   -53.7825     5.0791     4.6950     4.4360     8.4942     0.0154     2.3492     0.1806   123.8898
  355.5000   -53.9191     5.1181     5.1370     3.7897     8.4951     0.0229     2.3425     0.1920   124.4979
  356.0000   -53.3023     5.3007     5.2832     4.4721     8.4811     0.0275     2.3373     0.1908   126.8943
  356.5000   -52.9628     5.6042     5.3593     6.6212     8.4669     0.0163     2.3719     0.1754   128.6946
  357.0000   -52.5047     5.8846     5.5882     7.3955     8.4529     0.0291     2.4118     0.1371   128.4085
  357.5000   -51.8977     5.9699     5.9484     7.2491     8.4389     0.0321     2.4359     0.1278   122.6082
  358.0000   -51.4396     6.2255     6.2025     7.0569     8.4400     0.0344     2.4367     0.1302   121.1298
  358.5000   -50.8326     6.6733     6.5120     6.9648     8.4409     0.0164     2.4345     0.1319   121.1417
  359.0000   -50.5236     7.1042     6.6505     7.0172     8.4418     0.0172     2.4399     0.1262   119.3653
  359.5000   -50.0610     7.3071     6.5192     7.0216     8.4575     0.0270     2.4482     0.1253   118.3338
  360.0000   -49.8954     7.2506     6.3896     7.0260     8.5031     0.0240     2.4362     0.1301   118.7930
  360.5000   -49.8789     6.9066     6.2625     7.0303     8.5337     0.0430     2.4380     0.1267   119.8482
  361.0000   -49.7133     6.4978     6.0542     6.9865     8.5793     0.0724     2.4604     0.1144   122.0956
  361.5000   -49.6967     6.0712     5.8527     6.8482     8.6694     0.0687     2.4326     0.1180   123.4488
  362.0000   -49.9824     5.7953     5.6580     6.3535     8.8638     0.0739     2.4184     0.1414   123.3117
  362.5000   -50.4129     5.6454     5.3580     4.8625     9.0730     0.0928     2.4305     0.1330   121.2370
  363.0000   -50.5454     5.6490     5.1442     4.2993     9.1334     0.0956     2.4080     0.1320   122.4414
  363.5000   -50.3757     5.6539     5.1110     5.0043     8.7028     0.0831     2.3953     0.1425   124.3907
  364.0000   -49.9121     5.7349     5.8287     5.7849     8.5993     0.0508     2.3848     0.1621   125.2969
