~VERSION INFORMATION
 VERS.                2.0:   CWLS LOG ASCII STANDARD - VERSION 2.0
 WRAP.                 NO:   ONE LINE PER DEPTH STEP
~WELL INFORMATION
#MNEM.UNIT      DATA TYPE    INFORMATION
#----------   ------------   ------------------------------
 STRT.F            0.0000:   START DEPTH
 STOP.F          469.0000:   STOP DEPTH
 STEP.F            0.5000:   STEP LENGTH
 NULL.          -999.2500:   NO VALUE
 COMP. BROWN JOHN E&C INC:   COMPANY
 WELL. NPR 3 SX-10 4 #54-10:   WELL
 FLD .             TEAPOT:   FIELD
 LOC .      S10 T38N R78W:   LOCATION
 CNTY.            NATRONA:   COUNTY
 STAT.            WYOMING:   STATE
 CTRY. UNITED STATES OF AMERICA:   COUNTRY
 SRVC.     Atlas Wireline:   SERVICE COMPANY
 DATE.        25-APR-1991:   LOGDATE
 API .       490251133500:   API NUMBER
~CURVE INFORMATION
#MNEM.UNIT       API CODE    CURVE DESCRIPTION
#----------   ------------   ------------------------------
 DEPT.F                  :   
 RILD.OHMM   07 120 46 00:   INDUCTION LOG DEEP RESISTIVITY
 RILM.OHMM   07 120 44 00:   INDUCTION LOG MEDIUM RESISTIVITY
 GRD .GAPI   45 310 01 00:   GAMMA RAY FROM DENSITY LOG
 CALD.IN     45 280 60 00:   CALIPER FROM DENSITY LOG
 CORR.G/C3   45 356 01 00:   DENSITY CORRECTION
 PORD.DEC    45 890 12 00:   POROSITY DENSITY SANDSTONE
 DEN .G/C3   45 350 01 00:   COMPENSATED BULK DENSTIY
~PARAMETER INFORMATION
#MNEM.UNIT          VALUE    DESCRIPTION
#----------   ------------   ------------------------------
 PD  .                 GL:   PERMANENT DATUM
 EPD .F              5182:   ELEVATION PERMANENT DATUM
 LMF .                 KB:   LOG MEASURED FROM
 DAPD.F                10:   FEET ABOVE PERMANENT DATUM
 DMF .                 KB:   DRILLING MEASURED FROM
 EKB .F              5172:   KELLING BUSHING
 EGL .F              5182:   GROUND LEVEL
 DATE.        25-APR-1991:   RUN DATE
 RUN .                  1:   RUN NUMBER
 DD  .F               471:   DEPTH DRILLER
 DL  .F               471:   DEPTH LOGGER
 BLI .F               469:   BOTTOM LOG INTERVAL
 CS  .IN            8.625:   CASING SIZE
 CBD .F                44:   CASING BOTTOM DRILLER
 CBL .F                44:   CASING BOTTOM LOGGER
 BS  .IN            7.875:   BIT SIZE
 BSD .F               471:   BIT SIZE AT DEPTH
 DFT .                AIR:   DRILLING FLUID TYPE
 LUN .           HL- 6307:   LOGGING UNIT NUMBER
 LUL .             CASPER:   LOGGING UNIT LOCATION
 ENGI.    KINNETT/ ZIEGER:   RECORDING ENGINEER
 WITN.             STRONG:   WITNESSED BY
 CLNT.            A2DTECH:   CLIENT CODE
 ORIG.        2" 5" PRINT:   ORIGIN OF DATA
 UWI .       490251133500:   UNIQUE WELL ID
 DICO. A2D Technologies, Inc.:   DIGITIZING COMPANY
~OTHER INFORMATION
~A    DEPT    RILD       RILM         GRD      CALD       CORR       PORD        DEN   
# ...
   91.0000     8.4443     8.6952   132.2349     8.5429     0.0147     0.1225     2.4463
   91.5000     8.4995     8.8754   131.3262     8.5426     0.0026     0.1197     2.4523
   92.0000     8.6138     8.9387   135.6143     8.5273     0.0162     0.1161     2.4606
   92.5000     8.7305     9.1302   134.9315     8.5420     0.0163     0.1152     2.4614
   93.0000     8.9103     9.3727   131.3130     8.5417     0.0148     0.1161     2.4584
   93.5000     8.9686     9.6334   130.1794     8.5414     0.0133     0.1173     2.4554
   94.0000     9.0282     9.6983   134.6924     8.5261     0.0134     0.1182     2.4531
   94.5000     9.1497     9.6951   142.2795     8.5258     0.0119     0.1188     2.4494
   95.0000     9.1459     9.4932   147.7857     8.5255     0.0120     0.1201     2.4456
   95.5000     9.0726     9.3601   147.5557     8.5252     0.0150     0.1215     2.4434
   96.0000     8.8877     9.1651   143.3208     8.5249     0.0166     0.1221     2.4434
   96.5000     8.7013     9.0994   139.4147     8.5246     0.0166     0.1221     2.4457
   97.0000     8.5781     9.0970   140.5603     8.5243     0.0182     0.1220     2.4464
   97.5000     8.4565     9.0944   138.2750     8.5391     0.0167     0.1223     2.4456
   98.0000     8.4531     9.0914   132.8493     8.5387     0.0107     0.1223     2.4404
   98.5000     8.5093     9.1528   131.4888     8.5384     0.0047     0.1280     2.4344
   99.0000     8.5050     9.1497   131.0329     8.5381     0.0033     0.1342     2.4262
   99.5000     8.5016     9.1472   131.2537     8.5829     0.0003     0.1380     2.4224
  100.0000     8.5572     9.2089   135.5847     8.5340     0.0004     0.1383     2.4194
  100.5000     8.5536     9.0796   137.8063     8.5225     0.0064     0.1370     2.4217
  101.0000     8.5494     9.0778   138.0365     8.5225     0.0050     0.1361     2.4232
  101.5000     8.4283     8.9511   138.2667     8.5375     0.0035     0.1355     2.4255
  102.0000     8.4249     8.8876   138.2529     8.5526     0.0021     0.1349     2.4277
  102.5000     8.4215     8.8245   135.3397     8.5526     0.0006     0.1337     2.4300
  103.0000     8.4774     8.8840   134.8912     8.5526     0.0052     0.1300     2.4345
  103.5000     8.4629     8.8818   136.7038     8.5676     0.0082     0.1247     2.4405
  104.0000     8.4436     9.0044   138.2884     8.5676     0.0128     0.1241     2.4435
  104.5000     8.4242     9.0021   136.4866     8.5676     0.0128     0.1253     2.4428
  105.0000     8.4049     9.0003   136.0391     8.5676     0.0083     0.1268     2.4398
  105.5000     8.3855     8.9985   135.8186     8.5676     0.0054     0.1286     2.4352
  106.0000     8.2901     8.8631   133.1121     8.5526     0.0009     0.1304     2.4337
  106.5000     8.1722     8.4510   132.8894     8.5526    -0.0005     0.1301     2.4345
  107.0000     8.0544     8.1055   134.7021     8.5526     0.0010     0.1265     2.4436
  107.5000     7.7337     8.0479   134.7064     8.5526     0.0056     0.1253     2.4458
  108.0000     7.5174     7.9908   133.7348     8.5676     0.0056     0.1262     2.4413
  108.5000     7.2617     7.8185   134.0384     8.5676     0.0011     0.1293     2.4345
  109.0000     7.0613     7.4014   134.9464     8.5676     0.0012     0.1319     2.4315
  109.5000     6.9141     7.0498   135.6284     8.5676    -0.0003     0.1316     2.4315
  110.0000     6.9123     6.8085   134.2773     8.5676    -0.0002     0.1337     2.4255
  110.5000     6.9105     6.7139   133.3780     8.5526    -0.0032     0.1386     2.4187
  111.0000     6.9086     7.0945   134.1598     8.5375    -0.0031     0.1446     2.4127
  111.5000     6.9063     7.3065   134.9680     8.5225    -0.0031     0.1470     2.4089
  112.0000     6.9045     7.4957   133.8439     8.5526    -0.0030     0.1455     2.4134
  112.5000     6.9511     7.6511   134.0742     8.5676    -0.0045     0.1377     2.4225
  113.0000     7.0463     7.7032   136.5634     8.5676    -0.0015     0.1349     2.4277
  113.5000     7.1919     7.8629   137.4714     8.5826     0.0091     0.1349     2.4247
  114.0000     7.3457     7.9732   134.3130     8.6126     0.0137     0.1386     2.4194
  114.5000     7.5449     8.1367   132.2853     8.6276     0.0077     0.1389     2.4202
  115.0000     7.7019     8.3054   128.4493     8.6126     0.0138     0.1364     2.4224
  115.5000     7.8616     8.3619   127.7748     8.5676     0.0078     0.1337     2.4285
  116.0000     7.9692     8.4768   130.9429     8.5676     0.0003     0.1313     2.4337
  116.5000     8.0777     8.4747   133.4564     8.5375     0.0079     0.1289     2.4375
  117.0000     8.1317     8.4730   135.6966     8.5075     0.0139     0.1277     2.4383
  117.5000     8.0729     8.3544   136.8305     8.5225     0.0140     0.1304     2.4345
  118.0000     7.9596     8.2951   135.0276     8.5526     0.0080     0.1334     2.4300
  118.5000     7.9026     8.1230   131.8693     8.5526     0.0020     0.1328     2.4285
  119.0000     7.7379     8.0096   130.7441     8.5526     0.0066     0.1337     2.4292
  119.5000     7.6294     7.8979   134.2426     8.5526     0.0082     0.1349     2.4285
  120.0000     7.4703     7.7873   138.4345     8.5526     0.0082     0.1352     2.4255
  120.5000     7.3143     7.6787   139.5684     8.5526     0.0098     0.1370     2.4239
  121.0000     7.1124     7.5193   138.4432     8.5526     0.0083     0.1380     2.4223
  121.5000     6.8209     7.3632   135.7367     8.5526     0.0023     0.1386     2.4217
  122.0000     6.4513     7.0134   131.4488     8.5676     0.0024     0.1383     2.4224
  122.5000     6.0178     6.4887   131.7697     8.5676     0.0024     0.1377     2.4224
  123.0000     5.6345     5.9781   133.2658     8.5676     0.0040     0.1377     2.4224
  123.5000     5.3829     5.5003   132.1406     8.5676     0.0025     0.1431     2.3961
  124.0000     5.3074     5.3121   131.4662     8.5676     0.0025     0.1614     2.3546
  124.5000     5.2694     5.4602   130.5680     8.5676     0.0086     0.1834     2.3471
  125.0000     5.2680     5.8102   127.8615     8.5676     0.0147     0.1783     2.3547
  125.5000     5.3032     6.0552   126.5104     8.5676     0.0087     0.1578     2.3893
  126.0000     5.4883     6.2672   134.4224     8.5676     0.0133     0.1325     2.4217
  126.5000     5.7997     6.5318   137.1376     8.5526     0.0133     0.1313     2.4322
  127.0000     6.1287     6.7606   135.7865     8.5526     0.0118     0.1313     2.4315
  127.5000     6.5214     7.1443   131.4986     8.5225     0.0044     0.1313     2.4322
  128.0000     6.8437     7.5061   128.7831     8.5225     0.0029     0.1280     2.4375
  128.5000     7.0854     7.9779   129.7011     8.5225     0.0090     0.1253     2.4428
  129.0000     7.3814     8.0321   131.5127     8.5225     0.0090     0.1253     2.4428
  129.5000     7.5345     8.1421   133.3243     8.5075     0.0046     0.1253     2.4420
  130.0000     7.6907     8.2540   138.5244     8.4925     0.0031     0.1253     2.4435
  130.5000     7.8502     8.3097   143.0468     8.4925     0.0031     0.1217     2.4465
  131.0000     7.9028     8.4825   142.3192     8.4925     0.0077     0.1205     2.4495
  131.5000     8.0666     8.5986   138.7644     8.4925     0.0077     0.1199     2.4518
  132.0000     8.1205     8.7168   137.6381     8.5075     0.0093     0.1196     2.4526
  132.5000     8.2317     8.7151   137.8694     8.5075     0.0093     0.1217     2.4486
  133.0000     8.2867     8.7134   138.7773     8.5526     0.0079     0.1238     2.4435
  133.5000     8.2840     8.8945   137.6522     8.5676     0.0079     0.1253     2.4420
  134.0000     8.3973     8.9545   134.8914     8.5676     0.0095     0.1265     2.4413
  134.5000     8.5123     9.0145   136.0806     8.5526     0.0095     0.1268     2.4405
  135.0000     8.5692     9.0754   139.0217     8.5526     0.0154     0.1265     2.4405
  135.5000     8.6865     9.1371   140.6073     8.5225     0.0200     0.1184     2.4548
  136.0000     8.6242     9.1983   137.9008     8.5225     0.0217     0.0973     2.4925
