~VERSION INFORMATION
 VERS.                2.0:   CWLS LOG ASCII STANDARD - VERSION 2.0
 WRAP.                 NO:   ONE LINE PER DEPTH STEP
~WELL INFORMATION
#MNEM.UNIT      DATA TYPE    INFORMATION
#----------   ------------   ------------------------------
 STRT.F           34.5000:   START DEPTH
 STOP.F          665.5000:   STOP DEPTH
 STEP.F            0.5000:   STEP LENGTH
 NULL.          -999.2500:   NO VALUE
 COMP. FENIX & SCISSON INC:   COMPANY
 WELL.    NPR-3 SX #14-14:   WELL
 FLD .        TEAPOT DOME:   FIELD
 LOC .      S14 T38N R78W:   LOCATION
 CNTY.            NATRONA:   COUNTY
 STAT.            WYOMING:   STATE
 CTRY. UNITED STATES OF AMERICA:   COUNTRY
 SRVC.            Unknown:   SERVICE COMPANY
 DATE.        01-JUN-1978:   LOGDATE
 API .       490251063100:   API NUMBER
~CURVE INFORMATION
#MNEM.UNIT       API CODE    CURVE DESCRIPTION
#----------   ------------   ------------------------------
 DEPT.F                  :   
 SPR .MV     05 010 01 00:   SPONTANEOUS POTENTIAL FROM RES.
 SN  .OHMM   05 040 16 00:   SHORT NORMAL 16"
 IL  .OHMM   05 120 00 00:   INDUCTION LOG
 GRD .GAPI   45 310 01 00:   GAMMA RAY FROM DENSITY LOG
 RHOB.G/C3   45 350 01 00:   BULK DENSITY
 DPHI.DEC    45 890 12 00:   DENSITY POROSITY SANDSTONE
 CORR.G/C3   45 356 01 00:   DENSITY CORRECTION
 CALD.IN     45 280 60 00:   CALIPER FROM DENSITY LOG
~PARAMETER INFORMATION
#MNEM.UNIT          VALUE    DESCRIPTION
#----------   ------------   ------------------------------
 PD  .                 GL:   PERMANENT DATUM
 EPD .F              5212:   ELEVATION PERMANENT DATUM
 LMF .                 KB:   LOG MEASURED FROM
 DAPD.F                 4:   FEET ABOVE PERMANENT DATUM
 DMF .                 KB:   DRILLING MEASURED FROM
 EKB .F              5216:   KELLING BUSHING
 EGL .F              5212:   GROUND LEVEL
 DATE.           6-1-1978:   RUN DATE
 RUN .                  1:   RUN NUMBER
 DD  .F               670:   DEPTH DRILLER
 DL  .F               670:   DEPTH LOGGER
 BLI .F               664:   BOTTOM LOG INTERVAL
 TLI .F                40:   TOP LOG INTERVAL
 CS  .IN            8.625:   CASING SIZE
 CBD .F                40:   CASING BOTTOM DRILLER
 BS  .IN            7.875:   BIT SIZE
 BSD .F               670:   BIT SIZE AT DEPTH
 DFT .                KCL:   DRILLING FLUID TYPE
 DFD .                8.7:   DRILLING FLUID DENSITY
 DFV .                 32:   DRILLING FLUID VISCOSITY
 DFPH.                 10:   DRILLING FLUID PH
 RMS .OHMM            .30:   RESISTIVITY MUD SAMPLE
 MST .F                66:   MUD SAMPLE TEMPERATURE
 BHT .F                75:   BOTTOM HOLE TEMPERATURE
 TCS .HRS               2:   TIME CURCULATED STOPPED
 MRT .F                75:   MAXIMUM RECORDED TEMPERATURE
 LUN .               2958:   LOGGING UNIT NUMBER
 LUL .              CSPR.:   LOGGING UNIT LOCATION
 ENGI.             MILLER:   RECORDING ENGINEER
 WITN.           MCGINLEY:   WITNESSED BY
 CLNT.            A2DTECH:   CLIENT CODE
 ORIG.      2" , 5" PRINT:   ORIGIN OF DATA
 UWI .       490251063100:   UNIQUE WELL ID
 DICO. A2D Technologies, Inc.:   DIGITIZING COMPANY
~OTHER INFORMATION
~A   DEPT      SPR         SN         IL         GRD      RHOB       DPHI       CORR       CALD   
# ...
  196.5000   -28.6212     8.9170     8.7067    73.8246     2.4779     0.1138     0.0277     7.7648
  197.0000   -28.6121     9.0356     8.8060    73.8263     2.4837     0.1126     0.0275     7.7713
  197.5000   -28.6031     9.1346     8.7328    74.0812     2.4870     0.1137     0.0273     7.7778
  198.0000   -28.5940     9.0427     8.6060    75.5343     2.4872     0.1182     0.0271     7.7842
  198.5000   -28.5849     8.8889     8.4820    76.0890     2.4802     0.1196     0.0269     7.7835
  199.0000   -28.5759     8.7378     8.3598    76.2218     2.4760     0.1182     0.0267     7.7742
  199.5000   -28.5668     8.5892     8.2394    76.3572     2.4762     0.1190     0.0268     7.7651
  200.0000   -28.5577     8.4432     8.1207    76.9980     2.4785     0.1147     0.0321     7.7559
  200.5000   -28.5487     8.2996     8.0037    78.1827     2.4871     0.1113     0.0367     7.7467
  201.0000   -28.5396     8.1585     7.8884    79.1717     2.4897     0.1159     0.0366     7.7375
  201.5000   -28.5306     8.0197     7.7747    78.8336     2.4745     0.1217     0.0365     7.7283
  202.0000   -28.5215     7.8818     7.6620    78.5119     2.4707     0.1220     0.0365     7.7191
  202.5000   -28.5124     7.9218     7.5953    78.3946     2.4723     0.1196     0.0363     7.7099
  203.0000   -28.5034     7.9893     7.5968    78.5672     2.4741     0.1172     0.0352     7.7050
  203.5000   -28.4943     8.0573     7.6681    79.4302     2.4780     0.1155     0.0341     7.7010
  204.0000   -28.4852     8.1259     7.7543    80.2217     2.4880     0.1160     0.0330     7.6971
  204.5000   -28.4762     8.1951     7.8419    78.5013     2.4838     0.1153     0.0319     7.6931
  205.0000   -28.4671     8.2649     7.9304    77.0352     2.4821     0.1135     0.0308     7.6891
  205.5000   -28.4580     8.3353     8.0198    78.1360     2.4871     0.1117     0.0297     7.6851
  206.0000   -28.4490     8.4063     8.1103    79.9723     2.4926     0.1107     0.0286     7.6811
  206.5000   -28.4415     8.4779     8.2018    79.9877     2.4940     0.1126     0.0275     7.6772
  207.0000   -28.4372     8.5501     8.3301    79.9789     2.4905     0.1124     0.0264     7.6732
  207.5000   -28.4329     8.5637     8.3273    79.9968     2.4896     0.1122     0.0253     7.6691
  208.0000   -28.4285     8.5637     8.3229    80.3834     2.4886     0.1143     0.0242     7.6694
  208.5000   -28.4242     8.5637     8.3184    80.5798     2.4867     0.1166     0.0231     7.6702
  209.0000   -28.4198     8.5637     8.3140    80.4007     2.4823     0.1179     0.0220     7.6711
  209.5000   -28.4155     8.5637     8.3095    79.0126     2.4779     0.1183     0.0208     7.6720
  210.0000   -28.4111     8.5637     8.3051    77.6263     2.4770     0.1186     0.0208     7.6728
  210.5000   -28.4068     8.5637     8.3006    76.8832     2.4771     0.1212     0.0212     7.6737
  211.0000   -28.4024     8.5637     8.2962    76.6174     2.4762     0.1237     0.0216     7.6746
  211.5000   -28.3981     8.5637     8.2917    76.5194     2.4712     0.1226     0.0221     7.6754
  212.0000   -28.3937     8.5637     8.2873    77.2274     2.4688     0.1213     0.0225     7.6763
  212.5000   -28.3894     8.5637     8.2829    78.1451     2.4705     0.1187     0.0229     7.6771
  213.0000   -28.3850     8.5637     8.2784    77.8578     2.4757     0.1148     0.0234     7.6780
  213.5000   -28.3807     8.5637     8.2740    76.7322     2.4825     0.1138     0.0238     7.6789
  214.0000   -28.3763     8.5637     8.2696    76.1759     2.4840     0.1150     0.0243     7.6797
  214.5000   -28.3720     8.5637     8.2652    77.3082     2.4828     0.1166     0.0247     7.6806
  215.0000   -28.3676     8.5637     8.2607    78.3521     2.4809     0.1170     0.0251     7.6814
  215.5000   -28.3633     8.5637     8.2563    78.5880     2.4787     0.1157     0.0256     7.6823
  216.0000   -28.3589     8.5637     8.2432    78.3890     2.4804     0.1170     0.0260     7.6832
  216.5000   -28.3546     8.5637     8.2175    77.9425     2.4795     0.1226     0.0265     7.6840
  217.0000   -28.3502     8.5637     8.1918    77.5038     2.4744     0.1197     0.0251     7.6849
  217.5000   -28.3459     8.5637     8.1661    77.1962     2.4722     0.1170     0.0231     7.6858
  218.0000   -28.3415     8.5637     8.1405    77.2052     2.4794     0.1199     0.0211     7.6866
  218.5000   -28.3372     8.5664     8.1150    77.2891     2.4776     0.1199     0.0190     7.6875
  219.0000   -28.3328     8.5718     8.0895    78.3176     2.4754     0.1201     0.0186     7.6885
  219.5000   -28.3285     8.5772     8.0641    79.8543     2.4766     0.1237     0.0186     7.6830
  220.0000   -28.3241     8.5826     8.0286    79.9255     2.4737     0.1235     0.0186     7.6762
  220.5000   -28.3198     8.5880     8.0473    79.2609     2.4713     0.1213     0.0186     7.6694
  221.0000   -28.3154     8.5934     8.0801    79.5426     2.4726     0.1209     0.0186     7.6627
  221.5000   -28.3111     8.5988     8.1129    80.0435     2.4742     0.1202     0.0186     7.6559
  222.0000   -28.3067     8.6042     8.1457    80.5528     2.4731     0.1174     0.0186     7.6491
  222.5000   -28.3024     8.6096     8.1786    81.0541     2.4763     0.1148     0.0186     7.6423
  223.0000   -28.2980     8.6150     8.2117    81.4223     2.4837     0.1145     0.0186     7.6356
  223.5000   -28.2937     8.6204     8.2450    81.5886     2.4850     0.1180     0.0186     7.6288
  224.0000   -28.2893     8.6258     8.2783    81.2698     2.4797     0.1149     0.0162     7.6220
  224.5000   -28.2850     8.6312     8.3118    79.2471     2.4810     0.1130     0.0125     7.6152
  225.0000   -28.2806     8.6365     8.3455    78.0229     2.4880     0.1185     0.0088     7.6085
  225.5000   -28.2763     8.6416     8.3792    79.7353     2.4811     0.1248     0.0052     7.6017
  226.0000   -28.2719     8.6940     8.4131    81.9047     2.4715     0.1316     0.0028     7.5949
  226.5000   -28.2676     8.7557     8.4472    84.1276     2.4620     0.1303     0.0039     7.5882
  227.0000   -28.2632     8.8182     8.4814    84.5155     2.4573     0.1265     0.0049     7.5814
  227.5000   -28.2589     8.8810     8.5617    83.4113     2.4649     0.1229     0.0060     7.5746
  228.0000   -28.2545     8.9443     8.6486    81.2422     2.4725     0.1198     0.0070     7.5678
  228.5000   -28.2502     9.0080     8.7364    78.9155     2.4758     0.1187     0.0081     7.5610
  229.0000   -28.2457     9.0722     8.8250    76.7677     2.4762     0.1178     0.0091     7.5544
  229.5000   -28.2352     9.1368     8.9145    76.6072     2.4759     0.1170     0.0102     7.5537
  230.0000   -28.2174     9.2019     9.0050    77.4138     2.4841     0.1162     0.0098     7.5683
  230.5000   -28.1998     9.2674     9.0964    80.3554     2.4835     0.1181     0.0082     7.5826
  231.0000   -28.1821     9.3335     9.1887    81.6270     2.4776     0.1205     0.0066     7.5969
  231.5000   -28.1644     9.4000     9.2435    82.0055     2.4761     0.1237     0.0048     7.6111
  232.0000   -28.1467     9.4669     9.2799    85.6551     2.4724     0.1243     0.0081     7.6254
  232.5000   -28.1290     9.5344     9.3164    86.1343     2.4714     0.1164     0.0122     7.6397
  233.0000   -28.1113     9.6023     9.3531    86.0337     2.4783     0.1129     0.0164     7.6540
  233.5000   -28.0935     9.6707     9.3898    85.9300     2.4850     0.1101     0.0205     7.6683
  234.0000   -28.0758     9.7396     9.4268    84.9427     2.4917     0.1072     0.0247     7.6826
  234.5000   -28.0581     9.8090     9.4630    83.8538     2.4985     0.1042     0.0248     7.6970
  235.0000   -28.0404     9.8789     9.5265    82.9365     2.5016     0.1068     0.0216     7.7113
  235.5000   -28.0227     9.9493     9.6388    82.9533     2.4994     0.1114     0.0184     7.7249
  236.0000   -28.0050    10.0201     9.7530    82.6368     2.4928     0.1150     0.0151     7.6788
  236.5000   -27.9873    10.0915     9.8686    80.9944     2.4861     0.1150     0.0146     7.5585
