~VERSION INFORMATION
 VERS.                2.0:   CWLS LOG ASCII STANDARD - VERSION 2.0
 WRAP.                 NO:   ONE LINE PER DEPTH STEP
~WELL INFORMATION
#MNEM.UNIT      DATA TYPE    INFORMATION
#----------   ------------   ------------------------------
 STRT.F           14.0000:   START DEPTH
 STOP.F          623.5000:   STOP DEPTH
 STEP.F            0.5000:   STEP LENGTH
 NULL.          -999.2500:   NO VALUE
 COMP. LAWRENCE/ALLISON INC:   COMPANY
 WELL.   23-61 STX #10-10:   WELL
 FLD .             TEAPOT:   FIELD
 LOC .      S10 T38N R78W:   LOCATION
 CNTY.            NATRONA:   COUNTY
 STAT.            WYOMING:   STATE
 CTRY. UNITED STATES OF AMERICA:   COUNTRY
 SRVC.           Gearhart:   SERVICE COMPANY
 DATE.        02-JUL-1986:   LOGDATE
 API .       490251107700:   API NUMBER
~CURVE INFORMATION
#MNEM.UNIT       API CODE    CURVE DESCRIPTION
#----------   ------------   ------------------------------
 DEPT.F                  :   
 GRR .GAPI   07 310 01 00:   GAMMA RAY FROM RES. LOG
 RILD.OHMM   07 120 46 00:   INDUCTION LOG DEEP RESISTIVITY
 RILM.OHMM   07 120 44 00:   INDUCTION LOG MEDIUM
~PARAMETER INFORMATION
#MNEM.UNIT          VALUE    DESCRIPTION
#----------   ------------   ------------------------------
 PD  .                 GL:   PERMANENT DATUM
 EPD .F              5251:   ELEVATION PERMANENT DATUM
 LMF .                 KB:   LOG MEASURED FROM
 DAPD.F                 5:   FEET ABOVE PERMANENT DATUM
 DMF .                 KB:   DRILLING MEASURED FROM
 EKB .F              5256:   KELLING BUSHING
 EGL .F              5251:   GROUND LEVEL
 DATE.             7-2-86:   RUN DATE
 RUN .                  1:   RUN NUMBER
 DD  .F               648:   DEPTH DRILLER
 DL  .F               633:   DEPTH LOGGER
 BLI .F               623:   BOTTOM LOG INTERVAL
 TLI .F                15:   TOP LOG INTERVAL
 CS  .IN            8.625:   CASING SIZE
 CBD .F                47:   CASING BOTTOM DRILLER
 CBL .F                47:   CASING BOTTOM LOGGER
 BS  .IN            7.875:   BIT SIZE
 BSD .F               648:   BIT SIZE AT DEPTH
 DFT .               FOAM:   DRILLING FLUID TYPE
 BHT .F                82:   BOTTOM HOLE TEMPERATURE
 TCS .HRS            0930:   TIME CURCULATED STOPPED
 TLAB.HRS            1240:   TIME LOGGER AT BOTTOM
 MRT .F                82:   MAXIMUM RECORDED TEMPERATURE
 LUN .               7609:   LOGGING UNIT NUMBER
 LUL .           GILLETTE:   LOGGING UNIT LOCATION
 ENGI.              BAUER:   RECORDING ENGINEER
 WITN.           JENNINGS:   WITNESSED BY
 CLNT.            A2DTECH:   CLIENT CODE
 ORIG.       2", 5" PRINT:   ORIGIN OF DATA
 UWI .       490251107700:   UNIQUE WELL ID
 DICO. A2D Technologies, Inc.:   DIGITIZING COMPANY
~OTHER INFORMATION
~A   DEPT       GRR      RILD       RILM   
   14.0000    70.1219  -999.2500  -999.2500
   14.5000    70.1219  -999.2500  -999.2500
   15.0000    68.6286  -999.2500  -999.2500
   15.5000    68.6812  -999.2500  -999.2500
   16.0000    69.9329  -999.2500  -999.2500
   16.5000    71.1649  -999.2500  -999.2500
   17.0000    71.4868  -999.2500  -999.2500
   17.5000    71.6675  -999.2500  -999.2500
   18.0000    72.5016  -999.2500  -999.2500
   18.5000    74.2522  -999.2500  -999.2500
   19.0000    75.9927  -999.2500  -999.2500
   19.5000    77.7428  -999.2500  -999.2500
   20.0000    79.4099  -999.2500  -999.2500
   20.5000    78.8314  -999.2500  -999.2500
   21.0000    77.1248  -999.2500  -999.2500
   21.5000    75.4160  -999.2500  -999.2500
   22.0000    73.8351  -999.2500  -999.2500
   22.5000    74.0131  -999.2500  -999.2500
   23.0000    76.1733  -999.2500  -999.2500
   23.5000    79.7505  -999.2500  -999.2500
   24.0000    83.4767  -999.2500  -999.2500
   24.5000    82.1466  -999.2500  -999.2500
   25.0000    78.7090  -999.2500  -999.2500
   25.5000    77.1498  -999.2500  -999.2500
   26.0000    77.3575  -999.2500  -999.2500
   26.5000    76.6608  -999.2500  -999.2500
   27.0000    73.4385  -999.2500  -999.2500
   27.5000    70.3452  -999.2500  -999.2500
   28.0000    67.7140  -999.2500  -999.2500
   28.5000    69.0344  -999.2500  -999.2500
   29.0000    71.0284  -999.2500  -999.2500
   29.5000    72.5939  -999.2500  -999.2500
   30.0000    72.5662  -999.2500  -999.2500
   30.5000    72.5521  -999.2500  -999.2500
   31.0000    73.3698  -999.2500  -999.2500
   31.5000    74.6259  -999.2500  -999.2500
   32.0000    75.0083  -999.2500  -999.2500
   32.5000    73.9569  -999.2500  -999.2500
   33.0000    74.4119  -999.2500  -999.2500
   33.5000    77.3157  -999.2500  -999.2500
   34.0000    81.9806  -999.2500  -999.2500
   34.5000    86.5783  -999.2500  -999.2500
   35.0000    85.2984  -999.2500  -999.2500
   35.5000    80.7852  -999.2500  -999.2500
   36.0000    76.3867  -999.2500  -999.2500
   36.5000    72.9035  -999.2500  -999.2500
   37.0000    74.1279  -999.2500  -999.2500
   37.5000    75.3459  -999.2500  -999.2500
   38.0000    74.7486  -999.2500  -999.2500
   38.5000    74.0282  -999.2500  -999.2500
   39.0000    75.2174  -999.2500  -999.2500
   39.5000    78.1847  -999.2500  -999.2500
   40.0000    81.1178  -999.2500  -999.2500
   40.5000    81.1459  -999.2500  -999.2500
   41.0000    79.3365  -999.2500  -999.2500
   41.5000    76.8887  -999.2500  -999.2500
   42.0000    74.4975  -999.2500  -999.2500
   42.5000    72.1096  -999.2500  -999.2500
   43.0000    69.7264  -999.2500  -999.2500
   43.5000    67.3817  -999.2500  -999.2500
   44.0000    63.1796  -999.2500  -999.2500
   44.5000    58.5445  -999.2500  -999.2500
   45.0000    55.7645  -999.2500  -999.2500
   45.5000    55.7694  -999.2500  -999.2500
   46.0000    62.5062     8.3255  -999.2500
   46.5000    69.2024     8.8320  -999.2500
   47.0000    75.8829     9.0970    20.3547
   47.5000    82.5575     9.2844    10.9488
   48.0000    89.2419     7.5023     8.8447
   48.5000    96.1498     5.2541     6.9798
   49.0000    98.8733     4.7745     6.1118
   49.5000   100.5838     4.6360     5.4981
   50.0000   105.8136     4.9613     5.2302
   50.5000   111.5822     5.7405     4.9753
   51.0000   114.7938     7.4254     4.8576
   51.5000   114.6448     8.5557     5.4634
   52.0000   113.3290     9.0155     5.9761
   52.5000   111.0651     8.3050     6.5370
   53.0000   107.9224     7.8116     7.1914
   53.5000   103.9922     7.3293     7.1088
   54.0000   100.5287     7.2946     6.9983
   54.5000   101.7328     7.2589     6.8895
   55.0000   102.9858     7.3091     6.7825
   55.5000   104.2171     7.3621     6.6771
   56.0000   104.0813     7.3957     6.6115
   56.5000   102.6707     7.1980     6.6115
   57.0000   101.2671     7.0567     6.6115
   57.5000    99.8960     6.8637     6.6115
   58.0000    99.7715     6.8939     6.6114
   58.5000   102.0693     6.9493     6.6111
   59.0000   105.7115     7.0040     6.6115
   59.5000   110.1328     7.0590     6.6662
   60.0000   113.0009     7.1142     6.7209
   60.5000   114.8491     7.1893     6.7760
   61.0000   114.1340     7.2688     6.8316
   61.5000   112.3028     7.3493     6.8877
   62.0000   111.4199     7.4307     6.9442
   62.5000   112.8843     7.5130     7.0012
   63.0000   114.1316     7.5962     7.0586
   63.5000   114.5530     7.6803     7.1165
   64.0000   114.9880     7.7653     7.2510
   64.5000   115.4255     7.8513     7.3417
   65.0000   115.8618     7.9382     7.4336
   65.5000   116.3143     8.0261     7.5267
   66.0000   116.1020     8.1150     7.6209
   66.5000   115.2126     8.1927     7.7162
   67.0000   111.8853     8.2771     7.8221
   67.5000   108.5995     8.2258     7.7872
   68.0000   105.5315     8.1595     7.7487
   68.5000   105.5207     8.0937     7.7105
   69.0000   106.5582     8.0283     7.6678
   69.5000   106.6713     7.9636     7.5936
   70.0000   108.0551     7.8955     7.5202
   70.5000   109.6134     7.8211     7.4474
   71.0000   110.7186     7.7427     7.3753
   71.5000   110.3421     7.6773     7.3034
   72.0000   109.7516     7.7297     7.2592
   72.5000   104.8808     7.7752     7.2765
   73.0000    98.8889     7.8210     7.2899
   73.5000    93.2216     7.8671     7.3031
   74.0000    88.9023     7.9134     7.3163
   74.5000    88.6514     7.9696     7.3295
   75.0000    95.4444     7.9606     7.3428
   75.5000   100.1436     7.9492     7.3561
   76.0000   104.8911     7.9379     7.3693
   76.5000   109.7163     7.9266     7.3827
   77.0000   109.6689     7.9154     7.3951
   77.5000   107.2508     7.9041     7.3838
   78.0000   104.7220     7.8954     7.3723
   78.5000   102.1868     7.8955     7.3608
   79.0000   101.5619     7.8956     7.3493
   79.5000   105.6321     7.8942     7.3373
   80.0000   109.7290     7.9296     7.3274
   80.5000   113.2772     7.9820     7.4056
   81.0000   111.3083     8.0346     7.4815
   81.5000   109.2433     8.0877     7.5577
   82.0000   107.2033     8.1411     7.6347
   82.5000   105.2402     8.1948     7.7125
   83.0000   105.2757     8.2489     7.7910
   83.5000   106.9676     8.3033     7.8704
   84.0000   108.6613     8.3581     7.9506
   84.5000   110.3595     8.4290     8.0322
   85.0000   108.1556     8.3273     8.1210
   85.5000   105.2963     8.2542     8.0891
   86.0000   102.4175     8.1818     8.0289
   86.5000    99.5119     8.1054     7.9695
   87.0000    99.6633     8.0011     7.9106
   87.5000   103.5766     7.8980     7.7781
   88.0000   107.4412     7.7963     7.6229
   88.5000   111.3171     7.6959     7.4708
   89.0000   112.0037     7.5968     7.3218
   89.5000   110.0853     7.5069     7.1765
   90.0000   108.1488     7.4303     7.0582
   90.5000   106.2076     7.3548     6.9909
   91.0000   106.5424     7.2801     6.9228
   91.5000   109.8517     7.1908     6.8553
   92.0000   113.1708     7.1915     6.7885
   92.5000   110.4559     7.1915     6.7362
   93.0000   105.5772     7.1908     6.7601
   93.5000   102.6745     7.2700     6.7800
   94.0000   100.8234     7.3353     6.7994
   94.5000   100.5365     7.4013     6.9023
   95.0000   102.2315     7.4651     7.0040
   95.5000   104.1292     7.5806     7.1071
   96.0000   107.0615     7.6934     7.2118
   96.5000   109.9204     7.8079     7.3179
   97.0000   112.5143     7.9240     7.4257
   97.5000   114.2663     8.0419     7.5352
   98.0000   115.1465     8.1615     7.6460
   98.5000   116.0191     8.2730     7.7494
   99.0000   115.9749     8.2409     7.7494
   99.5000   114.1720     8.2113     7.7491
  100.0000   112.4314     8.1818     7.7503
  100.5000   110.6961     8.1524     7.6593
  101.0000   108.9549     8.1232     7.5761
  101.5000   107.1249     7.9908     7.4875
  102.0000   106.8771     7.8479     7.3133
  102.5000   109.9589     7.7074     7.1462
  103.0000   113.0403     7.5352     7.0582
  103.5000   112.8326     7.5538     7.0890
  104.0000   111.1685     7.5714     7.1133
  104.5000   110.7999     7.5890     7.1379
