~VERSION INFORMATION
 VERS.                2.0:   CWLS LOG ASCII STANDARD - VERSION 2.0
 WRAP.                 NO:   ONE LINE PER DEPTH STEP
~WELL INFORMATION
#MNEM.UNIT      DATA TYPE    INFORMATION
#----------   ------------   ------------------------------
 STRT.F           30.0000:   START DEPTH
 STOP.F          506.0000:   STOP DEPTH
 STEP.F            0.5000:   STEP LENGTH
 NULL.          -999.2500:   NO VALUE
 COMP. FENIX & SCISSON INC:   COMPANY
 WELL.    42 SX-3F1 #55-3:   WELL
 FLD .             TEAPOT:   FIELD
 LOC .       S3 T38N R78W:   LOCATION
 CNTY.            NATRONA:   COUNTY
 STAT.            WYOMING:   STATE
 CTRY. UNITED STATES OF AMERICA:   COUNTRY
 SRVC.              Welex:   SERVICE COMPANY
 DATE.        26-MAY-1980:   LOGDATE
 API .       490251082900:   API NUMBER
~CURVE INFORMATION
#MNEM.UNIT       API CODE    CURVE DESCRIPTION
#----------   ------------   ------------------------------
 DEPT.F                  :   
 GRD .GAPI   45 310 01 00:   GAMMA RAY FROM DENSITY LOG
 CALD.IN     45 280 60 00:   CALIPER
 RHOB.G/C3   45 350 01 00:   BULK DENSITY
 CORR.G/C3   45 356 01 00:   DENSITY CORRECTION
 DPHI.DEC    45 890 12 00:   DENSITY POROSITY SANDSTONE
 NPHI.DEC    42 890 03 00:   NEUTRON POROSITY SANDSTONE
 GURD.OHMM   07 220 05 00:   GUARD RESISTIVITY
 ILD .OHMM   07 120 46 00:   INDUCTION LOG DEEP
 ILM .OHMM   07 120 44 00:   INDUCTION LOG MEDIUM
 SPR .MV     07 010 01 00:   SPONTANEOUS POTENTIAL
~PARAMETER INFORMATION
#MNEM.UNIT          VALUE    DESCRIPTION
#----------   ------------   ------------------------------
 PD  .                 GL:   PERMANENT DATUM
 EPD .F              5161:   ELEVATION PERMANENT DATUM
 LMF .                 KB:   LOG MEASURED FROM
 DAPD.F                 4:   FEET ABOVE PERMANENT DATUM
 DMF .                 KB:   DRILLING MEASURED FROM
 EKB .F              5165:   KELLING BUSHING
 EGL .F              5161:   GROUND LEVEL
 DATE.            5-26-80:   RUN DATE
 RUN .                  1:   RUN NUMBER
 DD  .F               500:   DEPTH DRILLER
 DL  .F               502:   DEPTH LOGGER
 BLI .F               500:   BOTTOM LOG INTERVAL
 TLI .F                34:   TOP LOG INTERVAL
 BS  .IN            9.875:   BIT SIZE
 BSD .F               500:   BIT SIZE AT DEPTH
 DFT .          KCL WATER:   DRILLING FLUID TYPE
 DFD .                9.5:   DRILLING FLUID DENSITY
 DFV .                 45:   DRILLING FLUID VISCOSITY
 MSS .            MUD PIT:   MUD SAMPLE SOURCE
 RMS .OHMM            .39:   RESISTIVITY MUD SAMPLE
 MST .F                75:   MUD SAMPLE TEMPERATURE
 RMF .OHMM           .312:   RESISTIVITY MUD FILTRATE SAMPLE
 MFST.F                75:   MUD FILTRATE SAMPLE TEMPERATURE
 RMC .OHMM           .468:   RESISTIVITY MUD CAKE
 MCST.F                75:   MUD CAKE SAMPLE TEMPERATURE
 MFSS.           MEASURED:   MUD FILTRATE SAMPLE SOURCE
 MCSS.           MEASURED:   MUD CAKE SAMPLE SOURCE
 RMB .OHMM            .39:   RESISTIVITY MUD AT BHT
 BHT .F                75:   BOTTOM HOLE TEMPERATURE
 TCS .HRS               2:   TIME CURCULATED STOPPED
 MRT .F                75:   MAXIMUM RECORDED TEMPERATURE
 LUN .               9685:   LOGGING UNIT NUMBER
 LUL .             CASPER:   LOGGING UNIT LOCATION
 ENGI.            TOTHILL:   RECORDING ENGINEER
 WITN.            RHOADES:   WITNESSED BY
 CLNT.            A2DTECH:   CLIENT CODE
 ORIG.           5" PRINT:   ORIGIN OF DATA
 UWI .       490251082900:   UNIQUE WELL ID
 DICO. A2D Technologies, Inc.:   DIGITIZING COMPANY
~OTHER INFORMATION
~A   DEPT      GRD       CALD       RHOB       CORR         DPHI       NPHI      GURD        ILD        ILM       SPR   
   30.0000  -999.2500  -999.2500  -999.2500  -999.2500     0.2169     0.3169    45.6288    13.4861    20.3700   -43.1275
   30.5000  -999.2500  -999.2500  -999.2500  -999.2500     0.2169     0.3169    45.6288    13.4861    20.3700   -43.3738
   31.0000  -999.2500  -999.2500  -999.2500  -999.2500     0.2169     0.3169    36.6199    13.4861    17.4312   -43.5985
   31.5000  -999.2500  -999.2500  -999.2500  -999.2500     0.2169     0.3185    42.0772    13.0099    19.5014   -43.7782
   32.0000    99.8521    10.1913     2.3142     0.0488     0.2199     0.3165    39.6343    11.8182    18.1393   -44.0029
   32.5000   100.4529    10.1913     2.3142     0.0488     0.2220     0.3223    37.3332    11.0236    16.7654   -44.2279
   33.0000   101.7501    10.1913     2.3088     0.0448     0.2282     0.3269    34.8997    10.3319    14.4151   -44.4532
   33.5000   102.7928    10.1722     2.3048     0.0437     0.2349     0.3225    32.2244     9.4911    12.4013   -44.6253
   34.0000   102.9279    10.1718     2.2879     0.0399     0.2294     0.3177    28.8853     8.6072    10.3869   -44.7732
   34.5000   102.0596    10.1702     2.2917     0.0439     0.2278     0.3177    23.1586     7.6230     8.0045   -44.9160
   35.0000   101.1837    10.1642     2.2992     0.0501     0.2278     0.3177    18.5672     6.7240     6.6186   -44.9213
   35.5000   100.4234    10.1583     2.3058     0.0576     0.2300     0.3201    15.3042     5.9311     5.4766   -44.9205
   36.0000    99.5562    10.1519     2.2901     0.0497     0.2329     0.3213    14.3091     4.8472     5.1687   -44.9017
   36.5000    98.1995    10.1630     2.2803     0.0383     0.2343     0.3137    14.3666     4.7373     5.0681   -44.9017
   37.0000    96.5976    10.1788     2.2851     0.0264     0.2257     0.3181    14.4327     4.3887     4.8844   -44.9017
   37.5000    96.5999    10.1915     2.2931     0.0244     0.2092     0.3126    14.2360     4.2100     4.8666   -44.9017
   38.0000    97.4255    10.2076     2.3298     0.0495     0.2159     0.3181    13.9206     4.0453     4.7634   -44.9017
   38.5000    98.7018    10.2163     2.3217     0.0553     0.2175     0.3086    13.9206     3.9247     4.8123   -44.9017
   39.0000    98.5244    10.2232     2.3139     0.0395     0.2070     0.3032    13.9206     3.9375     4.8919   -44.9017
   39.5000    97.6225    10.2301     2.3309     0.0457     0.1978     0.2984    14.0168     3.9610     5.0438   -44.9017
   40.0000    96.7329    10.2370     2.3456     0.0514     0.2018     0.2958    14.4277     4.0691     5.2004   -44.9016
   40.5000    95.8431    10.2438     2.3497     0.0463     0.2026     0.2933    14.3222     4.1925     5.3032   -44.9016
   41.0000    94.9491    10.2498     2.3405     0.0352     0.1905     0.2906    14.8354     4.3198     5.4014   -44.9035
   41.5000    94.9160    10.2693     2.3512     0.0306     0.1752     0.2871    15.4606     4.4507     5.5014   -45.0084
   42.0000    95.0279    10.2916     2.3778     0.0499     0.1531     0.2828    14.6831     4.5857     5.6033   -45.2646
   42.5000    95.1424    10.3136     2.4075     0.0696     0.1592     0.2790    14.3749     4.7247     5.7070   -45.5186
   43.0000    95.2552    10.3234     2.4232     0.0729     0.1694     0.2768    15.0803     4.8681     5.8128   -45.7737
   43.5000    95.3677    10.2967     2.3941     0.0447     0.1732     0.2793    14.6261     5.0159     5.9207   -46.0322
   44.0000    95.4796    10.2716     2.3896     0.0379     0.1821     0.2800    14.4327     5.1246     6.0316   -46.1290
   44.5000    95.5896    10.2843     2.3770     0.0329     0.1905     0.2774    14.3502     5.1351     5.9528   -46.1905
   45.0000    95.7194    10.2998     2.3623     0.0141     0.1861     0.2763    13.9419     5.1456     5.8560   -46.2510
   45.5000    96.4090    10.3153     2.3676     0.0273     0.1857     0.2802    13.1819     5.1561     5.7685   -46.3324
   46.0000    97.1437    10.3308     2.3662     0.0506     0.1809     0.2871    12.7879     5.1666     5.7520   -46.4316
   46.5000    97.8773    10.3469     2.3797     0.0751     0.1730     0.2912    12.7283     5.1771     5.7355   -46.3437
   47.0000    98.6102    10.3223     2.3940     0.0998     0.1602     0.2955    12.4117     5.1877     5.7169   -46.1127
   47.5000    99.3429    10.2903     2.4120     0.1275     0.1301     0.2998    11.9638     5.1985     5.9183   -45.8802
   48.0000   100.0763    10.3352     2.4774     0.1740     0.1230     0.2943    12.5254     5.2089     6.2185   -45.6515
   48.5000   100.8085    10.4861     2.4682     0.1372     0.1288     0.2839    12.9356     5.2565     6.5017   -45.5413
   49.0000   101.5386    10.6352     2.4550     0.0850     0.1140     0.2764    13.0036     5.3924     6.4808   -45.7159
   49.5000   101.8132    10.5570     2.4948     0.0699     0.0999     0.2744    13.8479     5.5319     6.4572   -45.8848
   50.0000   101.5763    10.2876     2.5135     0.0790     0.1063     0.2756    12.9924     5.6751     6.4434   -46.0547
   50.5000   101.3446    10.2067     2.5020     0.0666     0.1117     0.2728    12.0203     5.8219     6.7886   -46.2234
   51.0000   101.1208    10.1944     2.4915     0.0545     0.1077     0.2748    14.6932     5.9858     7.0682   -46.3940
   51.5000   101.6351    10.1839     2.4964     0.0522     0.1169     0.2808    18.6420     6.0423     7.3248   -46.3295
   52.0000   102.8954    10.1730     2.5035     0.0389     0.1081     0.2832    16.0998     6.1206     7.2951   -46.0636
   52.5000   104.1224    10.1759     2.5007     0.0485     0.1153     0.2847    14.3592     6.2004     7.2699   -45.8973
   53.0000   105.3445    10.1811     2.4875     0.0471     0.1068     0.2825    14.0382     6.2814     7.2496   -46.0109
   53.5000   105.9292    10.1862     2.5064     0.0568     0.1123     0.2794    13.7424     6.3635     7.2352   -46.1210
   54.0000   105.5740    10.1912     2.4962     0.0573     0.1181     0.2790    13.1689     6.4466     7.2207   -46.2316
   54.5000   105.2284    10.1913     2.4795     0.0407     0.1308     0.2797    12.5268     6.5010     7.2063   -46.3417
   55.0000   104.9039    10.1913     2.4571     0.0205     0.1396     0.2792    12.1311     6.5010     7.1913   -46.4560
   55.5000   105.2946    10.1913     2.4458     0.0039     0.1389     0.2787    12.4947     6.5010     7.3081   -46.3224
   56.0000   105.7247    10.1913     2.4506     0.0148     0.1326     0.2817    12.8175     6.5010     7.4601   -46.0764
   56.5000   106.1539    10.1913     2.4663     0.0298     0.1242     0.2855    12.4332     6.4818     7.4237   -45.8280
   57.0000   106.5802    10.1913     2.4788     0.0476     0.1198     0.2826    12.0499     6.4487     7.3609   -45.5797
   57.5000   106.9210    10.1913     2.4808     0.0608     0.1225     0.2775    11.6785     6.4159     7.2986   -45.3316
   58.0000   106.5602    10.1913     2.4710     0.0623     0.1314     0.2750    11.3185     6.3833     7.2368   -45.0833
   58.5000   106.2045    10.1913     2.4507     0.0483     0.1419     0.2765    10.9696     6.3475     7.1756   -44.8358
   59.0000   105.8512    10.1913     2.4419     0.0415     0.1329     0.2838    10.5924     6.3039     7.1148   -44.5806
   59.5000   105.4973    10.1913     2.4611     0.0576     0.1333     0.2927    10.1732     6.2604     7.0546   -44.7138
   60.0000   105.1467    10.1913     2.4521     0.0632     0.1352     0.2951     8.8643     6.2096     6.9961   -45.0028
   60.5000   104.9306    10.1913     2.4594     0.0572     0.1307     0.2930     8.6395     6.2332     7.0544   -45.2977
   61.0000   105.1959    10.1893     2.4553     0.0546     0.1229     0.2942     9.1993     6.2620     7.1121   -45.5924
   61.5000   105.4488    10.1846     2.4739     0.0503     0.1300     0.2903     9.5568     6.2909     7.1702   -45.8818
   62.0000   105.7008    10.1801     2.4646     0.0372     0.1251     0.2863     9.3946     6.3200     7.2289   -46.0095
   62.5000   105.9527    10.1754     2.4760     0.0330     0.1169     0.2821     9.2974     6.3867     7.2880   -45.7735
   63.0000   106.2055    10.1648     2.4826     0.0366     0.1121     0.2771     9.9140     6.4605     7.3476   -45.5358
