~VERSION INFORMATION
 VERS.                2.0:   CWLS LOG ASCII STANDARD - VERSION 2.0
 WRAP.                 NO:   ONE LINE PER DEPTH STEP
~WELL INFORMATION
#MNEM.UNIT      DATA TYPE    INFORMATION
#----------   ------------   ------------------------------
 STRT.F           30.0000:   START DEPTH
 STOP.F          715.0000:   STOP DEPTH
 STEP.F            0.5000:   STEP LENGTH
 NULL.          -999.2500:   NO VALUE
 COMP. FENIX & SCISSON INC:   COMPANY
 WELL.   NPR-3 #84SX15-15:   WELL
 FLD .             TEAPOT:   FIELD
 LOC .      S15 T38N R78W:   LOCATION
 CNTY.            NATRONA:   COUNTY
 STAT.            WYOMING:   STATE
 CTRY. UNITED STATES OF AMERICA:   COUNTRY
 SRVC.            Unknown:   SERVICE COMPANY
 DATE.        15-MAY-1978:   LOGDATE
 API .       490251064000:   API NUMBER
~CURVE INFORMATION
#MNEM.UNIT       API CODE    CURVE DESCRIPTION
#----------   ------------   ------------------------------
 DEPT.F                  :   
 SPR .MV     05 010 01 00:   SPONTANEOUS POTENTIAL FROM RES.
 SN  .OHMM   05 040 16 00:   SHORT NORMAL 16"
 ILD .OHMM   05 120 46 00:   INDUCTION LOG DEEP
 CALD.IN     45 280 60 00:   CALIPER FROM DENSITY LOG
 GRD .GAPI   45 310 01 00:   GAMMA RAY FROM DENSITY LOG
 CORR.G/C3   45 356 01 00:   DENSITY CORRECTION
 DPHI.DEC    45 890 12 00:   DENSITY POROSITY SANDSTONE
 DEN .G/C3   45 350 01 00:   COMPENSATED BULK DENSITY
~PARAMETER INFORMATION
#MNEM.UNIT          VALUE    DESCRIPTION
#----------   ------------   ------------------------------
 PD  .                 GL:   PERMANENT DATUM
 EPD .F              5247:   ELEVATION PERMANENT DATUM
 LMF .                 KB:   LOG MEASURED FROM
 DMF .                 KB:   DRILLING MEASURED FROM
 EKB .F              5251:   KELLING BUSHING
 EGL .F              5247:   GROUND LEVEL
 DATE.        15-MAY-1978:   RUN DATE
 RUN .                  1:   RUN NUMBER
 DD  .F               725:   DEPTH DRILLER
 DL  .F               720:   DEPTH LOGGER
 BLI .F               713:   BOTTOM LOG INTERVAL
 TLI .F                40:   TOP LOG INTERVAL
 CS  .IN            8.625:   CASING SIZE
 CBD .F                40:   CASING BOTTOM DRILLER
 CBL .F                40:   CASING BOTTOM LOGGER
 BS  .IN            7.875:   BIT SIZE
 BSD .F               725:   BIT SIZE AT DEPTH
 DFT .                KCL:   DRILLING FLUID TYPE
 DFD .                8.6:   DRILLING FLUID DENSITY
 DFV .                 33:   DRILLING FLUID VISCOSITY
 DFPH.                9.5:   DRILLING FLUID PH
 DFL .                 12:   DRILLING FLUID LOSS
 MSS .           FLOWLINE:   MUD SAMPLE SOURCE
 RMS .OHMM             .2:   RESISTIVITY MUD SAMPLE
 MST .F                80:   MUD SAMPLE TEMPERATURE
 RMF .OHMM            .18:   RESISTIVITY MUD FILTRATE SAMPLE
 MFST.F                83:   MUD FILTRATE SAMPLE TEMPERATURE
 RMC .OHMM            .26:   RESISTIVITY MUD CAKE
 MCST.F                83:   MUD CAKE SAMPLE TEMPERATURE
 MFSS.               MEAS:   MUD FILTRATE SAMPLE SOURCE
 RMB .OHMM             .2:   RESISTIVITY MUD AT BHT
 BHT .F                80:   BOTTOM HOLE TEMPERATURE
 TCS .HRS            0200:   TIME CURCULATED STOPPED
 MRT .F                80:   MAXIMUM RECORDED TEMPERATURE
 LUN .               3006:   LOGGING UNIT NUMBER
 LUL .               CASP:   LOGGING UNIT LOCATION
 ENGI.             MILLER:   RECORDING ENGINEER
 WITN.           MCGINLEY:   WITNESSED BY
 CLNT.            A2DTECH:   CLIENT CODE
 ORIG.           5" PRINT:   ORIGIN OF DATA
 UWI .       490251064000:   UNIQUE WELL ID
 DICO. A2D Technologies, Inc.:   DIGITIZING COMPANY
~OTHER INFORMATION
~A   DEPT      SPR         SN        ILD       CALD         GRD      CORR       DPHI        DEN   
# ...
  597.0000   -33.0001     9.8956    11.6767     7.3121    61.2439     0.0310     0.1214     2.4713
  597.5000   -32.7498    10.1704    12.4239     7.4026    60.1882     0.0265     0.1457     2.4509
  598.0000   -32.3189    10.4526    13.3106     7.4175    59.8855     0.0219     0.1801     2.4236
  598.5000   -31.4196    10.8173    14.0647     7.4174    58.9567     0.0234     0.2020     2.3494
  599.0000   -30.2196    11.1948    14.7592     7.4172    55.6656     0.0279     0.2167     2.3637
  599.5000   -30.2226    11.4263    15.5954     7.4020    53.7063     0.0278     0.2204     2.3216
  600.0000   -30.2256    11.5822    16.0583     7.3565    52.6506     0.0308     0.2185     2.3126
  600.5000   -30.1690    11.6549    16.3951     7.3400    56.1047     0.0323     0.2097     2.3208
  601.0000   -30.1124    11.7276    16.2463     7.3112    59.4277     0.0353     0.2054     2.3278
  601.5000   -30.0558    11.8003    15.7998     7.3112    62.7410     0.0397     0.2042     2.3336
  602.0000   -29.9992    11.7337    15.2597     7.2961    64.5482     0.0442     0.2039     2.3373
  602.5000   -29.9400    11.6505    14.6366     7.3112    61.6867     0.0516     0.2006     2.3396
  603.0000   -29.9430    11.4881    14.1363     7.3112    55.0602     0.0531     0.2015     2.3403
  603.5000   -29.9460    11.3280    13.9392     7.3112    52.5000     0.0425     0.2039     2.3396
  604.0000   -29.9489    11.2476    13.8403     7.3112    53.2530     0.0350     0.2054     2.3373
  604.5000   -29.9519    11.0140    13.8375     7.2961    55.0602     0.0289     0.2051     2.3366
  605.0000   -29.9549    10.8604    13.8346     7.2961    54.9096     0.0274     0.1946     2.3373
  605.5000   -29.9579    10.7091    13.8318     7.3112    53.8554     0.0273     0.1943     2.3426
  606.0000   -29.9609    10.6331    13.7336     7.3112    53.7048     0.0273     0.1947     2.3494
  606.5000   -29.9639    10.4849    13.6362     7.3112    54.3072     0.0287     0.1905     2.3524
  607.0000   -29.9670    10.1968    13.4461     7.3112    54.6084     0.0287     0.1935     2.3524
  607.5000   -29.9699    10.0546    13.0751     7.3112    55.8133     0.0331     0.1931     2.3524
  608.0000   -29.9729     9.9145    12.8020     7.3112    57.3193     0.0542     0.1778     2.3562
  608.5000   -29.9759     9.8442    12.5400     7.3112    57.4699     0.0586     0.1764     2.3772
  609.0000   -29.9789     9.7070    12.5373     7.2508    57.1687     0.0511     0.1833     2.3787
  609.5000   -29.9820     9.7050    12.4484     7.1752    55.9639     0.0285     0.1814     2.3757
  610.0000   -29.9850     9.6361    12.4458     7.1903    53.1024     0.0224     0.1762     2.3757
  610.5000   -29.9880     9.6341    12.4433     7.2508    52.9518     0.0284     0.1692     2.3779
  611.0000   -29.8409     9.6321    12.4407     7.2961    55.0602     0.0509     0.1705     2.3884
  611.5000   -28.7912     9.6301    12.4376     7.3565    56.5663     0.0463     0.1717     2.3944
  612.0000   -23.5074     9.6281    12.4350     7.4320    56.1145     0.0403     0.1705     2.3892
  612.5000   -16.3472     9.6262    12.4325     7.4924    55.0602     0.0387     0.1730     2.3847
  613.0000    -9.1871     9.6915    12.3442     7.0091    55.8133     0.0402     0.1790     2.3787
  613.5000    -2.0270     9.6890    12.3417     6.8278    59.1265     0.0401     0.1816     2.3734
  614.0000     1.8708     9.7542    12.3391     6.7523    64.0964     0.0401     0.1777     2.3704
  614.5000     2.0182     9.8203    12.3366     6.7674    67.1084     0.0400     0.1851     2.3704
  615.0000     2.0145     9.8859    12.3431     6.8882    65.9036     0.0445     0.1830     2.3704
  615.5000     2.0115     9.9530    12.4347     7.0695    63.3434     0.0460     0.1757     2.3734
  616.0000     2.0085    10.0200    12.6821     7.1903    64.0964     0.0459     0.1792     2.3787
  616.5000     2.0055    10.0874    12.6545     7.2356    65.7530     0.0459     0.1841     2.3749
  617.0000     2.0025    10.0848    12.3028     7.1752    67.1084     0.0518     0.1826     2.3734
  617.5000     1.9995    10.0827    12.0562     6.8429    65.9036     0.0593     0.1762     2.3757
  618.0000     1.9966    10.0112    11.8185     6.8429    62.1386     0.0683     0.1681     2.3854
  618.5000     1.6928    10.0091    11.8155     6.5710    58.0723     0.0607     0.1658     2.4027
  619.0000     1.3891     9.9381    11.8131     6.3293    54.3072     0.0471     0.1645     2.4035
  619.5000     1.2357     9.8676    11.8107     6.4048    55.6627     0.0396     0.1625     2.4027
  620.0000     1.5335     9.8656    11.8082     6.6918    58.0422     0.0335     0.1615     2.4035
  620.5000     1.3801     9.8635    11.7244     6.9033    59.1561     0.0317     0.1588     2.4065
  621.0000     1.2268     9.8615    11.5610     7.0091    59.7289     0.0274     0.1549     2.4125
  621.5000     1.0734     9.9279    11.4790     7.0091    59.8795     0.0274     0.1513     2.4177
  622.0000     0.7697     9.9258    11.5563     6.9486    59.8795     0.0270     0.1482     2.4245
  622.5000     0.6163     9.9960    11.7961     7.0091    60.3589     0.0258     0.1530     2.4275
  623.0000     0.7644    10.0599    11.9585     7.2356    61.1386     0.0257     0.1515     2.4252
  623.5000     0.7607    10.0578    12.1225     6.9940    61.2349     0.0227     0.1557     2.4222
  624.0000     0.6073    10.1254    12.1194     6.8429    60.4819     0.0257     0.1521     2.4237
  624.5000     0.3036    10.1233    12.1169     7.0695    62.2155     0.0271     0.1443     2.4328
  625.0000    -0.3009    10.1212    12.1144     7.3565    64.1215     0.0271     0.1457     2.4335
  625.5000    -0.4057    10.1192    12.1119     7.2054    64.7234     0.0208     0.1523     2.4282
  626.0000    -0.5523    10.1166    12.1094     7.0695    66.0241     0.0149     0.1603     2.4155
  626.5000    -0.6988    10.1146    12.1069     7.1148    67.2590     0.0196     0.1539     2.4155
  627.0000    -0.7644    10.0428    12.4445     7.2356    66.2860     0.0271     0.1531     2.4170
  627.5000    -0.7674    10.0407    12.5276     7.2659    63.9839     0.0376     0.1535     2.4177
  628.0000    -0.7704    10.0386    12.4387     7.0695    60.9959     0.0354     0.1578     2.4177
  628.5000    -0.7734     9.8987    12.2654     7.0544    60.4819     0.0268     0.1626     2.4065
  629.0000    -0.9263     9.8285    12.1783     7.1450    61.7500     0.0267     0.1658     2.4005
  629.5000    -0.9293     9.7588    12.1758     7.2659    63.5763     0.0267     0.1635     2.3982
  630.0000    -0.9323     9.7567    12.2584     7.3716    64.8494     0.0266     0.1673     2.3974
  630.5000    -0.9353     9.7547    12.3409     7.4320    64.0184     0.0266     0.1709     2.3944
  631.0000    -0.9384     9.6855    12.4240     7.2659    61.6457     0.0265     0.1703     2.3929
  631.5000    -0.9417     9.6835    12.3352     6.6918    57.2637     0.0325     0.1685     2.3944
  632.0000    -0.9447     9.6815    12.0794     6.7674    57.3374     0.0385     0.1664     2.3952
  632.5000    -0.9477     9.6795    11.8290     6.8731    58.0723     0.0384     0.1689     2.3944
  633.0000    -1.1010     9.7447    11.6641     6.7674    58.5241     0.0384     0.1710     2.3907
  633.5000    -1.2544     9.7427    11.5814     6.6314    58.0557     0.0316     0.1725     2.3884
  634.0000    -1.4077     9.7407    11.5790     6.9335    56.1850     0.0263     0.1623     2.4065
  634.5000    -1.4107     9.7386    11.5766     7.1148    55.6627     0.0387     0.1605     2.4087
  635.0000    -1.5641     9.7366    11.5742     7.2508    58.6747     0.0488     0.1611     2.4065
  635.5000    -1.7174     9.7346    11.5718     7.3112    58.6601     0.0487     0.1674     2.4065
  636.0000    -1.8708     9.7326    11.5694     7.3263    57.8794     0.0501     0.1677     2.4057
  636.5000    -1.8738     9.6636    11.5671     7.4320    56.6763     0.0561     0.1671     2.4057
  637.0000    -1.8768     9.6616    11.5647     7.4773    56.8938     0.0606     0.1642     2.4050
