~VERSION INFORMATION
 VERS.                2.0:   CWLS LOG ASCII STANDARD - VERSION 2.0
 WRAP.                 NO:   ONE LINE PER DEPTH STEP
~WELL INFORMATION
#MNEM.UNIT      DATA TYPE    INFORMATION
#----------   ------------   ------------------------------
 STRT.F          520.5000:   START DEPTH
 STOP.F         2062.0000:   STOP DEPTH
 STEP.F            0.5000:   STEP LENGTH
 NULL.          -999.2500:   NO VALUE
 COMP. LAWRENCE-ALLISON &AS:   COMPANY
 WELL.     NPR 3 #18-X-28:   WELL
 FLD .             TEAPOT:   FIELD
 LOC .      S28 T39N R78W:   LOCATION
 CNTY.            NATRONA:   COUNTY
 STAT.            WYOMING:   STATE
 CTRY. UNITED STATES OF AMERICA:   COUNTRY
 SRVC.            Unknown:   SERVICE COMPANY
 DATE.        08-DEC-1987:   LOGDATE
 API .       490251119700:   API NUMBER
~CURVE INFORMATION
#MNEM.UNIT       API CODE    CURVE DESCRIPTION
#----------   ------------   ------------------------------
 DEPT.F                  :   
 ROP .MIN/FT 91 810 01 00:   RAT OF DRILLING PENETRATION
 TGAS.UNITS  91 830 01 00:   TOTAL GAS FROM HOTWIRE
~PARAMETER INFORMATION
#MNEM.UNIT          VALUE    DESCRIPTION
#----------   ------------   ------------------------------
 EKB .F              5090:   KELLING BUSHING
 EGL .F              5080:   GROUND LEVEL
 DATE.            12-8-87:   RUN DATE
 DD  .F              2062:   DEPTH DRILLER
 CS  .IN                7:   CASING SIZE
 CBD .F               513:   CASING BOTTOM DRILLER
 TCS .HRS            1000:   TIME CURCULATED STOPPED
 TLAB.HRS            0432:   TIME LOGGER AT BOTTOM
 ENGI.              TOWER:   RECORDING ENGINEER
 WITN.               HUSK:   WITNESSED BY
 CLNT.            A2DTECH:   CLIENT CODE
 ORIG.           5" PRINT:   ORIGIN OF DATA
 UWI .       490251119700:   UNIQUE WELL ID
 DICO. A2D Technologies, Inc.:   DIGITIZING COMPANY
~OTHER INFORMATION
~A   DEPT      ROP         TGAS 
# ...
 1006.5000     0.4367     0.0004
 1007.0000     0.4361     0.0004
 1007.5000     0.4354     0.0004
 1008.0000     0.4347     0.0004
 1008.5000     0.4445     0.0004
 1009.0000     0.4438     0.0004
 1009.5000     0.4431     0.0004
 1010.0000     0.4425     0.0004
 1010.5000     0.4524     0.0004
 1011.0000     0.4516     0.0004
 1011.5000     0.4510     0.0004
 1012.0000     0.4503     0.0004
 1012.5000     0.4495     0.0004
 1013.0000     0.4489     0.0004
 1013.5000     0.4483     0.0004
 1014.0000     0.4582     0.0004
 1014.5000     0.4470     0.0004
 1015.0000     0.4464     0.0080
 1015.5000     0.4458     0.0486
 1016.0000     0.4451     0.0891
 1016.5000     0.4444     0.1297
 1017.0000     0.4437     0.1702
 1017.5000     0.4431     0.2108
 1018.0000     0.4425     0.2513
 1018.5000     0.4524     0.7116
 1019.0000     0.4412     1.1798
 1019.5000     0.4406     1.2203
 1020.0000     0.4400     1.2609
 1020.5000     0.4393     1.7200
 1021.0000     0.4385     1.7606
 1021.5000     0.4379     1.8011
 1022.0000     0.4373     1.4231
 1022.5000     0.4470     1.4651
 1023.0000     0.4464     1.5143
 1023.5000     0.4458     1.5549
 1024.0000     0.4451     1.5954
 1024.5000     0.4445     1.6360
 1025.0000     0.4438     1.6765
 1025.5000     0.4431     1.7171
 1026.0000     0.4425     1.3390
 1026.5000     0.4418     1.3897
 1027.0000     0.4412     1.0117
 1027.5000     0.4406     1.0522
 1028.0000     0.4399     0.6640
 1028.5000     0.4393     1.1333
 1029.0000     0.4387     1.1739
 1029.5000     0.4379     1.2144
 1030.0000     0.4373     1.2558
 1030.5000     0.4366     1.3057
 1031.0000     0.4360     1.3462
 1031.5000     0.4354     1.3868
 1032.0000     0.4348     1.4273
 1032.5000     0.4341     1.4679
 1033.0000     0.4328     1.5084
 1033.5000     0.3350     1.5490
 1034.0000     0.2872     1.1709
 1034.5000     0.2865     1.2216
 1035.0000     0.2859     1.2621
 1035.5000     0.2958     1.3027
 1036.0000     0.2950     0.9145
 1036.5000     0.2944     0.9652
 1037.0000     0.2937     0.5871
 1037.5000     0.2931     0.6279
 1038.0000     0.3028     0.6682
 1038.5000     0.3020     0.2902
 1039.0000     0.3118     0.0004
 1039.5000     0.3215     0.0004
 1040.0000     0.3209     0.0004
 1040.5000     0.3314     0.0559
 1041.0000     0.3315     0.4531
 1041.5000     0.3213     0.4684
 1042.0000     0.3111     0.4838
 1042.5000     0.3008     0.4991
 1043.0000     0.3010     0.5144
 1043.5000     0.3011     0.1073
 1044.0000     0.3013     0.1265
 1044.5000     0.2910     0.1418
 1045.0000     0.2912     0.1571
 1045.5000     0.2913     0.1727
 1046.0000     0.2914     0.0004
 1046.5000     0.2916     0.0004
 1047.0000     0.2917     0.0004
 1047.5000     0.2918     0.0004
 1048.0000     0.2919     0.0004
 1048.5000     0.2921     0.0004
 1049.0000     0.2922     0.0004
 1049.5000     0.2923     0.0004
 1050.0000     0.2821     0.0004
 1050.5000     0.2822     0.0004
 1051.0000     0.2823     0.0004
 1051.5000     0.2825     0.0004
 1052.0000     0.2826     0.0004
 1052.5000     0.2828     0.0004
 1053.0000     0.2829     0.0004
 1053.5000     0.2830     0.0004
 1054.0000     0.2831     0.0004
 1054.5000     0.2729     0.0004
 1055.0000     0.2834     0.0004
 1055.5000     0.2835     0.0004
 1056.0000     0.2836     0.0004
 1056.5000     0.2838     0.0004
 1057.0000     0.2839     0.0004
 1057.5000     0.2944     0.0004
 1058.0000     0.2945     0.0004
 1058.5000     0.2947     0.0004
 1059.0000     0.3051     0.0004
 1059.5000     0.3053     0.0004
 1060.0000     0.3054     0.0004
 1060.5000     0.3055     0.0004
 1061.0000     0.3056     0.0004
 1061.5000     0.3058     0.0004
 1062.0000     0.3059     0.0004
 1062.5000     0.3060     0.0004
 1063.0000     0.3062     0.0004
 1063.5000     0.3063     0.0004
 1064.0000     0.3064     0.0004
 1064.5000     0.3066     0.0004
 1065.0000     0.3170     0.0004
 1065.5000     0.3172     0.0004
 1066.0000     0.3173     0.0004
 1066.5000     0.3278     0.0004
 1067.0000     0.3279     0.0004
 1067.5000     0.3280     0.0004
 1068.0000     0.3295     0.0004
 1068.5000     0.3387     0.0004
 1069.0000     0.3388     0.0004
 1069.5000     0.3389     0.0004
 1070.0000     0.3390     0.0004
 1070.5000     0.3392     0.0004
 1071.0000     0.3393     0.0004
 1071.5000     0.3394     0.0004
 1072.0000     0.3395     0.0004
 1072.5000     0.3397     0.0004
 1073.0000     0.3398     0.0004
 1073.5000     0.3399     0.0004
 1074.0000     0.3401     0.0004
 1074.5000     0.3402     0.0004
 1075.0000     0.3403     0.0004
 1075.5000     0.3405     0.0004
 1076.0000     0.3406     0.0004
 1076.5000     0.3407     0.0004
 1077.0000     0.3408     0.0004
 1077.5000     0.3410     0.0004
 1078.0000     0.3411     0.3586
 1078.5000     0.3412     0.3739
 1079.0000     0.3414     0.0004
 1079.5000     0.3415     0.0004
 1080.0000     0.3416     0.0004
 1080.5000     0.3307     0.0056
 1081.0000     0.3302     0.0107
 1081.5000     0.3297     0.0159
 1082.0000     0.3292     0.0210
 1082.5000     0.3287     0.0262
 1083.0000     0.3282     0.0314
 1083.5000     0.3276     0.0366
 1084.0000     0.3271     0.0429
 1084.5000     0.3162     0.0480
 1085.0000     0.3157     0.0532
 1085.5000     0.3152     0.0583
 1086.0000     0.3146     0.0635
 1086.5000     0.3246     0.0686
 1087.0000     0.3136     0.0738
 1087.5000     0.3131     0.0789
 1088.0000     0.3023     0.0841
 1088.5000     0.3121     0.0892
 1089.0000     0.3115     0.0004
 1089.5000     0.3110     0.0004
 1090.0000     0.3105     0.0004
 1090.5000     0.3205     0.0004
 1091.0000     0.3303     0.0004
 1091.5000     0.3400     0.0004
 1092.0000     0.3395     0.0004
 1092.5000     0.3390     0.0004
 1093.0000     0.3385     0.0004
 1093.5000     0.3365     0.0004
 1094.0000     0.3063     0.0004
 1094.5000     0.2851     0.0004
 1095.0000     0.2536     0.0004
 1095.5000     0.2427     0.0004
 1096.0000     0.2215     0.0004
 1096.5000     0.2106     0.0004
 1097.0000     0.2101     0.0004
 1097.5000     0.2200     0.0004
 1098.0000     0.2298     0.0004
 1098.5000     0.2397     0.0004
 1099.0000     0.2495     0.0004
 1099.5000     0.2489     0.0004
 1100.0000     0.2484     0.0004
 1100.5000     0.2479     0.0004
 1101.0000     0.2474     0.0004
 1101.5000     0.2469     0.0004
 1102.0000     0.2464     0.0004
 1102.5000     0.2459     0.0004
 1103.0000     0.2453     0.0004
 1103.5000     0.2447     0.0004
 1104.0000     0.2442     0.0004
 1104.5000     0.2334     0.0004
 1105.0000     0.2329     0.0004
 1105.5000     0.2324     0.0004
 1106.0000     0.2319     0.0004
 1106.5000     0.2313     0.0004
 1107.0000     0.2308     0.0004
 1107.5000     0.2303     0.0004
 1108.0000     0.2298     0.0004
 1108.5000     0.2396     0.0004
 1109.0000     0.2391     0.0004
 1109.5000     0.2385     0.0004
 1110.0000     0.2380     0.0004
 1110.5000     0.2375     0.0004
 1111.0000     0.2370     0.0004
 1111.5000     0.2365     0.0004
 1112.0000     0.2464     0.0004
 1112.5000     0.2459     0.0004
 1113.0000     0.2452     0.0004
 1113.5000     0.2447     0.0004
 1114.0000     0.2547     0.0004
 1114.5000     0.2541     0.0004
 1115.0000     0.2536     0.0004
 1115.5000     0.2634     0.0004
 1116.0000     0.2629     0.0004
 1116.5000     0.2624     0.0004
 1117.0000     0.2619     0.0004
 1117.5000     0.2614     0.0004
 1118.0000     0.2608     0.0004
 1118.5000     0.2603     0.0004
 1119.0000     0.2598     0.0004
 1119.5000     0.2593     0.0004
 1120.0000     0.2588     0.0004
 1120.5000     0.3107     0.0004
 1121.0000     0.3005     0.0004
 1121.5000     0.2902     0.0004
 1122.0000     0.2904     0.0004
 1122.5000     0.2905     0.0004
 1123.0000     0.2906     0.0004
 1123.5000     0.2908     0.0004
 1124.0000     0.2909     0.0004
 1124.5000     0.2910     0.0004
 1125.0000     0.2911     0.0004
 1125.5000     0.2913     0.0004
 1126.0000     0.2914     0.0004
 1126.5000     0.2916     0.0004
 1127.0000     0.2917     0.0004
 1127.5000     0.3022     0.0004
