~VERSION INFORMATION
 VERS.                2.0:   CWLS LOG ASCII STANDARD - VERSION 2.0
 WRAP.                 NO:   ONE LINE PER DEPTH STEP
~WELL INFORMATION
#MNEM.UNIT      DATA TYPE    INFORMATION
#----------   ------------   ------------------------------
 STRT.F            0.0000:   START DEPTH
 STOP.F         1283.5000:   STOP DEPTH
 STEP.F            0.5000:   STEP LENGTH
 NULL.          -999.2500:   NO VALUE
 COMP.      U.S. NAVY NPR:   COMPANY
 WELL. NAVAL PETROLEUM RESERVE 3 ST-11 #88-11:   WELL
 FLD .             TEAPOT:   FIELD
 LOC .      S11 T38N R78W:   LOCATION
 CNTY.            NATRONA:   COUNTY
 STAT.            WYOMING:   STATE
 CTRY. UNITED STATES OF AMERICA:   COUNTRY
 SRVC.       Schlumberger:   SERVICE COMPANY
 DATE.        01-NOV-1958:   LOGDATE
 API .       490250632600:   API NUMBER
~CURVE INFORMATION
#MNEM.UNIT       API CODE    CURVE DESCRIPTION
#----------   ------------   ------------------------------
 DEPT.F                  :   
 GRN .GAPI   35 310 01 00:   GAMMA RAY
 NEUT.NAPI   35 330 01 00:   NEUTRON
 ASN .OHMM   01 041 16 00:   AMPLIFIED SHORT NORMAL
 LAT .OHMM   01 070 18 00:   LATERAL 18"
 LN  .OHMM   01 060 64 00:   LONG NORMAL 64"
 SPR .MV     01 010 01 00:   SPONTANEOUS POTENTIAL
 CALM.IN     15 280 01 00:   CALIPER FROM MICRO LOG
~PARAMETER INFORMATION
#MNEM.UNIT          VALUE    DESCRIPTION
#----------   ------------   ------------------------------
 LMF .                 KB:   LOG MEASURED FROM
 DMF .                 KB:   DRILLING MEASURED FROM
 EKB .F              5289:   KELLING BUSHING
 EGL .F              5279:   GROUND LEVEL
 DATE.        01-NOV-1958:   RUN DATE
 RUN .                  1:   RUN NUMBER
 DD  .F              1280:   DEPTH DRILLER
 DL  .F              1283:   DEPTH LOGGER
 BLI .F              1282:   BOTTOM LOG INTERVAL
 TLI .F               150:   TOP LOG INTERVAL
 CBD .F                45:   CASING BOTTOM DRILLER
 BS  .IN            7.875:   BIT SIZE
 BSD .F              1280:   BIT SIZE AT DEPTH
 DFT .                GEL:   DRILLING FLUID TYPE
 DFD .                9.1:   DRILLING FLUID DENSITY
 DFV .                 63:   DRILLING FLUID VISCOSITY
 DFL .                2.1:   DRILLING FLUID LOSS
 RMS .OHMM            2.4:   RESISTIVITY MUD SAMPLE
 MST .F                56:   MUD SAMPLE TEMPERATURE
 RMF .OHMM           1.45:   RESISTIVITY MUD FILTRATE SAMPLE
 MFST.F                79:   MUD FILTRATE SAMPLE TEMPERATURE
 RMC .OHMM            1.7:   RESISTIVITY MUD CAKE
 MCST.F                79:   MUD CAKE SAMPLE TEMPERATURE
 MFSS.               MEAS:   MUD FILTRATE SAMPLE SOURCE
 MCSS.               MEAS:   MUD CAKE SAMPLE SOURCE
 RMB .OHMM            1.6:   RESISTIVITY MUD AT BHT
 BHT .F                79:   BOTTOM HOLE TEMPERATURE
 TCS .HRS               1:   TIME CURCULATED STOPPED
 MRT .F                79:   MAXIMUM RECORDED TEMPERATURE
 LUN .               2544:   LOGGING UNIT NUMBER
 LUL .                 NC:   LOGGING UNIT LOCATION
 ENGI.            EARNEST:   RECORDING ENGINEER
 WITN.             MARTIN:   WITNESSED BY
 CLNT.            A2DTECH:   CLIENT CODE
 ORIG.         2.5" PRINT:   ORIGIN OF DATA
 UWI .       490250632600:   UNIQUE WELL ID
 DICO. A2D Technologies, Inc.:   DIGITIZING COMPANY
~OTHER INFORMATION
~A    DEPT       GRN     NEUT        ASN        LAT         LN        SPR       CALM   
# ...
  591.5000     5.5859   336.9198     5.9665     6.2038     4.5919   -12.1526     8.2415
  592.0000     5.6389   331.6558     5.9094     6.2065     4.5957   -12.1459     8.2693
  592.5000     5.5565   326.3918     5.7982     6.2092     4.5513   -12.1185     8.2698
  593.0000     5.3371   334.5620     5.6821     6.2120     4.4651   -11.8213     8.2703
  593.5000     5.2879   324.3672     5.4943     6.2147     4.3324   -11.5789     8.2709
  594.0000     5.5305   307.4327     5.3478     6.1685     4.3359   -11.8458     8.2674
  594.5000     5.4754   302.2271     5.1904     6.0842     4.3393   -12.1997     8.2447
  595.0000     5.3027   293.8969     5.0906     6.0870     4.3427   -12.4833     8.2517
  595.5000     5.2253   299.7868     5.0625     5.9538     4.2093   -12.6451     8.2806
  596.0000     5.2141   304.5122     5.0344     5.9565     4.2133   -12.6383     8.3095
  596.5000     5.4241   314.8503     4.9954     5.8234     4.2167   -12.6315     8.3012
  597.0000     5.5236   315.9039     4.9960     5.8265     4.2200   -12.6234     8.2746
  597.5000     5.6030   311.0492     4.9967     5.8292     4.2234   -12.0696     8.2630
  598.0000     5.3578   292.3511     4.9974     5.8318     4.2267   -12.0630     8.2486
  598.5000     5.1418   299.7749     5.0252     5.8345     4.2301   -12.0564     8.2073
  599.0000     5.3013   301.9743     5.0259     5.8371     4.2334   -11.5026     8.1681
  599.5000     5.2007   300.4420     5.0809     5.8397     4.2368   -11.2224     8.1687
  600.0000     5.2801   282.4903     5.1359     5.8424     4.2401   -11.2158     8.1421
  600.5000     5.1467   285.5073     5.2197     5.8451     4.2435   -10.9354     8.1698
  601.0000     5.1381   302.3607     5.2763     5.8478     4.2470   -10.9286     8.1703
  601.5000     4.9977   312.2251     5.3329     5.8505     4.2504   -10.9723     8.1981
  602.0000     4.9903   291.2747     5.3832     5.8533     4.3906   -11.1893     8.2530
  602.5000     4.8969   288.9547     5.3918     5.8560     4.2569   -11.1816     8.2535
  603.0000     5.3163   313.5166     5.4212     5.8587     4.2606   -11.1748     8.2812
  603.5000     5.5758   309.7344     5.4506     5.8614     4.1268   -11.4415     8.2818
  604.0000     5.0352   305.9522     5.4801     5.8641     4.0833   -11.7082     8.2823
  604.5000     4.9145   311.8724     5.4395     5.7663     3.9967   -12.4003     8.2828
  605.0000     5.3699   314.0609     5.2853     5.7337     4.0008   -13.0610     8.2834
  605.5000     5.5089   311.7692     5.1679     5.7364     4.0042   -13.0544     8.2839
  606.0000     5.6279   310.9706     5.3359     5.7396     3.8708   -13.0478     8.2845
  606.5000     5.6470   318.0475     5.5199     5.7423     3.8742   -12.7676     8.2788
  607.0000     5.4033   331.7856     5.6017     5.7446     4.0151   -12.7609     8.2237
  607.5000     5.2570   337.6913     5.5204     5.7475     4.1552   -12.7543     8.2044
  608.0000     5.3925   318.1256     5.4935     5.7502     4.4321   -12.4741     8.1778
  608.5000     5.7031   317.0043     5.4666     5.7528     4.7090   -12.4541     8.1784
  609.0000     5.5972   329.4103     5.4940     5.7555     4.7124   -12.1869     8.1790
  609.5000     5.3217   323.2834     5.5215     5.7582     4.5786   -12.1801     8.1795
  610.0000     5.1227   318.7549     5.5761     5.7609     4.4453   -12.1733     8.1801
  610.5000     5.0914   332.8848     5.6035     5.7473     4.3121   -12.1664     8.1806
  611.0000     5.2612   338.0587     5.6031     5.6302     4.1786   -12.1596     8.2084
  611.5000     5.1968   335.7692     5.5477     5.6332     3.9084   -12.1527     8.2362
  612.0000     5.4159   326.7625     5.4587     5.4996     3.7750   -12.1459     8.2639
  612.5000     5.6949   327.4584     5.2197     5.3664     3.6416   -12.1391     8.2916
  613.0000     5.8340   319.6952     4.6676     5.1811     3.6451   -11.8573     8.3193
  613.5000     5.6730   312.2409     4.2584     4.9049     3.5115   -11.8507     8.3199
  614.0000     5.7794   303.8058     3.8435     4.6286     3.5444   -11.8441     8.3204
  614.5000     6.0637   291.9760     3.5440     4.4266     3.6554   -12.9317     8.3481
  615.0000     6.2220   285.0029     3.2619     4.1581     3.6998   -13.4721     8.3486
  615.5000     6.3837   278.6346     3.2421     4.0245     3.9358   -14.0126     8.3492
  616.0000     6.5682   283.2361     3.6163     3.8913     3.9921   -13.6874     8.3225
  616.5000     6.0166   305.6453     3.9876     3.9853     4.1382   -13.1323     8.3231
  617.0000     5.7769   324.2209     4.0991     3.9866     4.2196   -12.8507     8.2964
  617.5000     5.3423   322.0650     4.2541     3.9879     4.3598   -12.5691     8.2920
  618.0000     5.4238   304.4489     4.4674     3.9893     4.5000   -12.2875     8.2703
  618.5000     5.5629   297.3711     4.6996     4.2623     4.6409   -12.2794     8.2436
  619.0000     5.5948   299.8997     4.9886     4.3995     4.6442   -12.2714     8.2170
  619.5000     5.4209   302.0882     5.2677     4.5367     4.6476   -12.2634     8.1903
  620.0000     5.3200   301.2913     5.3931     4.8098     4.6509   -12.2553     8.1636
  620.5000     5.4590   293.7774     5.4617     4.9538     4.6542   -12.2471     8.1643
  621.0000     5.5692   272.0830     5.5821     5.2337     4.6576   -12.2389     8.1648
  621.5000     5.6571   286.2129     5.7182     5.5136     4.6609   -12.2307     8.2077
  622.0000     5.5361   310.8503     5.8000     5.8206     4.6643   -12.2225     8.2748
  622.5000     5.5551   321.3000     5.8818     6.0734     4.5309   -12.2143     8.3025
  623.0000     5.4265   322.9496     5.9636     6.1766     4.5342   -12.1377     8.3030
  623.5000     5.3462   326.3133     6.0726     6.1780     4.6744   -11.9243     8.3036
  624.0000     5.3352   306.0444     6.2902     6.1793     4.6778   -11.9161     8.3041
  624.5000     5.4708   298.8154     6.3720     6.1807     4.6981   -11.9079     8.3046
  625.0000     5.4498   290.6998     6.3723     6.1821     4.8211   -11.6261     8.3052
  625.5000     5.2089   289.4385     6.3429     6.1834     4.6877   -11.6179     8.3057
  626.0000     4.9656   296.8599     6.2319     6.1850     4.6568   -12.0201     8.3062
  626.5000     5.2869   293.8923     6.0590     6.0503     4.5576   -12.5704     8.3068
  627.0000     5.0860   297.5734     5.8317     5.9160     4.5150   -12.9611     8.3073
  627.5000     5.3877   304.2400     5.5811     5.7814     4.3758   -12.9514     8.3079
  628.0000     5.5304   301.2041     5.3261     5.6469     4.2365   -13.2169     8.3084
  628.5000     5.6502   296.6755     5.1702     5.5123     4.0247   -13.2089     8.3089
  629.0000     5.7321   290.6543     4.9581     5.1060     3.8913   -12.9273     8.3095
  629.5000     5.7612   284.6330     4.7530     5.3791     3.7580   -12.6457     8.3100
  630.0000     5.6802   286.0752     4.5851     5.7880     3.7621   -12.3641     8.3106
  630.5000     5.9874   282.2930     4.3901     6.0611     3.7654   -12.0825     8.2979
  631.0000     6.0252   284.0824     4.1832     5.9131     3.7688   -11.8009     8.2845
  631.5000     5.8768   288.3191     3.8759     5.6359     3.7721   -11.5193     8.2850
  632.0000     5.6359   295.1882     3.5500     5.3587     3.7755   -11.2377     8.2857
  632.5000     5.5349   301.3105     3.4715     5.0476     3.7788   -10.9559     8.2590
  633.0000     5.4476   308.5598     3.6049     4.6685     3.7821   -11.2216     8.2595
  633.5000     5.4530   307.7462     3.5508     4.5745     3.7855   -11.4871     8.2601
  634.0000     5.3120   298.3336     3.5239     4.5761     3.6520   -11.7526     8.2606
  634.5000     5.3710   293.8051     3.8503     4.6386     3.6554   -12.0182     8.2067
  635.0000     5.5353   287.7838     4.1223     4.7147     3.6588   -12.0775     8.2073
  635.5000     5.5083   282.5089     4.4215     4.7160     3.5253   -12.2756     8.2078
  636.0000     5.3200   284.6974     4.5583     4.8535     3.5289   -12.2663     8.2355
  636.5000     5.2870   282.4079     4.6686     4.9907     3.5323   -12.2581     8.2361
