~VERSION INFORMATION
 VERS.                2.0:   CWLS LOG ASCII STANDARD - VERSION 2.0
 WRAP.                 NO:   ONE LINE PER DEPTH STEP
~WELL INFORMATION
#MNEM.UNIT      DATA TYPE    INFORMATION
#----------   ------------   ------------------------------
 STRT.F            7.5000:   START DEPTH
 STOP.F         2886.0000:   STOP DEPTH
 STEP.F            0.5000:   STEP LENGTH
 NULL.          -999.2500:   NO VALUE
 COMP. LAWRENCE/ALLISON INC:   COMPANY
 WELL.     16-1 AX #21-21:   WELL
 FLD .             TEAPOT:   FIELD
 LOC .      S21 T39N R78W:   LOCATION
 CNTY.            NATRONA:   COUNTY
 STAT.            WYOMING:   STATE
 CTRY. UNITED STATES OF AMERICA:   COUNTRY
 SRVC.      Dresser Atlas:   SERVICE COMPANY
 DATE.        05-DEC-1986:   LOGDATE
 API .       490251111900:   API NUMBER
~CURVE INFORMATION
#MNEM.UNIT       API CODE    CURVE DESCRIPTION
#----------   ------------   ------------------------------
 DEPT.F                  :   
 GRR .GAPI   07 310 01 00:   GAMMA RAY FROM RES. LOG.
 SPR .MV     07 010 01 00:   SPONTANEOUS POTENTIAL
 RFOC.OHMM   07 220 04 00:   RESISTIVITY FOCUSED LOG
 RILM.OHMM   07 120 44 00:   INDUCTION LOG MEDIUM RESISTIVITY
 RILD.OHMM   07 120 46 00:   INDUCTION LOG DEEP RESISTIVITY
 CALD.IN     45 280 60 00:   CALIPER
 DEN .G/C3   45 350 01 00:   BULK DENSITY
 CORR.G/C3   45 356 01 00:   DENSITY CORRECTION
 CNC .DEC    42 890 03 00:   NEUTRON POROSITY SANDSTONE
 PORD.DEC    45 890 12 00:   DENSITY POROSITY SANDSTONE
~PARAMETER INFORMATION
#MNEM.UNIT          VALUE    DESCRIPTION
#----------   ------------   ------------------------------
 PD  .                 GL:   PERMANENT DATUM
 EPD .F              4992:   ELEVATION PERMANENT DATUM
 LMF .                 KB:   LOG MEASURED FROM
 DAPD.F                12:   FEET ABOVE PERMANENT DATUM
 DMF .                 KB:   DRILLING MEASURED FROM
 EKB .F              5004:   KELLING BUSHING
 EGL .F              4992:   GROUND LEVEL
 DATE.            12-5-86:   RUN DATE
 RUN .                  1:   RUN NUMBER
 DD  .F              2905:   DEPTH DRILLER
 DL  .F              2890:   DEPTH LOGGER
 BLI .F              2884:   BOTTOM LOG INTERVAL
 TLI .F              2200:   TOP LOG INTERVAL
 CS  .IN            8.625:   CASING SIZE
 CBD .F               300:   CASING BOTTOM DRILLER
 CBL .F               300:   CASING BOTTOM LOGGER
 BS  .IN            7.875:   BIT SIZE
 BSD .F              2905:   BIT SIZE AT DEPTH
 DFT .        KCL POLYMER:   DRILLING FLUID TYPE
 DFD .                  9:   DRILLING FLUID DENSITY
 DFV .                 36:   DRILLING FLUID VISCOSITY
 DFPH.                9.5:   DRILLING FLUID PH
 DFL .               11.8:   DRILLING FLUID LOSS
 MSS .            MUDTANK:   MUD SAMPLE SOURCE
 RMS .OHMM            .43:   RESISTIVITY MUD SAMPLE
 MST .F                63:   MUD SAMPLE TEMPERATURE
 RMF .OHMM           .348:   RESISTIVITY MUD FILTRATE SAMPLE
 MFST.F                63:   MUD FILTRATE SAMPLE TEMPERATURE
 RMC .OHMM           .538:   RESISTIVITY MUD CAKE
 MCST.F                63:   MUD CAKE SAMPLE TEMPERATURE
 MFSS.               MEAS:   MUD FILTRATE SAMPLE SOURCE
 MCSS.               CALC:   MUD CAKE SAMPLE SOURCE
 RMB .OHMM           .233:   RESISTIVITY MUD AT BHT
 BHT .F               116:   BOTTOM HOLE TEMPERATURE
 TCS .HRS             3.5:   TIME CURCULATED STOPPED
 MRT .F               116:   MAXIMUM RECORDED TEMPERATURE
 LUN .            HL-6274:   LOGGING UNIT NUMBER
 LUL .           GILLETTE:   LOGGING UNIT LOCATION
 ENGI.             RAUTIO:   RECORDING ENGINEER
 WITN.             STRONG:   WITNESSED BY
 CLNT.            A2DTECH:   CLIENT CODE
 ORIG.       2", 5" PRINT:   ORIGIN OF DATA
 UWI .       490251111900:   UNIQUE WELL ID
 DICO. A2D Technologies, Inc.:   DIGITIZING COMPANY
~OTHER INFORMATION
~A    DEPT     GRR        SPR       RFOC       RILM       RILD       CALD        DEN       CORR        CNC       PORD   
# ...
  376.0000    81.0237   -29.5775    11.3308    11.7165    12.6830  -999.2500  -999.2500  -999.2500  -999.2500  -999.2500
  376.5000    85.1488   -29.8088    11.1641    11.6105    12.4033  -999.2500  -999.2500  -999.2500  -999.2500  -999.2500
  377.0000    86.8555   -29.8972    11.0785    11.5056    12.1776  -999.2500  -999.2500  -999.2500  -999.2500  -999.2500
  377.5000    86.6027   -29.9802    11.0094    11.4015    11.9559  -999.2500  -999.2500  -999.2500  -999.2500  -999.2500
  378.0000    82.7308   -29.9669    10.9407    11.2317    11.7384  -999.2500  -999.2500  -999.2500  -999.2500  -999.2500
  378.5000    78.1968   -29.8660    10.5756    10.9863    11.6152  -999.2500  -999.2500  -999.2500  -999.2500  -999.2500
  379.0000    80.2887   -29.9419    10.0541    10.7464    11.5067  -999.2500  -999.2500  -999.2500  -999.2500  -999.2500
  379.5000    83.7399   -30.1697    10.0681    10.5323    11.3991  -999.2500  -999.2500  -999.2500  -999.2500  -999.2500
  380.0000    84.0288   -30.4000    10.0887    10.5901    11.2927  -999.2500  -999.2500  -999.2500  -999.2500  -999.2500
  380.5000    80.6397   -30.6292    10.1093    10.6435    11.2403  -999.2500  -999.2500  -999.2500  -999.2500  -999.2500
  381.0000    77.2893   -30.7879    10.1299    10.6972    11.2403  -999.2500  -999.2500  -999.2500  -999.2500  -999.2500
  381.5000    76.4631   -30.4815    10.1506    10.7515    11.2403  -999.2500  -999.2500  -999.2500  -999.2500  -999.2500
  382.0000    76.1316   -30.5872    10.1713    10.8298    11.2403  -999.2500  -999.2500  -999.2500  -999.2500  -999.2500
  382.5000    79.0817   -30.8045    10.1921    10.7792    11.2403  -999.2500  -999.2500  -999.2500  -999.2500  -999.2500
  383.0000    82.9556   -31.0253    10.2129    10.6839    11.2403  -999.2500  -999.2500  -999.2500  -999.2500  -999.2500
  383.5000    86.5672   -31.2444    10.2415    10.5903    11.0806  -999.2500  -999.2500  -999.2500  -999.2500  -999.2500
  384.0000    84.6787   -31.4368    10.2163    10.4500    10.8745  -999.2500  -999.2500  -999.2500  -999.2500  -999.2500
  384.5000    82.4511   -31.4716    10.1709    10.2344    10.6722  -999.2500  -999.2500  -999.2500  -999.2500  -999.2500
  385.0000    83.9336   -31.5099    10.1252     9.9800    10.3232  -999.2500  -999.2500  -999.2500  -999.2500  -999.2500
  385.5000    87.4958   -31.5486    10.0835     9.7023     9.9477  -999.2500  -999.2500  -999.2500  -999.2500  -999.2500
  386.0000    91.0272   -31.5873     9.9611     9.4331     9.5858  -999.2500  -999.2500  -999.2500  -999.2500  -999.2500
  386.5000    91.8426   -31.6271     9.9611     9.0770     9.2473  -999.2500  -999.2500  -999.2500  -999.2500  -999.2500
  387.0000    88.6485   -31.6929     9.9611     9.1493     9.2224  -999.2500  -999.2500  -999.2500  -999.2500  -999.2500
  387.5000    85.1320   -31.7594     9.9611     9.2647     9.1924  -999.2500  -999.2500  -999.2500  -999.2500  -999.2500
  388.0000    85.0389   -31.8143     9.8716     9.4200     9.1629  -999.2500  -999.2500  -999.2500  -999.2500  -999.2500
  388.5000    88.6599   -32.2521     9.7363     9.3757     9.1334  -999.2500  -999.2500  -999.2500  -999.2500  -999.2500
  389.0000    90.6091   -32.7791     9.6028     9.1803     9.1038  -999.2500  -999.2500  -999.2500  -999.2500  -999.2500
  389.5000    90.2785   -33.3083     9.4222     8.8718     9.0770  -999.2500  -999.2500  -999.2500  -999.2500  -999.2500
  390.0000    88.5795   -33.8402     9.1269     8.5740     8.9098  -999.2500  -999.2500  -999.2500  -999.2500  -999.2500
  390.5000    86.9992   -34.2023     8.8408     8.3076     8.7591  -999.2500  -999.2500  -999.2500  -999.2500  -999.2500
  391.0000    87.2921   -33.9933     8.5635     8.0769     8.6108  -999.2500  -999.2500  -999.2500  -999.2500  -999.2500
  391.5000    86.7696   -33.6971     8.2956     7.8526     8.4651  -999.2500  -999.2500  -999.2500  -999.2500  -999.2500
  392.0000    85.8601   -33.4027     8.0328     7.7162     8.3219  -999.2500  -999.2500  -999.2500  -999.2500  -999.2500
  392.5000    85.3518   -33.3603     7.9356     7.6525     8.1810  -999.2500  -999.2500  -999.2500  -999.2500  -999.2500
  393.0000    86.3753   -33.6603     7.8880     7.5894     8.0889  -999.2500  -999.2500  -999.2500  -999.2500  -999.2500
  393.5000    87.3962   -33.9564     7.8228     7.5373     8.0349  -999.2500  -999.2500  -999.2500  -999.2500  -999.2500
  394.0000    88.1583   -34.2353     7.8450     7.5931     7.9696  -999.2500  -999.2500  -999.2500  -999.2500  -999.2500
  394.5000    88.1277   -34.3139     7.8839     7.6413     8.0103  -999.2500  -999.2500  -999.2500  -999.2500  -999.2500
  395.0000    88.9184   -34.3849     7.9229     7.6897     8.0627  -999.2500  -999.2500  -999.2500  -999.2500  -999.2500
  395.5000    90.6794   -34.4393     7.9621     7.7384     8.1154  -999.2500  -999.2500  -999.2500  -999.2500  -999.2500
  396.0000    92.4153   -34.4377     7.9822     7.7875     8.1685  -999.2500  -999.2500  -999.2500  -999.2500  -999.2500
  396.5000    90.5330   -34.4084     7.9978     7.8368     8.2219  -999.2500  -999.2500  -999.2500  -999.2500  -999.2500
  397.0000    88.1813   -34.2776     8.0134     7.8865     8.2757  -999.2500  -999.2500  -999.2500  -999.2500  -999.2500
  397.5000    86.7731   -34.1516     8.0289     7.9365     8.3298  -999.2500  -999.2500  -999.2500  -999.2500  -999.2500
  398.0000    88.4607   -34.0338     8.0444     7.9868     8.4201  -999.2500  -999.2500  -999.2500  -999.2500  -999.2500
  398.5000    89.1162   -33.9632     8.1012     8.0374     8.5307  -999.2500  -999.2500  -999.2500  -999.2500  -999.2500
  399.0000    88.1444   -33.8959     8.1892     8.1862     8.6427  -999.2500  -999.2500  -999.2500  -999.2500  -999.2500
  399.5000    86.5944   -33.8365     8.2729     8.3525     8.7562  -999.2500  -999.2500  -999.2500  -999.2500  -999.2500
  400.0000    85.5388   -33.8343     8.4713     8.5185     8.8712  -999.2500  -999.2500  -999.2500  -999.2500  -999.2500
  400.5000    86.5494   -33.6733     8.6592     8.6531     8.9878  -999.2500  -999.2500  -999.2500  -999.2500  -999.2500
  401.0000    87.4691   -33.4938     8.8274     8.7898     9.1049  -999.2500  -999.2500  -999.2500  -999.2500  -999.2500
  401.5000    88.3723   -33.3111     8.8821     8.9286     9.2535  -999.2500  -999.2500  -999.2500  -999.2500  -999.2500
  402.0000    89.0198   -33.4126     8.9424     9.0697     9.4292  -999.2500  -999.2500  -999.2500  -999.2500  -999.2500
  402.5000    86.4789   -33.7289     9.0025     9.2130     9.6083  -999.2500  -999.2500  -999.2500  -999.2500  -999.2500
  403.0000    83.4006   -34.0437     9.0633     9.3586     9.7907  -999.2500  -999.2500  -999.2500  -999.2500  -999.2500
  403.5000    82.8430   -34.1329     9.1244     9.5064     9.9766  -999.2500  -999.2500  -999.2500  -999.2500  -999.2500
  404.0000    84.6989   -33.8624     9.2399     9.6206    10.0905  -999.2500  -999.2500  -999.2500  -999.2500  -999.2500
  404.5000    85.3289   -33.5970     9.4426     9.6798    10.1526  -999.2500  -999.2500  -999.2500  -999.2500  -999.2500
  405.0000    85.3261   -33.3293     9.6872     9.7394    10.2151  -999.2500  -999.2500  -999.2500  -999.2500  -999.2500
  405.5000    86.0589   -33.0620     9.6773     9.7993    10.2782  -999.2500  -999.2500  -999.2500  -999.2500  -999.2500
  406.0000    86.4298   -33.1056     9.6653     9.8595    10.3383  -999.2500  -999.2500  -999.2500  -999.2500  -999.2500
  406.5000    85.3811   -33.1909     9.6534     9.9084    10.2962  -999.2500  -999.2500  -999.2500  -999.2500  -999.2500
  407.0000    83.8492   -33.2764     9.6414     9.9608    10.2559  -999.2500  -999.2500  -999.2500  -999.2500  -999.2500
  407.5000    82.3221   -33.3614     9.6295     9.9204    10.2158  -999.2500  -999.2500  -999.2500  -999.2500  -999.2500
  408.0000    80.7857   -33.4711     9.6174     9.8739    10.1758  -999.2500  -999.2500  -999.2500  -999.2500  -999.2500
  408.5000    79.7202   -33.7156     9.6063     9.8275    10.1360  -999.2500  -999.2500  -999.2500  -999.2500  -999.2500
  409.0000    78.9299   -33.9609     9.5697     9.7814    10.0964  -999.2500  -999.2500  -999.2500  -999.2500  -999.2500
