~VERSION INFORMATION
 VERS.                2.0:   CWLS LOG ASCII STANDARD - VERSION 2.0
 WRAP.                 NO:   ONE LINE PER DEPTH STEP
~WELL INFORMATION
#MNEM.UNIT      DATA TYPE    INFORMATION
#----------   ------------   ------------------------------
 STRT.F           27.0000:   START DEPTH
 STOP.F          760.0000:   STOP DEPTH
 STEP.F            0.5000:   STEP LENGTH
 NULL.          -999.2500:   NO VALUE
 COMP. FENIX & SCISSON INC:   COMPANY
 WELL.    NPR #3 #33-S-14:   WELL
 FLD .             TEAPOT:   FIELD
 LOC .      S14 T38N R78W:   LOCATION
 CNTY.            NATRONA:   COUNTY
 STAT.            WYOMING:   STATE
 CTRY. UNITED STATES OF AMERICA:   COUNTRY
 SRVC.              Welex:   SERVICE COMPANY
 DATE.        02-FEB-1977:   LOGDATE
 API .       490251027700:   API NUMBER
~CURVE INFORMATION
#MNEM.UNIT       API CODE    CURVE DESCRIPTION
#----------   ------------   ------------------------------
 DEPT.F                  :   
 SPR .MV     07 010 01 00:   SPONTANEOUS POTENTIAL
 SGRD.OHMM   07 220 05 00:   SHALLOW RESISTIVITY
 ILD .OHMM   07 120 46 00:   INDUCTION LOG DEEP
 ILM .OHMM   07 120 44 00:   INDUCTION LOG MEDIUM
 GRD .GAPI   45 310 01 00:   GAMMA RAY FROM DENSITY LOG
 CALD.IN     45 280 60 00:   CALIPER
 RHOB.G/C3   45 350 01 00:   BULK DENSITY
 CORR.G/C3   45 356 01 00:   DENSITY CORRECTION
 DPHI.DEC    45 890 00 00:   DENSITY POROSITY
~PARAMETER INFORMATION
#MNEM.UNIT          VALUE    DESCRIPTION
#----------   ------------   ------------------------------
 PD  .                 GL:   PERMANENT DATUM
 EPD .F              5219:   ELEVATION PERMANENT DATUM
 LMF .                 GL:   LOG MEASURED FROM
 DMF .                 GL:   DRILLING MEASURED FROM
 EKB .F              5224:   KELLING BUSHING
 EGL .F              5219:   GROUND LEVEL
 DATE.           2-2-1977:   RUN DATE
 RUN .                  1:   RUN NUMBER
 DD  .F               761:   DEPTH DRILLER
 DL  .F               762:   DEPTH LOGGER
 BLI .F               760:   BOTTOM LOG INTERVAL
 TLI .F                25:   TOP LOG INTERVAL
 CS  .IN            8.625:   CASING SIZE
 CBD .F              42.5:   CASING BOTTOM DRILLER
 CBL .F                46:   CASING BOTTOM LOGGER
 BS  .IN            7.875:   BIT SIZE
 BSD .F               761:   BIT SIZE AT DEPTH
 DFT .           CHEM-GEL:   DRILLING FLUID TYPE
 DFD .                8.9:   DRILLING FLUID DENSITY
 DFV .                 37:   DRILLING FLUID VISCOSITY
 DFPH.                  7:   DRILLING FLUID PH
 DFL .                8.4:   DRILLING FLUID LOSS
 MSS .          FLOW LINE:   MUD SAMPLE SOURCE
 RMS .OHMM           .231:   RESISTIVITY MUD SAMPLE
 MST .F                45:   MUD SAMPLE TEMPERATURE
 RMF .OHMM           .322:   RESISTIVITY MUD FILTRATE SAMPLE
 MFST.F                45:   MUD FILTRATE SAMPLE TEMPERATURE
 RMC .OHMM           .439:   RESISTIVITY MUD CAKE
 MCST.F                45:   MUD CAKE SAMPLE TEMPERATURE
 MFSS.           MEASURED:   MUD FILTRATE SAMPLE SOURCE
 MCSS.           MEASURED:   MUD CAKE SAMPLE SOURCE
 RMB .OHMM           .182:   RESISTIVITY MUD AT BHT
 BHT .F                57:   BOTTOM HOLE TEMPERATURE
 TCS .HRS             5.5:   TIME CURCULATED STOPPED
 MRT .F                57:   MAXIMUM RECORDED TEMPERATURE
 LUN .               8611:   LOGGING UNIT NUMBER
 LUL .           GILLETTE:   LOGGING UNIT LOCATION
 ENGI.             LAWSON:   RECORDING ENGINEER
 WITN. VOORHEES/RHOADES/JAPP/PETTINGILL/STUEBINGER:   WITNESSED BY
 CLNT.            A2DTECH:   CLIENT CODE
 ORIG.     1", 2.5" PRINT:   ORIGIN OF DATA
 UWI .       490251027700:   UNIQUE WELL ID
 DICO. A2D Technologies, Inc.:   DIGITIZING COMPANY
~OTHER INFORMATION
~A   DEPT      SPR       SGRD        ILD        ILM        GRD       CALD         RHOB      CORR      DPHI   
# ...
  392.0000   -30.3299    11.6571     8.3966     9.0419   119.0634     8.7859     2.4958     0.0702     0.0869
  392.5000   -30.3806    11.4755     8.4558     9.0885   120.4038     8.7500     2.4965     0.0712     0.0862
  393.0000   -30.4312    11.6075     8.5154     9.1352   119.4662     8.7141     2.4950     0.0722     0.0878
  393.5000   -30.4819    11.7416     8.4677     9.1822   118.1816     8.6788     2.4931     0.0732     0.0893
  394.0000   -30.5326    11.8774     8.3938     9.0580   117.3838     8.6567     2.4912     0.0742     0.0909
  394.5000   -30.5832    11.8216     8.3205     8.9356   119.9382     8.6655     2.4893     0.0716     0.0924
  395.0000   -30.6339    11.7189     8.2478     8.8150   122.4936     8.6738     2.4874     0.0677     0.0939
  395.5000   -30.6846    11.6174     8.1757     8.6960   123.2380     8.6819     2.4866     0.0638     0.0954
  396.0000   -30.7353    11.5168     8.1042     8.5785   122.9269     8.6911     2.4871     0.0598     0.0938
  396.5000   -30.7860    11.4171     8.0334     8.4624   122.5906     8.6496     2.4894     0.0608     0.0917
  397.0000   -30.8367    11.3181     7.9631     8.3625   122.2474     8.5860     2.4917     0.0642     0.0897
  397.5000   -30.8876    11.2200     7.8935     8.3217   121.9487     8.5219     2.4940     0.0676     0.0876
  398.0000   -30.9382    11.1228     7.8246     8.2811   123.4047     8.5233     2.4963     0.0710     0.0856
  398.5000   -30.9888    11.0266     7.7564     8.2407   124.9969     8.5285     2.4984     0.0743     0.0844
  399.0000   -31.0406    10.9312     7.6885     8.2005   126.5787     8.5332     2.4953     0.0726     0.0870
  399.5000   -31.0891    10.8367     7.6213     8.1605   128.1886     8.5370     2.4921     0.0708     0.0896
  400.0000   -31.1391    10.7429     7.5548     8.1207   128.1224     8.5734     2.4889     0.0690     0.0922
  400.5000   -31.0829    10.6514     7.4898     8.0810   127.3548     8.6136     2.4857     0.0672     0.0949
  401.0000   -30.9946    10.6517     7.5316     8.0661   126.5654     8.6530     2.4828     0.0654     0.0970
  401.5000   -30.9062    10.6520     7.5729     8.0661   125.7786     8.6602     2.4840     0.0636     0.0970
  402.0000   -30.8194    10.6510     7.6145     8.0661   124.9884     8.6669     2.4920     0.0637     0.0966
  402.5000   -30.7318    10.6510     7.6562     8.1119   124.2586     8.6738     2.4998     0.0667     0.0838
  403.0000   -30.6442    10.6510     7.6983     8.1651   124.2781     8.6808     2.5077     0.0696     0.0783
  403.5000   -30.5565    10.8784     7.7405     8.2187   125.0272     8.6878     2.5146     0.0725     0.0772
  404.0000   -30.4702    11.2599     7.7830     8.2726   126.2895     8.6948     2.5121     0.0744     0.0788
  404.5000   -30.3819    11.2127     7.8257     8.3268   127.5496     8.7017     2.5096     0.0742     0.0811
  405.0000   -30.3552    11.1250     7.8687     8.3814   128.7874     8.7087     2.5072     0.0740     0.0833
  405.5000   -30.3568    11.0531     7.9119     8.4364   128.6887     8.7124     2.5048     0.0739     0.0855
  406.0000   -30.3571    11.5524     7.9553     8.4918   125.4942     8.7126     2.5023     0.0737     0.0879
  406.5000   -30.3567    11.7894     7.9989     8.5476   122.4000     8.7114     2.4999     0.0735     0.0887
  407.0000   -30.3570    11.2599     8.0428     8.6039   121.8846     8.6667     2.4974     0.0734     0.0896
  407.5000   -30.3570    11.5344     8.0870     8.6606   123.0962     8.6191     2.4949     0.0732     0.0904
  408.0000   -30.3571    11.7676     8.1314     8.7168   124.1588     8.5718     2.4959     0.0730     0.0905
  408.5000   -30.3573    11.9537     8.1760     8.7739   122.9556     8.5365     2.4982     0.0729     0.0880
  409.0000   -30.3573    12.1262     8.2170     8.8492   121.7373     8.5320     2.5004     0.0727     0.0856
  409.5000   -30.3576    11.8201     8.1770     8.7953   120.5363     8.5270     2.5027     0.0726     0.0831
  410.0000   -30.3571    11.5451     8.1405     8.7180   119.5770     8.5224     2.5049     0.0721     0.0824
  410.5000   -30.3575    11.2766     8.1041     8.6414   119.9916     8.5352     2.5072     0.0703     0.0847
  411.0000   -30.3591    11.0531     8.0678     8.5654   120.9101     8.5717     2.5086     0.0685     0.0836
  411.5000   -30.3318    11.3125     8.0317     8.4902   121.8236     8.6081     2.5036     0.0666     0.0810
  412.0000   -30.2373    11.6850     7.9958     8.3707   122.7484     8.6445     2.4978     0.0648     0.0821
  412.5000   -30.1449    11.5237     7.9600     8.4212   123.5953     8.6713     2.4921     0.0630     0.0923
  413.0000   -30.0507    11.0531     7.9180     8.5511   122.6580     8.6519     2.4904     0.0612     0.0888
  413.5000   -29.9569    11.2315     8.0057     8.6829   121.6632     8.6334     2.4926     0.0594     0.0852
  414.0000   -29.8633    11.9036     8.1141     8.8167   121.4886     8.6149     2.4949     0.0575     0.0862
  414.5000   -29.7694    11.7763     8.2240     8.9527   122.2753     8.5965     2.4971     0.0557     0.0899
  415.0000   -29.6757    11.5024     8.3352     9.0907   123.0955     8.5781     2.4994     0.0539     0.0882
  415.5000   -29.5820    11.0531     8.4480     9.2308   122.4562     8.5596     2.4994     0.0521     0.0870
  416.0000   -29.4883    11.3773     8.5624     9.3731   120.4019     8.5411     2.4952     0.0512     0.0887
  416.5000   -29.3946    13.0593     8.6784     9.5176   118.3612     8.5402     2.4925     0.0549     0.0904
  417.0000   -29.3008    12.1262     8.7960     9.6639   116.3168     8.5423     2.4936     0.0585     0.0882
  417.5000   -29.2071    12.4384     8.9151     9.8123   114.2335     8.5443     2.4987     0.0622     0.0851
  418.0000   -29.1134    12.7775     9.0358     9.9624   113.0964     8.5463     2.5036     0.0658     0.0821
  418.5000   -29.0197    13.1258     9.1581    10.1139   112.1880     8.5483     2.5086     0.0695     0.0790
  419.0000   -28.9260    13.4837     9.2821    10.2672   111.9029     8.5503     2.5135     0.0720     0.0760
  419.5000   -28.8323    14.0641     9.4078    10.4234   111.9830     8.5523     2.5168     0.0689     0.0785
  420.0000   -28.7386    13.8743     9.5301    10.5934   112.0548     8.5545     2.5129     0.0658     0.0810
  420.5000   -28.6449    13.5524     9.6553    11.2499   111.6272     8.5564     2.5092     0.0628     0.0824
  421.0000   -28.5512    13.8184     9.7772    12.5841   111.1487     8.5474     2.5074     0.0626     0.0813
  421.5000   -28.4575    14.4088     9.9007    12.4700   110.7659     8.4882     2.5071     0.0628     0.0802
  422.0000   -28.3638    15.0245    10.0258    12.3034   111.8622     8.4304     2.5069     0.0629     0.0810
  422.5000   -28.2701    15.7182    10.1524    12.1262   113.0556     8.3723     2.5067     0.0631     0.0835
  423.0000   -28.1763    15.4926    10.2807    12.2142   112.8215     8.3481     2.5067     0.0632     0.0860
  423.5000   -28.0825    15.1463    10.4105    12.3138   111.5908     8.3514     2.5002     0.0633     0.0884
  424.0000   -27.9889    15.4685    10.5420    12.4092   110.3719     8.3553     2.4930     0.0635     0.0914
  424.5000   -27.8949    16.3117    10.6752    12.5052   109.1443     8.3592     2.4857     0.0636     0.0944
  425.0000   -27.8011    16.0865    10.8100    12.6024   107.8784     8.3630     2.4785     0.0637     0.0975
  425.5000   -27.7084    15.7182    10.9466    12.7014   107.4558     8.3668     2.4767     0.0639     0.1005
  426.0000   -27.6122    16.1756    11.0405    12.8184   107.0743     8.3707     2.4789     0.0640     0.0994
  426.5000   -27.5764    16.6168    10.9855    12.7688   106.6821     8.3745     2.4816     0.0642     0.0976
  427.0000   -27.5793    15.9742    10.9308    12.7098   106.2736     8.3784     2.4844     0.0643     0.0957
  427.5000   -27.5793    15.4296    10.8764    12.6513   105.1571     8.3822     2.4860     0.0646     0.0939
  428.0000   -27.5788    15.4950    10.8222    12.5869   104.6610     8.3861     2.4813     0.0597     0.0962
