~VERSION INFORMATION
 VERS.                2.0:   CWLS LOG ASCII STANDARD - VERSION 2.0
 WRAP.                 NO:   ONE LINE PER DEPTH STEP
~WELL INFORMATION
#MNEM.UNIT      DATA TYPE    INFORMATION
#----------   ------------   ------------------------------
 STRT.F          217.0000:   START DEPTH
 STOP.F         3170.0000:   STOP DEPTH
 STEP.F            0.5000:   STEP LENGTH
 NULL.          -999.2500:   NO VALUE
 COMP. FENIX & SCISSON INC:   COMPANY
 WELL.    51 TX 33 #51-33:   WELL
 FLD .             TEAPOT:   FIELD
 LOC .      S33 T39N R78W:   LOCATION
 CNTY.            NATRONA:   COUNTY
 STAT.            WYOMING:   STATE
 CTRY. UNITED STATES OF AMERICA:   COUNTRY
 SRVC.            Unknown:   SERVICE COMPANY
 DATE.        02-APR-1978:   LOGDATE
 API .       490251068600:   API NUMBER
~CURVE INFORMATION
#MNEM.UNIT       API CODE    CURVE DESCRIPTION
#----------   ------------   ------------------------------
 DEPT.F                  :   
 TGAS.UNITS  91 830 01 00:   TOTAL GAS FROM HOTWIRE
 ROP .MIN/FT 91 810 01 00:   RATE OF DRILLING PENETRATION
~PARAMETER INFORMATION
#MNEM.UNIT          VALUE    DESCRIPTION
#----------   ------------   ------------------------------
 DATE.         2-APR-1978:   RUN DATE
 RUN .                  1:   RUN NUMBER
 BLI .F              3150:   BOTTOM LOG INTERVAL
 TLI .F               250:   TOP LOG INTERVAL
 DFT .       CHEMICAL GEL:   DRILLING FLUID TYPE
 ENGI.            R. CABS:   RECORDING ENGINEER
 CLNT.            A2DTECH:   CLIENT CODE
 ORIG.           5" PRINT:   ORIGIN OF DATA
 UWI .       490251068600:   UNIQUE WELL ID
 DICO. A2D Technologies, Inc.:   DIGITIZING COMPANY
~OTHER INFORMATION
~A   DEPT       TGAS      ROP   
  217.0000     1.0400  -999.2500
  217.5000     1.0348  -999.2500
  218.0000     1.0296  -999.2500
  218.5000     1.0243  -999.2500
  219.0000     1.0191  -999.2500
  219.5000     1.0139  -999.2500
  220.0000     1.0087  -999.2500
  220.5000     1.0035  -999.2500
  221.0000     0.9983  -999.2500
  221.5000     0.9930  -999.2500
  222.0000     0.9878  -999.2500
  222.5000     0.9826  -999.2500
  223.0000     0.9774  -999.2500
  223.5000     0.9722  -999.2500
  224.0000     0.9670  -999.2500
  224.5000     0.9617  -999.2500
  225.0000     0.9565  -999.2500
  225.5000     0.9513  -999.2500
  226.0000     0.9461  -999.2500
  226.5000     0.9409  -999.2500
  227.0000     0.9357  -999.2500
  227.5000     0.9304  -999.2500
  228.0000     0.9252  -999.2500
  228.5000     0.9200  -999.2500
  229.0000     0.9148  -999.2500
  229.5000     0.9096  -999.2500
  230.0000     0.9043  -999.2500
  230.5000     0.8991  -999.2500
  231.0000     0.8939  -999.2500
  231.5000     0.8887  -999.2500
  232.0000     0.8835  -999.2500
  232.5000     0.8783  -999.2500
  233.0000     0.8730  -999.2500
  233.5000     0.8678  -999.2500
  234.0000     0.8626  -999.2500
  234.5000     0.8574  -999.2500
  235.0000     0.8522  -999.2500
  235.5000     0.8470  -999.2500
  236.0000     0.8417  -999.2500
  236.5000     0.8365  -999.2500
  237.0000     0.8313  -999.2500
  237.5000     0.8261  -999.2500
  238.0000     0.8209  -999.2500
  238.5000     0.8157  -999.2500
  239.0000     0.8104  -999.2500
  239.5000     0.8052  -999.2500
  240.0000     0.8000  -999.2500
  240.5000     0.7948  -999.2500
  241.0000     0.7896  -999.2500
  241.5000     0.7843  -999.2500
  242.0000     0.7791  -999.2500
  242.5000     0.7739  -999.2500
  243.0000     0.7687  -999.2500
  243.5000     0.7635  -999.2500
  244.0000     0.7583  -999.2500
  244.5000     0.9278  -999.2500
  245.0000     1.0098  -999.2500
  245.5000     1.0514  -999.2500
  246.0000     1.0861  -999.2500
  246.5000     1.0854  -999.2500
  247.0000     1.0848  -999.2500
  247.5000     1.0842  -999.2500
  248.0000     1.0836  -999.2500
  248.5000     1.0830  -999.2500
  249.0000     1.0824  -999.2500
  249.5000     1.0818  -999.2500
  250.0000     1.0812  -999.2500
  250.5000     1.0806  -999.2500
  251.0000     1.0800  -999.2500
  251.5000     1.0794  -999.2500
  252.0000     1.0788  -999.2500
  252.5000     1.0782  -999.2500
  253.0000     1.0776  -999.2500
  253.5000     1.0770  -999.2500
  254.0000     1.0764     2.3916
  254.5000     1.0758     2.3903
  255.0000     1.0752     2.3890
  255.5000     1.0746     2.3602
  256.0000     1.0740  -999.2500
  256.5000     1.0734  -999.2500
  257.0000     1.0728  -999.2500
  257.5000     1.0722  -999.2500
  258.0000     1.0716  -999.2500
  258.5000     1.0710  -999.2500
  259.0000     1.0704  -999.2500
  259.5000     1.0698  -999.2500
  260.0000     1.0692  -999.2500
  260.5000     1.0686  -999.2500
  261.0000     1.0680  -999.2500
  261.5000     1.0674  -999.2500
  262.0000     1.0668  -999.2500
  262.5000     1.0662  -999.2500
  263.0000     1.0655  -999.2500
  263.5000     1.0649  -999.2500
  264.0000     1.0643  -999.2500
  264.5000     1.0637  -999.2500
  265.0000     0.9049  -999.2500
  265.5000     0.6181  -999.2500
  266.0000     0.5895  -999.2500
  266.5000     0.5609  -999.2500
  267.0000     0.5323  -999.2500
  267.5000     0.5162  -999.2500
  268.0000     0.5190     2.1458
  268.5000     0.5218     2.2814
  269.0000     0.5245     2.2801
  269.5000     0.5273     2.2789
  270.0000     0.5300     2.1589
  270.5000     0.5328  -999.2500
  271.0000     0.5356  -999.2500
  271.5000     0.5383  -999.2500
  272.0000     0.5411  -999.2500
  272.5000     0.5438  -999.2500
  273.0000     0.5466  -999.2500
  273.5000     0.5494  -999.2500
  274.0000     0.5521  -999.2500
  274.5000     0.5549  -999.2500
  275.0000     0.5576  -999.2500
  275.5000     0.5604  -999.2500
  276.0000     0.5632  -999.2500
  276.5000     0.5659  -999.2500
  277.0000     0.5687  -999.2500
  277.5000     0.5714  -999.2500
  278.0000     0.5742  -999.2500
  278.5000     0.5770  -999.2500
  279.0000     0.5797  -999.2500
  279.5000     0.5825  -999.2500
  280.0000     0.5852  -999.2500
  280.5000     0.5880  -999.2500
  281.0000     0.5908  -999.2500
  281.5000     0.5935  -999.2500
  282.0000     0.5963  -999.2500
  282.5000     0.5990  -999.2500
  283.0000     0.6018  -999.2500
  283.5000     0.6046  -999.2500
  284.0000     0.6073  -999.2500
  284.5000     0.6101  -999.2500
  285.0000     0.6128  -999.2500
  285.5000     0.6156  -999.2500
  286.0000     0.6184  -999.2500
  286.5000     0.6211  -999.2500
  287.0000     0.6239  -999.2500
  287.5000     0.6266  -999.2500
  288.0000     0.6294  -999.2500
  288.5000     0.6322  -999.2500
  289.0000     0.6349  -999.2500
  289.5000     0.6377  -999.2500
  290.0000     0.6404  -999.2500
  290.5000     0.6432  -999.2500
  291.0000     0.6460  -999.2500
  291.5000     0.6487  -999.2500
  292.0000     0.6515  -999.2500
  292.5000     0.6542  -999.2500
  293.0000     0.6570  -999.2500
  293.5000     0.6598  -999.2500
  294.0000     0.6625  -999.2500
  294.5000     0.6653  -999.2500
  295.0000     0.6680  -999.2500
  295.5000     0.6708  -999.2500
  296.0000     0.6736  -999.2500
  296.5000     0.6763  -999.2500
  297.0000     0.6791  -999.2500
  297.5000     0.6819  -999.2500
  298.0000     0.6846  -999.2500
  298.5000     0.6874  -999.2500
  299.0000     0.6901  -999.2500
  299.5000     0.6929  -999.2500
  300.0000     0.6957  -999.2500
  300.5000     0.6957  -999.2500
  301.0000     0.6957  -999.2500
  301.5000     0.6957  -999.2500
  302.0000     0.6957  -999.2500
  302.5000     0.6957  -999.2500
  303.0000     0.6957  -999.2500
  303.5000     0.6957  -999.2500
  304.0000     0.6957  -999.2500
  304.5000     0.6957  -999.2500
  305.0000     0.6957  -999.2500
  305.5000     0.6957  -999.2500
  306.0000     0.6957  -999.2500
  306.5000     0.6957  -999.2500
  307.0000     0.6957  -999.2500
  307.5000     0.6957  -999.2500
  308.0000     0.6957  -999.2500
  308.5000     0.6957  -999.2500
  309.0000     0.6958  -999.2500
  309.5000     0.6958  -999.2500
  310.0000     0.6958  -999.2500
  310.5000     0.6958  -999.2500
  311.0000     0.6958  -999.2500
  311.5000     0.6958  -999.2500
  312.0000     0.6958  -999.2500
  312.5000     0.6958  -999.2500
  313.0000     0.6958  -999.2500
  313.5000     0.6958  -999.2500
  314.0000     0.6958  -999.2500
  314.5000     0.6958  -999.2500
  315.0000     0.6958  -999.2500
  315.5000     0.6958  -999.2500
  316.0000     0.6958  -999.2500
  316.5000     0.6958  -999.2500
  317.0000     0.6958  -999.2500
  317.5000     0.6958  -999.2500
  318.0000     0.6959  -999.2500
  318.5000     0.6959  -999.2500
  319.0000     0.6959  -999.2500
  319.5000     0.6959  -999.2500
  320.0000     0.6959  -999.2500
  320.5000     0.6959  -999.2500
  321.0000     0.6959  -999.2500
  321.5000     0.6959  -999.2500
  322.0000     0.6959  -999.2500
  322.5000     0.6959  -999.2500
  323.0000     0.6959  -999.2500
  323.5000     0.6959  -999.2500
  324.0000     0.6959  -999.2500
  324.5000     0.6959  -999.2500
  325.0000     0.6959  -999.2500
  325.5000     0.6959  -999.2500
  326.0000     0.6959  -999.2500
  326.5000     0.6959  -999.2500
  327.0000     0.6960  -999.2500
  327.5000     0.6960  -999.2500
  328.0000     0.6960  -999.2500
  328.5000     0.6960  -999.2500
  329.0000     0.6960  -999.2500
  329.5000     0.6960  -999.2500
  330.0000     0.6960  -999.2500
  330.5000     0.6960  -999.2500
  331.0000     0.6960  -999.2500
  331.5000     0.6960  -999.2500
  332.0000     0.6960  -999.2500
  332.5000     0.6960  -999.2500
  333.0000     0.6960  -999.2500
  333.5000     0.6960  -999.2500
  334.0000     0.6960  -999.2500
  334.5000     0.6960  -999.2500
  335.0000     0.6960  -999.2500
  335.5000     0.6961  -999.2500
  336.0000     0.6961  -999.2500
  336.5000     0.6961  -999.2500
  337.0000     0.6961  -999.2500
  337.5000     0.6961  -999.2500
  338.0000     0.6961  -999.2500
