~VERSION INFORMATION
 VERS.                2.0:   CWLS LOG ASCII STANDARD - VERSION 2.0
 WRAP.                 NO:   ONE LINE PER DEPTH STEP
~WELL INFORMATION
#MNEM.UNIT      DATA TYPE    INFORMATION
#----------   ------------   ------------------------------
 STRT.F            4.0000:   START DEPTH
 STOP.F         1997.5000:   STOP DEPTH
 STEP.F            0.5000:   STEP LENGTH
 NULL.          -999.2500:   NO VALUE
 COMP. LAWRENCE/ALLISON INC:   COMPANY
 WELL. NPR 3 66 SX #32-11:   WELL
 FLD .             TEAPOT:   FIELD
 LOC .      S11 T38N R78W:   LOCATION
 CNTY.            NATRONA:   COUNTY
 STAT.            WYOMING:   STATE
 CTRY. UNITED STATES OF AMERICA:   COUNTRY
 SRVC.      NL McCullough:   SERVICE COMPANY
 DATE.        16-SEP-1988:   LOGDATE
 API .       490251108600:   API NUMBER
~CURVE INFORMATION
#MNEM.UNIT       API CODE    CURVE DESCRIPTION
#----------   ------------   ------------------------------
 DEPT.F                  :   
 ROP .MIN/FT 91 810 01 00:   RATE OF DRILLING PENETRATION
 GR  .GAPI   81 310 01 00:   GAMMA RAY FROM CEMENT BOND LOG
 TGAS.UNITS  91 830 01 00:   TOTAL GAS FROM HOTWIRE
~PARAMETER INFORMATION
#MNEM.UNIT          VALUE    DESCRIPTION
#----------   ------------   ------------------------------
 PD  .                 GL:   PERMANENT DATUM
 EPD .F              5170:   ELEVATION PERMANENT DATUM
 LMF .                 KB:   LOG MEASURED FROM
 DMF .                 KB:   DRILLING MEASURED FROM
 EKB .F              5170:   KELLING BUSHING
 EGL .F              5170:   GROUND LEVEL
 DATE.        16-SEP-1988:   RUN DATE
 RUN .                  1:   RUN NUMBER
 DD  .F               837:   DEPTH DRILLER
 DL  .F               737:   DEPTH LOGGER
 BLI .F               733:   BOTTOM LOG INTERVAL
 CS  .IN              5.5:   CASING SIZE
 CBD .F               836:   CASING BOTTOM DRILLER
 BSD .F               837:   BIT SIZE AT DEPTH
 DFT .              WATER:   DRILLING FLUID TYPE
 TCS .HRS             1.5:   TIME CURCULATED STOPPED
 ENGI.          BANGERTER:   RECORDING ENGINEER
 WITN.               LOWE:   WITNESSED BY
 CLNT.            A2DTECH:   CLIENT CODE
 ORIG.           5" PRINT:   ORIGIN OF DATA
 UWI .       490251108600:   UNIQUE WELL ID
 DICO. A2D Technologies, Inc.:   DIGITIZING COMPANY
~OTHER INFORMATION
~A    DEPT     ROP          GR      TGAS   
# ...
 1096.0000     0.2841  -999.2500     9.2488
 1096.5000     0.2840  -999.2500     9.2592
 1097.0000     0.2839  -999.2500     9.2696
 1097.5000     0.2838  -999.2500     9.2800
 1098.0000     0.2837  -999.2500     9.2903
 1098.5000     0.2836  -999.2500     9.3007
 1099.0000     0.2835  -999.2500     9.3111
 1099.5000     0.2834  -999.2500     9.3214
 1100.0000     0.2833  -999.2500     9.3318
 1100.5000     0.2835  -999.2500     9.3524
 1101.0000     0.2838  -999.2500     9.3731
 1101.5000     0.2841  -999.2500     9.3938
 1102.0000     0.2844  -999.2500     9.4144
 1102.5000     0.2848  -999.2500     9.4351
 1103.0000     0.2851  -999.2500     9.4557
 1103.5000     0.2854  -999.2500     9.4764
 1104.0000     0.2857  -999.2500     9.4970
 1104.5000     0.2860  -999.2500     9.5177
 1105.0000     0.2863  -999.2500     9.5383
 1105.5000     0.2866  -999.2500     9.5590
 1106.0000     0.2869  -999.2500     9.5796
 1106.5000     0.2872  -999.2500     9.6003
 1107.0000     0.2875  -999.2500     9.6209
 1107.5000     0.2878  -999.2500     9.6416
 1108.0000     0.2881  -999.2500     9.6622
 1108.5000     0.2884  -999.2500     9.6829
 1109.0000     0.2887  -999.2500     9.7035
 1109.5000     0.2890  -999.2500     9.7242
 1110.0000     0.2893  -999.2500     9.7449
 1110.5000     0.2896  -999.2500     9.7655
 1111.0000     0.2899  -999.2500     9.7862
 1111.5000     0.2902  -999.2500     9.8068
 1112.0000     0.2905  -999.2500     9.8275
 1112.5000     0.2908  -999.2500     9.8481
 1113.0000     0.2912  -999.2500     9.8688
 1113.5000     0.2915  -999.2500     9.8894
 1114.0000     0.2918  -999.2500     9.9101
 1114.5000     0.2921  -999.2500     9.9307
 1115.0000     0.2924  -999.2500     9.9514
 1115.5000     0.2927  -999.2500     9.9720
 1116.0000     0.2930  -999.2500     9.9927
 1116.5000     0.2933  -999.2500    10.0133
 1117.0000     0.2936  -999.2500    10.0340
 1117.5000     0.2939  -999.2500    10.0547
 1118.0000     0.2942  -999.2500    10.0753
 1118.5000     0.2945  -999.2500    10.0960
 1119.0000     0.2948  -999.2500    10.1166
 1119.5000     0.2951  -999.2500    10.1373
 1120.0000     0.2954  -999.2500    10.1579
 1120.5000     0.2957  -999.2500    10.1786
 1121.0000     0.2960  -999.2500    10.1992
 1121.5000     0.2963  -999.2500    10.2199
 1122.0000     0.2966  -999.2500    10.2405
 1122.5000     0.2969  -999.2500    10.2612
 1123.0000     0.2972  -999.2500    10.2818
 1123.5000     0.2975  -999.2500    10.3025
 1124.0000     0.2979  -999.2500    10.3231
 1124.5000     0.2982  -999.2500    10.3438
 1125.0000     0.2985  -999.2500    10.3644
 1125.5000     0.2988  -999.2500    10.3851
 1126.0000     0.2991  -999.2500    10.4058
 1126.5000     0.2994  -999.2500    10.4264
 1127.0000     0.2997  -999.2500    10.4471
 1127.5000     0.3000  -999.2500    10.4677
 1128.0000     0.3003  -999.2500    10.4884
 1128.5000     0.3006  -999.2500    10.5090
 1129.0000     0.3009  -999.2500    10.5297
 1129.5000     0.3012  -999.2500    10.5503
 1130.0000     0.3015  -999.2500    10.5710
 1130.5000     0.3018  -999.2500    10.5916
 1131.0000     0.3021  -999.2500    10.6123
 1131.5000     0.3024  -999.2500    10.6329
 1132.0000     0.3027  -999.2500    10.6536
 1132.5000     0.3030  -999.2500    10.6742
 1133.0000     0.3033  -999.2500    10.6949
 1133.5000     0.3036  -999.2500    10.7156
 1134.0000     0.3039  -999.2500    10.7362
 1134.5000     0.3042  -999.2500    10.7569
 1135.0000     0.3046  -999.2500    10.7775
 1135.5000     0.3049  -999.2500    10.7982
 1136.0000     0.3052  -999.2500    10.8188
 1136.5000     0.3055  -999.2500    10.8395
 1137.0000     0.3058  -999.2500    10.8601
 1137.5000     0.3061  -999.2500    10.8808
 1138.0000     0.3064  -999.2500    10.9014
 1138.5000     0.3067  -999.2500    10.9221
 1139.0000     0.3070  -999.2500    10.9427
 1139.5000     0.3073  -999.2500    10.9634
 1140.0000     0.3076  -999.2500    10.9840
 1140.5000     0.3079  -999.2500    11.0047
 1141.0000     0.3082  -999.2500    11.0253
 1141.5000     0.3085  -999.2500    11.0460
 1142.0000     0.3088  -999.2500    11.0667
 1142.5000     0.3091  -999.2500    11.0873
 1143.0000     0.3094  -999.2500    11.1080
 1143.5000     0.3097  -999.2500    11.1286
 1144.0000     0.3100  -999.2500    11.1493
 1144.5000     0.3103  -999.2500    11.1699
 1145.0000     0.3106  -999.2500    11.1906
 1145.5000     0.3109  -999.2500    11.2112
 1146.0000     0.3113  -999.2500    11.2319
 1146.5000     0.3116  -999.2500    11.2525
 1147.0000     0.3119  -999.2500    11.2732
 1147.5000     0.3122  -999.2500    11.2938
 1148.0000     0.3125  -999.2500    11.3145
 1148.5000     0.3128  -999.2500    11.3351
 1149.0000     0.3131  -999.2500    11.3558
 1149.5000     0.3134  -999.2500    11.3765
 1150.0000     0.3137  -999.2500    11.4005
 1150.5000     0.3135  -999.2500    11.4005
 1151.0000     0.3133  -999.2500    11.4006
 1151.5000     0.3131  -999.2500    11.4006
 1152.0000     0.3129  -999.2500    11.4007
 1152.5000     0.3127  -999.2500    11.4007
 1153.0000     0.3125  -999.2500    11.4008
 1153.5000     0.3123  -999.2500    11.4008
 1154.0000     0.3121  -999.2500    11.4009
 1154.5000     0.3119  -999.2500    11.4009
 1155.0000     0.3117  -999.2500    11.4010
 1155.5000     0.3115  -999.2500    11.4010
 1156.0000     0.3113  -999.2500    11.4011
 1156.5000     0.3111  -999.2500    11.4011
 1157.0000     0.3109  -999.2500    11.4012
 1157.5000     0.3107  -999.2500    11.4012
 1158.0000     0.3105  -999.2500    11.4013
 1158.5000     0.3103  -999.2500    11.4013
 1159.0000     0.3101  -999.2500    11.4014
 1159.5000     0.3099  -999.2500    11.4014
 1160.0000     0.3097  -999.2500    11.4015
 1160.5000     0.3095  -999.2500    11.4015
 1161.0000     0.3093  -999.2500    11.4016
 1161.5000     0.3091  -999.2500    11.4016
 1162.0000     0.3089  -999.2500    11.4017
 1162.5000     0.3087  -999.2500    11.4017
 1163.0000     0.3085  -999.2500    11.4018
 1163.5000     0.3083  -999.2500    11.4018
 1164.0000     0.3081  -999.2500    11.4019
 1164.5000     0.3079  -999.2500    11.4019
 1165.0000     0.3077  -999.2500    11.4020
 1165.5000     0.3075  -999.2500    11.4020
 1166.0000     0.3073  -999.2500    11.4021
 1166.5000     0.3071  -999.2500    11.4021
 1167.0000     0.3069  -999.2500    11.4022
 1167.5000     0.3067  -999.2500    11.4022
 1168.0000     0.3065  -999.2500    11.4023
 1168.5000     0.3063  -999.2500    11.4023
 1169.0000     0.3061  -999.2500    11.4024
 1169.5000     0.3059  -999.2500    11.4024
 1170.0000     0.3057  -999.2500    11.4025
 1170.5000     0.3054  -999.2500    11.4025
 1171.0000     0.3052  -999.2500    11.4026
 1171.5000     0.3050  -999.2500    11.4026
 1172.0000     0.3048  -999.2500    11.4027
 1172.5000     0.3046  -999.2500    11.4027
 1173.0000     0.3044  -999.2500    11.4028
 1173.5000     0.3042  -999.2500    11.4028
 1174.0000     0.3040  -999.2500    11.4029
 1174.5000     0.3038  -999.2500    11.4029
 1175.0000     0.3036  -999.2500    11.4030
 1175.5000     0.3034  -999.2500    11.4030
 1176.0000     0.3032  -999.2500    11.4031
 1176.5000     0.3030  -999.2500    11.4031
 1177.0000     0.3028  -999.2500    11.4032
 1177.5000     0.3026  -999.2500    11.4032
 1178.0000     0.3024  -999.2500    11.4033
 1178.5000     0.3022  -999.2500    11.4033
 1179.0000     0.3020  -999.2500    11.4034
 1179.5000     0.3018  -999.2500    11.4035
 1180.0000     0.3016  -999.2500    11.4035
 1180.5000     0.3014  -999.2500    11.4036
 1181.0000     0.3012  -999.2500    11.4036
 1181.5000     0.3010  -999.2500    11.4037
 1182.0000     0.3008  -999.2500    11.4037
 1182.5000     0.3006  -999.2500    11.4038
 1183.0000     0.3004  -999.2500    11.4038
 1183.5000     0.3002  -999.2500    11.4039
 1184.0000     0.3000  -999.2500    11.4039
 1184.5000     0.2998  -999.2500    11.4040
 1185.0000     0.2996  -999.2500    11.4040
 1185.5000     0.2994  -999.2500    11.4041
 1186.0000     0.2992  -999.2500    11.4041
 1186.5000     0.2990  -999.2500    11.4042
