~VERSION INFORMATION
 VERS.                2.0:   CWLS LOG ASCII STANDARD - VERSION 2.0
 WRAP.                 NO:   ONE LINE PER DEPTH STEP
~WELL INFORMATION
#MNEM.UNIT      DATA TYPE    INFORMATION
#----------   ------------   ------------------------------
 STRT.F            0.0000:   START DEPTH
 STOP.F         1340.0000:   STOP DEPTH
 STEP.F            0.5000:   STEP LENGTH
 NULL.          -999.2500:   NO VALUE
 COMP. U S NAVY-INTEX OIL:   COMPANY
 WELL. NAVAL PETROLEUM RESERVE 3 S #81-14:   WELL
 FLD .             TEAPOT:   FIELD
 LOC .      S14 T38N R78W:   LOCATION
 CNTY.            NATRONA:   COUNTY
 STAT.            WYOMING:   STATE
 CTRY. UNITED STATES OF AMERICA:   COUNTRY
 SRVC.       Schlumberger:   SERVICE COMPANY
 DATE.        20-AUG-1966:   LOGDATE
 API .       490250971600:   API NUMBER
~CURVE INFORMATION
#MNEM.UNIT       API CODE    CURVE DESCRIPTION
#----------   ------------   ------------------------------
 DEPT.F                  :   
 SPR .MV     07 010 01 00:   SPONTANEOUS POTENTIAL
 CILD.MMHO   07 110 46 00:   CONDUCTIVITY INDUCTION LOG DEEP
 ILD .OHMM   07 120 46 00:   INDUCTION LOG DEEP
 ASN .OHMM   01 041 16 00:   AMPLIFIED SHORT NORMAL 16"
 CALD.IN     45 280 60 00:   CALIPER
 RHOB.G/C3   45 350 01 00:   BULK DENSITY
 DPHI.DEC    45 890 12 00:   DENSITY POROSITY SANDSTONE
 GRD .GAPI   45 310 01 00:   GAMMA RAY FROM DENSITY LOG
 CORR.G/C3   45 356 01 00:   DENSITY CORRECTION
~PARAMETER INFORMATION
#MNEM.UNIT          VALUE    DESCRIPTION
#----------   ------------   ------------------------------
 PD  .                 GL:   PERMANENT DATUM
 EPD .F              5283:   ELEVATION PERMANENT DATUM
 LMF .                 KB:   LOG MEASURED FROM
 DAPD.F                 5:   FEET ABOVE PERMANENT DATUM
 DMF .                 KB:   DRILLING MEASURED FROM
 EKB .F              5288:   KELLING BUSHING
 EGL .F              5283:   GROUND LEVEL
 DATE.            8-20-66:   RUN DATE
 RUN .                  1:   RUN NUMBER
 DD  .F              1340:   DEPTH DRILLER
 DL  .F              1337:   DEPTH LOGGER
 BLI .F              1336:   BOTTOM LOG INTERVAL
 TLI .F                17:   TOP LOG INTERVAL
 CS  .IN            8.625:   CASING SIZE
 CBD .F                15:   CASING BOTTOM DRILLER
 CBL .F                17:   CASING BOTTOM LOGGER
 BS  .IN            7.875:   BIT SIZE
 BSD .F              1340:   BIT SIZE AT DEPTH
 DFT .           GEL-CHEM:   DRILLING FLUID TYPE
 DFD .                9.8:   DRILLING FLUID DENSITY
 DFV .                 70:   DRILLING FLUID VISCOSITY
 DFL .                  8:   DRILLING FLUID LOSS
 MSS .          FLOW LINE:   MUD SAMPLE SOURCE
 RMS .OHMM           1.26:   RESISTIVITY MUD SAMPLE
 MST .F                71:   MUD SAMPLE TEMPERATURE
 RMF .OHMM            .71:   RESISTIVITY MUD FILTRATE SAMPLE
 MFST.F                71:   MUD FILTRATE SAMPLE TEMPERATURE
 MFSS.                  M:   MUD FILTRATE SAMPLE SOURCE
 RMB .OHMM           1.04:   RESISTIVITY MUD AT BHT
 BHT .F                86:   BOTTOM HOLE TEMPERATURE
 TCS .HRS               2:   TIME CURCULATED STOPPED
 MRT .F                86:   MAXIMUM RECORDED TEMPERATURE
 LUN .               3527:   LOGGING UNIT NUMBER
 LUL .               CSPR:   LOGGING UNIT LOCATION
 ENGI.          TOLLEFSON:   RECORDING ENGINEER
 WITN.                MAY:   WITNESSED BY
 CLNT.            A2DTECH:   CLIENT CODE
 ORIG.        2" 5" PRINT:   ORIGIN OF DATA
 UWI .       490250971600:   UNIQUE WELL ID
 DICO. A2D Technologies, Inc.:   DIGITIZING COMPANY
~OTHER INFORMATION
~A    DEPT     SPR       CILD        ILD        ASN         CALD     RHOB       DPHI          GRD     CORR   
# ...
 1241.0000   -50.5994    94.0337     9.9976    11.9360     7.9827     2.4500     0.1256    85.5314     0.0757
 1241.5000   -50.6015    95.5979     9.8131    11.7834     7.9942     2.4587     0.1236    85.8835     0.0729
 1242.0000   -50.5990    97.1622     9.7399    11.6299     8.0097     2.4547     0.1255    85.0901     0.0654
 1242.5000   -50.4554    98.7265     9.6640    11.4830     8.0250     2.4415     0.1286    84.6814     0.0739
 1243.0000   -50.1057   100.2907     9.5878    11.3222     8.0402     2.4583     0.1301    84.4209     0.0903
 1243.5000   -49.7569   101.8550     9.5111    11.3284     8.0555     2.4802     0.1202    83.7848     0.0847
 1244.0000   -49.5396   102.1414     9.4343    11.3269     8.0707     2.4883     0.1071    81.3708     0.0700
 1244.5000   -49.4237   101.8477     9.4305    11.3033     8.0861     2.4860     0.1128    79.4368     0.0753
 1245.0000   -49.3108   101.5540     9.4311    11.2775     8.1016     2.4887     0.1117    78.7886     0.0830
 1245.5000   -49.1980   101.2603     9.4311    11.2517     8.1028     2.5019     0.1038    78.0842     0.0955
 1246.0000   -49.0848   100.9666     9.4311    11.2261     8.1167     2.5041     0.1071    78.7146     0.0821
 1246.5000   -48.9715   100.6729     9.4311    11.2002     8.1224     2.4829     0.1126    80.0660     0.0940
 1247.0000   -48.8577   100.3792     9.4312    11.1737     8.1225     2.4681     0.1182    81.3029     0.1154
 1247.5000   -48.8041   100.8847     9.4315    11.1510     8.1226     2.4532     0.1237    81.4914     0.1086
 1248.0000   -48.9572   101.6885     9.4297    11.2029     8.1081     2.4383     0.1329    81.8912     0.1013
 1248.5000   -49.1080   102.4923     9.3685    11.2299     8.0810     2.4234     0.1441    82.8987     0.0927
 1249.0000   -49.2582   103.2961     9.3037    11.2395     8.0537     2.4146     0.1381    83.6001     0.0860
 1249.5000   -49.3967   104.0999     9.2394    11.2984     8.0264     2.4123     0.1480    83.8460     0.0712
 1250.0000   -49.3996   104.9037     9.2308    11.3559     8.0022     2.4283     0.1387    84.0979     0.0465
 1250.5000   -49.3992   105.2894     9.2575    11.4131     8.0086     2.4424     0.1243    84.1759     0.0330
 1251.0000   -49.3990   105.2894     9.2926    11.4681     8.0294     2.4144     0.1199    84.1053     0.0342
 1251.5000   -49.3767   101.8763     9.3447    11.5389     8.0471     2.4137     0.1284    84.0382     0.0449
 1252.0000   -49.2542    99.3014     9.6222    11.9556     8.0622     2.4495     0.1057    83.9383     0.0527
 1252.5000   -49.1340    95.2395    10.0600    12.3290     8.0492     2.4859     0.0926    83.0364     0.0421
 1253.0000   -49.0140    91.4265    10.4921    12.8533     8.0423     2.5182     0.0845    81.8233     0.0530
 1253.5000   -48.8960    87.6134    10.9257    13.4779     8.0511     2.5479     0.0669    78.8525     0.0783
 1254.0000   -48.7854    83.8004    11.3601    14.2856     8.0660     2.5775     0.0466    74.7807     0.0969
 1254.5000   -48.4517    79.9469    11.7948    15.2022     8.0811     2.6047     0.0280    71.0689     0.0836
 1255.0000   -48.1029    77.3526    12.1144    16.1172     8.0961     2.6114     0.0216    68.2701     0.0688
 1255.5000   -47.7556    77.3847    12.0104    16.7274     8.1111     2.6044     0.0299    67.4158     0.0499
 1256.0000   -47.4115    79.2683    11.5276    16.5856     8.1228     2.5934     0.0371    69.0707     0.0537
 1256.5000   -47.1678    82.4994    11.0633    15.5378     8.1202     2.5800     0.0419    70.7649     0.0635
 1257.0000   -47.1049    87.4787    10.6131    14.4731     8.1102     2.5542     0.0531    72.6626     0.0726
 1257.5000   -47.0396    92.4356    10.1641    13.4141     8.1025     2.5296     0.0733    74.8695     0.0772
 1258.0000   -46.9931    97.3988     9.7192    12.6000     8.0701     2.5050     0.0878    77.8086     0.0729
 1258.5000   -46.9939   102.2954     9.3865    12.1028     8.0182     2.4806     0.0998    80.7510     0.0703
 1259.0000   -46.9939   106.2646     9.1515    11.7235     7.9654     2.4651     0.1117    83.7647     0.0658
 1259.5000   -46.9944   108.2834     8.9558    11.5121     7.9409     2.4597     0.1130    86.2152     0.0527
 1260.0000   -47.0202   108.2834     8.9111    11.2932     7.9366     2.4729     0.1050    88.1514     0.0393
 1260.5000   -47.0798   108.2834     8.8872    11.0764     7.9329     2.4908     0.0982    86.9060     0.0391
 1261.0000   -47.1391   108.2835     8.8617    10.9185     7.9292     2.5088     0.0838    85.9693     0.0401
 1261.5000   -47.1986   108.2840     8.8351    10.8933     7.9254     2.5139     0.0912    86.7167     0.0561
 1262.0000   -47.2581   108.2836     8.8615    10.8715     7.9216     2.4904     0.0934    87.4735     0.0866
 1262.5000   -47.3176   108.2154     8.9035    10.8500     7.9151     2.4788     0.1058    87.2932     0.0841
 1263.0000   -47.3776   107.7427     8.9460    10.8291     7.9085     2.4860     0.0946    86.6716     0.0644
 1263.5000   -47.3835   107.2700     8.9885    10.8294     7.9019     2.4777     0.0992    85.7455     0.0631
 1264.0000   -47.3461   106.7973     9.0310    10.7859     7.9022     2.4695     0.1061    84.8160     0.0640
 1264.5000   -47.3089   106.3246     9.0734    10.7351     7.9033     2.4626     0.1118    84.6634     0.0637
 1265.0000   -47.2717   105.8519     9.1159    10.6842     7.9044     2.4636     0.1114    84.9001     0.0523
 1265.5000   -47.2343   105.3792     9.1584    10.6335     7.9055     2.4801     0.0947    84.1523     0.0481
 1266.0000   -47.1964   104.9065     9.2007    10.5828     7.9067     2.5128     0.0800    83.3693     0.0550
 1266.5000   -47.1931   104.4339     9.2322    10.5321     7.9078     2.5346     0.0710    84.5755     0.0697
 1267.0000   -47.1384   104.2914     9.2316    10.4797     7.9089     2.5310     0.0738    86.3824     0.0825
 1267.5000   -47.0793   104.2914     9.2316    10.4365     7.9100     2.5047     0.0855    86.1275     0.0975
 1268.0000   -47.0204   104.2914     9.2315    10.3229     7.9111     2.4826     0.1010    85.4220     0.1044
 1268.5000   -46.9615   104.2914     9.2316    10.3262     7.9122     2.5063     0.0894    85.8588     0.0829
 1269.0000   -46.9026   104.2914     9.2315    10.4777     7.9133     2.5418     0.0688    86.3449     0.0588
 1269.5000   -46.8438   104.2914     9.2317    10.6527     7.9144     2.5227     0.0643    85.5439     0.0437
 1270.0000   -46.7849   104.2895     9.2111    10.8261     7.9155     2.4997     0.0934    84.4767     0.0603
 1270.5000   -46.7260   104.2939     9.1748    10.7015     7.9166     2.5125     0.0864    85.2334     0.0884
 1271.0000   -46.6672   104.7113     9.1383    10.5378     7.9177     2.5219     0.0755    84.5432     0.0798
 1271.5000   -46.6067   105.3828     9.1018    10.3696     7.9188     2.5294     0.0727    83.4604     0.0461
 1272.0000   -46.5719   106.0494     9.0653    10.4141     7.9199     2.5024     0.0815    84.3755     0.0565
 1272.5000   -46.5434   106.7161     9.0288    10.6745     7.9210     2.5191     0.0878    86.8164     0.0749
 1273.0000   -46.5150   107.3827     8.9923    10.8079     7.9212     2.4996     0.0911    90.2481     0.0791
 1273.5000   -46.4865   108.0493     8.9558    10.6944     7.9186     2.4752     0.1015    91.8907     0.0532
 1274.0000   -46.4580   108.7159     8.9193    10.5853     7.9160     2.4688     0.1078    89.1001     0.0351
 1274.5000   -46.4295   109.2511     8.8829    10.4745     7.9134     2.4758     0.1006    88.7975     0.0594
 1275.0000   -46.4010   109.0511     8.8459    10.4327     7.9108     2.4832     0.0966    89.3394     0.0446
 1275.5000   -46.3725   108.8511     8.8476    10.5353     7.9082     2.4924     0.0945    89.0011     0.0249
 1276.0000   -46.3440   108.6512     8.8713    10.6431     7.9056     2.5125     0.0882    89.0806     0.0336
 1276.5000   -46.3155   108.4512     8.8956    10.7503     7.9030     2.5285     0.0714    91.7608     0.0412
 1277.0000   -46.2870   108.2512     8.9198    10.8574     7.9004     2.5377     0.0693    94.3295     0.0496
