~VERSION INFORMATION
 VERS.                2.0:   CWLS LOG ASCII STANDARD - VERSION 2.0
 WRAP.                 NO:   ONE LINE PER DEPTH STEP
~WELL INFORMATION
#MNEM.UNIT      DATA TYPE    INFORMATION
#----------   ------------   ------------------------------
 STRT.F          520.5000:   START DEPTH
 STOP.F         2062.0000:   STOP DEPTH
 STEP.F            0.5000:   STEP LENGTH
 NULL.          -999.2500:   NO VALUE
 COMP. LAWRENCE-ALLISON &AS:   COMPANY
 WELL.     NPR 3 #18-X-28:   WELL
 FLD .             TEAPOT:   FIELD
 LOC .      S28 T39N R78W:   LOCATION
 CNTY.            NATRONA:   COUNTY
 STAT.            WYOMING:   STATE
 CTRY. UNITED STATES OF AMERICA:   COUNTRY
 SRVC.            Unknown:   SERVICE COMPANY
 DATE.        08-DEC-1987:   LOGDATE
 API .       490251119700:   API NUMBER
~CURVE INFORMATION
#MNEM.UNIT       API CODE    CURVE DESCRIPTION
#----------   ------------   ------------------------------
 DEPT.F                  :   
 ROP .MIN/FT 91 810 01 00:   RAT OF DRILLING PENETRATION
 TGAS.UNITS  91 830 01 00:   TOTAL GAS FROM HOTWIRE
~PARAMETER INFORMATION
#MNEM.UNIT          VALUE    DESCRIPTION
#----------   ------------   ------------------------------
 EKB .F              5090:   KELLING BUSHING
 EGL .F              5080:   GROUND LEVEL
 DATE.            12-8-87:   RUN DATE
 DD  .F              2062:   DEPTH DRILLER
 CS  .IN                7:   CASING SIZE
 CBD .F               513:   CASING BOTTOM DRILLER
 TCS .HRS            1000:   TIME CURCULATED STOPPED
 TLAB.HRS            0432:   TIME LOGGER AT BOTTOM
 ENGI.              TOWER:   RECORDING ENGINEER
 WITN.               HUSK:   WITNESSED BY
 CLNT.            A2DTECH:   CLIENT CODE
 ORIG.           5" PRINT:   ORIGIN OF DATA
 UWI .       490251119700:   UNIQUE WELL ID
 DICO. A2D Technologies, Inc.:   DIGITIZING COMPANY
~OTHER INFORMATION
~A   DEPT      ROP         TGAS 
# ...
 1614.0000     0.3581     0.0004
 1614.5000     0.3576     0.0004
 1615.0000     0.3571     0.0004
 1615.5000     0.3566     0.0004
 1616.0000     0.3561     0.0004
 1616.5000     0.3660     0.0004
 1617.0000     0.3653     0.0004
 1617.5000     0.3648     0.0004
 1618.0000     0.3643     0.0004
 1618.5000     0.3638     0.0004
 1619.0000     0.3530     0.0004
 1619.5000     0.3525     0.0004
 1620.0000     0.3519     0.0004
 1620.5000     0.3514     0.0004
 1621.0000     0.3509     0.0004
 1621.5000     0.3504     0.0004
 1622.0000     0.3498     0.0004
 1622.5000     0.3493     0.0004
 1623.0000     0.3488     0.0004
 1623.5000     0.3483     0.0004
 1624.0000     0.3583     0.0004
 1624.5000     0.3576     0.0004
 1625.0000     0.3571     0.0004
 1625.5000     0.3566     0.0004
 1626.0000     0.3561     0.0004
 1626.5000     0.3556     0.0004
 1627.0000     0.3551     0.0004
 1627.5000     0.3545     0.0004
 1628.0000     0.3540     0.0004
 1628.5000     0.3535     0.0004
 1629.0000     0.3634     0.0004
 1629.5000     0.3628     0.0004
 1630.0000     0.3623     0.0004
 1630.5000     0.3722     0.0004
 1631.0000     0.3716     0.0004
 1631.5000     0.3815     0.0004
 1632.0000     0.3810     0.0004
 1632.5000     0.3908     0.0004
 1633.0000     0.3902     0.0004
 1633.5000     0.3897     0.0004
 1634.0000     0.3997     0.0004
 1634.5000     0.3990     0.0171
 1635.0000     0.4090     0.0531
 1635.5000     0.4084     0.0890
 1636.0000     0.4182     0.1256
 1636.5000     0.4177     0.1622
 1637.0000     0.4172     0.0004
 1637.5000     0.4166     0.0004
 1638.0000     0.4265     0.0004
 1638.5000     0.4259     0.0004
 1639.0000     0.4254     0.0004
 1639.5000     0.4249     0.0004
 1640.0000     0.4349     0.0030
 1640.5000     0.4242     0.0356
 1641.0000     0.4343     0.0004
 1641.5000     0.4340     0.0004
 1642.0000     0.4337     0.0004
 1642.5000     0.4334     0.0004
 1643.0000     0.4332     0.0004
 1643.5000     0.4329     0.0004
 1644.0000     0.4327     0.0004
 1644.5000     0.4324     0.0004
 1645.0000     0.4322     0.0004
 1645.5000     0.4319     0.0004
 1646.0000     0.4317     0.0263
 1646.5000     0.4314     0.0619
 1647.0000     0.4311     0.0974
 1647.5000     0.4309     0.1330
 1648.0000     0.4306     0.1686
 1648.5000     0.4304     0.2042
 1649.0000     0.4198     0.2407
 1649.5000     0.4195     0.2843
 1650.0000     0.4193     0.3199
 1650.5000     0.4190     0.7741
 1651.0000     0.4187     0.8097
 1651.5000     0.4184     0.8453
 1652.0000     0.4182     0.8808
 1652.5000     0.4179     0.9164
 1653.0000     0.4177     0.9523
 1653.5000     0.4174     0.9890
 1654.0000     0.4172     1.0321
 1654.5000     0.4169     1.0677
 1655.0000     0.4167     1.1033
 1655.5000     0.4164     1.1389
 1656.0000     0.4161     1.1745
 1656.5000     0.4158     1.2101
 1657.0000     0.4156     1.2456
 1657.5000     0.4154     1.2820
 1658.0000     0.4151     1.3257
 1658.5000     0.4149     1.3613
 1659.0000     0.4146     1.3969
 1659.5000     0.4143     1.4325
 1660.0000     0.4140     1.4681
 1660.5000     0.4138     1.5037
 1661.0000     0.4135     1.5422
 1661.5000     0.4133     1.5750
 1662.0000     0.4130     1.6134
 1662.5000     0.4128     1.6549
 1663.0000     0.4125     1.2719
 1663.5000     0.4123     1.3075
 1664.0000     0.4120     1.3431
 1664.5000     0.4117     1.3787
 1665.0000     0.4115     1.4143
 1665.5000     0.4112     1.4499
 1666.0000     0.4110     1.4860
 1666.5000     0.4107     1.5299
 1667.0000     0.4105     1.5655
 1667.5000     0.4206     1.6011
 1668.0000     0.4307     1.6367
 1668.5000     0.4303     1.6723
 1669.0000     0.4404     1.7079
 1669.5000     0.4402     1.7435
 1670.0000     0.4503     1.7791
 1670.5000     0.4500     1.8157
 1671.0000     0.4498     1.8591
 1671.5000     0.4495     1.8947
 1672.0000     0.4596     1.9303
 1672.5000     0.4593     1.9659
 1673.0000     0.4591     1.5740
 1673.5000     0.4485     1.1999
 1674.0000     0.4482     0.8163
 1674.5000     0.4480     0.8529
 1675.0000     0.4477     0.8895
 1675.5000     0.4475     0.9325
 1676.0000     0.4369     0.5406
 1676.5000     0.4365     0.5851
 1677.0000     0.4363     0.6207
 1677.5000     0.4360     0.6563
 1678.0000     0.4358     0.6919
 1678.5000     0.4355     0.7275
 1679.0000     0.4353     0.3445
 1679.5000     0.4350     0.0004
 1680.0000     0.4348     0.0030
 1680.5000     0.4798     0.0387
 1681.0000     0.4898     0.0744
 1681.5000     0.5102     0.1101
 1682.0000     0.5204     0.0004
 1682.5000     0.5305     0.0004
 1683.0000     0.5405     0.2172
 1683.5000     0.5400     0.0004
 1684.0000     0.5501     0.0004
 1684.5000     0.5497     0.0004
 1685.0000     0.5492     0.0004
 1685.5000     0.5384     0.0004
 1686.0000     0.5380     0.0217
 1686.5000     0.5272     0.0576
 1687.0000     0.5268     0.0942
 1687.5000     0.5160     0.5563
 1688.0000     0.5052     1.0106
 1688.5000     0.5048     1.0463
 1689.0000     0.5044     1.0820
 1689.5000     0.5040     1.1177
 1690.0000     0.5036     1.1534
 1690.5000     0.5032     1.1891
 1691.0000     0.5028     1.2248
 1691.5000     0.5130     1.2611
 1692.0000     0.5125     1.2977
 1692.5000     0.5017     1.3408
 1693.0000     0.5013     1.3765
 1693.5000     0.5008     1.4122
 1694.0000     0.5005     1.4479
 1694.5000     0.5001     1.0561
 1695.0000     0.4997     1.1007
 1695.5000     0.4993     1.1364
 1696.0000     0.4989     1.1721
 1696.5000     0.4986     1.2087
 1697.0000     0.4982     1.2454
 1697.5000     0.4977     1.2881
 1698.0000     0.4869     0.8963
 1698.5000     0.4969     0.9409
 1699.0000     0.4966     0.9766
 1699.5000     0.4962     1.0123
 1700.0000     0.4958     1.4666
 1700.5000     0.4954     1.5023
 1701.0000     0.4950     1.5384
 1701.5000     0.4946     1.1551
 1702.0000     0.4942     1.6183
 1702.5000     0.4938     1.6483
 1703.0000     0.4934     1.6897
 1703.5000     0.4930     1.2979
 1704.0000     0.4927     1.3425
 1704.5000     0.4923     1.3782
 1705.0000     0.4815     1.4139
 1705.5000     0.4811     1.4496
 1706.0000     0.4806     1.4853
 1706.5000     0.4802     1.1024
 1707.0000     0.4799     1.1411
 1707.5000     0.4795     1.1827
 1708.0000     0.4791     1.2140
 1708.5000     0.4787     1.2541
 1709.0000     0.4783     0.8623
 1709.5000     0.4779     0.9069
 1710.0000     0.4775     0.9426
 1710.5000     0.4771     0.9785
 1711.0000     0.4767     1.0151
 1711.5000     0.4763     1.0586
 1712.0000     0.4760     1.0943
 1712.5000     0.4756     1.1300
 1713.0000     0.4752     1.1657
 1713.5000     0.4853     1.2014
 1714.0000     0.4848     0.8096
 1714.5000     0.4844     0.8542
 1715.0000     0.4840     0.4709
 1715.5000     0.4837     0.5076
 1716.0000     0.4833     0.5442
 1716.5000     0.4829     0.5873
 1717.0000     0.4721     0.6230
 1717.5000     0.4717     0.6587
 1718.0000     0.4712     0.6944
 1718.5000     0.4814     0.3026
 1719.0000     0.4809     0.3472
 1719.5000     0.4910     0.0004
 1720.0000     0.5010     0.0004
 1720.5000     0.4690     0.0209
 1721.0000     0.4598     0.0458
 1721.5000     0.5019     0.4848
 1722.0000     0.5543     0.5051
 1722.5000     0.6172     0.5255
 1723.0000     0.6592     0.9644
 1723.5000     0.6699     0.9848
 1724.0000     0.6388     1.0052
 1724.5000     0.5973     1.0256
 1725.0000     0.5245     1.0465
 1725.5000     0.4621     1.0713
 1726.0000     0.4196     1.0917
 1726.5000     0.4105     1.5306
 1727.0000     0.4003     1.5510
 1727.5000     0.4006     1.5714
 1728.0000     0.3904     2.0103
 1728.5000     0.3907     2.0307
 1729.0000     0.3909     2.0512
 1729.5000     0.3912     2.0721
 1730.0000     0.3915     2.0968
 1730.5000     0.3917     2.5358
 1731.0000     0.4024     2.5562
 1731.5000     0.3922     2.5765
 1732.0000     0.4030     2.1732
 1732.5000     0.4032     2.1986
 1733.0000     0.4035     2.2190
 1733.5000     0.4037     2.2395
 1734.0000     0.4040     2.2605
 1734.5000     0.4147     2.2851
 1735.0000     0.4149     2.3055
