~VERSION INFORMATION
 VERS.                2.0:   CWLS LOG ASCII STANDARD - VERSION 2.0
 WRAP.                 NO:   ONE LINE PER DEPTH STEP
~WELL INFORMATION
#MNEM.UNIT      DATA TYPE    INFORMATION
#----------   ------------   ------------------------------
 STRT.F            0.0000:   START DEPTH
 STOP.F          860.0000:   STOP DEPTH
 STEP.F            0.5000:   STEP LENGTH
 NULL.          -999.2500:   NO VALUE
 COMP.          U.S. NAVY:   COMPANY
 WELL. NPR #3 TEAPOT DOME #28S-35:   WELL
 FLD .             TEAPOT:   FIELD
 LOC .      S35 T39N R78W:   LOCATION
 CNTY.            NATRONA:   COUNTY
 STAT.            WYOMING:   STATE
 CTRY. UNITED STATES OF AMERICA:   COUNTRY
 SRVC.       Schlumberger:   SERVICE COMPANY
 DATE.        10-NOV-1958:   LOGDATE
 API .       490250649800:   API NUMBER
~CURVE INFORMATION
#MNEM.UNIT       API CODE    CURVE DESCRIPTION
#----------   ------------   ------------------------------
 DEPT.F                  :   
 SPR .MV     01 010 01 00:   SPONTANEOUS POTENTIAL FROM RES.
 ASN .OHMM   01 041 16 00:   AMPLIFIED SHORT NORMAL 16"
 LT18.OHMM   01 070 18 00:   LATERAL 18'
 LN  .OHMM   01 060 64 00:   LONG NORMAL 64"
 GRN .CPS    35 310 30 00:   GAMMA RAY
 NEUT.CPS    35 330 30 00:   NEUTRON
 MCAL.IN     15 280 01 00:   CALIPER FROM MICRO LOG
~PARAMETER INFORMATION
#MNEM.UNIT          VALUE    DESCRIPTION
#----------   ------------   ------------------------------
 LMF .                 KB:   LOG MEASURED FROM
 DMF .                 KB:   DRILLING MEASURED FROM
 EKB .F              5113:   KELLING BUSHING
 EGL .F              5103:   GROUND LEVEL
 DATE.         11-10-1958:   RUN DATE
 RUN .                  1:   RUN NUMBER
 DD  .F               860:   DEPTH DRILLER
 DL  .F               861:   DEPTH LOGGER
 BLI .F               860:   BOTTOM LOG INTERVAL
 TLI .F                90:   TOP LOG INTERVAL
 CBD .F                34:   CASING BOTTOM DRILLER
 BS  .IN             6.75:   BIT SIZE
 BSD .F               860:   BIT SIZE AT DEPTH
 DFT .          OIL ADDED:   DRILLING FLUID TYPE
 DFD .                 10:   DRILLING FLUID DENSITY
 DFV .                 20:   DRILLING FLUID VISCOSITY
 DFPH.                7.5:   DRILLING FLUID PH
 DFL .                4.2:   DRILLING FLUID LOSS
 RMS .OHMM              2:   RESISTIVITY MUD SAMPLE
 MST .F                62:   MUD SAMPLE TEMPERATURE
 RMF .OHMM            1.4:   RESISTIVITY MUD FILTRATE SAMPLE
 MFST.F                72:   MUD FILTRATE SAMPLE TEMPERATURE
 RMC .OHMM            1.9:   RESISTIVITY MUD CAKE
 MCST.F                72:   MUD CAKE SAMPLE TEMPERATURE
 MFSS.                  M:   MUD FILTRATE SAMPLE SOURCE
 MCSS.                  M:   MUD CAKE SAMPLE SOURCE
 RMB .OHMM            1.7:   RESISTIVITY MUD AT BHT
 BHT .F                72:   BOTTOM HOLE TEMPERATURE
 TCS .HRS               1:   TIME CURCULATED STOPPED
 MRT .F                72:   MAXIMUM RECORDED TEMPERATURE
 LUN .               2754:   LOGGING UNIT NUMBER
 LUL .                 NC:   LOGGING UNIT LOCATION
 ENGI.             QUINBY:   RECORDING ENGINEER
 WITN.             MARTIN:   WITNESSED BY
 CLNT.            A2DTECH:   CLIENT CODE
 ORIG.     1", 2.5" PRINT:   ORIGIN OF DATA
 UWI .       490250649800:   UNIQUE WELL ID
 DICO. A2D Technologies, Inc.:   DIGITIZING COMPANY
~OTHER INFORMATION
~A    DEPT     SPR        ASN       LT18         LN          GRN     NEUT       MCAL   
# ...
  682.5000   -31.7458    28.4025    15.2196    25.4788     5.7988   506.7301     6.4304
  683.0000   -31.3506    28.0444    14.6600    24.7975     5.8817   491.8765     6.4301
  683.5000   -30.6615    27.5224    14.1002    23.9803     5.6968   472.0337     6.4176
  684.0000   -31.0362    27.1167    12.6321    23.2916     5.6762   471.5717     6.4022
  684.5000   -31.8723    26.8462    12.9004    22.5815     5.9244   475.1027     6.4019
  685.0000   -32.7084    26.0351    13.5741    21.5829     5.7601   478.1642     6.4017
  685.5000   -33.9283    25.3592    14.2478    20.4108     5.6934   482.7526     6.4014
  686.0000   -34.7448    24.4130    14.9215    20.1657     5.4705   485.8140     6.4011
  686.5000   -34.7461    23.3304    14.9196    20.1638     5.6327   487.3485     6.4008
  687.0000   -34.4756    22.0724    14.9121    20.2156     5.8857   482.0118     6.4006
  687.5000   -34.2052    20.9916    14.1950    20.3578     5.7936   487.3636     6.4276
  688.0000   -33.1196    20.2948    12.9424    20.6358     5.6307   485.0808     6.4685
  688.5000   -32.0238    19.6483    11.9885    20.9140     5.5578   479.5500     6.5504
  689.0000   -30.6522    19.0154    11.3590    21.3760     5.8672   473.6438     6.5907
  689.5000   -30.1344    18.2295    10.9430    21.5099     5.8059   466.7801     6.6177
  690.0000   -29.8640    17.8658    10.6622    21.7799     5.9300   481.2937     6.6175
  690.5000   -29.5935    17.7220    10.3814    21.5059     5.8789   479.7743     6.6445
  691.0000   -29.3231    17.6535    10.1716    21.3681     5.7493   473.6740     6.6592
  691.5000   -29.4465    17.5181     9.8989    20.8226     5.8120   466.8104     6.6864
  692.0000   -29.5978    17.1124     9.4916    20.5471     6.0598   468.3449     6.7136
  692.5000   -29.5995    16.9770     9.2193    20.4008     6.2621   466.0620     6.7527
  693.0000   -29.3290    17.1119     9.4876    20.2360     6.1353   489.0959     6.7368
  693.5000   -29.3303    17.1116    10.0262    19.6468     6.0287   492.2037     6.6975
  694.0000   -29.3316    16.9762    10.6999    18.9756     6.1415   501.8453     6.6699
  694.5000   -29.3330    16.9759    11.2385    18.6366     6.2759   505.7928     6.6697
  695.0000   -29.6060    16.9757    11.9212    18.5303     6.1854   494.3483     6.6693
  695.5000   -30.4342    16.9754    12.4768    17.9680     6.3258   503.8688     6.6691
  696.0000   -31.2392    16.9752    13.0324    17.8152     6.2558   502.4975     6.6688
  696.5000   -31.1956    16.9431    13.5579    17.8904     6.0990   504.2961     6.6959
  697.0000   -30.6982    16.7993    13.6996    17.9470     5.8327   499.3980     6.6956
  697.5000   -30.3441    16.7041    13.9294    17.9447     5.9886   495.1496     6.6953
  698.0000   -30.1574    16.7038    14.0622    17.8068     6.3678   504.3188     6.6404
  698.5000   -31.5177    16.7035    14.4593    17.5331     6.7619   495.4402     6.5035
  699.0000   -31.5190    16.7032    15.0878    17.1235     6.4918   489.6971     6.3939
  699.5000   -31.2489    16.8381    16.6233    16.8498     6.5304   484.0139     6.4483
  700.0000   -30.7310    16.7768    17.9168    16.5761     6.6050   478.9962     6.4959
  700.5000   -29.9638    16.6218    18.9953    16.3075     6.1441   473.0558     6.5572
  701.0000   -29.2382    16.4870    20.0728    16.0384     6.0831   467.7184     6.6186
  701.5000   -29.0720    16.2942    21.0987    15.9049     6.1441   459.3270     6.6378
  702.0000   -29.1938    15.8849    21.3514    15.7717     6.0425   464.8163     6.6372
  702.5000   -29.3411    15.6106    21.1869    15.7746     6.3881   462.3940     6.5765
  703.0000   -29.0679    15.3364    20.8405    15.9132     6.1238   472.3264     6.0738
  703.5000   -29.0666    15.0621    20.0941    15.9158     6.0615   456.3003     5.5426
  704.0000   -29.4927    14.6526    19.8649    15.9185     6.1238   466.2323     5.6722
  704.5000   -29.8788    14.3268    20.1879    15.9212     6.1645   473.1325     6.0407
  705.0000   -29.8775    14.0568    20.4639    15.7880     6.2519   476.9347     6.3169
  705.5000   -29.0609    13.9219    20.8752    15.6548     6.3678   478.0223     6.4683
  706.0000   -28.7878    13.9222    21.0811    15.3686     6.1645   487.6368     6.5509
  706.5000   -29.0584    13.7873    21.0049    15.2525     6.3778   485.7522     6.5502
  707.0000   -29.3286    13.5173    20.4054    15.2555     6.2725   482.0063     6.5497
  707.5000   -29.8708    13.3825    19.5946    15.2581     6.1811   483.2565     6.5492
  708.0000   -30.6847    13.2476    18.7838    15.2609     6.6524   481.9042     6.5486
  708.5000   -30.9551    13.1127    18.3784    15.2636     6.2458   480.0361     6.5175
  709.0000   -30.6820    12.9779    17.8378    15.2663     5.9611   489.3094     6.3796
  709.5000   -30.4089    12.9781    17.2973    15.2690     5.8392   497.1425     6.3284
  710.0000   -29.8641    12.7081    16.7568    15.1359     5.9611   497.2939     6.3278
  710.5000   -29.8627    12.5732    16.3514    14.9386     6.1035   503.3219     6.3272
  711.0000   -29.3179    12.8479    16.4865    14.6644     6.2952   493.0509     6.5726
  711.5000   -29.3229    12.9875    16.7568    14.4515     5.9408   481.0793     6.6813
  712.0000   -29.5870    13.1273    16.8973    14.1957     6.3068   475.3893     6.7354
  712.5000   -29.6083    13.2500    17.1622    13.9271     6.2399   470.1689     6.7349
  713.0000   -29.8869    13.2502    17.2973    13.7935     6.2525   477.8104     6.7343
  713.5000   -30.7087    13.2251    17.2743    13.5249     6.3495   480.1076     6.7338
  714.0000   -31.5779    13.0859    16.9694    13.3917     6.4084   486.9857     6.7333
  714.5000   -32.6245    12.9468    16.5869    13.5302     6.1396   482.4117     6.5688
  715.0000   -32.8398    12.7310    16.3514    13.3970     6.0018   487.7628     6.2677
  715.5000   -32.9099    12.2205    16.3514    13.5355     6.1273   500.7486     5.9120
  716.0000   -33.6524    11.9888    16.3514    13.5382     6.3930   497.7015     5.6928
  716.5000   -33.2912    11.9008    16.2933    13.5409     6.5508   467.9329     5.8562
  717.0000   -32.2908    11.9565    16.0883    13.4076     6.4898   453.4337     6.0743
  717.5000   -31.3293    12.0365    15.7410    13.2733     6.3881   448.8597     6.2923
  718.0000   -29.1213    11.9728    15.5244    13.1412     6.4898   443.3614     6.5103
  718.5000   -26.7622    11.7668    15.0000    13.1440     6.4999   434.8187     6.6191
  719.0000   -25.0915    11.5593    14.8649    13.1468     6.4084   445.4368     6.7005
  719.5000   -24.9470    11.4971    14.8649    13.1494     6.2864   454.2313     6.7273
  720.0000   -24.9456    11.4974    14.8649    13.1250     5.8188   451.9477     6.7541
  720.5000   -24.6383    11.3624    15.0000    12.8508     6.1645   466.3687     6.7535
  721.0000   -23.9665    11.2276    15.0000    12.7496     6.3678   467.9942     6.7530
  721.5000   -22.4957    10.9576    14.8649    12.7527     6.5914   455.6824     6.7251
  722.0000   -22.4943    10.8227    14.7297    12.8913     6.6931   444.3402     6.4787
  722.5000   -22.4930    10.8230    14.5946    12.8940     6.4874   445.1105     6.1229
  723.0000   -22.4917    10.8233    14.4595    12.7024     6.4491   451.7123     5.7672
  723.5000   -22.2186    10.8235    14.1842    12.4282     6.4601   457.2603     5.7098
  724.0000   -21.9455    10.8238    14.0433    12.3587     6.7072   451.4012     5.9574
  724.5000   -21.6724    10.6889    13.9189    12.3614     6.7541   445.1739     6.0934
  725.0000   -20.8559    10.6892    13.9189    12.3642     6.6575   450.3403     6.1749
  725.5000   -21.1263    10.6895    13.9189    12.3674     6.5477   453.5529     6.1470
  726.0000   -21.6684    10.6897    13.7838    12.5059     6.3682   434.4729     6.1191
  726.5000   -21.9388    10.6900    13.6085    12.5086     6.2642   448.9857     6.0891
  727.0000   -22.2092    10.6903    13.4676    12.3750     6.1113   454.0123     5.9512
  727.5000   -23.2948    10.6905    13.3266    12.2418     5.8869   450.3347     5.9864
