~VERSION INFORMATION
 VERS.                2.0:   CWLS LOG ASCII STANDARD - VERSION 2.0
 WRAP.                 NO:   ONE LINE PER DEPTH STEP
~WELL INFORMATION
#MNEM.UNIT      DATA TYPE    INFORMATION
#----------   ------------   ------------------------------
 STRT.F            0.0000:   START DEPTH
 STOP.F          678.0000:   STOP DEPTH
 STEP.F            0.5000:   STEP LENGTH
 NULL.          -999.2500:   NO VALUE
 COMP. FENIX & SCISSON INC:   COMPANY
 WELL. 37-21 SX 11 WO #37-11:   WELL
 FLD .             TEAPOT:   FIELD
 LOC .      S11 T38N R78W:   LOCATION
 CNTY.            NATRONA:   COUNTY
 STAT.            WYOMING:   STATE
 CTRY. UNITED STATES OF AMERICA:   COUNTRY
 SRVC.      Dresser Atlas:   SERVICE COMPANY
 DATE.        14-OCT-1983:   LOGDATE
 API .       490251084300:   API NUMBER
~CURVE INFORMATION
#MNEM.UNIT       API CODE    CURVE DESCRIPTION
#----------   ------------   ------------------------------
 DEPT.F                  :   
 SPR .MV     07 010 01 00:   SPONTANEOUS POTENTIAL
 SFLU.OHMM   07 220 01 00:   SPHERICALLY FOCUSED LOG UNAVERAGED RESISTIVITY
 ILM .OHMM   07 120 44 00:   INDUCTION LOG MEDIUM
 ILD .OHMM   07 120 46 00:   INDUCTION LOG DEEP
 NPHI.DEC    42 890 03 00:   NEUTRON POROSITY SANDSTONE
 DPHI.DEC    45 890 12 00:   DENSITY POROSITY SANDSTONE
 RHOB.G/C3   45 350 01 00:   BULK DENSITY
 CORR.G/C3   45 356 01 00:   DENSITY CORRECTION
 GRD .GAPI   45 310 01 00:   GAMMA RAY FROM DENSITY LOG
 CALD.IN     45 280 60 00:   CALIPER
~PARAMETER INFORMATION
#MNEM.UNIT          VALUE    DESCRIPTION
#----------   ------------   ------------------------------
 PD  .                 GL:   PERMANENT DATUM
 EPD .F              5188:   ELEVATION PERMANENT DATUM
 LMF .                 KB:   LOG MEASURED FROM
 DAPD.F                 5:   FEET ABOVE PERMANENT DATUM
 DMF .                 KB:   DRILLING MEASURED FROM
 EKB .F              5193:   KELLING BUSHING
 EGL .F              5188:   GROUND LEVEL
 DATE.           10-14-83:   RUN DATE
 RUN .                  4:   RUN NUMBER
 DD  .F               629:   DEPTH DRILLER
 DL  .F               630:   DEPTH LOGGER
 BLI .F               624:   BOTTOM LOG INTERVAL
 TLI .F               335:   TOP LOG INTERVAL
 BS  .IN             8.75:   BIT SIZE
 BSD .F               629:   BIT SIZE AT DEPTH
 DFT .          KCL WATER:   DRILLING FLUID TYPE
 LUN .               6307:   LOGGING UNIT NUMBER
 LUL .               GLTE:   LOGGING UNIT LOCATION
 ENGI.            DEYOUNG:   RECORDING ENGINEER
 WITN.            SCHULTE:   WITNESSED BY
 CLNT.            A2DTECH:   CLIENT CODE
 ORIG.       2", 5" PRINT:   ORIGIN OF DATA
 UWI .       490251084300:   UNIQUE WELL ID
 DICO. A2D Technologies, Inc.:   DIGITIZING COMPANY
~OTHER INFORMATION
~A    DEPT     SPR       SFLU        ILM        ILD       NPHI       DPHI       RHOB       CORR        GRD       CALD   
# ...
  201.0000   -34.0792     7.3349     7.0583     6.7918     0.2608     0.1399     2.4266     0.0874    91.1873     9.4678
  201.5000   -34.1076     7.4358     7.1455     6.8675     0.2571     0.1454     2.4434     0.0899    93.5030     9.4762
  202.0000   -34.1361     7.5384     7.2337     6.9430     0.2533     0.1508     2.4537     0.0924    92.1236     9.4846
  202.5000   -34.1646     7.6422     7.3231     7.0194     0.2535     0.1547     2.4591     0.0918    91.8662     9.4930
  203.0000   -34.1931     7.7474     7.4135     7.0951     0.2576     0.1446     2.4557     0.0908    92.5452     9.5014
  203.5000   -34.2216     7.8541     7.5051     7.1673     0.2616     0.1367     2.4606     0.0923    91.2080     9.5098
  204.0000   -34.2500     7.9623     7.5978     7.2403     0.2574     0.1376     2.4662     0.0942    92.1067     9.5183
  204.5000   -34.2787     8.0619     7.6916     7.3141     0.2520     0.1367     2.4777     0.0961    92.1425     9.5267
  205.0000   -34.3070     8.1362     7.7866     7.3885     0.2497     0.1319     2.4865     0.0980    90.5838     9.5351
  205.5000   -34.3341     8.2106     7.8828     7.4638     0.2499     0.1262     2.4928     0.0979    90.7038     9.5435
  206.0000   -34.2758     8.2858     7.9500     7.5398     0.2485     0.1205     2.4975     0.0970    91.6828     9.5520
  206.5000   -34.1179     8.3617     8.0321     7.6166     0.2538     0.1157     2.4897     0.0960    91.3008     9.5599
  207.0000   -33.9611     8.4383     8.1148     7.6941     0.2588     0.1122     2.4853     0.0948    90.4693     9.5602
  207.5000   -33.8039     8.5156     8.1985     7.7725     0.2586     0.1120     2.4828     0.0940    89.6114     9.5602
  208.0000   -33.6472     8.5936     8.2830     7.8516     0.2521     0.1159     2.4768     0.0875    89.6716     9.5602
  208.5000   -33.5734     8.6723     8.3686     7.9316     0.2519     0.1199     2.4663     0.0810    90.0142     9.5602
  209.0000   -33.5974     8.7518     8.4553     8.0125     0.2537     0.1236     2.4784     0.0839    89.4514     9.5602
  209.5000   -33.6206     8.8134     8.5751     8.0940     0.2533     0.1276     2.5012     0.0917    88.7647     9.5602
  210.0000   -33.6441     8.7205     8.4870     8.1914     0.2495     0.1334     2.4942     0.0935    88.8007     9.5602
  210.5000   -33.6675     8.6453     8.3475     8.0738     0.2456     0.1200     2.4836     0.0880    90.7106     9.5602
  211.0000   -33.6908     8.5704     8.2102     7.9325     0.2440     0.1096     2.4734     0.0825    92.5849     9.5602
  211.5000   -33.7137     8.4963     8.0752     7.7937     0.2506     0.1175     2.4639     0.0770    93.6375     9.5602
  212.0000   -33.7353     8.4228     7.9424     7.6574     0.2554     0.1238     2.4625     0.0770    93.0842     9.5602
  212.5000   -33.7794     8.3500     7.8118     7.5234     0.2605     0.1291     2.4731     0.0822    92.5551     9.5602
  213.0000   -34.1480     8.2778     7.6829     7.3918     0.2652     0.1340     2.4734     0.0874    91.8547     9.5602
  213.5000   -34.0946     8.2062     7.7003     7.2722     0.2614     0.1298     2.4847     0.0907    91.0891     9.5602
  214.0000   -34.0468     8.1914     7.7179     7.2976     0.2566     0.1284     2.4877     0.0907    90.3269     9.5602
  214.5000   -33.9991     8.1914     7.7355     7.3299     0.2568     0.1252     2.4788     0.0907    89.7501     9.5602
  215.0000   -33.9516     8.1914     7.7532     7.3623     0.2555     0.1191     2.4901     0.0907    90.5905     9.5602
  215.5000   -33.9041     8.1914     7.7709     7.3949     0.2504     0.1220     2.4872     0.0897    91.4300     9.5597
  216.0000   -33.8565     8.1914     7.7886     7.4277     0.2487     0.1209     2.4774     0.0870    91.2299     9.5580
  216.5000   -33.8090     8.1914     7.8062     7.4746     0.2635     0.1153     2.4719     0.0847    90.0742     9.5563
  217.0000   -33.7615     8.1914     7.8242     7.4658     0.2696     0.1204     2.4715     0.0866    89.3412     9.5547
  217.5000   -33.7140     8.1914     7.8120     7.4494     0.2675     0.1255     2.4810     0.0887    91.0115     9.5531
  218.0000   -33.6664     8.1914     7.7989     7.4332     0.2477     0.1301     2.4902     0.0902    92.4230     9.5514
  218.5000   -33.6183     8.1914     7.7858     7.4172     0.2426     0.1267     2.4973     0.0848    93.6419     9.5498
  219.0000   -33.5676     8.1914     7.7726     7.4073     0.2516     0.1218     2.4891     0.0794    94.8603     9.5481
  219.5000   -33.6784     8.1914     7.7595     7.4159     0.2598     0.1169     2.4768     0.0739    95.9020     9.5465
  220.0000   -33.8185     8.1914     7.7464     7.4228     0.2663     0.1134     2.4783     0.0773    94.6610     9.5448
  220.5000   -33.9590     8.1914     7.7334     7.4297     0.2620     0.1200     2.4857     0.0834    93.3727     9.5432
  221.0000   -34.1010     8.1914     7.7203     7.4366     0.2599     0.1268     2.4835     0.0820    94.3082     9.5415
  221.5000   -34.1273     8.1915     7.7072     7.4436     0.2618     0.1235     2.4733     0.0771    93.3432     9.5399
  222.0000   -34.0876     8.1927     7.6943     7.4505     0.2614     0.1198     2.4655     0.0834    95.4490     9.5382
  222.5000   -34.0466     8.1839     7.6828     7.4574     0.2586     0.1202     2.4740     0.0909    95.0474     9.5366
  223.0000   -34.0056     8.2739     7.7572     7.4644     0.2616     0.1292     2.4839     0.0926    94.5736     9.5349
  223.5000   -33.9646     8.3038     7.8243     7.4713     0.2582     0.1317     2.4823     0.0927    95.5991     9.5333
  224.0000   -33.9237     8.3444     7.8919     7.5204     0.2545     0.1247     2.4782     0.0928    96.5776     9.5316
  224.5000   -33.8828     8.3853     7.9601     7.6107     0.2508     0.1186     2.4771     0.0943    97.2738     9.5300
  225.0000   -33.8418     8.4263     8.0288     7.7021     0.2511     0.1219     2.4787     0.0959    96.7190     9.5283
  225.5000   -33.8028     8.4676     8.0982     7.7947     0.2643     0.1257     2.4765     0.0972    97.1644     9.5267
  226.0000   -33.7682     8.5253     8.1682     7.8883     0.2770     0.1251     2.4711     0.0984    99.2415     9.5250
  226.5000   -33.6604     8.6233     8.2388     7.9831     0.2866     0.1229     2.4683     0.1023   101.2518     9.5234
  227.0000   -33.4137     8.7219     8.3099     8.0790     0.2838     0.1253     2.4745     0.1091   100.4523     9.5218
  227.5000   -33.4440     8.8219     8.3817     8.1760     0.2781     0.1283     2.4999     0.1133    99.3476     9.5211
  228.0000   -33.4902     8.9231     8.4744     8.2667     0.2630     0.1305     2.5174     0.1239    98.2199     9.5223
  228.5000   -33.5355     9.0255     8.5879     8.3588     0.2550     0.1244     2.5212     0.1177    98.6564     9.5235
  229.0000   -33.5802     9.1292     8.7043     8.3826     0.2550     0.1071     2.5071     0.1113    98.7297     9.5246
  229.5000   -33.6248     9.2267     8.8138     8.4066     0.2550     0.1006     2.5082     0.1122    97.6943     9.5258
  230.0000   -33.6696     9.1959     8.7880     8.4195     0.2544     0.1050     2.5075     0.1142    96.6131     9.5269
  230.5000   -33.7147     9.1670     8.7637     8.4195     0.2519     0.1059     2.5011     0.1125    96.9056     9.5281
  231.0000   -33.7570     9.1382     8.7395     8.4195     0.2493     0.1047     2.4934     0.1097    97.5763     9.5293
  231.5000   -33.7100     9.1094     8.7154     8.4195     0.2493     0.1073     2.4885     0.1068    96.0538     9.5304
  232.0000   -33.6578     9.0810     8.6914     8.4195     0.2515     0.1120     2.4959     0.1041    95.0964     9.5316
  232.5000   -33.6060     9.0593     8.6674     8.4195     0.2498     0.1166     2.4962     0.1007    96.1758     9.5327
  233.0000   -33.5543     9.1930     8.6539     8.4195     0.2550     0.1155     2.4875     0.0984    97.2944     9.5339
  233.5000   -33.5027     9.3550     8.8772     8.4195     0.2488     0.1134     2.4822     0.0963    97.0326     9.5351
  234.0000   -33.4510     9.5197     9.0618     8.5974     0.2421     0.1146     2.4849     0.0887    96.3064     9.5362
