~VERSION INFORMATION
 VERS.                2.0:   CWLS LOG ASCII STANDARD - VERSION 2.0
 WRAP.                 NO:   ONE LINE PER DEPTH STEP
~WELL INFORMATION
#MNEM.UNIT      DATA TYPE    INFORMATION
#----------   ------------   ------------------------------
 STRT.F            0.0000:   START DEPTH
 STOP.F          652.0000:   STOP DEPTH
 STEP.F            0.5000:   STEP LENGTH
 NULL.          -999.2500:   NO VALUE
 COMP. US DEPTMNT OF ENRGY:   COMPANY
 WELL. NPR ##3 14-14-SX-11:   WELL
 FLD .   TEAPOT NAVAL RES:   FIELD
 LOC .      S11 T38N R78W:   LOCATION
 CNTY.            NATRONA:   COUNTY
 STAT.            WYOMING:   STATE
 CTRY. UNITED STATES OF AMERICA:   COUNTRY
 SRVC.            Unknown:   SERVICE COMPANY
 DATE.        03-JAN-1985:   LOGDATE
 API .       490251102400:   API NUMBER
~CURVE INFORMATION
#MNEM.UNIT       API CODE    CURVE DESCRIPTION
#----------   ------------   ------------------------------
 DEPT.F                  :   
 CALD.IN     45 280 60 00:   CALIPER
 CORR.G/C3   45 356 01 00:   DENSITY CORRECTION
 PORD.DEC    45 890 12 00:   DENSITY POROSITY SANDSTONE
 CNC .DEC    42 890 03 00:   NEUTRON POROSITY SANDSTONE
 SPR .MV     11 010 01 00:   SPONTANEOUS POTENTIAL FROM RES.
 GRR .GAPI   11 310 01 00:   GAMMA RAY FROM RES.
 RS  .OHMM   11 220 09 00:   RESISTIVITY SHALLOW
 RD  .OHMM   11 220 10 00:   RESISTIVITY DEEP
 DEN .G/C3   45 350 01 00:   COMPENSATED BULK DENSTIY
~PARAMETER INFORMATION
#MNEM.UNIT          VALUE    DESCRIPTION
#----------   ------------   ------------------------------
 PD  .                 GL:   PERMANENT DATUM
 EPD .F            5197.3:   ELEVATION PERMANENT DATUM
 LMF .                 KB:   LOG MEASURED FROM
 DMF .                 KB:   DRILLING MEASURED FROM
 EKB .F            5197.3:   KELLING BUSHING
 EGL .F            5197.3:   GROUND LEVEL
 DATE.         3-JAN-1985:   RUN DATE
 RUN .                  1:   RUN NUMBER
 DD  .F               650:   DEPTH DRILLER
 DL  .F               653:   DEPTH LOGGER
 BLI .F               651:   BOTTOM LOG INTERVAL
 CS  .IN            8.625:   CASING SIZE
 CBD .F                20:   CASING BOTTOM DRILLER
 CBL .F                20:   CASING BOTTOM LOGGER
 BS  .IN             6.25:   BIT SIZE
 BSD .F               650:   BIT SIZE AT DEPTH
 DFT .                KCL:   DRILLING FLUID TYPE
 RMS .OHMM            .12:   RESISTIVITY MUD SAMPLE
 MST .F                70:   MUD SAMPLE TEMPERATURE
 RMF .OHMM            .09:   RESISTIVITY MUD FILTRATE SAMPLE
 MFST.F                70:   MUD FILTRATE SAMPLE TEMPERATURE
 RMC .OHMM            .15:   RESISTIVITY MUD CAKE
 MCST.F                70:   MUD CAKE SAMPLE TEMPERATURE
 MFSS.               CALC:   MUD FILTRATE SAMPLE SOURCE
 MCSS.               CALC:   MUD CAKE SAMPLE SOURCE
 RMB .OHMM             .1:   RESISTIVITY MUD AT BHT
 BHT .F                80:   BOTTOM HOLE TEMPERATURE
 TCS .HRS               3:   TIME CURCULATED STOPPED
 MRT .F                80:   MAXIMUM RECORDED TEMPERATURE
 LUN .               6274:   LOGGING UNIT NUMBER
 LUL .               GLTE:   LOGGING UNIT LOCATION
 ENGI.               MACK:   RECORDING ENGINEER
 WITN.               PAGE:   WITNESSED BY
 CLNT.            A2DTECH:   CLIENT CODE
 ORIG.       2", 5" PRINT:   ORIGIN OF DATA
 UWI .       490251102400:   UNIQUE WELL ID
 DICO. A2D Technologies, Inc.:   DIGITIZING COMPANY
~OTHER INFORMATION
~A    DEPT    CALD       CORR       PORD        CNC        SPR         GRR        RS         RD        DEN   
# ...
  292.0000     6.4868     0.0411     0.1151     0.2596   -49.8200   109.2738     8.7226    11.5024     2.4767
  292.5000     6.4863     0.0371     0.1204     0.2749   -49.7531   109.1074     8.6823    11.4859     2.4699
  293.0000     6.4858     0.0347     0.1253     0.2862   -49.6996   110.7605     8.6320    11.4655     2.4628
  293.5000     6.4853     0.0364     0.1286     0.2859   -49.6447   110.4102     8.5637    11.4450     2.4620
  294.0000     6.4848     0.0379     0.1283     0.2731   -49.5895   110.9550     8.6296    11.4246     2.4665
  294.5000     6.4843     0.0395     0.1244     0.2656   -49.5342   111.6094     8.7362    11.4043     2.4723
  295.0000     6.4838     0.0443     0.1202     0.2706   -49.4790   111.2751     8.8441    11.3969     2.4781
  295.5000     6.4833     0.0516     0.1159     0.2775   -49.4238   109.5768     8.9533    11.7302     2.4835
  296.0000     6.4828     0.0408     0.1185     0.2924   -49.3685   108.0460     9.0639    11.9678     2.4778
  296.5000     6.4823     0.0283     0.1230     0.3062   -49.3133   109.1717     9.1758    12.2102     2.4658
  297.0000     6.4818     0.0262     0.1275     0.3090   -49.2580   111.8144     9.2896    12.4575     2.4625
  297.5000     6.4813     0.0338     0.1268     0.3129   -49.2028   113.4471     9.3047    12.7099     2.4657
  298.0000     6.4808     0.0282     0.1249     0.3032   -49.1474   113.9593     9.3048    12.9673     2.4662
  298.5000     6.4802     0.0139     0.1268     0.2887   -49.0923   113.3138     9.3043    13.2084     2.4597
  299.0000     6.4797     0.0133     0.1316     0.2887   -49.0375   112.3223     9.3052    13.1454     2.4521
  299.5000     6.4792     0.0216     0.1347     0.2932   -49.0342   111.6025     9.2339    13.0875     2.4524
  300.0000     6.4787     0.0301     0.1310     0.2978   -49.0861   112.2739     9.1861    13.0297     2.4617
  300.5000     6.4782     0.0383     0.1243     0.3031   -49.1376   113.6257     9.1346    12.9671     2.4714
  301.0000     6.4777     0.0450     0.1195     0.3014   -49.1894   114.8932     8.9825    12.6694     2.4784
  301.5000     6.4772     0.0381     0.1196     0.2996   -49.2411   115.0940     8.6928    12.3497     2.4741
  302.0000     6.4767     0.0271     0.1232     0.2978   -49.2927   114.0752     8.4137    12.0364     2.4685
  302.5000     6.4762     0.0158     0.1267     0.2978   -49.3442   114.9706     8.0996    11.7181     2.4628
  303.0000     6.4757     0.0049     0.1287     0.2978   -49.3940   114.9455     8.1047    11.6882     2.4613
  303.5000     6.4752     0.0153     0.1277     0.2959   -49.5961   113.5656     8.0522    11.6610     2.4630
  304.0000     6.4775     0.0269     0.1267     0.2974   -49.8473   111.8951     8.0152    11.6325     2.4619
  304.5000     6.4823     0.0327     0.1326     0.2975   -50.0994   110.4377     7.9779    11.5024     2.4550
  305.0000     6.4871     0.0225     0.1386     0.2957   -50.3523   111.0347     7.8533    11.1053     2.4475
  305.5000     6.4918     0.0150     0.1443     0.2965   -50.7190   111.5661     7.5902    10.7836     2.4372
  306.0000     6.4946     0.0199     0.1494     0.3047   -51.1208   111.3510     7.3359    10.3259     2.4269
  306.5000     6.4933     0.0246     0.1546     0.3133   -51.5158   109.8827     7.0222     9.7741     2.4166
  307.0000     6.4920     0.0286     0.1597     0.3216   -52.4381   110.7914     6.6260     9.2519     2.4066
  307.5000     6.4908     0.0209     0.1656     0.3300   -53.4929   112.8481     6.2521     8.7575     2.3971
  308.0000     6.4895     0.0118     0.1726     0.3384   -54.5500   112.4872     5.8993     8.1618     2.3873
  308.5000     6.4882     0.0027     0.1835     0.3512   -55.6087   111.6607     5.5525     7.4553     2.3665
  309.0000     6.4870    -0.0064     0.2001     0.3663   -56.4941   112.3435     4.9348     6.8075     2.3415
  309.5000     6.4857    -0.0132     0.2204     0.3720   -57.2747   112.2496     4.3823     6.2183     2.3106
  310.0000     6.4844     0.0074     0.2406     0.3776   -58.0543   110.6650     3.7722     5.6749     2.2798
  310.5000     6.4832     0.0304     0.2623     0.3940   -58.8383   105.8005     3.1805     4.8844     2.2490
  311.0000     6.4819     0.0287     0.2620     0.3973   -59.5988   101.1165     2.6865     3.9699     2.2379
  311.5000     6.4806     0.0275     0.2381     0.3770   -59.6506    97.2999     2.4252     3.2828     2.2597
  312.0000     6.4794     0.0262     0.2146     0.3548   -59.1733    94.6293     2.2703     3.2527     2.3005
  312.5000     6.4781     0.0283     0.1915     0.3327   -58.6227    99.0521     2.4525     3.5081     2.3417
  313.0000     6.4768     0.0325     0.1802     0.3175   -58.0714   107.0263     2.6391     4.0834     2.3666
  313.5000     6.4756     0.0372     0.1689     0.3148   -57.5210   114.8290     3.2239     4.7580     2.3874
  314.0000     6.4743     0.0416     0.1576     0.3120   -56.9709   118.0265     3.9384     5.5434     2.4083
  314.5000     6.4730     0.0279     0.1462     0.3093   -56.4253   118.0254     4.6975     6.4541     2.4297
  315.0000     6.4718     0.0205     0.1444     0.3066   -55.9991   118.9846     5.4845     7.3569     2.4365
  315.5000     6.4705     0.0132     0.1473     0.3038   -55.6516   123.1942     6.3173     8.2312     2.4315
  316.0000     6.4692     0.0059     0.1503     0.3011   -55.3016   126.7449     6.6766     9.2192     2.4249
  316.5000     6.4680    -0.0013     0.1523     0.2981   -54.9539   127.2089     6.6055     9.1953     2.4212
  317.0000     6.4667     0.0003     0.1511     0.2955   -54.6058   126.9492     6.4803     9.1526     2.4233
  317.5000     6.4654     0.0027     0.1512     0.2980   -54.2552   125.9301     6.3575     9.1102     2.4241
  318.0000     6.4642     0.0051     0.1517     0.3002   -53.8490   123.4126     6.2593     9.0508     2.4229
  318.5000     6.4629     0.0075     0.1481     0.3038   -54.0409   120.0073     6.4878     9.1959     2.4267
  319.0000     6.4616     0.0079     0.1450     0.3202   -54.2896   122.2970     6.6872     9.4466     2.4337
  319.5000     6.4604     0.0071     0.1531     0.3366   -54.5368   125.1075     6.8941     9.7042     2.4304
  320.0000     6.4591     0.0070     0.1650     0.3388   -54.7827   126.2512     7.0606    10.0168     2.4080
  320.5000     6.4578     0.0230     0.1790     0.3114   -55.0286   126.7076     6.5033     9.3175     2.3858
  321.0000     6.4566     0.0362     0.1761     0.3046   -55.2742   128.3562     6.0031     8.2956     2.3785
  321.5000     6.4553     0.0316     0.1711     0.3106   -55.5277   130.3851     5.5415     7.3858     2.3842
  322.0000     6.4543     0.0113     0.1642     0.3198   -55.8024   131.1196     5.1575     6.9274     2.3940
  322.5000     6.4534     0.0004     0.1554     0.3146   -55.2000   127.5291     5.0168     7.2349     2.4081
  323.0000     6.4524     0.0148     0.1467     0.3109   -54.7800   123.9478     5.3171     7.5400     2.4225
  323.5000     6.4515     0.0324     0.1389     0.3064   -54.3622   120.3222     5.6275     7.8579     2.4370
  324.0000     6.4506     0.0477     0.1361     0.3019   -53.9494   118.6187     5.9576     8.1893     2.4484
  324.5000     6.4496     0.0409     0.1332     0.2975   -53.5362   119.5072     6.2312     8.5346     2.4519
  325.0000     6.4487     0.0340     0.1294     0.2909   -53.1230   120.8912     6.3347     8.7665     2.4562
  325.5000     6.4478     0.0272     0.1254     0.2815   -52.7098   122.2998     6.4383     9.0208     2.4637
  326.0000     6.4468     0.0203     0.1214     0.2767   -52.2965   122.8564     6.5553     9.3046     2.4709
  326.5000     6.4459     0.0128     0.1174     0.2759   -51.8833   121.4640     6.9533     9.7660     2.4782
  327.0000     6.4450     0.0198     0.1134     0.2833   -51.4698   119.7825     7.4596    10.2956     2.4854
  327.5000     6.4441     0.0280     0.1099     0.2963   -51.0567   118.0958     8.0247    10.8538     2.4927
  328.0000     6.4431     0.0361     0.1133     0.2986   -50.6451   116.7854     8.1447    11.7165     2.4944
