~VERSION INFORMATION
 VERS.                2.0:   CWLS LOG ASCII STANDARD - VERSION 2.0
 WRAP.                 NO:   ONE LINE PER DEPTH STEP
~WELL INFORMATION
#MNEM.UNIT      DATA TYPE    INFORMATION
#----------   ------------   ------------------------------
 STRT.F           32.0000:   START DEPTH
 STOP.F          648.0000:   STOP DEPTH
 STEP.F            0.5000:   STEP LENGTH
 NULL.          -999.2500:   NO VALUE
 COMP. LAWRENCE/ALLISON INC:   COMPANY
 WELL.    17-16 SX #17-11:   WELL
 FLD .             TEAPOT:   FIELD
 LOC .      S11 T38N R78W:   LOCATION
 CNTY.            NATRONA:   COUNTY
 STAT.            WYOMING:   STATE
 CTRY. UNITED STATES OF AMERICA:   COUNTRY
 SRVC.           Gearhart:   SERVICE COMPANY
 DATE.        12-JUL-1987:   LOGDATE
 API .       490251115200:   API NUMBER
~CURVE INFORMATION
#MNEM.UNIT       API CODE    CURVE DESCRIPTION
#----------   ------------   ------------------------------
 DEPT.F                  :   
 GRR .GAPI   07 310 01 00:   GAMMA RAY
 ILD .OHMM   07 120 46 00:   INDUCTION LOG DEEP
 ILM .OHMM   07 120 44 00:   INDUCTION LOG MEDIUM
~PARAMETER INFORMATION
#MNEM.UNIT          VALUE    DESCRIPTION
#----------   ------------   ------------------------------
 PD  .                 GL:   PERMANENT DATUM
 EPD .F              5231:   ELEVATION PERMANENT DATUM
 LMF .                 KB:   LOG MEASURED FROM
 DAPD.F                 8:   FEET ABOVE PERMANENT DATUM
 DMF .                 KB:   DRILLING MEASURED FROM
 EKB .F              5239:   KELLING BUSHING
 EDF .F              5237:   DRILLING FLOOR
 EGL .F              5231:   GROUND LEVEL
 DATE.        12-JUL-1987:   RUN DATE
 RUN .                  1:   RUN NUMBER
 DD  .F               650:   DEPTH DRILLER
 DL  .F               656:   DEPTH LOGGER
 BLI .F               654:   BOTTOM LOG INTERVAL
 TLI .F                30:   TOP LOG INTERVAL
 CS  .IN            8.625:   CASING SIZE
 CBD .F                48:   CASING BOTTOM DRILLER
 CBL .F                48:   CASING BOTTOM LOGGER
 BS  .IN            7.875:   BIT SIZE
 BSD .F               650:   BIT SIZE AT DEPTH
 DFT .                AIR:   DRILLING FLUID TYPE
 TLAB.HRS            1051:   TIME LOGGER AT BOTTOM
 MRT .F                80:   MAXIMUM RECORDED TEMPERATURE
 LUN .               7597:   LOGGING UNIT NUMBER
 LUL .           GILLETTE:   LOGGING UNIT LOCATION
 ENGI.         WEATHERMON:   RECORDING ENGINEER
 WITN.         MR. STRONG:   WITNESSED BY
 CLNT.            A2DTECH:   CLIENT CODE
 ORIG.           5" PRINT:   ORIGIN OF DATA
 UWI .       490251115200:   UNIQUE WELL ID
 DICO. A2D Technologies, Inc.:   DIGITIZING COMPANY
~OTHER INFORMATION
~A   DEPT       GRR       ILD        ILM   
# ...
  578.0000   111.6284    11.1786    10.5334
  578.5000   110.4336    11.2587    10.7588
  579.0000   108.3414    11.4184    10.9843
  579.5000   107.4491    11.5003    11.3741
  580.0000   107.4749    11.6634    11.6150
  580.5000   108.7058    11.8288    11.8609
  581.0000   110.8445    11.9136    12.0284
  581.5000   111.7731    11.9990    12.2831
  582.0000   111.1407    12.0127    12.2847
  582.5000   108.1884    12.1723    12.2864
  583.0000   107.3013    12.2595    12.2881
  583.5000   108.5322    12.3474    12.2901
  584.0000   108.8554    12.4359    12.3774
  584.5000   107.3632    12.5251    12.3791
  585.0000   106.1683    12.6149    12.4670
  585.5000   106.4967    12.7053    12.4686
  586.0000   106.2148    12.7079    12.4703
  586.5000   105.8972    12.7111    12.4720
  587.0000   104.7432    12.7137    12.4737
  587.5000   103.5587    12.7162    12.4758
  588.0000   102.9690    12.7188    12.4774
  588.5000   102.9948    12.7214    12.4791
  589.0000   103.6206    12.7240    12.4808
  589.5000   105.1540    12.8152    12.4825
  590.0000   108.5030    12.8178    12.4842
  590.5000   110.9442    12.7317    12.4859
  591.0000   107.2373    12.6468    12.4876
  591.5000   102.5186    12.5612    12.4028
  592.0000   100.4212    12.3906    12.3191
  592.5000    99.5290    12.2229    12.3208
  593.0000   102.8830    12.0568    12.1522
  593.5000   107.4422    11.8930    11.9862
  594.0000   108.9706    11.7314    11.8229
  594.5000   108.6929    11.5720    11.5809
  595.0000   109.0170    11.4812    11.4149
  595.5000   109.3647    11.2603    11.2672
  596.0000   110.9189    11.1068    11.1904
  596.5000   112.7149    10.9559    11.0377
  597.0000   113.9458    10.8823    10.8870
  597.5000   114.2690    10.8092    10.7383
  598.0000   114.2896    10.6628    10.5188
  598.5000   114.9154    10.5180    10.2322
  599.0000   115.2386    10.3680    10.0167
  599.5000   116.1670    10.1634     9.8178
  600.0000   116.7927    10.0951     9.7426
  600.5000   118.3269    10.0967     9.6409
  601.0000   120.1621    10.0983     9.6192
  601.5000   121.0895    10.0997     9.5539
  602.0000   120.4639    10.1010     9.4891
  602.5000   117.1121    10.1024     9.4908
  603.0000   115.4047     9.9644     9.4920
  603.5000   115.1169     9.8285     9.4933
  604.0000   114.8340     9.7600     9.4946
  604.5000   114.5512     9.6285     9.4959
  605.0000   114.8784     9.5632     9.4972
  605.5000   114.8981     9.4327     9.3675
  606.0000   114.9178     9.2399     9.1123
  606.5000   114.3318     9.0507     8.9801
  607.0000   114.3521     8.9271     8.8652
  607.5000   114.9773     8.8053     8.8667
  608.0000   115.6026     8.6851     8.7454
  608.5000   113.8109     8.6259     8.5666
  609.0000   112.3178     8.5084     8.3912
  609.5000   112.9426     8.3923     8.2764
  610.0000   115.0804     8.2204     8.1634
  610.5000   116.0078     8.0996     7.9412
  611.0000   117.5403     7.8330     7.7786
  611.5000   119.0729     7.6726     7.6194
  612.0000   119.4354     7.4635     7.4077
  612.5000   118.2046     7.2602     6.9321
  613.0000   117.9217     7.2107     6.4529
  613.5000   117.6389     7.2621     6.4989
  614.0000   117.6635     7.3137     6.6366
  614.5000   117.9858     7.4686     6.9197
  615.0000   118.9132     7.7873     7.3667
  615.5000   121.0509     8.1772     7.9523
  616.0000   122.5835     8.5907     8.5250
  616.5000   119.8800     9.0759     9.0130
  617.0000   114.1509     9.4632     9.3975
  617.5000   112.0526     9.7309     9.7330
  618.0000   112.3955     9.8683     9.9451
  618.5000   112.9997    10.0076    10.0774
  619.0000   111.8141    10.1488    10.1489
  619.5000   110.9211    10.1502    10.1503
  620.0000   111.2483    10.1516    10.0811
  620.5000   112.1757    10.0827    10.0829
  621.0000   112.4980    10.0144    10.0141
  621.5000   113.1229    10.0157    10.0158
  622.0000   112.8400    10.0171    10.0172
  622.5000   112.5315    10.0188     9.9492
  623.0000   113.7872    10.0202     9.8818
  623.5000   115.0815    10.0215     9.8148
  624.0000   116.2521    10.0229     9.8162
  624.5000   115.6617    10.0242     9.8862
  625.0000   115.8009    10.0256     9.8875
  625.5000  -999.2500     9.9573     9.8888
  626.0000  -999.2500     9.8900     9.8214
  626.5000  -999.2500     9.8914     9.8231
  627.0000  -999.2500     9.7564     9.7565
  627.5000  -999.2500     9.6835     9.6233
  628.0000  -999.2500     9.4918     9.4262
  628.5000  -999.2500     9.1696     9.1060
  629.0000  -999.2500     8.6155     8.7934
  629.5000  -999.2500     7.8188     8.4258
  630.0000  -999.2500     6.9979     7.9845
  630.5000  -999.2500     6.3950     7.5543
  631.0000  -999.2500     5.7237     6.9999
  631.5000  -999.2500     5.0521     6.0935
  632.0000  -999.2500     4.2479     4.7800
  632.5000  -999.2500     3.6469     4.1036
  633.0000  -999.2500     3.2367     3.3327
  633.5000  -999.2500     2.9129     2.8811
  634.0000  -999.2500     2.7449     2.4563
  634.5000  -999.2500     2.7644     2.3565
  635.0000  -999.2500     2.8034     2.3568
  635.5000  -999.2500     2.8827     2.4145
  636.0000  -999.2500     3.0477     2.7274
  636.5000  -999.2500     3.3129     3.1999
  637.0000  -999.2500     3.7025     3.8068
  637.5000  -999.2500     4.4662     4.4047
  638.0000  -999.2500     5.0965     5.0965
  638.5000  -999.2500     5.8165     5.8563
  639.0000  -999.2500     6.4717     6.4548
  639.5000  -999.2500     7.0919     6.9678
  640.0000  -999.2500     7.6801     7.5740
  640.5000  -999.2500     7.9524     7.8437
  641.0000  -999.2500     8.0089     8.0087
  641.5000  -999.2500     8.0099     8.0658
  642.0000  -999.2500     8.0110     8.1231
  642.5000  -999.2500     8.0121     8.1242
  643.0000  -999.2500     8.0131     8.2389
  643.5000  -999.2500  -999.2500     8.2400
  644.0000  -999.2500  -999.2500     8.2411
  644.5000  -999.2500  -999.2500     8.2422
  645.0000  -999.2500  -999.2500     8.2434
  645.5000  -999.2500  -999.2500     8.2445
  646.0000  -999.2500  -999.2500     8.2456
  646.5000  -999.2500  -999.2500     8.2467
  647.0000  -999.2500  -999.2500     8.2479
  647.5000  -999.2500  -999.2500     8.2492
  648.0000  -999.2500  -999.2500     8.2502
