~VERSION INFORMATION
 VERS.                2.0:   CWLS LOG ASCII STANDARD - VERSION 2.0
 WRAP.                 NO:   ONE LINE PER DEPTH STEP
~WELL INFORMATION
#MNEM.UNIT      DATA TYPE    INFORMATION
#----------   ------------   ------------------------------
 STRT.F          283.5000:   START DEPTH
 STOP.F         3026.0000:   STOP DEPTH
 STEP.F            0.5000:   STEP LENGTH
 NULL.          -999.2500:   NO VALUE
 COMP. DEPARTMENT OF ENERGY:   COMPANY
 WELL. RES 3 TEAPOT DOM "AX" #62-29:   WELL
 FLD .        TEAPOT DOME:   FIELD
 LOC .      S29 T39N R78W:   LOCATION
 CNTY.            NATRONA:   COUNTY
 STAT.            WYOMING:   STATE
 CTRY. UNITED STATES OF AMERICA:   COUNTRY
 SRVC.       Schlumberger:   SERVICE COMPANY
 DATE.        27-JUL-1971:   LOGDATE
 API .       490250659800:   API NUMBER
~CURVE INFORMATION
#MNEM.UNIT       API CODE    CURVE DESCRIPTION
#----------   ------------   ------------------------------
 DEPT.F                  :   
 GRD .GAPI   45 310 01 00:   GAMMA RAY FROM DENSITY LOG
 CALD.IN     45 280 60 00:   CALIPER FROM DENSITY LOG
 RHOB.G/C3   45 350 01 00:   BULK DENSITY
 DPHI.DEC    45 890 12 00:   DENSITY POROSITY SANDSTONE
 CORR.G/C3   45 356 01 00:   DENSITY CORRECTION
 SPR .MV     05 010 01 00:   SPONTANEOUS POTENTIAL FROM RES.
 ASN .OHMM   05 041 16 00:   AMPLIFIED SHORT NORMAL 16"
 ILD .OHMM   05 120 46 00:   INDUCTION LOG DEEP
 CILD.MMHO   05 110 46 00:   CONDUCTIVITY INDUCTION LOG DEEP
~PARAMETER INFORMATION
#MNEM.UNIT          VALUE    DESCRIPTION
#----------   ------------   ------------------------------
 PD  .                 GL:   PERMANENT DATUM
 EPD .F              4998:   ELEVATION PERMANENT DATUM
 LMF .                 KB:   LOG MEASURED FROM
 DAPD.F                11:   FEET ABOVE PERMANENT DATUM
 DMF .                 KB:   DRILLING MEASURED FROM
 EKB .F              5009:   KELLING BUSHING
 EGL .F              4998:   GROUND LEVEL
 DATE.            7-27-71:   RUN DATE
 RUN .                  1:   RUN NUMBER
 DD  .F              3023:   DEPTH DRILLER
 DL  .F              3024:   DEPTH LOGGER
 BLI .F              3023:   BOTTOM LOG INTERVAL
 TLI .F               286:   TOP LOG INTERVAL
 CS  .IN            10.75:   CASING SIZE
 CBD .F               287:   CASING BOTTOM DRILLER
 CBL .F               286:   CASING BOTTOM LOGGER
 BS  .IN                9:   BIT SIZE
 BSD .F              3023:   BIT SIZE AT DEPTH
 DFT .      FRESH GEL MUD:   DRILLING FLUID TYPE
 DFD .                 10:   DRILLING FLUID DENSITY
 DFV .                 90:   DRILLING FLUID VISCOSITY
 DFPH.                7.6:   DRILLING FLUID PH
 DFL .                5.8:   DRILLING FLUID LOSS
 MSS .          FLOW LINE:   MUD SAMPLE SOURCE
 RMS .OHMM           1.74:   RESISTIVITY MUD SAMPLE
 MST .F                75:   MUD SAMPLE TEMPERATURE
 RMF .OHMM            1.5:   RESISTIVITY MUD FILTRATE SAMPLE
 MFST.F                75:   MUD FILTRATE SAMPLE TEMPERATURE
 MFSS.                  C:   MUD FILTRATE SAMPLE SOURCE
 RMB .OHMM           1.12:   RESISTIVITY MUD AT BHT
 BHT .F               116:   BOTTOM HOLE TEMPERATURE
 TCS .HRS               5:   TIME CURCULATED STOPPED
 MRT .F               116:   MAXIMUM RECORDED TEMPERATURE
 LUN .               7041:   LOGGING UNIT NUMBER
 LUL .               CSPR:   LOGGING UNIT LOCATION
 ENGI.             KNOBEL:   RECORDING ENGINEER
 WITN.                MAY:   WITNESSED BY
 CLNT.            A2DTECH:   CLIENT CODE
 ORIG.     1", 2.5" PRINT:   ORIGIN OF DATA
 UWI .       490250659800:   UNIQUE WELL ID
 DICO. A2D Technologies, Inc.:   DIGITIZING COMPANY
~OTHER INFORMATION
~A   DEPT      GRD       CALD       RHOB       DPHI       CORR        SPR        ASN        ILD       CILD   
# ...
 2254.5000   119.8784    10.1765     2.5669     0.0501     0.0420   -36.3767     8.9815     7.0355   131.6039
 2255.0000   122.7645    10.1734     2.5856     0.0416     0.0456   -36.3396     9.0590     7.2188   129.1749
 2255.5000   125.8926    10.1702     2.5960     0.0327     0.0488   -36.3160     9.1437     7.4834   124.5228
 2256.0000   129.5810    10.1670     2.5879     0.0383     0.0488   -36.3086     9.2566     7.7695   120.1407
 2256.5000   131.1855    10.1639     2.5791     0.0443     0.0471   -36.3034     9.4360     8.0835   115.4737
 2257.0000   129.6073    10.1606     2.5714     0.0493     0.0455   -36.2873     9.7142     8.4414   109.9050
 2257.5000   129.6621    10.1576     2.5691     0.0483     0.0436   -36.2632    10.0597     8.7444   108.7694
 2258.0000   131.9547    10.1545     2.5600     0.0516     0.0451   -36.2412    10.3564     8.8313   107.3906
 2258.5000   132.9366    10.1528     2.5500     0.0603     0.0494   -36.2236    10.4639     8.6693   105.9146
 2259.0000   129.7589    10.1649     2.5454     0.0644     0.0529   -36.2055    10.3298     8.3986   108.8776
 2259.5000   125.9477    10.1914     2.5590     0.0569     0.0465   -36.1851    10.0373     8.1618   112.3571
 2260.0000   124.7938    10.1899     2.5639     0.0498     0.0379   -36.1648     9.7164     7.9629   115.3851
 2260.5000   127.7673    10.1875     2.5627     0.0533     0.0358   -36.1459     9.4226     7.7262   119.0164
 2261.0000   130.0814    10.1841     2.5671     0.0538     0.0515   -36.1269     9.1549     7.4506   121.9306
 2261.5000   133.2455    10.1813     2.5648     0.0525     0.0418   -36.1070     8.9663     7.2487   125.6557
 2262.0000   136.9504    10.1783     2.5396     0.0667     0.0169   -36.0871     8.9430     7.2196   129.4885
 2262.5000   136.9726    10.1753     2.5445     0.0628     0.0389   -36.0681     9.0646     7.3166   129.4505
 2263.0000   133.7580    10.1724     2.5605     0.0571     0.0494   -36.0492     9.2087     7.3868   128.3050
 2263.5000   130.4155    10.1693     2.5604     0.0533     0.0382   -36.0290     9.3192     7.3298   127.7228
 2264.0000   128.8342    10.1664     2.5448     0.0628     0.0233   -36.0086     9.4371     7.1662   130.9199
 2264.5000   127.0131    10.1634     2.5233     0.0739     0.0085   -35.9902     9.5184     6.9665   134.5058
 2265.0000   125.5593    10.1604     2.5342     0.0723     0.0209   -35.9726     9.3872     6.7876   138.0918
 2265.5000   126.1814    10.1577     2.5492     0.0638     0.0331   -35.9510     8.9781     6.6723   141.6778
 2266.0000   130.2798    10.1539     2.5636     0.0526     0.0467   -35.9277     8.4786     6.6290   143.5644
 2266.5000   135.3069    10.1594     2.5817     0.0398     0.0623   -35.9176     8.1122     6.6176   143.5644
 2267.0000   140.3806    10.1700     2.5799     0.0420     0.0645   -35.9335     7.9348     6.6136   143.5644
 2267.5000   142.9998    10.1797     2.5794     0.0447     0.0786   -35.9698     7.9709     6.6663   143.5644
 2268.0000   139.3220    10.1897     2.6148     0.0256     0.0963   -36.0094     8.3529     6.8441   143.5644
 2268.5000   131.4308    10.1896     2.6060     0.0272     0.0708   -36.0448     9.0909     7.1591   132.7822
 2269.0000   122.9444    10.1753     2.5940     0.0367     0.0620   -36.0817     9.8511     7.5722   125.3861
 2269.5000   116.1398    10.1607     2.6187     0.0183     0.0737   -36.1209    10.2333     8.0067   117.9901
 2270.0000   114.4604    10.1528     2.6286     0.0141     0.0808   -36.1554    10.2062     8.3333   107.9208
 2270.5000   114.7865    10.1550     2.6052     0.0213     0.0848   -36.1879    10.0528     8.4332   105.9406
 2271.0000   119.4406    10.1574     2.5919     0.0343     0.0634   -36.2308     9.9686     8.3230   105.9406
 2271.5000   120.9103    10.1596     2.5742     0.0517     0.0393   -36.2775     9.9320     8.1427   113.9197
 2272.0000   118.1576    10.1620     2.5689     0.0492     0.0374   -36.2928     9.8875     7.9960   120.0349
 2272.5000   114.5672    10.1643     2.5844     0.0432     0.0422   -36.2507     9.8223     7.8703   121.7484
 2273.0000   114.4712    10.1667     2.5818     0.0398     0.0479   -36.1664     9.6835     7.7259   124.1163
 2273.5000   117.5109    10.1690     2.5760     0.0468     0.0550   -36.0751     9.4284     7.5731   126.0438
 2274.0000   120.4241    10.1714     2.5714     0.0509     0.0494   -35.9928     9.1588     7.4323   128.1201
 2274.5000   123.1517    10.1737     2.5862     0.0419     0.0600   -35.9139     9.0441     7.2898   130.3391
 2275.0000   120.5441    10.1760     2.5994     0.0331     0.0622   -35.8328     9.1044     7.1412   132.1657
 2275.5000   116.1555    10.1784     2.5952     0.0295     0.0515   -35.7484     9.1824     7.0338   134.5703
 2276.0000   111.4467    10.1807     2.5882     0.0378     0.0443   -35.6606     9.1495     7.0281   135.4698
 2276.5000   113.3338    10.1830     2.5815     0.0423     0.0449   -35.5792     9.0512     7.1318   130.6844
 2277.0000   117.3961    10.1854     2.5746     0.0454     0.0383   -35.5253     9.0153     7.2968   126.6478
 2277.5000   120.9709    10.1877     2.5813     0.0461     0.0483   -35.5089     9.1013     7.4745   123.2324
 2278.0000   124.3874    10.1900     2.5924     0.0343     0.0700   -35.5142     9.2950     7.6484   119.3242
 2278.5000   119.6133    10.1924     2.5536     0.0655     0.0479   -35.5184     9.5794     7.8174   115.7532
 2279.0000   114.1966    10.1930     2.5448     0.0613     0.0264   -35.5159     9.9298     7.9832   112.0000
 2279.5000   111.6605    10.1929     2.5694     0.0473     0.0358   -35.5138    10.2559     8.1565   108.3020
 2280.0000   112.1601    10.1929     2.5964     0.0333     0.0498   -35.5151    10.4417     8.3428   105.9406
 2280.5000   112.3302    10.1929     2.6191     0.0194     0.0656   -35.5163    10.4492     8.5081   107.4897
 2281.0000   112.4890    10.1929     2.6259     0.0112     0.0655   -35.5157    10.3397     8.5889   108.6276
 2281.5000   113.2016    10.1929     2.6105     0.0129     0.0544   -35.5151    10.2032     8.5547   109.7654
 2282.0000   116.7831    10.1929     2.5856     0.0433     0.0441   -35.5155    10.1043     8.4432   110.9033
 2282.5000   120.0429    10.1929     2.5658     0.0504     0.0359   -35.5158    10.0640     8.3245   111.8812
 2283.0000   122.4065    10.1929     2.5673     0.0517     0.0371   -35.5158    10.0520     8.2450   113.8614
 2283.5000   124.5829    10.1930     2.5714     0.0484     0.0414   -35.5157    10.0264     8.2069   114.4894
 2284.0000   128.9589    10.1929     2.5681     0.0446     0.0513   -35.5158    10.0059     8.1843   114.9590
 2284.5000   131.2955    10.1931     2.5698     0.0541     0.0614   -35.5159    10.0555     8.1516   115.4286
 2285.0000   129.0185    10.1929     2.5809     0.0466     0.0656   -35.5159    10.1708     8.1107   115.8982
 2285.5000   124.9927    10.1922     2.5844     0.0374     0.0595   -35.5158    10.2367     8.0817   116.3678
 2286.0000   120.8198    10.1817     2.5781     0.0430     0.0544   -35.5157    10.1528     8.0613   116.8373
 2286.5000   117.5105    10.1725     2.5723     0.0500     0.0483   -35.5157     9.9629     8.0089   117.3069
 2287.0000   117.9432    10.1621     2.5699     0.0474     0.0461   -35.5158     9.8088     7.8926   117.8366
 2287.5000   118.9737    10.1526     2.5800     0.0399     0.0520   -35.5155     9.7678     7.7267   119.8092
 2288.0000   118.0738    10.1337     2.5570     0.0462     0.0471   -35.5155     9.7778     7.5450   122.0749
 2288.5000   116.4800    10.1162     2.5664     0.0546     0.0382   -35.5162     9.7342     7.3599   124.1449
 2289.0000   115.0373    10.0983     2.5824     0.0421     0.0491   -35.5165     9.6085     7.1814   126.1668
 2289.5000   113.6289    10.0808     2.6016     0.0320     0.0585   -35.5155     9.4418     7.0502   128.2784
 2290.0000   114.9586    10.0698     2.5944     0.0355     0.0528   -35.5153     9.2701     7.0084   129.6800
 2290.5000   118.1355    10.0620     2.5799     0.0407     0.0425   -35.5174     9.1138     7.0431   128.9829
