~VERSION INFORMATION
 VERS.                2.0:   CWLS LOG ASCII STANDARD - VERSION 2.0
 WRAP.                 NO:   ONE LINE PER DEPTH STEP
~WELL INFORMATION
#MNEM.UNIT      DATA TYPE    INFORMATION
#----------   ------------   ------------------------------
 STRT.F           26.0000:   START DEPTH
 STOP.F          533.5000:   STOP DEPTH
 STEP.F            0.5000:   STEP LENGTH
 NULL.          -999.2500:   NO VALUE
 COMP. BROWN JOHN E&C INC:   COMPANY
 WELL.  NPR 3 #76-531-X-3:   WELL
 FLD .             TEAPOT:   FIELD
 LOC .       S3 T38N R78W:   LOCATION
 CNTY.            NATRONA:   COUNTY
 STAT.            WYOMING:   STATE
 CTRY. UNITED STATES OF AMERICA:   COUNTRY
 SRVC.       Schlumberger:   SERVICE COMPANY
 DATE.        20-SEP-1990:   LOGDATE
 API .       490251130500:   API NUMBER
~CURVE INFORMATION
#MNEM.UNIT       API CODE    CURVE DESCRIPTION
#----------   ------------   ------------------------------
 DEPT.F                  :   
 ILM .OHMM   07 120 44 00:   INDUCTION LOG MEDIUM
 ILD .OHMM   07 120 46 00:   INDUCTION LOG DEEP
 CALD.IN     45 280 60 00:   CALIPER FROM DENSITY LOG
 GRD .GAPI   45 310 01 00:   GAMMA RAY FROM DENSITY LOG
 DPHI.DEC    45 890 12 00:   DENSITY POROSITY SANDSTONE
 RHOB.G/C3   45 350 01 00:   BULK DENSITY
 DRHO.G/C3   45 356 01 00:   DENSITY CORRECTION
~PARAMETER INFORMATION
#MNEM.UNIT          VALUE    DESCRIPTION
#----------   ------------   ------------------------------
 PD  .                 GL:   PERMANENT DATUM
 EPD .F              5148:   ELEVATION PERMANENT DATUM
 LMF .                 KB:   LOG MEASURED FROM
 DAPD.F                10:   FEET ABOVE PERMANENT DATUM
 DMF .                 KB:   DRILLING MEASURED FROM
 EKB .F              5158:   KELLING BUSHING
 EDF .F              5157:   DRILLING FLOOR
 EGL .F              5148:   GROUND LEVEL
 DATE.            9-20-90:   RUN DATE
 RUN .                  1:   RUN NUMBER
 DD  .F               535:   DEPTH DRILLER
 DL  .F               536:   DEPTH LOGGER
 BLI .F               530:   BOTTOM LOG INTERVAL
 TLI .F                49:   TOP LOG INTERVAL
 CBD .F                40:   CASING BOTTOM DRILLER
 CBL .F                49:   CASING BOTTOM LOGGER
 BS  .IN            7.875:   BIT SIZE
 BSD .F               535:   BIT SIZE AT DEPTH
 DFT .                AIR:   DRILLING FLUID TYPE
 TCS .HRS            0315:   TIME CURCULATED STOPPED
 TLAB.HRS            0409:   TIME LOGGER AT BOTTOM
 LUN .               6882:   LOGGING UNIT NUMBER
 LUL .               CODY:   LOGGING UNIT LOCATION
 ENGI.          M. FISHER:   RECORDING ENGINEER
 WITN.          G. STRONG:   WITNESSED BY
 CLNT.            A2DTECH:   CLIENT CODE
 ORIG.   2" 2.5" 5" PRINT:   ORIGIN OF DATA
 UWI .       490251130500:   UNIQUE WELL ID
 DICO. A2D Technologies, Inc.:   DIGITIZING COMPANY
~OTHER INFORMATION
~A   DEPT      ILM        ILD       CALD         GRD      DPHI       RHOB       DRHO   
# ...
   71.5000     9.8379     9.8861     8.0156   133.6388     0.1112     2.4797    -0.0020
   72.0000     9.7916     9.8528     8.0022   134.9788     0.1104     2.4820    -0.0014
   72.5000     9.7456     9.8196     7.9887   136.4030     0.1098     2.4844    -0.0008
   73.0000     9.6996     9.7866     7.9752   135.2231     0.1091     2.4879    -0.0002
   73.5000     9.6137     9.7535     7.9619   132.7264     0.1078     2.4928     0.0007
   74.0000     9.4405     9.7206     7.9538   130.2415     0.1062     2.4995     0.0024
   74.5000     9.2342     9.6903     7.9539   129.0501     0.1050     2.5032     0.0035
   75.0000     9.2789     9.6641     7.9539   129.9677     0.1067     2.4970     0.0046
   75.5000     9.3375     9.7540     7.9539   130.1688     0.1082     2.4901     0.0051
   76.0000     9.3964     9.7585     7.9539   130.3290     0.1076     2.4924     0.0049
   76.5000     9.4919     9.7587     7.9539   130.9636     0.1059     2.5008     0.0032
   77.0000     9.7585     9.6855     7.9539   133.7899     0.1042     2.5062     0.0014
   77.5000    10.0307     9.5804     7.9539   136.5273     0.1063     2.4961    -0.0012
   78.0000    10.0327     9.4929     7.9539   138.4988     0.1088     2.4860    -0.0038
   78.5000     9.6974     9.7250     7.9539   137.3837     0.1113     2.4758    -0.0064
   79.0000     9.3597     9.8485     7.9539   136.2003     0.1134     2.4714    -0.0065
   79.5000     9.0651     9.6439     7.9539   135.2025     0.1134     2.4717    -0.0054
   80.0000     9.1206     9.4777     7.9539   136.8417     0.1118     2.4751    -0.0036
   80.5000     9.1660     9.3143     7.9539   138.7762     0.1102     2.4829    -0.0018
   81.0000     9.2123     9.2334     7.9539   139.2788     0.1102     2.4851     0.0000
   81.5000     9.2342     9.1613     7.9539   139.4048     0.1111     2.4805     0.0017
   82.0000     8.8962     9.0838     7.9539   139.5203     0.1123     2.4738     0.0013
   82.5000     8.6501     8.8788     7.9539   139.5557     0.1138     2.4668     0.0007
   83.0000     8.4108     8.6425     7.9539   143.4636     0.1153     2.4638     0.0001
   83.5000     8.1782     8.4125     7.9539   148.0012     0.1167     2.4601    -0.0006
   84.0000     7.9520     8.1887     7.9539   149.2949     0.1187     2.4554    -0.0012
   84.5000     7.7520     8.1053     7.9539   144.7094     0.1198     2.4514    -0.0015
   85.0000     7.7518     8.0629     7.9539   139.4623     0.1181     2.4543    -0.0015
   85.5000     7.7525     8.0143     7.9539   135.9671     0.1164     2.4588    -0.0015
   86.0000     7.8127     7.9725     7.9539   135.9107     0.1162     2.4605    -0.0015
   86.5000     7.9219     8.1371     7.9539   135.7872     0.1160     2.4621    -0.0013
   87.0000     8.0327     8.2330     7.9538   135.2262     0.1141     2.4666     0.0000
   87.5000     8.1721     8.3677     7.9636   132.2049     0.1132     2.4686     0.0012
   88.0000     8.4003     8.5272     7.9801   129.1952     0.1145     2.4633     0.0025
   88.5000     8.6348     8.6898     7.9967   126.1827     0.1154     2.4592     0.0037
   89.0000     8.8758     8.8554     8.0134   124.2672     0.1142     2.4685     0.0046
   89.5000     9.1236     9.0242     8.0310   124.1609     0.1109     2.4801     0.0055
   90.0000     9.2335     9.1173     8.0128   125.6007     0.1078     2.4918     0.0064
   90.5000     9.2335     9.1864     7.9843   128.8832     0.1073     2.4967     0.0074
   91.0000     9.2335     9.2561     7.9798   130.4876     0.1080     2.4926     0.0061
   91.5000     9.2335     9.3263     7.9886   131.1949     0.1087     2.4885     0.0041
   92.0000     9.2335     9.4050     7.9977   131.2680     0.1094     2.4866     0.0019
   92.5000     9.2336     9.3670     8.0068   130.9696     0.1101     2.4837    -0.0002
   93.0000     9.2331     9.3243     8.0118   129.3229     0.1109     2.4799    -0.0015
   93.5000     9.2042     9.2818     7.9972   126.5232     0.1109     2.4791    -0.0013
   94.0000     9.1733     9.2395     7.9830   127.0866     0.1102     2.4820    -0.0012
   94.5000     9.1425     9.1973     7.9688   128.5632     0.1103     2.4815    -0.0010
   95.0000     9.1117     9.1489     7.9545   129.5387     0.1119     2.4734    -0.0009
   95.5000     9.0806     9.1733     7.9538   130.4836     0.1135     2.4656    -0.0008
   96.0000     9.0653     9.2022     7.9539   132.4525     0.1123     2.4717    -0.0006
   96.5000     9.1286     9.2312     7.9539   134.5468     0.1098     2.4807    -0.0004
   97.0000     9.1718     9.2603     7.9538   133.2243     0.1082     2.4886     0.0013
   97.5000     9.2335     9.2894     7.9540   131.7299     0.1068     2.4975     0.0031
   98.0000     9.2266     9.3187     7.9645   133.5520     0.1063     2.4993     0.0030
   98.5000     9.2138     9.3482     7.9761   137.1176     0.1067     2.4959     0.0023
   99.0000     9.2013     9.3776     7.9877   138.3913     0.1074     2.4924     0.0016
   99.5000     9.1888     9.4050     7.9937   136.5421     0.1090     2.4891     0.0008
  100.0000     9.1764     9.3723     7.9849   134.5368     0.1106     2.4819     0.0001
  100.5000     9.1641     9.3351     7.9761   134.1171     0.1123     2.4744    -0.0012
  101.0000     9.1489     9.2981     7.9674   134.7735     0.1131     2.4695    -0.0030
  101.5000     9.1871     9.2613     7.9588   136.7280     0.1134     2.4708    -0.0050
  102.0000     9.2359     9.2336     7.9542   138.6773     0.1128     2.4741    -0.0071
  102.5000     9.2851     9.2573     7.9559   139.5665     0.1119     2.4774    -0.0093
  103.0000     9.3188     9.2766     7.9576   137.0614     0.1110     2.4807    -0.0091
  103.5000     9.2777     9.2959     7.9592   134.6183     0.1099     2.4850    -0.0061
  104.0000     9.2465     9.3188     7.9608   132.1699     0.1087     2.4895    -0.0032
  104.5000     9.2155     9.3100     7.9624   131.2712     0.1076     2.4940    -0.0005
  105.0000     9.1846     9.2956     7.9640   131.2605     0.1064     2.4985     0.0009
  105.5000     9.1537     9.2813     7.9657   131.6689     0.1053     2.5015     0.0022
  106.0000     9.1230     9.2670     7.9673   133.0759     0.1059     2.4994     0.0023
  106.5000     9.0924     9.2525     7.9689   134.4565     0.1073     2.4937     0.0021
  107.0000     9.0618     9.2371     7.9706   135.2819     0.1088     2.4881     0.0018
  107.5000     9.0314     9.1399     7.9722   135.2372     0.1090     2.4885     0.0016
  108.0000     9.0011     9.0625     7.9739   133.8041     0.1087     2.4899     0.0008
  108.5000     8.9709     9.0384     7.9740   131.0111     0.1083     2.4913    -0.0002
  109.0000     8.9408     9.0147     7.9739   130.5483     0.1079     2.4918    -0.0011
  109.5000     8.9110     8.9908     7.9740   130.5855     0.1078     2.4922    -0.0020
  110.0000     8.8910     8.9738     7.9752   131.0126     0.1081     2.4909    -0.0022
  110.5000     8.8720     8.9410     7.9780   134.8661     0.1092     2.4873    -0.0013
  111.0000     8.8528     8.8993     7.9808   138.8054     0.1093     2.4867    -0.0005
  111.5000     8.8335     8.8998     7.9836   141.0982     0.1086     2.4879     0.0006
  112.0000     8.8126     8.8999     7.9864   143.0097     0.1079     2.4911    -0.0007
  112.5000     8.7838     8.8998     7.9893   144.8663     0.1072     2.4943    -0.0021
  113.0000     8.7553     8.8998     7.9920   144.0959     0.1065     2.4975    -0.0035
  113.5000     8.7268     8.8965     7.9926   140.4758     0.1058     2.5006    -0.0032
  114.0000     8.6984     8.8851     7.9879   137.3863     0.1075     2.4951    -0.0028
  114.5000     8.6701     8.8740     7.9833   137.4873     0.1090     2.4885    -0.0024
  115.0000     8.6419     8.8628     7.9787   138.1295     0.1098     2.4845    -0.0020
  115.5000     8.6139     8.8517     7.9741   138.1593     0.1089     2.4869    -0.0015
  116.0000     8.5783     8.8406     7.9694   137.4349     0.1079     2.4926    -0.0027
  116.5000     8.5995     8.8296     7.9648   138.1653     0.1074     2.4939    -0.0043
