~VERSION INFORMATION
 VERS.                2.0:   CWLS LOG ASCII STANDARD - VERSION 2.0
 WRAP.                 NO:   ONE LINE PER DEPTH STEP
~WELL INFORMATION
#MNEM.UNIT      DATA TYPE    INFORMATION
#----------   ------------   ------------------------------
 STRT.F           30.0000:   START DEPTH
 STOP.F         3375.5000:   STOP DEPTH
 STEP.F            0.5000:   STEP LENGTH
 NULL.          -999.2500:   NO VALUE
 COMP.       INTEX OIL CO:   COMPANY
 WELL.   NPR ##3 57-SX-34:   WELL
 FLD .             TEAPOT:   FIELD
 LOC .      S34 T39N R78W:   LOCATION
 CNTY.            NATRONA:   COUNTY
 STAT.            WYOMING:   STATE
 CTRY. UNITED STATES OF AMERICA:   COUNTRY
 SRVC.       Schlumberger:   SERVICE COMPANY
 DATE.        12-AUG-1967:   LOGDATE
 API .       490251023200:   API NUMBER
~CURVE INFORMATION
#MNEM.UNIT       API CODE    CURVE DESCRIPTION
#----------   ------------   ------------------------------
 DEPT.F                  :   
 SPR .MV     07 010 01 00:   SPONTANEOUS POTENTIAL
 ILD .OHMM   07 120 46 00:   INDUCTION LOG DEEP
 ASN .OHMM   05 041 16 00:   AMPLIFIED SHORT NORMAL 16"
 CILD.MMHO   07 110 46 00:   CONDUCTIVITY INDUCTION LOG DEEP
 LL8 .OHMM   07 220 08 00:   LATEROLOG-8 RES.
 ILM .OHMM   07 120 44 00:   INDUCTION LOG MEDIUM
 CALD.IN     45 280 60 00:   CALIPER
 GRD .GAPI   45 310 01 00:   GAMMA RAY FROM DENSITY LOG
 RHOB.G/C3   45 350 01 00:   BULK DENSITY
 DPHI.DEC    45 890 12 00:   DENSITY POROSITY SANDSTONE
 CORR.G/C3   45 356 01 00:   DENSITY CORRECTION
~PARAMETER INFORMATION
#MNEM.UNIT          VALUE    DESCRIPTION
#----------   ------------   ------------------------------
 PD  .                 GL:   PERMANENT DATUM
 EPD .F              5084:   ELEVATION PERMANENT DATUM
 LMF .                 KB:   LOG MEASURED FROM
 DAPD.F                12:   FEET ABOVE PERMANENT DATUM
 DMF .                 KB:   DRILLING MEASURED FROM
 EKB .F              5096:   KELLING BUSHING
 EGL .F              5084:   GROUND LEVEL
 DATE.            8-12-67:   RUN DATE
 RUN .                  2:   RUN NUMBER
 DD  .F              3380:   DEPTH DRILLER
 DL  .F              3371:   DEPTH LOGGER
 BLI .F              3368:   BOTTOM LOG INTERVAL
 TLI .F               630:   TOP LOG INTERVAL
 CS  .IN            10.75:   CASING SIZE
 CBD .F               643:   CASING BOTTOM DRILLER
 BS  .IN            9.875:   BIT SIZE
 BSD .F              3380:   BIT SIZE AT DEPTH
 DFT .               CHEM:   DRILLING FLUID TYPE
 DFD .                9.4:   DRILLING FLUID DENSITY
 DFV .                 48:   DRILLING FLUID VISCOSITY
 DFPH.                8.5:   DRILLING FLUID PH
 DFL .                3.6:   DRILLING FLUID LOSS
 MSS .          FLOW LINE:   MUD SAMPLE SOURCE
 RMS .OHMM           2.81:   RESISTIVITY MUD SAMPLE
 MST .F                88:   MUD SAMPLE TEMPERATURE
 RMF .OHMM            1.7:   RESISTIVITY MUD FILTRATE SAMPLE
 MFST.F                86:   MUD FILTRATE SAMPLE TEMPERATURE
 MFSS.                  M:   MUD FILTRATE SAMPLE SOURCE
 RMB .OHMM           2.03:   RESISTIVITY MUD AT BHT
 BHT .F               122:   BOTTOM HOLE TEMPERATURE
 TCS .HRS             2.5:   TIME CURCULATED STOPPED
 MRT .F               122:   MAXIMUM RECORDED TEMPERATURE
 LUN .               7030:   LOGGING UNIT NUMBER
 LUL .               CSPR:   LOGGING UNIT LOCATION
 ENGI.             SCHODE:   RECORDING ENGINEER
 WITN.                MAY:   WITNESSED BY
 CLNT.            A2DTECH:   CLIENT CODE
 ORIG.   1" 2.5" 5" PRINT:   ORIGIN OF DATA
 UWI .       490251023200:   UNIQUE WELL ID
 DICO. A2D Technologies, Inc.:   DIGITIZING COMPANY
~OTHER INFORMATION
~A   DEPT      SPR        ILD        ASN       CILD        LL8        ILM       CALD         GRD      RHOB       DPHI       CORR   
# ...
  762.0000   -42.9594     8.9365  -999.2500  -999.2500     9.4563     9.1214    12.5472    75.1960     2.5587     0.0586     0.0349
  762.5000   -42.9491     8.8605  -999.2500  -999.2500     9.4200     9.0703    12.5472    79.8788     2.5529     0.0547     0.0505
  763.0000   -42.9388     8.7851  -999.2500  -999.2500     9.3839     9.0195    12.5472    83.5420     2.5478     0.0626     0.0577
  763.5000   -42.9285     8.7104  -999.2500  -999.2500     9.3478     8.9689    12.5472    81.8436     2.5558     0.0590     0.0387
  764.0000   -42.9182     8.6363  -999.2500  -999.2500     9.3120     8.9186    12.5472    79.3326     2.5622     0.0547     0.0288
  764.5000   -42.9079     8.5628  -999.2500  -999.2500     9.2762     8.8686    12.5472    78.1092     2.5431     0.0595     0.0371
  765.0000   -42.8977     8.4900  -999.2500  -999.2500     9.2406     8.8297    12.5472    79.1879     2.5245     0.0854     0.0345
  765.5000   -42.8874     8.4165  -999.2500  -999.2500     9.2050     8.8099    12.5472    79.9471     2.5103     0.0838     0.0242
  766.0000   -42.8771     8.3698  -999.2500  -999.2500     9.1696     8.7910    12.5472    80.7598     2.5095     0.0815     0.0156
  766.5000   -42.8668     8.3700  -999.2500  -999.2500     9.1347     8.7713    12.5472    81.6606     2.5141     0.0854     0.0052
  767.0000   -42.8565     8.3703  -999.2500  -999.2500     9.0996     8.7515    12.5472    82.2300     2.5189     0.0810     0.0066
  767.5000   -42.8462     8.3707  -999.2500  -999.2500     9.0643     8.7319    12.5472    82.3045     2.5243     0.0766     0.0210
  768.0000   -42.8359     8.3591  -999.2500  -999.2500     9.0299     8.7124    12.5472    82.4594     2.5238     0.0786     0.0279
  768.5000   -42.8256     8.3218  -999.2500  -999.2500     8.9955     8.6929    12.5472    82.5717     2.5153     0.0831     0.0243
  769.0000   -42.8153     8.2845  -999.2500  -999.2500     9.0032     8.6734    12.5472    82.7305     2.5145     0.0823     0.0184
  769.5000   -42.8050     8.2474  -999.2500  -999.2500     9.1407     8.6540    12.5472    82.8811     2.5169     0.0802     0.0150
  770.0000   -42.7947     8.2104  -999.2500  -999.2500     9.0938     8.6347    12.5472    81.8584     2.5229     0.0784     0.0233
  770.5000   -42.7844     8.1735  -999.2500  -999.2500     8.8523     8.6154    12.5472    78.2632     2.5410     0.0702     0.0320
  771.0000   -42.7741     8.1367  -999.2500  -999.2500     8.6866     8.5961    12.5472    78.5408     2.5419     0.0658     0.0377
  771.5000   -42.7639     8.1002  -999.2500  -999.2500     8.7145     8.5769    12.5472    79.9590     2.5375     0.0682     0.0384
  772.0000   -42.7536     8.0737  -999.2500  -999.2500     8.7425     8.5577    12.5473    79.2682     2.5316     0.0718     0.0361
  772.5000   -42.7433     8.0997  -999.2500  -999.2500     8.7705     8.5290    12.5472    76.5831     2.5264     0.0754     0.0277
  773.0000   -42.7330     8.1606  -999.2500  -999.2500     8.7987     8.5322    12.5473    75.4644     2.5204     0.0776     0.0195
  773.5000   -42.7227     8.2224  -999.2500  -999.2500     8.8251     8.5667    12.5473    74.9976     2.5213     0.0752     0.0110
  774.0000   -42.7124     8.2841  -999.2500  -999.2500     8.9351     8.6016    12.5472    75.5491     2.5265     0.0734     0.0072
  774.5000   -42.7021     8.3463  -999.2500  -999.2500     9.0975     8.6367    12.5476    76.6697     2.5320     0.0711     0.0138
  775.0000   -42.6918     8.4089  -999.2500  -999.2500     9.1629     8.6720    12.5434    79.3662     2.5325     0.0690     0.0201
  775.5000   -42.6814     8.4720  -999.2500  -999.2500     9.1633     8.7073    12.5360    80.1519     2.5323     0.0698     0.0266
  776.0000   -42.6713     8.5355  -999.2500  -999.2500     9.1635     8.7431    12.5291    78.6969     2.5328     0.0713     0.0330
  776.5000   -42.6610     8.5996  -999.2500  -999.2500     9.1635     8.7796    12.5220    77.4638     2.5367     0.0654     0.0397
  777.0000   -42.6587     8.6637  -999.2500  -999.2500     9.1634     8.8155    12.5152    77.4009     2.5646     0.0567     0.0442
  777.5000   -42.6587     8.6346  -999.2500  -999.2500     9.1633     8.8384    12.5085    77.3602     2.5745     0.0494     0.0416
  778.0000   -42.6588     8.5767  -999.2500  -999.2500     9.1632     8.8381    12.5119    77.3927     2.5571     0.0559     0.0283
  778.5000   -42.6590     8.5192  -999.2500  -999.2500     9.1631     8.8378    12.5157    77.3050     2.5365     0.0684     0.0156
  779.0000   -42.6583     8.4621  -999.2500  -999.2500     9.1632     8.8378    12.5200    75.9022     2.5138     0.0809     0.0032
  779.5000   -42.6584     8.4054  -999.2500  -999.2500     9.1631     8.8378    12.5240    75.0073     2.5041     0.0871     0.0080
  780.0000   -42.6236     8.3490  -999.2500  -999.2500     9.1631     8.8374    12.5280    77.4012     2.5143     0.0839     0.0366
  780.5000   -42.5759     8.2931  -999.2500  -999.2500     9.1631     8.8396    12.5322    79.8479     2.5166     0.0800     0.0311
  781.0000   -42.5285     8.2375  -999.2500  -999.2500     9.1631     8.8343    12.5362    81.9938     2.5110     0.0831     0.0185
  781.5000   -42.4818     8.2209  -999.2500  -999.2500     9.1631     8.8781    12.5403    81.1422     2.5062     0.0902     0.0061
  782.0000   -42.4344     8.2969  -999.2500  -999.2500     9.1631     8.9430    12.5449    80.3239     2.5073     0.0871     0.0057
  782.5000   -42.3873     8.4534  -999.2500  -999.2500     8.9989     9.0083    12.5412    79.3925     2.5108     0.0831     0.0116
  783.0000   -42.3408     8.6128  -999.2500  -999.2500     9.0954     9.0725    12.5191    79.0214     2.5131     0.0825     0.0172
  783.5000   -42.2907     8.7752  -999.2500  -999.2500     9.3017     9.1366    12.4981    80.5214     2.5101     0.0844     0.0224
  784.0000   -42.2551     8.9408  -999.2500  -999.2500     9.5126     9.2015    12.4759    81.8744     2.5088     0.0850     0.0173
  784.5000   -42.3037     8.9989  -999.2500  -999.2500     9.7283     9.2670    12.4656    82.9424     2.5134     0.0835     0.0122
  785.0000   -42.3936     9.0503  -999.2500  -999.2500     9.8504     9.3330    12.4574    82.9421     2.5229     0.0760     0.0177
  785.5000   -42.4787     9.1114  -999.2500  -999.2500     9.8504     9.3993    12.4484    83.2731     2.5255     0.0768     0.0243
  786.0000   -42.5646     9.1729  -999.2500  -999.2500     9.8504     9.4661    12.4398    83.6609     2.5151     0.0808     0.0215
  786.5000   -42.6508     9.2348  -999.2500  -999.2500     9.8048     9.5333    12.4299    83.1866     2.5105     0.0848     0.0175
  787.0000   -42.7370     9.2971  -999.2500  -999.2500     9.7318     9.6011    12.4317    82.1918     2.5118     0.0831     0.0139
  787.5000   -42.8225     9.3599  -999.2500  -999.2500     9.6739     9.6693    12.4345    82.5585     2.5136     0.0799     0.0100
  788.0000   -42.9087     9.4230  -999.2500  -999.2500     9.8487     9.7380    12.4378    84.4101     2.5290     0.0738     0.0225
  788.5000   -42.9968     9.5006  -999.2500  -999.2500    10.2170     9.8378    12.4407    84.0873     2.5417     0.0613     0.0366
  789.0000   -43.0487     9.4148  -999.2500  -999.2500    10.2100     9.5139    12.4438    83.8485     2.5539     0.0541     0.0533
  789.5000   -43.0224     9.1923  -999.2500  -999.2500    10.2184     9.3849    12.4469    83.0622     2.5474     0.0603     0.0540
  790.0000   -42.9991     8.9750  -999.2500  -999.2500     9.5861     9.2533    12.4499    81.7230     2.5340     0.0665     0.0457
  790.5000   -42.9735     8.7629  -999.2500  -999.2500     9.1598     9.1230    12.4530    80.4910     2.5339     0.0697     0.0346
  791.0000   -42.9484     8.5558  -999.2500  -999.2500     9.1458     8.9951    12.4560    79.1754     2.5498     0.0602     0.0402
  791.5000   -42.9236     8.3536  -999.2500  -999.2500     9.1266     8.8700    12.4591    77.9880     2.5539     0.0555     0.0516
  792.0000   -42.8985     8.2209  -999.2500  -999.2500     9.1068     8.7402    12.4622    76.7499     2.5360     0.0663     0.0434
