~VERSION INFORMATION
 VERS.                2.0:   CWLS LOG ASCII STANDARD - VERSION 2.0
 WRAP.                 NO:   ONE LINE PER DEPTH STEP
~WELL INFORMATION
#MNEM.UNIT      DATA TYPE    INFORMATION
#----------   ------------   ------------------------------
 STRT.F           66.0000:   START DEPTH
 STOP.F          814.0000:   STOP DEPTH
 STEP.F            0.5000:   STEP LENGTH
 NULL.          -999.2500:   NO VALUE
 COMP.   FLUOR DANIEL INC:   COMPANY
 WELL. NAVAL PETROLEUM RESERVE 3 SX-2 #32-11-2:   WELL
 FLD .        N.P.R NO. 3:   FIELD
 LOC .       S2 T38N R78W:   LOCATION
 CNTY.            NATRONA:   COUNTY
 STAT.            WYOMING:   STATE
 CTRY. UNITED STATES OF AMERICA:   COUNTRY
 SRVC.      Dresser Atlas:   SERVICE COMPANY
 DATE.        15-AUG-1985:   LOGDATE
 API .       490251104000:   API NUMBER
~CURVE INFORMATION
#MNEM.UNIT       API CODE    CURVE DESCRIPTION
#----------   ------------   ------------------------------
 DEPT.F                  :   
 SPR .MV     07 010 01 00:   SPONTANEOUS POTENTIAL
 RILD.OHMM   07 120 46 00:   INDUCTION LOG DEEP RESISTIVITY
 RILM.OHMM   07 120 44 00:   INDUCTION LOG MEDIUM RESISTIVITY
 RFOC.OHMM   07 220 04 00:   RESISTIVITY FOCUSED LOG
 PORD.DEC    45 890 12 00:   POROSITY DENSITY SANDSTONE
 CNC .DEC    42 890 03 00:   NEUTRON POROSITY SANDSTONE
 GRD .GAPI   45 310 01 00:   GAMMA RAY FROM DENSITY LOG
 CALD.IN     45 280 60 00:   CALIPER FROM DENSITY LOG
 CORR.G/C3   45 356 01 00:   DENSITY CORRECTION
 DEN .G/C3   45 350 01 00:   COMPENSATED BULK DENSTIY
~PARAMETER INFORMATION
#MNEM.UNIT          VALUE    DESCRIPTION
#----------   ------------   ------------------------------
 PD  .                 GL:   PERMANENT DATUM
 EPD .F              5113:   ELEVATION PERMANENT DATUM
 LMF .                 GL:   LOG MEASURED FROM
 DMF .                 GL:   DRILLING MEASURED FROM
 EGL .F              5113:   GROUND LEVEL
 DATE.            8-15-85:   RUN DATE
 RUN .                  1:   RUN NUMBER
 DD  .F               817:   DEPTH DRILLER
 DL  .F               817:   DEPTH LOGGER
 BLI .F               814:   BOTTOM LOG INTERVAL
 CS  .IN            8.625:   CASING SIZE
 CBD .F                79:   CASING BOTTOM DRILLER
 CBL .F                79:   CASING BOTTOM LOGGER
 BS  .IN            7.875:   BIT SIZE
 BSD .F               817:   BIT SIZE AT DEPTH
 DFT .          KCL WATER:   DRILLING FLUID TYPE
 MSS .               TANK:   MUD SAMPLE SOURCE
 RMS .OHMM            .25:   RESISTIVITY MUD SAMPLE
 MST .F                70:   MUD SAMPLE TEMPERATURE
 BHT .F               100:   BOTTOM HOLE TEMPERATURE
 TCS .HRS               2:   TIME CURCULATED STOPPED
 MRT .F               100:   MAXIMUM RECORDED TEMPERATURE
 LUN .            HL-6274:   LOGGING UNIT NUMBER
 LUL .           GILLETTE:   LOGGING UNIT LOCATION
 ENGI.             RAUTIO:   RECORDING ENGINEER
 WITN.           JENNINGS:   WITNESSED BY
 CLNT.            A2DTECH:   CLIENT CODE
 ORIG.       2", 5" PRINT:   ORIGIN OF DATA
 UWI .       490251104000:   UNIQUE WELL ID
 DICO. A2D Technologies, Inc.:   DIGITIZING COMPANY
~OTHER INFORMATION
~A   DEPT      SPR       RILD       RILM       RFOC       PORD        CNC        GRD       CALD       CORR        DEN   
# ...
  267.0000   -36.4636     6.5112     6.5094     7.0282     0.1444     0.3203   102.3980     8.2988    -0.0149     2.4287
  267.5000   -36.7753     6.6494     6.6483     6.9817     0.1475     0.3294   106.5912     8.2981    -0.0029     2.4234
  268.0000   -37.0929     6.6967     6.7427     7.0339     0.1514     0.3318   105.3812     8.2975     0.0077     2.4218
  268.5000   -37.2168     6.7446     6.7911     7.1353     0.1538     0.3176   102.0691     8.2969     0.0137     2.4256
  269.0000   -37.0634     6.7926     6.7925     7.2381     0.1517     0.3128    99.9319     8.3264     0.0077     2.4301
  269.5000   -36.7589     6.7935     6.8409     7.4972     0.1480     0.3104    99.9493     8.3409    -0.0103     2.4283
  270.0000   -36.6059     6.7944     6.7949     7.7655     0.1463     0.3085   101.1395     8.3706    -0.0223     2.4248
  270.5000   -36.6044     6.7954     6.7966     7.8774     0.1505     0.3173   102.3319     8.3096    -0.0239     2.4240
  271.0000   -36.7548     6.7963     6.7509     7.8807     0.1532     0.3207   100.8216     8.2638    -0.0208     2.4292
  271.5000   -36.7530     6.7501     6.7055     7.8292     0.1517     0.3143    97.5095     8.2632    -0.0084     2.4352
  272.0000   -36.7515     6.6534     6.6607     7.6707     0.1457     0.3043    95.3986     8.2627     0.0198     2.4390
  272.5000   -36.7500     6.4761     6.5246     7.5162     0.1415     0.2971    96.8913     8.2771     0.0454     2.4389
  273.0000   -36.7482     6.4319     6.3470     7.3131     0.1436     0.2944   100.7864     8.2916     0.0559     2.4366
  273.5000   -36.7467     6.3438     6.2603     7.2646     0.1451     0.2972   103.4805     8.2909     0.0424     2.4359
  274.0000   -36.8971     6.2572     6.1751     7.2172     0.1445     0.3092   103.7718     8.3053     0.0139     2.4381
  274.5000   -36.8953     6.2145     6.1715     7.1708     0.1421     0.3226   103.4394     8.3199    -0.0117     2.4388
  275.0000   -37.0457     6.2155     6.1779     7.0747     0.1406     0.3274   103.8038     8.3192    -0.0192     2.4379
  275.5000   -37.1954     6.2598     6.2657     7.0777     0.1436     0.3283   105.2468     8.3338    -0.0101     2.4372
  276.0000   -37.1939     6.3484     6.3993     7.0812     0.1436     0.3299   104.0346     8.3481     0.0080     2.4410
  276.5000   -37.1924     6.4384     6.5355     7.0350     0.1420     0.3262    98.9207     8.3476     0.0124     2.4477
  277.0000   -37.1909     6.4842     6.6283     7.0869     0.1352     0.3197    98.0132     8.3470     0.0095     2.4552
  277.5000   -37.1891     6.5303     6.6759     7.2392     0.1312     0.3135   102.8070     8.3464     0.0155     2.4589
  278.0000   -37.1876     6.6227     6.6773     7.3947     0.1294     0.3090   104.0016     8.3307     0.0230     2.4596
  278.5000   -37.1861     6.7164     6.6786     7.5013     0.1297     0.3057   101.8884     8.3151     0.0275     2.4573
  279.0000   -37.1847     6.7642     6.7266     7.5567     0.1334     0.3105   101.5793     8.2994     0.0290     2.4543
  279.5000   -37.3351     6.8599     6.7749     7.5598     0.1346     0.3157   102.7717     8.2836     0.0306     2.4513
  280.0000   -37.4847     6.8640     6.8238     7.3554     0.1355     0.3187   103.6638     8.2830     0.0291     2.4474
  280.5000   -37.6348     7.0067     6.9208     7.3592     0.1373     0.3088   103.9553     8.2824     0.0231     2.4444
  281.0000   -37.7848     7.1058     7.0191     7.5697     0.1394     0.2981   101.8422     8.2969     0.0155     2.4452
  281.5000   -37.7833     7.2566     7.1188     7.8406     0.1376     0.2930    99.1307     8.3114     0.0000     2.4474
  282.0000   -37.9334     7.4107     7.2199     7.8985     0.1304     0.2869    98.2232     8.3108    -0.0159     2.4556
  282.5000   -37.9315     7.4634     7.3225     7.9569     0.1270     0.2912   100.9149     8.3102    -0.0084     2.4624
  283.0000   -37.9301     7.5165     7.3750     8.0156     0.1292     0.2961   101.2085     8.3096     0.0021     2.4631
  283.5000   -37.7771     7.5700     7.4301     8.0748     0.1325     0.2959    96.0924     8.3090     0.0127     2.4578
  284.0000   -37.7756     7.6239     7.5336     8.1344     0.1361     0.2885    88.8764     8.2934     0.0157     2.4533
  284.5000   -37.7741     7.6252     7.5354     8.2517     0.1373     0.2870    86.7655     8.2928    -0.0053     2.4502
  285.0000   -37.6211     7.6262     7.5369     8.3714     0.1361     0.2897    89.1591     8.2922    -0.0113     2.4509
  285.5000   -37.6197     7.5741     7.4859     8.4332     0.1331     0.2952    92.8048     8.2915    -0.0038     2.4532
  286.0000   -37.4667     7.4705     7.4355     8.2625     0.1304     0.2991    95.5356     8.2909     0.0039     2.4571
  286.5000   -37.3136     7.3683     7.3347     7.9835     0.1292     0.2995    94.8362     8.2903     0.0127     2.4606
  287.0000   -37.3118     7.2674     7.1848     7.9306     0.1301     0.2964    93.3258     8.2897     0.0188     2.4591
  287.5000   -37.3104     7.2182     7.0870     7.8796     0.1313     0.2852    93.0167     8.2891     0.0218     2.4583
  288.0000   -37.3089     7.1175     7.0394     7.8829     0.1319     0.2795    93.3082     8.2885     0.0233     2.4590
  288.5000   -37.3074     7.0221     6.9439     7.8861     0.1271     0.2792    94.8009     8.3030     0.0218     2.4620
  289.0000   -37.3059     6.9262     6.8020     7.7712     0.1244     0.2880    96.8942     8.3024     0.0308     2.4650
  289.5000   -37.4563     6.8791     6.7559     7.4663     0.1217     0.2994    98.6872     8.3018     0.0414     2.4694
  290.0000   -37.4545     6.8801     6.7576     7.2142     0.1235     0.3059   100.4802     8.3012     0.0399     2.4732
  290.5000   -37.4530     6.8331     6.8061     7.1175     0.1286     0.3092    97.7687     8.2993     0.0140     2.4679
  291.0000   -37.4515     6.9300     6.8550     7.2704     0.1321     0.3044    95.9580     8.2849    -0.0039     2.4603
  291.5000   -37.4497     6.9793     6.9042     7.5306     0.1349     0.3147    96.0311     8.2842    -0.0036     2.4549
  292.0000   -37.2967     7.0290     6.9538     7.7461     0.1349     0.3280    98.9412     8.2686     0.0099     2.4528
  292.5000   -37.1437     7.0299     7.0041     7.6422     0.1322     0.3317   102.5360     8.2680     0.0445     2.4565
  293.0000   -37.1422     7.0311     7.0543     7.2318     0.1301     0.3081    98.3230     8.2826     0.0550     2.4595
  293.5000   -36.9893     7.0811     7.1050     7.5436     0.1295     0.2987    95.3112     8.2819     0.0340     2.4602
  294.0000   -36.9878     7.0821     7.1560     7.7057     0.1301     0.3017    94.4037     8.2813     0.0160     2.4602
  294.5000   -36.8348     7.1325     7.1075     7.8167     0.1307     0.3169    97.0954     8.2807    -0.0020     2.4586
  295.0000   -36.8333     7.0838     7.0597     7.8199     0.1307     0.3196    97.9897     8.2801    -0.0140     2.4586
  295.5000   -36.8318     7.0358     6.9640     7.8776     0.1292     0.3193    96.7775     8.2795    -0.0046     2.4608
  296.0000   -36.6788     6.9880     6.9654     7.8255     0.1271     0.3152    97.9698     8.2940     0.0168     2.4623
  296.5000   -36.6770     6.9890     6.9186     7.7167     0.1262     0.3001   102.4655     8.3084     0.0296     2.4645
  297.0000   -36.6755     7.0389     6.9686     7.6002     0.1277     0.2842   100.2401     8.3078     0.0266     2.4643
  297.5000   -36.6740     7.1385     7.0186     7.5106     0.1332     0.2781    97.0403     8.3222     0.0296     2.4577
  298.0000   -36.6726     7.1395     7.1183     7.4149     0.1344     0.2769    98.8333     8.3216     0.0401     2.4524
  298.5000   -36.6711     7.0909     7.1197     7.4187     0.1308     0.2866   101.8275     8.3210     0.0462     2.4539
  299.0000   -36.8215     7.0919     7.1709     7.4735     0.1259     0.2994   100.9178     8.3204     0.0296     2.4651
  299.5000   -36.9712     7.0928     7.1723     7.7409     0.1229     0.2988   100.0081     8.3048     0.0131     2.4704
  300.0000   -37.1212     7.0938     7.1738     7.9073     0.1211     0.2906    98.4909     8.3030    -0.0064     2.4695
