~VERSION INFORMATION
 VERS.                2.0:   CWLS LOG ASCII STANDARD - VERSION 2.0
 WRAP.                 NO:   ONE LINE PER DEPTH STEP
~WELL INFORMATION
#MNEM.UNIT      DATA TYPE    INFORMATION
#----------   ------------   ------------------------------
 STRT.F            8.5000:   START DEPTH
 STOP.F          509.0000:   STOP DEPTH
 STEP.F            0.5000:   STEP LENGTH
 NULL.          -999.2500:   NO VALUE
 COMP. LAWRENCE-ALLISON &AS:   COMPANY
 WELL. NPR 3 #68-26SX3LP2:   WELL
 FLD .             TEAPOT:   FIELD
 LOC .       S3 T38N R78W:   LOCATION
 CNTY.            NATRONA:   COUNTY
 STAT.            WYOMING:   STATE
 CTRY. UNITED STATES OF AMERICA:   COUNTRY
 SRVC.      Dresser Atlas:   SERVICE COMPANY
 DATE.        12-DEC-1984:   LOGDATE
 API .       490251099600:   API NUMBER
~CURVE INFORMATION
#MNEM.UNIT       API CODE    CURVE DESCRIPTION
#----------   ------------   ------------------------------
 DEPT.F                  :   
 CNC .DEC    42 890 03 00:   NEUTRON POROSITY SANDSTONE
 CALD.IN     45 280 60 00:   CALIPER FROM DENSITY LOG
 CORR.G/C3   45 356 01 00:   DENSITY CORRECTION
 GRD .GAPI   45 310 01 00:   GAMMA RAY FROM DENSITY LOG
 PORD.DEC    45 890 12 00:   POROSITY DENSITY SANDSTONE
 RHOB.G/C3   45 350 01 00:   BULK DENSITY
 DT  .US/F   60 520 00 00:   INTERVAL TRANSIT TIME
 SPR .MV     11 010 01 00:   SPONTANEOUS POTENTIAL FROM RES.
 RS  .OHMM   11 220 09 00:   RESISTIVITY SHALLOW
 RD  .OHMM   11 220 10 00:   RESISTIVITY DEEP
~PARAMETER INFORMATION
#MNEM.UNIT          VALUE    DESCRIPTION
#----------   ------------   ------------------------------
 PD  .                 GL:   PERMANENT DATUM
 EPD .F              5158:   ELEVATION PERMANENT DATUM
 LMF .                 GL:   LOG MEASURED FROM
 DMF .                 GL:   DRILLING MEASURED FROM
 EGL .F              5158:   GROUND LEVEL
 DATE.        12-DEC-1984:   RUN DATE
 RUN .                  1:   RUN NUMBER
 DD  .F               510:   DEPTH DRILLER
 DL  .F               510:   DEPTH LOGGER
 BLI .F               501:   BOTTOM LOG INTERVAL
 TLI .F                20:   TOP LOG INTERVAL
 CS  .IN            8.625:   CASING SIZE
 CBD .F                20:   CASING BOTTOM DRILLER
 CBL .F                20:   CASING BOTTOM LOGGER
 BS  .IN            7.875:   BIT SIZE
 BSD .F               510:   BIT SIZE AT DEPTH
 DFT .          KCL/WATER:   DRILLING FLUID TYPE
 MSS .            MUDTANK:   MUD SAMPLE SOURCE
 RMS .OHMM           0.21:   RESISTIVITY MUD SAMPLE
 MST .F                70:   MUD SAMPLE TEMPERATURE
 RMF .OHMM           0.16:   RESISTIVITY MUD FILTRATE SAMPLE
 MFST.F                70:   MUD FILTRATE SAMPLE TEMPERATURE
 RMC .OHMM           0.26:   RESISTIVITY MUD CAKE
 MCST.F                70:   MUD CAKE SAMPLE TEMPERATURE
 MFSS.               CALC:   MUD FILTRATE SAMPLE SOURCE
 MCSS.               CALC:   MUD CAKE SAMPLE SOURCE
 RMB .OHMM           0.17:   RESISTIVITY MUD AT BHT
 BHT .F                85:   BOTTOM HOLE TEMPERATURE
 TCS .HRS               6:   TIME CURCULATED STOPPED
 MRT .F               100:   MAXIMUM RECORDED TEMPERATURE
 LUN .               6270:   LOGGING UNIT NUMBER
 LUL .                 FM:   LOGGING UNIT LOCATION
 ENGI.           E.GOVETT:   RECORDING ENGINEER
 WITN.              LUERS:   WITNESSED BY
 CLNT.            A2DTECH:   CLIENT CODE
 ORIG.           5" PRINT:   ORIGIN OF DATA
 UWI .       490251099600:   UNIQUE WELL ID
 DICO. A2D Technologies, Inc.:   DIGITIZING COMPANY
~OTHER INFORMATION
~A    DEPT     CNC       CALD       CORR        GRD       PORD       RHOB          DT       SPR         RS         RD   
# ...
   42.0000     0.0470     7.6950    -0.0004   185.6998     0.1685     2.3897   183.1140   -50.2675    23.3312   605.9630
   42.5000     0.0469     7.7244     0.0073   182.3056     0.1739     2.3800   183.4762   -50.7120    23.3438   606.3321
   43.0000     0.0475     7.7558     0.0150   180.9886     0.1796     2.3764   183.7634   -51.3051    23.3565   598.3566
   43.5000     0.0493     7.7575     0.0240   180.8539     0.1783     2.3825   183.9754   -52.3068    23.5316   594.4987
   44.0000     0.0508     7.7445     0.0211   181.4703     0.1714     2.3991   188.8456   -52.7409    23.5444   611.6622
   44.5000     0.0517     7.7462     0.0002   182.2304     0.1583     2.4307   211.6722   -53.1779    23.7210   629.2253
   45.0000     0.0510     7.7327    -0.0116   183.4357     0.1453     2.4353   219.7764   -53.6091    23.7340   633.9903
   45.5000     0.0501     7.7196    -0.0160   183.1572     0.1554     2.4226   215.9280   -53.8946    23.7472   638.7784
   46.0000     0.0489     7.7218    -0.0083   182.8783     0.1656     2.4039   200.0619   -54.0344    23.9280   613.2475
   46.5000     0.0473     7.7532    -0.0037   184.2324     0.1689     2.3988   160.2288   -54.3199    23.7724   596.8569
   47.0000     0.0464     7.7401    -0.0080   191.0918     0.1695     2.3980   141.0569   -54.4568    23.7885   593.0989
   47.5000     0.0467     7.7419    -0.0004   196.6302     0.1698     2.3967   132.4774   -54.7423    23.8014   581.2583
   48.0000     0.0476     7.7436     0.0253   197.9371     0.1680     2.3960   132.7646   -54.7277    23.6467   557.9413
   48.5000     0.0478     7.7305     0.0329   194.8368     0.1667     2.3999   132.9048   -54.2703    23.6627   543.0289
   49.0000     0.0481     7.7327     0.0346   192.7854     0.1655     2.4045   124.6237   -53.8093    23.5088   528.5151
   49.5000     0.0496     7.7344     0.0377   192.6508     0.1571     2.4143   117.8485   -53.5037    23.5247   517.9563
   50.0000     0.0505     7.7510     0.0529   192.2286     0.1405     2.4302   116.2573   -53.1947    23.3749   514.7026
   50.5000     0.0498     7.7676     0.0423   188.6860     0.1314     2.4506   116.0186   -53.1805    23.0511   515.0234
   51.0000     0.0486     7.7545     0.0258   183.5115     0.1288     2.4619   115.8549   -53.0203    22.9188   508.3191
   51.5000     0.0495     7.7563     0.0168   180.5624     0.1339     2.4582   115.6162   -52.8600    22.9343   505.0417
   52.0000     0.0516     7.7580     0.0249   178.3552     0.1426     2.4403   115.0769   -52.9969    23.1063   498.3985
   52.5000     0.0518     7.7746     0.0371   175.9996     0.1410     2.4412   114.3873   -53.2853    23.1188   502.2442
   53.0000     0.0515     7.7912     0.0387   175.2715     0.1389     2.4442   113.6216   -53.5708    22.9716   506.0424
   53.5000     0.0503     7.7929     0.0169   179.5970     0.1407     2.4496   112.6315   -53.7077    22.9841   506.3507
   54.0000     0.0481     7.7947    -0.0105   186.5886     0.1509     2.4279   112.0922   -53.8447    22.9965   506.6592
   54.5000     0.0481     7.7668    -0.0209   186.7390     0.1584     2.4070   112.0788   -53.9816    22.8496   489.7144
   55.0000     0.0490     7.7685    -0.0178   177.2780     0.1659     2.3988   112.1439   -54.1156    22.8624   483.2678
   55.5000     0.0492     7.7703    -0.0161   168.5426     0.1701     2.3929   112.1272   -54.1039    23.0262   504.1783
   56.0000     0.0492     7.7428    -0.0160   146.6025     0.1731     2.3907   112.1138   -54.0921    23.2436   525.7986
   56.5000     0.0510     7.7445    -0.0159   144.5436     0.1712     2.3931   112.0253   -53.9316    23.4812   526.1895
   57.0000     0.0528     7.7314    -0.0142   147.1526     0.1703     2.3969   111.7115   -53.7712    23.4892   545.0599
   57.5000     0.0537     7.7179    -0.0036   149.9870     0.1706     2.3993   111.0168   -53.9086    23.6606   549.1820
   58.0000     0.0536     7.7048     0.0055   152.0215     0.1690     2.4031   110.2449   -54.0455    23.8333   538.2180
   58.5000     0.0530     7.7218     0.0102   152.4849     0.1644     2.4100   109.7831   -54.3281    23.5130   527.3926
   59.0000     0.0524     7.7236    -0.0017   152.7999     0.1609     2.4130   109.6294   -54.6136    23.1974   495.9033
   59.5000     0.0517     7.7402    -0.0106   153.8568     0.1595     2.4146   109.8381   -54.4533    22.8765   469.4630
   60.0000     0.0514     7.7419    -0.0164   170.4923     0.1585     2.4095   110.3507   -54.1445    22.5580   456.9154
   60.5000     0.0514     7.7288    -0.0054   175.1100     0.1639     2.4036   110.8632   -53.5384    22.4303   457.1938
   61.0000     0.0511     7.7306    -0.0027   179.5793     0.1687     2.3969   110.9283   -53.2296    22.4398   460.6551
   61.5000     0.0501     7.7323    -0.0100   174.2564     0.1711     2.3902   110.8365   -52.9207    22.4474   457.2978
   62.0000     0.0492     7.7341    -0.0189   153.6515     0.1746     2.3835   110.6729   -52.3147    22.4551   448.6807
   62.5000     0.0482     7.7507    -0.0262   138.3710     0.1788     2.3791   110.3590   -52.0058    22.4627   445.8558
   63.0000     0.0473     7.7529    -0.0291   131.5467     0.1788     2.3830   109.8948   -51.8455    22.4704   439.9911
   63.5000     0.0467     7.7691    -0.0230   129.3348     0.1743     2.3861   109.5058   -51.9822    22.6343   437.1542
   64.0000     0.0473     7.7860    -0.0063   127.2700     0.1734     2.3862   109.4173   -52.1194    22.6420   440.5273
   64.5000     0.0491     7.7725     0.0028   124.0076     0.1740     2.3862   109.5575   -52.5505    22.8073   450.0491
   65.0000     0.0499     7.7594     0.0059   120.1660     0.1742     2.3864   109.6944   -52.6904    22.9737   453.4526
   65.5000     0.0523     7.7616     0.0031   117.9565     0.1730     2.3962   109.7562   -52.9730    22.9815   456.8819
   66.0000     0.0544     7.7633     0.0002   116.9339     0.1673     2.4038   108.3871   -53.1456    22.9893   466.7572
   66.5000     0.0565     7.7651     0.0033   113.6859     0.1625     2.4106   107.0214   -53.3954    22.9973   483.7710
   67.0000     0.0651     7.7668     0.0155   107.0253     0.1588     2.4160   106.1815   -53.5352    22.8461   490.5510
   67.5000     0.0902     7.7686     0.0121    99.7713     0.1576     2.4123   105.4169   -53.3720    22.6960   484.1593
   68.0000     0.1606     7.7555    -0.0157    95.0395     0.1609     2.3981   104.8014   -53.3603    22.5470   474.4934
   68.5000     0.2135     7.7424    -0.0231    95.7974     0.1687     2.3960   104.3336   -53.2001    22.3989   471.4342
   69.0000     0.2666     7.7442    -0.0260    98.6324     0.1705     2.3945   103.8497   -53.1884    22.5642   465.3039
   69.5000     0.2875     7.7311    -0.0213   101.1707     0.1683     2.3984   103.0974   -53.1767    22.5719   472.0807
   70.0000     0.2844     7.7333    -0.0062   101.9285     0.1608     2.4098   102.7171   -53.1649    22.5796   492.4088
   70.5000     0.2702     7.7350     0.0134    97.1108     0.1503     2.4219   102.3281   -53.0045    22.7443   513.6124
   71.0000     0.2653     7.7516     0.0376    87.8696     0.1401     2.4333   100.9623   -52.8440    23.2301   521.0927
   71.5000     0.2656     7.7830     0.0572    85.8085     0.1377     2.4446    99.5215   -52.5327    23.5623   547.3601
   72.0000     0.2665     7.7996     0.0678    86.8630     0.1361     2.4500    98.6065   -51.9267    23.7343   563.4503
   72.5000     0.2704     7.7420     0.0665    89.6981     0.1343     2.4530    98.2175   -51.4692    23.9074   579.2785
   73.0000     0.2755     7.7437     0.0336    90.4559     0.1304     2.4569    97.9036   -51.1604    23.5864   595.9118
   73.5000     0.2764     7.7302     0.0052    90.1752     0.1256     2.4652    97.5146   -50.7030    23.5946   600.3270
   74.0000     0.2733     7.7472    -0.0052    89.7461     0.1223     2.4736    96.9002   -50.6913    23.6044   600.7538
   74.5000     0.2714     7.7638    -0.0125    88.7235     0.1225     2.4721    96.4360   -50.3824    23.4494   596.9713
   75.0000     0.2690     7.7804     0.0034    85.1787     0.1279     2.4640    96.2724   -50.3707    23.4574   597.3350
