~VERSION INFORMATION
 VERS.                2.0:   CWLS LOG ASCII STANDARD - VERSION 2.0
 WRAP.                 NO:   ONE LINE PER DEPTH STEP
~WELL INFORMATION
#MNEM.UNIT      DATA TYPE    INFORMATION
#----------   ------------   ------------------------------
 STRT.F           80.0000:   START DEPTH
 STOP.F          715.0000:   STOP DEPTH
 STEP.F            0.5000:   STEP LENGTH
 NULL.          -999.2500:   NO VALUE
 COMP. U S NAVY-INTEX OIL:   COMPANY
 WELL.     NPR #3 #37-S-2:   WELL
 FLD .             TEAPOT:   FIELD
 LOC .       S2 T38N R78W:   LOCATION
 CNTY.            NATRONA:   COUNTY
 STAT.            WYOMING:   STATE
 CTRY. UNITED STATES OF AMERICA:   COUNTRY
 SRVC.       Schlumberger:   SERVICE COMPANY
 DATE.        21-JUN-1962:   LOGDATE
 API .       490250640600:   API NUMBER
~CURVE INFORMATION
#MNEM.UNIT       API CODE    CURVE DESCRIPTION
#----------   ------------   ------------------------------
 DEPT.F                  :   
 ASN .OHMM   05 041 16 00:   AMPLIFIED SHORT NORMAL 16"
 CILD.MMHO   05 110 46 00:   CONDUCTIVITY INDUCTION LOG DEEP
 ILD .OHMM   05 120 46 00:   INDUCTION LOG DEEP
 SPR .MV     05 010 01 00:   SPONTANEOUS POTENTIAL FROM RES.
 GR  .GAPI   30 310 01 00:   GAMMA RAY
~PARAMETER INFORMATION
#MNEM.UNIT          VALUE    DESCRIPTION
#----------   ------------   ------------------------------
 LMF .                 KB:   LOG MEASURED FROM
 DMF .                 KB:   DRILLING MEASURED FROM
 EKB .F              5159:   KELLING BUSHING
 EGL .F              5154:   GROUND LEVEL
 DATE.        21-JUN-1962:   RUN DATE
 RUN .                  1:   RUN NUMBER
 DD  .F               715:   DEPTH DRILLER
 DL  .F               716:   DEPTH LOGGER
 BLI .F               715:   BOTTOM LOG INTERVAL
 TLI .F                80:   TOP LOG INTERVAL
 BS  .IN             6.75:   BIT SIZE
 BSD .F               715:   BIT SIZE AT DEPTH
 DFT .       OIL-EMULSION:   DRILLING FLUID TYPE
 DFD .                9.3:   DRILLING FLUID DENSITY
 DFV .                 50:   DRILLING FLUID VISCOSITY
 DFL .                3.8:   DRILLING FLUID LOSS
 RMS .OHMM            3.9:   RESISTIVITY MUD SAMPLE
 MST .F                72:   MUD SAMPLE TEMPERATURE
 RMF .OHMM            2.6:   RESISTIVITY MUD FILTRATE SAMPLE
 MFST.F                72:   MUD FILTRATE SAMPLE TEMPERATURE
 RMC .OHMM            5.2:   RESISTIVITY MUD CAKE
 MCST.F                72:   MUD CAKE SAMPLE TEMPERATURE
 TCS .HRS               1:   TIME CURCULATED STOPPED
 LUN .               2503:   LOGGING UNIT NUMBER
 LUL .               CSPR:   LOGGING UNIT LOCATION
 ENGI.             DANNER:   RECORDING ENGINEER
 WITN.          JORGENSEN:   WITNESSED BY
 CLNT.            A2DTECH:   CLIENT CODE
 ORIG.           5" PRINT:   ORIGIN OF DATA
 UWI .       490250640600:   UNIQUE WELL ID
 DICO. A2D Technologies, Inc.:   DIGITIZING COMPANY
~OTHER INFORMATION
~A   DEPT        ASN      CILD         ILD      SPR         GR   
   80.0000     5.0212   204.3905     5.2189   -76.0966  -999.2500
   80.5000     4.8254   207.3712     4.6170   -76.6974  -999.2500
   81.0000     4.6901   214.1352     4.1656   -76.6824  -999.2500
   81.5000     4.5245   243.6538     3.8658   -75.7559  -999.2500
   82.0000     4.3136   280.7876     3.3394   -75.4390  -999.2500
   82.5000     4.1292   332.1485     2.9638   -74.8171  -999.2500
   83.0000     3.8113   367.7027     2.5038   -74.8049  -999.2500
   83.5000     3.3790   429.0145     2.0515   -74.7904  -999.2500
   84.0000     3.1681   456.9929     1.7620   -74.3212  -999.2500
   84.5000     3.1534   463.7592     1.7635   -73.8519  -999.2500
   85.0000     3.2599   464.4779     1.7649   -73.8400  -999.2500
   85.5000     3.3360   460.6252     1.7664   -73.8280  -999.2500
   86.0000     3.2460   453.7552     1.7679   -73.9715  -999.2500
   86.5000     3.1106   440.0669     1.8448   -74.1090  -999.2500
   87.0000     3.1867   405.1666     2.0725   -74.0971  -999.2500
   87.5000     3.7613   363.1946     2.7527   -74.2376  -999.2500
   88.0000     4.1245   314.5861     3.2821   -74.3781  -999.2500
   88.5000     4.2938   257.2708     3.7361   -74.5185  -999.2500
   89.0000     4.3699   228.4310     4.1901   -74.5061  -999.2500
   89.5000     4.4066   216.2579     4.4932   -75.1014  -999.2500
   90.0000     4.4499   215.4615     4.4092   -76.3090  -999.2500
   90.5000     4.4597   221.4572     4.1945   -76.7544  -999.2500
   91.0000     4.4151   228.2236     3.8943   -75.8278  -999.2500
   91.5000     4.4610   234.9899     3.8962   -75.2061  -999.2500
   92.0000     4.5976   234.9380     3.8976   -74.8893  -999.2500
   92.5000     4.5504   233.3710     3.8991   -74.4200  -999.2500
   93.0000     4.4125   233.3182     3.9006   -74.2556  -999.2500
   93.5000     4.2068   236.7905     3.9021   -74.2437  -999.2500
   94.0000     4.1469   251.3842     3.6019   -74.2317  -999.2500
   94.5000     3.9965   267.2415     3.3771   -74.2195  -999.2500
   95.0000     3.8460   287.6442     3.0770   -74.3852  -999.2500
   95.5000     3.7106   320.1681     2.7014   -74.1929  -999.2500
   96.0000     3.5602   344.3586     2.3972   -73.5742  -999.2500
   96.5000     3.3644   408.7007     2.0814   -74.0195  -999.2500
   97.0000     3.1384   454.1034     1.7258   -73.8522  -999.2500
   97.5000     2.9879   470.7139     1.5761   -73.5353  -999.2500
   98.0000     2.9130   474.4629     1.5779   -73.8283  -999.2500
   98.5000     3.0067   460.7616     1.7302   -74.8834  -999.2500
   99.0000     3.0954   444.8007     1.8825   -74.7190  -999.2500
   99.5000     2.9753   426.5670     2.1103   -73.3351  -999.2500
  100.0000     3.0061   408.3333     2.4134   -73.3232  -999.2500
  100.5000     3.4297   372.7577     2.8674   -74.0986  -999.2500
  101.0000     4.0345   317.4850     3.3967   -75.0518  -999.2500
  101.5000     4.2919   256.6496     3.8507   -76.1807  -999.2500
  102.0000     4.5493   227.8099     4.3047   -75.7114  -999.2500
  102.5000     4.7312   202.0004     4.6870   -74.7040  -999.2500
  103.0000     4.8526   198.9183     4.8356   -73.7058  -999.2500
  103.5000     4.8834   198.8664     4.8374   -73.8463  -999.2500
  104.0000     4.8991   201.1003     4.7631   -74.4441  -999.2500
  104.5000     4.9148   203.3081     4.6141   -74.1273  -999.2500
  105.0000     4.9154   209.3169     4.2385   -73.6580  -999.2500
  105.5000     4.8557   219.8711     3.5613   -73.3412  -999.2500
  106.0000     4.7052   237.5455     3.1103   -73.1768  -999.2500
  106.5000     4.4641   270.0379     2.8851   -73.3298  -999.2500
  107.0000     4.0116   314.3995     2.6607   -73.6103  -999.2500
  107.5000     3.6798   356.0143     2.4360   -73.5953  -999.2500
  108.0000     3.4236   374.9018     2.2866   -73.8912  -999.2500
  108.5000     3.2881   378.6378     2.1373   -73.5714  -999.2500
  109.0000     3.4399   378.5860     2.1388   -73.1022  -999.2500
  109.5000     3.5764   377.0190     2.1403   -73.3951  -999.2500
  110.0000     3.4562   371.6641     2.2175   -74.4502  -999.2500
  110.5000     3.3813   352.6728     2.3698   -75.5053  -999.2500
  111.0000     3.7394   318.5300     2.7484   -75.3410  -999.2500
  111.5000     4.0623   294.4089     3.1269   -74.1095  -999.2500
  112.0000     4.1234   257.9698     3.5055   -73.7927  -999.2500
  112.5000     4.2146   233.5130     3.7332   -73.7805  -999.2500
  113.0000     4.3511   229.6733     3.8855   -73.7683  -999.2500
  113.5000     4.5330   228.8638     3.9624   -73.4490  -999.2500
  114.0000     4.7149   227.2968     3.9639   -73.4370  -999.2500
  114.5000     4.8061   224.9722     3.9653   -73.7329  -999.2500
  115.0000     4.8067   221.8900     3.9668   -73.7180  -999.2500
  115.5000     4.7770   221.8382     3.8929   -73.7061  -999.2500
  116.0000     4.7323   224.8166     3.8190   -73.2368  -999.2500
  116.5000     4.6536   232.3405     3.6696   -73.3773  -999.2500
  117.0000     4.4692   243.0759     3.4448   -73.9756  -999.2500
  117.5000     4.3565   253.9016     3.3709   -75.0302  -999.2500
  118.0000     4.1759   272.3235     3.1465   -75.1707  -999.2500
  118.5000     3.9953   289.6959     2.9218   -75.1458  -999.2500
  119.0000     3.9354   305.5531     2.7720   -74.5366  -999.2500
  119.5000     3.8605   310.0467     2.6227   -73.7600  -999.2500
  120.0000     3.7704   309.2372     2.5487   -73.2106  -999.2500
  120.5000     3.6954   309.9430     2.6260   -72.5056  -999.2500
  121.0000     3.7565   312.1638     2.6275   -72.5066  -999.2500
  121.5000     3.6363   319.6877     2.5536   -72.6471  -999.2500
  122.0000     3.4556   333.2722     2.4796   -72.6322  -999.2500
  122.5000     3.4109   339.2809     2.5566   -72.6202  -999.2500
  123.0000     3.4568   338.4697     2.5584   -72.6083  -999.2500
  123.5000     3.4273   340.6794     2.4841   -72.5963  -999.2500
  124.0000     3.3373   351.2336     2.3351   -72.8892  -999.2500
  124.5000     3.2170   370.8787     2.1103   -72.8773  -999.2500
  125.0000     3.1119   408.7057     1.8852   -72.7129  -999.2500
  125.5000     3.0067   441.9871     1.6608   -72.5485  -999.2500
  126.0000     2.9016   479.8140     1.5865   -72.5366  -999.2500
  126.5000     2.7964   494.1561     1.5126   -72.3719  -999.2500
  127.0000     2.7366   490.3164     1.4386   -72.5127  -999.2500
  127.5000     2.7359   466.0221     1.5913   -72.4978  -999.2500
  128.0000     2.8586   442.3030     1.6682   -72.7907  -999.2500
  128.5000     2.9826   422.9017     1.8959   -74.6080  -999.2500
  129.0000     2.9958   393.8838     2.0483   -74.5961  -999.2500
  129.5000     2.9812   363.5289     2.2763   -73.6695  -999.2500
  130.0000     3.1330   308.1740     2.5795   -73.2002  -999.2500
  130.5000     3.6170   276.3040     2.9580   -73.0358  -999.2500
  131.0000     3.9499   259.5854     3.1857   -73.0239  -999.2500
  131.5000     3.9807   251.9578     3.4135   -72.8595  -999.2500
  132.0000     3.9661   254.1787     3.4149   -73.0000  -999.2500
  132.5000     3.9064   262.4602     3.1902   -73.3181  -999.2500
  133.0000     3.8466   274.5295     2.8146   -74.0432  -999.2500
  133.5000     3.8018   288.9922     2.8161   -74.1837  -999.2500
  134.0000     3.7420   304.6974     2.6667   -74.1687  -999.2500
  134.5000     3.6520   330.4216     2.5173   -73.6995  -999.2500
  135.0000     3.5871   352.3394     2.2147   -73.0778  -999.2500
  135.5000     3.4569   382.5906     1.9170   -72.3036  -999.2500
  136.0000     3.3518   398.4478     1.8434   -71.9868  -999.2500
  136.5000     3.2013   431.7292     1.7691   -71.9749  -999.2500
  137.0000     3.0961   433.9631     1.7710   -71.9629  -999.2500
  137.5000     3.0513   422.5346     1.7725   -71.7985  -999.2500
  138.0000     3.1124   408.8464     1.9248   -71.9390  -999.2500
  138.5000     3.2490   392.1279     2.0017   -71.9268  -999.2500
  139.0000     3.3553   373.0607     2.0786   -72.0925  -999.2500
  139.5000     3.4465   343.5457     2.3817   -73.2722  -999.2500
  140.0000     3.5680   307.1108     2.7603   -74.0254  -999.2500
  140.5000     4.2861   275.2408     3.1388   -73.5531  -999.2500
