~VERSION INFORMATION
 VERS.                2.0:   CWLS LOG ASCII STANDARD - VERSION 2.0
 WRAP.                 NO:   ONE LINE PER DEPTH STEP
~WELL INFORMATION
#MNEM.UNIT      DATA TYPE    INFORMATION
#----------   ------------   ------------------------------
 STRT.F           30.0000:   START DEPTH
 STOP.F          506.0000:   STOP DEPTH
 STEP.F            0.5000:   STEP LENGTH
 NULL.          -999.2500:   NO VALUE
 COMP. FENIX & SCISSON INC:   COMPANY
 WELL.    42 SX-3F1 #55-3:   WELL
 FLD .             TEAPOT:   FIELD
 LOC .       S3 T38N R78W:   LOCATION
 CNTY.            NATRONA:   COUNTY
 STAT.            WYOMING:   STATE
 CTRY. UNITED STATES OF AMERICA:   COUNTRY
 SRVC.              Welex:   SERVICE COMPANY
 DATE.        26-MAY-1980:   LOGDATE
 API .       490251082900:   API NUMBER
~CURVE INFORMATION
#MNEM.UNIT       API CODE    CURVE DESCRIPTION
#----------   ------------   ------------------------------
 DEPT.F                  :   
 GRD .GAPI   45 310 01 00:   GAMMA RAY FROM DENSITY LOG
 CALD.IN     45 280 60 00:   CALIPER
 RHOB.G/C3   45 350 01 00:   BULK DENSITY
 CORR.G/C3   45 356 01 00:   DENSITY CORRECTION
 DPHI.DEC    45 890 12 00:   DENSITY POROSITY SANDSTONE
 NPHI.DEC    42 890 03 00:   NEUTRON POROSITY SANDSTONE
 GURD.OHMM   07 220 05 00:   GUARD RESISTIVITY
 ILD .OHMM   07 120 46 00:   INDUCTION LOG DEEP
 ILM .OHMM   07 120 44 00:   INDUCTION LOG MEDIUM
 SPR .MV     07 010 01 00:   SPONTANEOUS POTENTIAL
~PARAMETER INFORMATION
#MNEM.UNIT          VALUE    DESCRIPTION
#----------   ------------   ------------------------------
 PD  .                 GL:   PERMANENT DATUM
 EPD .F              5161:   ELEVATION PERMANENT DATUM
 LMF .                 KB:   LOG MEASURED FROM
 DAPD.F                 4:   FEET ABOVE PERMANENT DATUM
 DMF .                 KB:   DRILLING MEASURED FROM
 EKB .F              5165:   KELLING BUSHING
 EGL .F              5161:   GROUND LEVEL
 DATE.            5-26-80:   RUN DATE
 RUN .                  1:   RUN NUMBER
 DD  .F               500:   DEPTH DRILLER
 DL  .F               502:   DEPTH LOGGER
 BLI .F               500:   BOTTOM LOG INTERVAL
 TLI .F                34:   TOP LOG INTERVAL
 BS  .IN            9.875:   BIT SIZE
 BSD .F               500:   BIT SIZE AT DEPTH
 DFT .          KCL WATER:   DRILLING FLUID TYPE
 DFD .                9.5:   DRILLING FLUID DENSITY
 DFV .                 45:   DRILLING FLUID VISCOSITY
 MSS .            MUD PIT:   MUD SAMPLE SOURCE
 RMS .OHMM            .39:   RESISTIVITY MUD SAMPLE
 MST .F                75:   MUD SAMPLE TEMPERATURE
 RMF .OHMM           .312:   RESISTIVITY MUD FILTRATE SAMPLE
 MFST.F                75:   MUD FILTRATE SAMPLE TEMPERATURE
 RMC .OHMM           .468:   RESISTIVITY MUD CAKE
 MCST.F                75:   MUD CAKE SAMPLE TEMPERATURE
 MFSS.           MEASURED:   MUD FILTRATE SAMPLE SOURCE
 MCSS.           MEASURED:   MUD CAKE SAMPLE SOURCE
 RMB .OHMM            .39:   RESISTIVITY MUD AT BHT
 BHT .F                75:   BOTTOM HOLE TEMPERATURE
 TCS .HRS               2:   TIME CURCULATED STOPPED
 MRT .F                75:   MAXIMUM RECORDED TEMPERATURE
 LUN .               9685:   LOGGING UNIT NUMBER
 LUL .             CASPER:   LOGGING UNIT LOCATION
 ENGI.            TOTHILL:   RECORDING ENGINEER
 WITN.            RHOADES:   WITNESSED BY
 CLNT.            A2DTECH:   CLIENT CODE
 ORIG.           5" PRINT:   ORIGIN OF DATA
 UWI .       490251082900:   UNIQUE WELL ID
 DICO. A2D Technologies, Inc.:   DIGITIZING COMPANY
~OTHER INFORMATION
~A   DEPT      GRD       CALD       RHOB       CORR         DPHI       NPHI      GURD        ILD        ILM       SPR   
# ...
  164.0000   100.6040    10.1694     2.4235    -0.0060     0.1511     0.2799     6.6098     6.3201     6.9291   -39.7502
  164.5000   100.1524    10.1679     2.4098    -0.0159     0.1395     0.2795     6.2194     6.1529     6.7940   -39.7653
  165.0000    99.7003    10.1617     2.4263    -0.0096     0.1283     0.2807     5.7702     6.1348     6.6824   -39.7817
  165.5000    99.2635    10.1556     2.4527     0.0083     0.1150     0.2735     6.4918     6.1161     6.8770   -39.7778
  166.0000    99.6048    10.1530     2.4656     0.0191     0.1067     0.2688     7.7389     6.0967     7.0493   -39.4798
  166.5000   100.0388    10.1558     2.4917     0.0293     0.1109     0.2684     7.6462     6.2124     7.1684   -39.1863
  167.0000   100.4658    10.1586     2.5041     0.0483     0.1205     0.2747     7.5286     6.3347     7.2449   -38.8828
  167.5000    99.3024    10.1613     2.4945     0.0327     0.1171     0.2788     7.6147     6.4594     7.3245   -38.8108
  168.0000    97.9330    10.1641     2.4786     0.0176     0.1125     0.2847     7.8500     6.5866     7.3877   -38.8092
  168.5000    97.6949    10.1669     2.4862     0.0249     0.1077     0.2802     7.9539     6.7163     7.4531   -38.8099
  169.0000    98.6044    10.1696     2.4934     0.0363     0.1085     0.2752     8.0165     6.8485     7.5193   -38.8100
  169.5000    99.4919    10.1705     2.4975     0.0378     0.1155     0.2716     8.0692     6.9544     7.5860   -38.8100
  170.0000   100.3792    10.1658     2.5019     0.0443     0.1218     0.2739     8.1021     7.0153     7.6679   -38.8101
  170.5000   101.2660    10.1613     2.4870     0.0336     0.1280     0.2781     8.1021     7.0759     7.6338   -38.8101
  171.0000   102.1553    10.1568     2.4746     0.0323     0.1364     0.2808     8.1021     7.1256     7.5902   -38.8106
  171.5000   102.4810    10.1519     2.4592     0.0156     0.1392     0.2799     8.1021     7.0615     7.5467   -38.7867
  172.0000   102.3812    10.1365     2.4662     0.0194     0.1419     0.2781     8.0326     6.9969     7.4866   -38.7560
  172.5000   102.2822    10.1198     2.4492     0.0201     0.1352     0.2794     7.7432     6.9328     7.4153   -38.7250
  173.0000   102.2262    10.1032     2.4443     0.0110     0.1388     0.2811     7.6438     6.8694     7.3446   -38.6940
  173.5000   102.6089    10.0866     2.4531     0.0178     0.1332     0.2828     7.5522     6.8062     7.2747   -38.6630
  174.0000   103.0293    10.0700     2.4510     0.0180     0.1388     0.2881     7.4604     6.6420     7.2056   -38.6336
  174.5000   102.8841    10.0533     2.4567     0.0192     0.1454     0.2911     7.3696     6.4424     7.1097   -38.6868
  175.0000   102.5099    10.0361     2.4502     0.0248     0.1543     0.2899     7.2798     6.2476     7.0089   -38.8800
  175.5000   102.2425    10.0502     2.4357     0.0159     0.1490     0.2909     7.1914     6.0405     6.9082   -39.0710
  176.0000   103.1774    10.0708     2.4207     0.0080     0.1503     0.2909     7.0238     5.7691     6.6504   -39.2625
  176.5000   104.1397    10.0917     2.4324     0.0252     0.1505     0.2923     6.6747     5.5115     6.3032   -39.4544
  177.0000   105.0989    10.1125     2.4266     0.0253     0.1541     0.2907     6.0410     5.3168     5.9741   -39.6448
  177.5000   106.0588    10.1314     2.4309     0.0239     0.1544     0.2844     4.9270     5.1687     5.6653   -39.7744
  178.0000   106.9310    10.1448     2.4202     0.0156     0.1460     0.2781     4.0347     5.1687     5.6653   -39.6607
  178.5000   106.7764    10.1594     2.4264     0.0149     0.1400     0.2737     5.2477     5.1673     6.0616   -39.5523
  179.0000   106.5987    10.1742     2.4366     0.0166     0.1337     0.2730     7.0399     5.1671     6.4095   -39.4444
  179.5000   106.4249    10.1889     2.4477     0.0128     0.1283     0.2725     7.3245     5.4007     6.7027   -39.3366
  180.0000   106.2508    10.2037     2.4591     0.0102     0.1229     0.2712     7.3278     5.5991     6.9016   -39.2288
  180.5000   106.0672    10.2130     2.4654     0.0180     0.1164     0.2696     7.3209     5.8051     7.1065   -39.1209
  181.0000   106.3982    10.2173     2.4720     0.0258     0.1248     0.2681     7.9363     6.0186     7.3174   -39.0131
  181.5000   106.8632    10.2214     2.4881     0.0335     0.1217     0.2692     8.1792     6.2399     7.5288   -38.9052
  182.0000   107.3314    10.2256     2.4790     0.0306     0.1172     0.2654     7.8488     6.4693     7.5288   -38.7972
  182.5000   107.4153    10.2299     2.4718     0.0229     0.1189     0.2620     7.8102     6.7072     7.5288   -38.6900
  183.0000   107.0413    10.2308     2.4837     0.0276     0.1159     0.2656     8.0050     6.9538     7.6058   -38.6203
  183.5000   106.6681    10.2308     2.4835     0.0273     0.1049     0.2704     8.1441     7.0590     7.6996   -38.6561
  184.0000   106.2970    10.2305     2.4799     0.0224     0.0904     0.2690     8.2596     7.1353     7.7946   -38.6891
  184.5000   106.0623    10.2425     2.5054     0.0369     0.0839     0.2689     8.2913     7.2125     7.8907   -38.7221
  185.0000   106.0669    10.2574     2.5180     0.0551     0.0982     0.2720     8.3231     7.2905     7.9881   -38.7550
  185.5000   106.0647    10.2723     2.5401     0.0709     0.1114     0.2686     8.3766     7.3693     8.0868   -38.7880
  186.0000   105.9601    10.2872     2.5180     0.0579     0.1197     0.2674     8.4346     7.4490     8.1196   -38.8209
  186.5000   105.4052    10.3026     2.4973     0.0364     0.1108     0.2656     8.4929     7.5296     8.1403   -38.8539
  187.0000   104.8740    10.3180     2.4765     0.0213     0.1018     0.2638     8.5517     7.6111     8.1611   -38.8868
  187.5000   104.3966    10.3288     2.4842     0.0257     0.1083     0.2619     8.6121     7.6934     8.1820   -38.9199
  188.0000   103.9314    10.3088     2.5074     0.0420     0.1206     0.2600     8.6737     7.7558     8.2029   -38.9529
  188.5000   103.4866    10.2889     2.5107     0.0327     0.1246     0.2617     8.7562     7.7934     8.2239   -38.9845
  189.0000   102.5014    10.2610     2.4777     0.0102     0.1186     0.2675     8.9100     7.8312     8.2449   -38.9447
  189.5000   101.4731    10.2337     2.4741     0.0024     0.1131     0.2696     8.9870     7.8692     8.2660   -38.7678
  190.0000   100.7136    10.2065     2.4838     0.0026     0.1109     0.2771     9.0246     7.9074     8.2872   -38.5919
  190.5000   100.5210    10.1783     2.4928     0.0127     0.1093     0.2772     9.0450     7.9458     8.3084   -38.4267
  191.0000   100.9802    10.1717     2.4920     0.0122     0.1190     0.2779     8.9696     7.9842     8.3282   -38.5649
  191.5000   101.5831    10.1715     2.4998     0.0163     0.1312     0.2794     8.9181     8.0281     8.2915   -38.7186
  192.0000   102.1833    10.1715     2.4831     0.0035     0.1343     0.2833     8.8672     7.9906     8.2493   -38.8712
  192.5000   102.7824    10.1765     2.4572    -0.0227     0.1396     0.2856     8.8161     7.9476     8.2073   -39.0239
  193.0000   103.3866    10.1832     2.4513    -0.0134     0.1471     0.2829     8.7319     7.9051     8.1655   -39.1802
  193.5000   103.9583    10.1898     2.4421     0.0011     0.1415     0.2801     8.6395     7.8513     8.1239   -39.1106
  194.0000   103.3975    10.1965     2.4329    -0.0074     0.1316     0.2804     8.5922     7.7875     8.0825   -38.9976
  194.5000   102.7691    10.2031     2.4489    -0.0060     0.1225     0.2794     8.4926     7.7238     8.0413   -38.8836
  195.0000   102.1414    10.2097     2.4700     0.0106     0.1269     0.2760     8.2522     7.6607     7.9324   -38.7701
  195.5000   101.5167    10.2164     2.4774     0.0231     0.1308     0.2668     8.1040     7.5981     7.7934   -38.6567
  196.0000   101.1026    10.2230     2.4609     0.0160     0.1325     0.2565     7.9983     7.5360     7.6569   -38.5433
  196.5000   101.6487    10.2298     2.4571     0.0090     0.1396     0.2587     7.8940     7.3962     7.5227   -38.4298
  197.0000   102.4455    10.2281     2.4475     0.0149     0.1344     0.2621     7.6884     7.2489     7.3909   -38.3164
