~VERSION INFORMATION
 VERS.                2.0:   CWLS LOG ASCII STANDARD - VERSION 2.0
 WRAP.                 NO:   ONE LINE PER DEPTH STEP
~WELL INFORMATION
#MNEM.UNIT      DATA TYPE    INFORMATION
#----------   ------------   ------------------------------
 STRT.F           33.0000:   START DEPTH
 STOP.F          560.0000:   STOP DEPTH
 STEP.F            0.5000:   STEP LENGTH
 NULL.          -999.2500:   NO VALUE
 COMP. BROWN JOHN E&C INC:   COMPANY
 WELL.        SX 85 #25-3:   WELL
 FLD .             TEAPOT:   FIELD
 LOC .       S3 T38N R78W:   LOCATION
 CNTY.            NATRONA:   COUNTY
 STAT.            WYOMING:   STATE
 CTRY. UNITED STATES OF AMERICA:   COUNTRY
 SRVC.       Schlumberger:   SERVICE COMPANY
 DATE.        23-SEP-1980:   LOGDATE
 API .       490251130600:   API NUMBER
~CURVE INFORMATION
#MNEM.UNIT       API CODE    CURVE DESCRIPTION
#----------   ------------   ------------------------------
 DEPT.F                  :   
 ILD .OHMM   07 120 46 00:   INDUCTION LOG DEEP
 ILM .OHMM   07 120 44 00:   INDUCTION LOG MEDIUM
 DPHI.DEC    45 890 12 00:   DENSITY POROSITY SANDSTONE
 RHOB.G/C3   45 350 01 00:   BULK DENSITY
 DRHO.G/C3   45 356 01 00:   DENSITY CORRECTION
 CALD.IN     45 280 60 00:   CALIPER
 GRD .GAPI   45 310 01 00:   GAMMA RAY FROM DENSITY LOG
~PARAMETER INFORMATION
#MNEM.UNIT          VALUE    DESCRIPTION
#----------   ------------   ------------------------------
 PD  .                 GL:   PERMANENT DATUM
 EPD .F              5144:   ELEVATION PERMANENT DATUM
 LMF .                 KB:   LOG MEASURED FROM
 DAPD.F                10:   FEET ABOVE PERMANENT DATUM
 DMF .                 KB:   DRILLING MEASURED FROM
 EKB .F              5154:   KELLING BUSHING
 EDF .F              5153:   DRILLING FLOOR
 EGL .F              5144:   GROUND LEVEL
 DATE.            9-23-90:   RUN DATE
 RUN .                  1:   RUN NUMBER
 DD  .F               564:   DEPTH DRILLER
 DL  .F               565:   DEPTH LOGGER
 BLI .F               559:   BOTTOM LOG INTERVAL
 TLI .F                40:   TOP LOG INTERVAL
 CS  .IN            8.625:   CASING SIZE
 CBD .F                50:   CASING BOTTOM DRILLER
 CBL .F                50:   CASING BOTTOM LOGGER
 BS  .IN            7.875:   BIT SIZE
 BSD .F               564:   BIT SIZE AT DEPTH
 DFT .                AIR:   DRILLING FLUID TYPE
 TCS .HRS            1900:   TIME CURCULATED STOPPED
 TLAB.HRS            2000:   TIME LOGGER AT BOTTOM
 LUN .               5882:   LOGGING UNIT NUMBER
 LUL .               CODY:   LOGGING UNIT LOCATION
 ENGI.          M. FISHER:   RECORDING ENGINEER
 WITN.          G. STRONG:   WITNESSED BY
 CLNT.            A2DTECH:   CLIENT CODE
 ORIG.        2" 5" PRINT:   ORIGIN OF DATA
 UWI .       490251130600:   UNIQUE WELL ID
 DICO. A2D Technologies, Inc.:   DIGITIZING COMPANY
~OTHER INFORMATION
~A   DEPT      ILD        ILM       DPHI       RHOB       DRHO       CALD         GRD  
# ...
  306.0000     7.9548     8.1032     0.1029     2.4783    -0.0007     7.7153   142.6092
  306.5000     8.0288     8.0774     0.1080     2.4701    -0.0002     7.7554   139.8203
  307.0000     7.9489     8.0576     0.1121     2.4695     0.0003     7.7959   138.1532
  307.5000     7.8683     8.0361     0.1079     2.4739     0.0009     7.8374   137.1007
  308.0000     7.7700     7.7430     0.1044     2.4784     0.0013     7.8101   136.0621
  308.5000     7.6094     7.3153     0.1050     2.4760     0.0026     7.7924   135.3587
  309.0000     7.4564     7.1843     0.1070     2.4725     0.0039     7.7750   137.5604
  309.5000     7.3135     7.2470     0.1088     2.4690     0.0052     7.7632   139.7662
  310.0000     7.1118     6.9920     0.1091     2.4698     0.0063     7.7842   142.0274
  310.5000     6.8482     6.7966     0.1112     2.4707     0.0072     7.8012   141.5141
  311.0000     6.5969     6.5493     0.1132     2.4636     0.0086     7.8008   141.4382
  311.5000     6.3548     6.3111     0.1165     2.4553     0.0130     7.8006   142.9637
  312.0000     6.2500     6.0809     0.1245     2.4310     0.0225     7.8022   144.4699
  312.5000     6.2521     5.9123     0.1322     2.4060     0.0398     7.8323   145.0056
  313.0000     6.3609     6.0161     0.1365     2.3849     0.0569     7.8615   144.4868
  313.5000     6.4503     6.1772     0.1287     2.4120     0.0675     7.8742   143.7216
  314.0000     6.5471     6.4512     0.1168     2.4490     0.0682     7.8518   141.5035
  314.5000     6.7290     6.7506     0.1052     2.4782     0.0629     7.8304   139.3120
  315.0000     6.9601     7.0640     0.1096     2.4749     0.0578     7.8683   138.9025
  315.5000     7.2604     7.3916     0.1151     2.4601     0.0526     7.9096   141.2255
  316.0000     7.5725     7.6911     0.1209     2.4459     0.0476     7.9442   144.3463
  316.5000     7.8980     7.8119     0.1137     2.4584     0.0481     7.9796   146.5837
  317.0000     8.0177     7.9361     0.1048     2.4742     0.0414     7.9360   145.0980
  317.5000     8.0940     8.1036     0.0992     2.4852     0.0275     7.8856   143.6127
  318.0000     8.1781     8.0127     0.1038     2.4804     0.0136     7.8402   142.5657
  318.5000     8.0203     7.9099     0.1090     2.4760     0.0009     7.8412   141.6575
  319.0000     7.8482     7.6172     0.1117     2.4755     0.0001     7.8410   140.9104
  319.5000     7.5809     7.2649     0.1092     2.4796    -0.0011     7.8411   143.4196
  320.0000     7.1512     6.9290     0.1059     2.4829    -0.0023     7.8411   146.0447
  320.5000     6.7464     6.6085     0.1037     2.4824    -0.0022     7.8411   148.6539
  321.0000     6.6199     6.3029     0.1144     2.4594    -0.0014     7.8411   151.2633
  321.5000     6.5575     6.0803     0.1252     2.4233    -0.0005     7.8410   153.9691
  322.0000     6.4878     6.2038     0.1374     2.3874     0.0004     7.8410   154.5041
  322.5000     6.5280     6.3524     0.1300     2.4093     0.0013     7.8413   152.5717
  323.0000     6.5747     6.5046     0.1186     2.4400     0.0022     7.8427   150.8893
  323.5000     6.6227     6.6322     0.1076     2.4665     0.0003     7.8441   149.3033
  324.0000     6.6702     6.7328     0.1011     2.4866    -0.0019     7.8455   150.2437
  324.5000     6.3752     6.3734     0.0997     2.4867    -0.0040     7.8469   151.3115
  325.0000     6.0803     6.0159     0.1025     2.4839    -0.0058     7.8482   150.7935
  325.5000     5.9136     5.6765     0.1127     2.4730    -0.0039     7.8496   150.1976
  326.0000     5.9653     5.2913     0.1279     2.4135    -0.0008     7.8510   150.1594
  326.5000     6.0243     5.4257     0.1430     2.3532     0.0006     7.8524   153.0281
  327.0000     6.0243     5.5887     0.1489     2.3347     0.0022     7.8538   154.4290
  327.5000     6.0243     5.7580     0.1405     2.3733     0.0037     7.8552   153.1891
  328.0000     6.1749     5.9624     0.1250     2.4278     0.0052     7.8566   150.3504
  328.5000     6.4330     6.2812     0.1096     2.4778     0.0037     7.8580   147.5941
  329.0000     6.7713     6.6157     0.1015     2.4829     0.0020     7.8594   148.1497
  329.5000     7.1284     6.9678     0.0993     2.4866     0.0003     7.8608   148.3859
  330.0000     7.5053     7.3251     0.0977     2.4904     0.0000     7.8612   146.6354
  330.5000     7.8804     7.6803     0.0983     2.4897    -0.0004     7.8612   144.8096
  331.0000     7.6772     7.8814     0.0989     2.4876    -0.0008     7.8612   141.3540
  331.5000     7.4865     7.7031     0.0995     2.4855    -0.0012     7.8612   141.9859
  332.0000     7.1476     7.5299     0.0998     2.4869    -0.0016     7.8612   142.8994
  332.5000     6.7005     7.1409     0.0977     2.4897    -0.0010     7.8599   145.5134
  333.0000     6.2781     6.4238     0.0972     2.4909     0.0004     7.8540   148.4968
  333.5000     5.9805     5.7758     0.1118     2.4680     0.0024     7.8483   152.0752
  334.0000     5.8615     5.3421     0.1272     2.4162     0.0057     7.8425   155.2496
  334.5000     5.7460     5.1463     0.1423     2.3665     0.0089     7.8368   156.5732
  335.0000     5.5919     5.2458     0.1414     2.3642     0.0122     7.8311   155.5523
  335.5000     5.5915     5.4713     0.1275     2.4114     0.0133     7.8254   151.7383
  336.0000     5.8381     5.7065     0.1142     2.4548     0.0135     7.8197   148.0933
  336.5000     6.1648     5.9517     0.0996     2.4853     0.0072     7.8139   146.3243
  337.0000     6.6604     6.3651     0.0932     2.4982     0.0011     7.8082   145.8655
  337.5000     7.1953     6.8763     0.0891     2.5048     0.0010     7.8022   144.4432
  338.0000     7.7732     7.4285     0.0856     2.5099     0.0008     7.8043   141.9597
  338.5000     8.2025     8.0288     0.0835     2.5130     0.0006     7.8092   139.4789
  339.0000     8.5102     8.2685     0.0839     2.5124     0.0003     7.8141   137.4921
  339.5000     8.6464     8.5169     0.0843     2.5117    -0.0006     7.8191   135.8590
  340.0000     8.7448     8.7727     0.0852     2.5101    -0.0028     7.8179   134.2394
  340.5000     8.8434     8.8427     0.0860     2.5085    -0.0048     7.8131   132.6214
  341.0000     8.9741     8.8826     0.0867     2.5073    -0.0068     7.8082   131.0795
  341.5000     8.9731     8.9228     0.0854     2.5092    -0.0079     7.8032   130.0098
  342.0000     9.0039     8.9729     0.0839     2.5112    -0.0083     7.8023   130.4331
  342.5000     9.0566     8.9517     0.0843     2.5100    -0.0086     7.8052   131.5056
  343.0000     9.0391     8.9236     0.0875     2.5063    -0.0089     7.8082   132.5772
  343.5000     9.0214     8.8954     0.0895     2.5026    -0.0092     7.8111   133.6490
  344.0000     9.0036     8.8674     0.0891     2.5031    -0.0095     7.8141   134.7247
  344.5000     8.9859     8.8394     0.0878     2.5048    -0.0096     7.8170   135.8248
  345.0000     8.9382     8.8116     0.0875     2.5060    -0.0069     7.8200   135.0961
  345.5000     8.8122     8.7801     0.0888     2.5043    -0.0046     7.8229   134.0610
  346.0000     8.7271     8.7481     0.0900     2.5027    -0.0023     7.8258   132.9708
  346.5000     8.7944     8.7271     0.0868     2.5066     0.0000     7.8288   133.2260
  347.0000     8.8903     8.8083     0.0817     2.5151     0.0022     7.8317   133.8960
  347.5000     9.1510     8.9476     0.0765     2.5229     0.0018     7.8347   133.8492
  348.0000     9.4995     9.2060     0.0738     2.5260     0.0012     7.8376   132.2691
  348.5000     9.8613     9.5873     0.0735     2.5291     0.0006     7.8406   129.8778
  349.0000    10.2160     9.9844     0.0743     2.5284     0.0000     7.8411   129.0001
  349.5000    10.2160    10.1217     0.0759     2.5277    -0.0006     7.8411   128.7818
  350.0000     8.8943     8.7081     0.0775     2.5251     0.0000     7.8410   128.9848
  350.5000     7.8200     7.6653     0.0811     2.5166     0.0012     7.8428   131.7877
  351.0000     6.8755     6.7935     0.0921     2.5087     0.0023     7.8453   136.6876
