~VERSION INFORMATION
 VERS.                2.0:   CWLS LOG ASCII STANDARD - VERSION 2.0
 WRAP.                 NO:   ONE LINE PER DEPTH STEP
~WELL INFORMATION
#MNEM.UNIT      DATA TYPE    INFORMATION
#----------   ------------   ------------------------------
 STRT.F           53.0000:   START DEPTH
 STOP.F         4152.0000:   STOP DEPTH
 STEP.F            0.5000:   STEP LENGTH
 NULL.          -999.2500:   NO VALUE
 COMP. DEPARTMENT OF ENERGY:   COMPANY
 WELL. RES 3 TEAPOT #11-STX-11:   WELL
 FLD . TEAPOT NAVAL RESERVE:   FIELD
 LOC .      S11 T38N R78W:   LOCATION
 CNTY.            NATRONA:   COUNTY
 STAT.            WYOMING:   STATE
 CTRY. UNITED STATES OF AMERICA:   COUNTRY
 SRVC.       Schlumberger:   SERVICE COMPANY
 DATE.        24-JUL-1975:   LOGDATE
 API .       490251025200:   API NUMBER
~CURVE INFORMATION
#MNEM.UNIT       API CODE    CURVE DESCRIPTION
#----------   ------------   ------------------------------
 DEPT.F                  :   
 SPR .MV     07 010 01 00:   SPONTANEOUS POTENTIAL
 ILD .OHMM   07 120 46 00:   INDUCTION LOG DEEP
 ILM .OHMM   07 120 44 00:   INDUCTION LOG MEDIUM
 LL8 .OHMM   07 220 08 00:   LATEROLOG-8 RES.
 DPOR.DEC    45 890 12 00:   DENSITY POROSITY SANDSTONE
 NPOR.DEC    42 890 03 00:   NEUTRON POROSITY SANDSTONE
 RHOB.G/C3   45 350 01 00:   BULK DENSITY
 CORR.G/C3   45 356 01 00:   DENSITY CORRECTION
 GRD .GAPI   45 310 01 00:   GAMMA RAY FROM DENSITY LOG
 CALD.IN     45 280 60 00:   CALIPER FROM DENSITY LOG
~PARAMETER INFORMATION
#MNEM.UNIT          VALUE    DESCRIPTION
#----------   ------------   ------------------------------
 PD  .                 GL:   PERMANENT DATUM
 EPD .F              5165:   ELEVATION PERMANENT DATUM
 LMF .                 KB:   LOG MEASURED FROM
 DAPD.F                13:   FEET ABOVE PERMANENT DATUM
 DMF .                 KB:   DRILLING MEASURED FROM
 EKB .F              5178:   KELLING BUSHING
 EGL .F              5165:   GROUND LEVEL
 DATE.            7-24-75:   RUN DATE
 RUN .                  1:   RUN NUMBER
 DD  .F              4150:   DEPTH DRILLER
 DL  .F              4154:   DEPTH LOGGER
 BLI .F              4152:   BOTTOM LOG INTERVAL
 TLI .F              1800:   TOP LOG INTERVAL
 CS  .IN            8.625:   CASING SIZE
 CBD .F               625:   CASING BOTTOM DRILLER
 CBL .F               627:   CASING BOTTOM LOGGER
 BS  .IN            7.875:   BIT SIZE
 BSD .F              4150:   BIT SIZE AT DEPTH
 DFT .                FGM:   DRILLING FLUID TYPE
 DFD .                9.5:   DRILLING FLUID DENSITY
 DFV .                 85:   DRILLING FLUID VISCOSITY
 MSS .           FLOWLINE:   MUD SAMPLE SOURCE
 RMS .OHMM           1.34:   RESISTIVITY MUD SAMPLE
 MST .F                91:   MUD SAMPLE TEMPERATURE
 RMF .OHMM           1.17:   RESISTIVITY MUD FILTRATE SAMPLE
 MFST.F                91:   MUD FILTRATE SAMPLE TEMPERATURE
 MFSS.                  M:   MUD FILTRATE SAMPLE SOURCE
 RMB .OHMM            .94:   RESISTIVITY MUD AT BHT
 BHT .F               130:   BOTTOM HOLE TEMPERATURE
 TCS .HRS            1230:   TIME CURCULATED STOPPED
 TLAB.HRS            1900:   TIME LOGGER AT BOTTOM
 MRT .F               132:   MAXIMUM RECORDED TEMPERATURE
 LUN .               7680:   LOGGING UNIT NUMBER
 LUL .               CSPR:   LOGGING UNIT LOCATION
 ENGI.             FRENCH:   RECORDING ENGINEER
 WITN.             CARTER:   WITNESSED BY
 CLNT.            A2DTECH:   CLIENT CODE
 ORIG.       2", 5" PRINT:   ORIGIN OF DATA
 UWI .       490251025200:   UNIQUE WELL ID
 DICO. A2D Technologies, Inc.:   DIGITIZING COMPANY
~OTHER INFORMATION
~A   DEPT      SPR          ILD        ILM       LL8      DPOR       NPOR       RHOB       CORR        GRD       CALD   
# ...
 2733.0000  -999.2500  -999.2500  -999.2500  -999.2500     0.1332     0.2052     2.4406     0.0305   124.6888     9.5772
 2733.5000  -999.2500  -999.2500  -999.2500  -999.2500     0.1264     0.2065     2.4329     0.0274   121.3304     9.5771
 2734.0000  -999.2500  -999.2500  -999.2500  -999.2500     0.1272     0.2072     2.4230     0.0309   120.9507     9.5723
 2734.5000  -999.2500  -999.2500  -999.2500  -999.2500     0.1305     0.2080     2.4130     0.0298   123.6146     9.5494
 2735.0000  -999.2500  -999.2500  -999.2500  -999.2500     0.1355     0.2087     2.4121     0.0247   123.9839     9.5422
 2735.5000  -999.2500  -999.2500  -999.2500  -999.2500     0.1432     0.2094     2.4139     0.0278   121.8891     9.5664
 2736.0000  -999.2500  -999.2500  -999.2500  -999.2500     0.1446     0.2103     2.3990     0.0227   120.0998     9.5897
 2736.5000  -999.2500  -999.2500  -999.2500  -999.2500     0.1476     0.2097     2.3910     0.0115   121.3830     9.6145
 2737.0000  -999.2500  -999.2500  -999.2500  -999.2500     0.1532     0.2090     2.4069     0.0139   125.9753     9.6396
 2737.5000  -999.2500  -999.2500  -999.2500  -999.2500     0.1575     0.2084     2.4354     0.0277   132.2310     9.6640
 2738.0000  -999.2500  -999.2500  -999.2500  -999.2500     0.1579     0.2077     2.4446     0.0277   132.3866     9.6901
 2738.5000  -999.2500  -999.2500  -999.2500  -999.2500     0.1351     0.2071     2.4291     0.0240   130.6168     9.7154
 2739.0000  -999.2500  -999.2500  -999.2500  -999.2500     0.1276     0.2053     2.4273     0.0203   128.8613     9.7406
 2739.5000  -999.2500  -999.2500  -999.2500  -999.2500     0.1320     0.2014     2.4281     0.0163   127.6379     9.7658
 2740.0000  -999.2500  -999.2500  -999.2500  -999.2500     0.1376     0.1975     2.4248     0.0134   129.2712     9.7911
 2740.5000  -999.2500  -999.2500  -999.2500  -999.2500     0.1392     0.1963     2.4294     0.0154   131.5585     9.8170
 2741.0000  -999.2500  -999.2500  -999.2500  -999.2500     0.1336     0.2016     2.4267     0.0201   129.6133     9.8425
 2741.5000  -999.2500  -999.2500  -999.2500  -999.2500     0.1351     0.2071     2.4354     0.0267   127.4537     9.8687
 2742.0000  -999.2500  -999.2500  -999.2500  -999.2500     0.1364     0.2088     2.4425     0.0255   125.5671     9.8948
 2742.5000  -999.2500  -999.2500  -999.2500  -999.2500     0.1315     0.2011     2.4335     0.0186   129.4191     9.9210
 2743.0000  -999.2500  -999.2500  -999.2500  -999.2500     0.1306     0.1907     2.4346     0.0117   135.9435     9.9472
 2743.5000  -999.2500  -999.2500  -999.2500  -999.2500     0.1336     0.1878     2.4451     0.0077   141.9133     9.9728
 2744.0000  -999.2500  -999.2500  -999.2500  -999.2500     0.1321     0.1867     2.4484     0.0186   147.5595     9.9981
 2744.5000  -999.2500  -999.2500  -999.2500  -999.2500     0.1244     0.2012     2.4465     0.0303   145.7949    10.0233
 2745.0000  -999.2500  -999.2500  -999.2500  -999.2500     0.1244     0.2067     2.4602     0.0443   142.6305    10.0486
 2745.5000  -999.2500  -999.2500  -999.2500  -999.2500     0.1228     0.2107     2.4758     0.0536   139.4824    10.0738
 2746.0000  -999.2500  -999.2500  -999.2500  -999.2500     0.1124     0.2075     2.4859     0.0547   137.6529    10.0990
 2746.5000  -999.2500  -999.2500  -999.2500  -999.2500     0.1019     0.2065     2.4953     0.0553   138.6505    10.1249
 2747.0000  -999.2500  -999.2500  -999.2500  -999.2500     0.0970     0.2079     2.5034     0.0574   139.8392    10.1532
 2747.5000  -999.2500  -999.2500  -999.2500  -999.2500     0.0956     0.2074     2.4993     0.0489   136.0438    10.1512
 2748.0000  -999.2500  -999.2500  -999.2500  -999.2500     0.0909     0.1980     2.5036     0.0452   132.1056    10.1436
 2748.5000  -999.2500  -999.2500  -999.2500  -999.2500     0.0932     0.1879     2.4913     0.0200   130.3133    10.1378
 2749.0000  -999.2500  -999.2500  -999.2500  -999.2500     0.0904     0.1777     2.4910     0.0062   133.8957    10.1493
 2749.5000  -999.2500  -999.2500  -999.2500  -999.2500     0.0992     0.1675     2.5061     0.0018   139.7039    10.1619
 2750.0000  -999.2500  -999.2500  -999.2500  -999.2500     0.0942     0.1624     2.5083     0.0268   145.1067    10.1746
 2750.5000  -999.2500  -999.2500  -999.2500  -999.2500     0.0880     0.1760     2.4718     0.0139   148.9658    10.1872
 2751.0000  -999.2500  -999.2500  -999.2500  -999.2500     0.0995     0.1852     2.4464     0.0044   146.5276    10.2004
 2751.5000  -999.2500  -999.2500  -999.2500  -999.2500     0.1187     0.1941     2.4388     0.0123   143.9344    10.2145
 2752.0000  -999.2500  -999.2500  -999.2500  -999.2500     0.1292     0.1999     2.4458     0.0191   141.5810    10.2289
 2752.5000  -999.2500  -999.2500  -999.2500  -999.2500     0.1236     0.1954     2.4572     0.0103   144.4466    10.2434
 2753.0000  -999.2500  -999.2500  -999.2500  -999.2500     0.1177     0.1962     2.4687     0.0081   148.9229    10.2577
 2753.5000  -999.2500  -999.2500  -999.2500  -999.2500     0.1162     0.1985     2.4847     0.0177   150.5993    10.2723
 2754.0000  -999.2500  -999.2500  -999.2500  -999.2500     0.1061     0.2008     2.4997     0.0266   148.8160    10.2785
 2754.5000  -999.2500  -999.2500  -999.2500  -999.2500     0.0960     0.2001     2.4813     0.0349   147.1514    10.2786
 2755.0000  -999.2500  -999.2500  -999.2500  -999.2500     0.0916     0.1974     2.4836     0.0359   147.2137    10.2785
 2755.5000  -999.2500  -999.2500  -999.2500  -999.2500     0.1021     0.1946     2.4718     0.0306   147.6059    10.2789
 2756.0000  -999.2500  -999.2500  -999.2500  -999.2500     0.1027     0.1948     2.4675     0.0238   148.0341    10.2902
 2756.5000  -999.2500  -999.2500  -999.2500  -999.2500     0.1104     0.2015     2.4569     0.0182   147.0577    10.3022
 2757.0000  -999.2500  -999.2500  -999.2500  -999.2500     0.1112     0.2082     2.4550     0.0236   145.3532    10.3142
 2757.5000  -999.2500  -999.2500  -999.2500  -999.2500     0.1133     0.2150     2.4644     0.0303   143.6334    10.3186
 2758.0000  -999.2500  -999.2500  -999.2500  -999.2500     0.1176     0.2086     2.4716     0.0264   141.9139    10.3187
 2758.5000  -999.2500  -999.2500  -999.2500  -999.2500     0.1123     0.2018     2.4622     0.0195   140.2518    10.3187
 2759.0000  -999.2500  -999.2500  -999.2500  -999.2500     0.1092     0.1949     2.4577     0.0205   138.6306    10.3186
 2759.5000  -999.2500  -999.2500  -999.2500  -999.2500     0.1125     0.1883     2.4769     0.0258   137.6319    10.3186
 2760.0000  -999.2500  -999.2500  -999.2500  -999.2500     0.1164     0.1887     2.4583     0.0191   142.4279    10.3185
 2760.5000  -999.2500  -999.2500  -999.2500  -999.2500     0.1080     0.1969     2.4510     0.0075   147.5622    10.3177
 2761.0000  -999.2500  -999.2500  -999.2500  -999.2500     0.1131     0.2031     2.4608     0.0049   152.2105    10.3514
 2761.5000  -999.2500  -999.2500  -999.2500  -999.2500     0.1203     0.1997     2.4723     0.0033   155.7566    10.3893
 2762.0000  -999.2500  -999.2500  -999.2500  -999.2500     0.1153     0.1976     2.4690     0.0010   158.9409    10.4278
 2762.5000  -999.2500  -999.2500  -999.2500  -999.2500     0.1103     0.1982     2.4634     0.0063   156.0657    10.4388
 2763.0000  -999.2500  -999.2500  -999.2500  -999.2500     0.1100     0.2042     2.4610     0.0028   152.0211    10.4391
 2763.5000  -999.2500  -999.2500  -999.2500  -999.2500     0.1104     0.2107     2.4733     0.0066   152.8039    10.4386
 2764.0000  -999.2500  -999.2500  -999.2500  -999.2500     0.1118     0.2103     2.4772     0.0022   150.9530    10.4095
 2764.5000  -999.2500  -999.2500  -999.2500  -999.2500     0.1148     0.2090     2.4711     0.0003   147.1820    10.3773
 2765.0000  -999.2500  -999.2500  -999.2500  -999.2500     0.1088     0.2035     2.4973     0.0057   143.3863    10.3452
 2765.5000  -999.2500  -999.2500  -999.2500  -999.2500     0.1074     0.1970     2.5201     0.0069   140.2383    10.3128
 2766.0000  -999.2500  -999.2500  -999.2500  -999.2500     0.1025     0.1800     2.5272     0.0121   140.5360    10.2992
