~VERSION INFORMATION
 VERS.                2.0:   CWLS LOG ASCII STANDARD - VERSION 2.0
 WRAP.                 NO:   ONE LINE PER DEPTH STEP
~WELL INFORMATION
#MNEM.UNIT      DATA TYPE    INFORMATION
#----------   ------------   ------------------------------
 STRT.F           38.0000:   START DEPTH
 STOP.F         1202.0000:   STOP DEPTH
 STEP.F            0.5000:   STEP LENGTH
 NULL.          -999.2500:   NO VALUE
 COMP.       INTEX OIL CO:   COMPANY
 WELL.     72 S 14 #72-14:   WELL
 FLD .            WILDCAT:   FIELD
 LOC .      S14 T38N R78W:   LOCATION
 CNTY.            NATRONA:   COUNTY
 STAT.            WYOMING:   STATE
 CTRY. UNITED STATES OF AMERICA:   COUNTRY
 SRVC.       Schlumberger:   SERVICE COMPANY
 DATE.        26-AUG-1966:   LOGDATE
 API .       490250970800:   API NUMBER
~CURVE INFORMATION
#MNEM.UNIT       API CODE    CURVE DESCRIPTION
#----------   ------------   ------------------------------
 DEPT.F                  :   
 SPR .MV     05 010 01 00:   SPONTANEOUS POTENTIAL FROM RES.
 ASN .OHMM   05 041 16 00:   AMPLIFIED SHORT NORMAL 16"
 ILD .OHMM   05 120 46 00:   INDUCTION LOG DEEP
 CILD.MMHO   05 110 46 00:   CONDUCTIVITY INDUCTION LOG DEEP
 CORR.G/C3   45 356 01 00:   DENSITY CORRECTION
 GRD .GAPI   45 310 01 00:   GAMMA RAY FROM DENSITY LOG
 CALD.IN     45 280 60 00:   CALIPER FROM DENSITY LOG
 DPHI.DEC    45 890 12 00:   DENSITY POROSITY SANDSTONE
 RHOB.G/C3   45 350 01 00:   BULK DENSITY
~PARAMETER INFORMATION
#MNEM.UNIT          VALUE    DESCRIPTION
#----------   ------------   ------------------------------
 PD  .                 GL:   PERMANENT DATUM
 EPD .F              5265:   ELEVATION PERMANENT DATUM
 LMF .                 KB:   LOG MEASURED FROM
 DAPD.F                 5:   FEET ABOVE PERMANENT DATUM
 DMF .                 KB:   DRILLING MEASURED FROM
 EKB .F              5270:   KELLING BUSHING
 DATE.        26-AUG-1966:   RUN DATE
 RUN .                  1:   RUN NUMBER
 DD  .F              1201:   DEPTH DRILLER
 DL  .F              1203:   DEPTH LOGGER
 BLI .F              1202:   BOTTOM LOG INTERVAL
 TLI .F                46:   TOP LOG INTERVAL
 CS  .IN            8.625:   CASING SIZE
 BS  .IN             6.75:   BIT SIZE
 BSD .F              1201:   BIT SIZE AT DEPTH
 DFT .     CHEM- GEL- OIL:   DRILLING FLUID TYPE
 DFD .                9.4:   DRILLING FLUID DENSITY
 MRT .F                94:   MAXIMUM RECORDED TEMPERATURE
 LUN .               3527:   LOGGING UNIT NUMBER
 LUL .             CASPER:   LOGGING UNIT LOCATION
 ENGI.             KNOBEL:   RECORDING ENGINEER
 WITN.                MAY:   WITNESSED BY
 CLNT.            A2DTECH:   CLIENT CODE
 ORIG.       2", 5" PRINT:   ORIGIN OF DATA
 UWI .       490250970800:   UNIQUE WELL ID
 DICO. A2D Technologies, Inc.:   DIGITIZING COMPANY
~OTHER INFORMATION
~A   DEPT      SPR        ASN        ILD       CILD       CORR        GRD       CALD       DPHI       RHOB   
# ...
  731.5000   -24.5870     8.3333     7.3654   142.6426     0.0638   114.5495     6.7812     0.0719     2.5334
  732.0000   -24.4393     8.5231     7.3633   141.1411     0.0633   113.2238     6.7972     0.0799     2.5215
  732.5000   -24.2916     8.7538     7.3611   140.3904     0.0526   111.2275     6.8131     0.0802     2.5245
  733.0000   -24.4458     8.9189     7.3584   138.8889     0.0532   110.1215     6.8291     0.0748     2.5350
  733.5000   -24.4494     8.9640     7.3563   138.1381     0.0548   114.6120     6.8450     0.0718     2.5403
  734.0000   -24.6029     8.9790     7.3541   137.3874     0.0511   120.2163     6.9653     0.1005     2.5082
  734.5000   -24.6057     8.9790     7.3520   136.6366     0.0321   120.4516     7.0110     0.1029     2.4902
  735.0000   -24.7592     8.9489     7.3498   136.6366     0.0106   119.5770     6.9674     0.1035     2.4940
  735.5000   -24.7621     8.9339     7.3472   135.8859     0.0144   116.4629     6.9535     0.0864     2.5105
  736.0000   -24.7651     8.9039     7.3450   135.1351     0.0324   114.4666     7.0161     0.0882     2.5023
  736.5000   -24.6173     8.9339     7.4185   134.3844     0.0314   114.7058     7.0370     0.0948     2.5024
  737.0000   -24.6209     9.0258     7.4158   133.6336     0.0225   114.0508     7.0461     0.0957     2.5076
  737.5000   -24.4724     9.1742     7.4887   132.1321     0.0212   112.7213     7.0471     0.0864     2.5294
  738.0000   -24.3253     9.2943     7.6367   130.6306     0.0281   115.1998     7.0481     0.0729     2.5444
  738.5000   -24.3222     9.4444     7.7847   127.6276     0.0437   116.5567     7.0340     0.0690     2.5414
  739.0000   -24.1806     9.5796     8.0073   125.3754     0.0476   118.1372     7.0353     0.0642     2.5534
  739.5000   -24.1842     9.7150     8.1553   123.1231     0.0489   117.2587     7.0364     0.0588     2.5609
  740.0000   -24.4882     9.8799     8.2282   121.6216     0.0437   111.9092     7.0374     0.0636     2.5535
  740.5000   -24.6417     9.9850     8.3762   119.3694     0.0287   109.4619     7.0385     0.0791     2.5229
  741.0000   -24.6446    10.0637     8.4486   117.1171     0.0257   109.7050     7.0395     0.0752     2.5304
  741.5000   -24.4969    10.1427     8.5221   115.6156     0.0267   110.8383     7.0405     0.0656     2.5528
  742.0000   -24.3491    10.2217     8.5950   114.1141     0.0429   111.7482     7.0416     0.0770     2.5514
  742.5000   -24.3527    10.3604     8.6674   112.6126     0.0482   112.2109     7.0575     0.0931     2.5013
  743.0000   -24.6568    10.5110     8.8154   111.8619     0.0338   112.4501     7.0586     0.0928     2.5081
  743.5000   -24.8103    10.6607     8.8127   110.3604     0.0318   110.6773     7.0596     0.0824     2.5328
  744.0000   -24.9639    10.7357     8.8862   109.6096     0.0445   109.5713     7.0607     0.0728     2.5369
  744.5000   -24.8161    10.8108     8.9591   108.1081     0.0484   110.2615     7.0766     0.0731     2.5381
  745.0000   -24.6691    10.8859     8.9565   108.1081     0.0535   110.5007     7.0628     0.0647     2.5501
  745.5000   -24.6719    11.0360     9.0288   108.1081     0.0550   110.5163     7.0638     0.0691     2.5434
  746.0000   -24.6748    11.1972     9.0267   108.1081     0.0295   108.7436     7.0497     0.0829     2.5300
  746.5000   -24.6817    11.2613     9.0246   108.1081     0.0183   105.1786     7.0510     0.0838     2.5166
  747.0000   -24.9825    11.2613     9.0224   108.8589     0.0251   110.3397     7.0520     0.0787     2.5211
  747.5000   -25.2866    11.1862     8.9452   108.8589     0.0296   111.2456     7.0531     0.0823     2.5220
  748.0000   -25.2895    11.0360     8.9425   109.6096     0.0280   107.4648     7.0392     0.0855     2.5174
  748.5000   -25.2923    10.9538     8.9404   109.6096     0.0256   105.2411     7.0403     0.0870     2.5122
  749.0000   -25.2952    10.7357     8.9382   110.3604     0.0228   113.0848     7.0413     0.0888     2.5168
  749.5000   -25.2982    10.5856     8.9361   110.3604     0.0214   113.3201     7.0423     0.0739     2.5303
  750.0000   -25.3010    10.5856     8.8403   111.8619     0.0214   113.0700     7.0431     0.0822     2.5164
  750.5000   -25.2982    10.5105     8.7601   112.6414     0.0230   113.3565     7.0384     0.0852     2.5202
  751.0000   -25.4452    10.5105     8.6798   113.3634     0.0267   110.4660     7.0340     0.0763     2.5292
  751.5000   -25.4423    10.5105     8.6336   115.6156     0.0394   108.9129     7.0161     0.0727     2.5329
  752.0000   -25.2888    10.5105     8.6336   117.1171     0.0478   111.6150     7.0170     0.0652     2.5509
  752.5000   -24.9847    10.4354     8.5586   118.6186     0.0581   113.4190     7.0328     0.0551     2.5680
  753.0000   -24.8312    10.3604     8.4835   119.3694     0.0624   114.3288     7.0337     0.0536     2.5628
  753.5000   -24.6777    10.2853     8.3333   120.1201     0.0627   114.3445     7.0346     0.0658     2.5456
  754.0000   -24.5241    10.1297     8.2583   120.8709     0.0386   113.4659     7.0355     0.0694     2.5382
  754.5000   -24.6711    10.0000     8.1832   121.6216     0.0289   113.7051     7.0364     0.0649     2.5501
  755.0000   -24.9694     9.9249     8.1832   121.6216     0.0619   113.7207     7.0522     0.0619     2.5534
  755.5000   -25.2684     9.8649     8.1832   122.3724     0.0629   111.9479     7.0382     0.0721     2.5397
  756.0000   -25.1142     9.8048     8.1832   123.1231     0.0574   109.0574     7.0539     0.0706     2.5352
  756.5000   -24.8100     9.7598     8.1832   123.1231     0.0431   111.5321     7.0548     0.0754     2.5322
  757.0000   -24.5059     9.7592     8.1832   123.1231     0.0265   116.2422     7.0557     0.0945     2.5158
  757.5000   -24.5030     9.8378     8.2583   123.1231     0.0192   118.4933     7.0566     0.0999     2.4911
  758.0000   -24.6507     9.9550     8.2583   123.1231     0.0203   119.8502     7.0575     0.1011     2.5166
  758.5000   -24.9483    10.0000     8.2583   123.1231     0.0335   116.7361     7.0584     0.0865     2.5240
  759.0000   -24.9453     9.9850     8.1832   123.1231     0.0308   113.3986     7.0593     0.0742     2.5270
  759.5000   -24.9424     9.8949     8.1832   123.1231     0.0283   112.9632     7.0602     0.0659     2.5532
  760.0000   -24.9395     9.7598     8.0330   123.1231     0.0470   115.6653     7.0611     0.0632     2.5435
  760.5000   -24.7860     9.6847     7.9580   124.6246     0.0441   117.0222     7.0620     0.0706     2.5413
  761.0000   -24.6325     9.6384     7.8078   126.1261     0.0253   116.3633     7.0629     0.0656     2.5532
  761.5000   -24.3283     9.5946     7.7327   129.1291     0.0275   118.1712     7.0638     0.0632     2.5510
  762.0000   -24.0235     9.5495     7.5826   132.1321     0.0317   120.6419     7.0647     0.0733     2.5413
  762.5000   -24.0206     9.4745     7.4324   135.1351     0.0321   118.8730     7.0656     0.0781     2.5271
  763.0000   -24.0177     9.2643     7.2072   138.8889     0.0244   116.8767     7.0665     0.0892     2.5144
  763.5000   -24.0148     8.9039     7.0486   142.6426     0.0140   117.3395     7.0674     0.0931     2.5024
  764.0000   -24.1632     8.6186     6.8318   146.4863     0.0141   121.6025     7.0683     0.0898     2.4987
  764.5000   -24.3102     8.3306     6.6817   150.9009     0.0217   122.5123     7.0692     0.0964     2.5069
  765.0000   -24.3072     8.1532     6.6817   153.1532     0.0298   126.7753     7.0700     0.0823     2.5189
  765.5000   -24.3042     8.0330     6.6817   156.1562     0.0374   130.1441     7.0560     0.0796     2.5241
  766.0000   -24.3007     7.9279     6.6817   156.9069     0.0418   129.7126     7.0569     0.0784     2.5294
  766.5000   -24.1472     7.8829     6.8318   155.4054     0.0396   127.0457     7.0429     0.0746     2.5346
  767.0000   -24.1442     7.9880     6.9069   152.4024     0.0407   124.3788     7.0438     0.0737     2.5339
  767.5000   -24.1413     8.3033     7.0571   150.1501     0.0456   127.3005     7.0447     0.0770     2.5175
