~VERSION INFORMATION
 VERS.                2.0:   CWLS LOG ASCII STANDARD - VERSION 2.0
 WRAP.                 NO:   ONE LINE PER DEPTH STEP
~WELL INFORMATION
#MNEM.UNIT      DATA TYPE    INFORMATION
#----------   ------------   ------------------------------
 STRT.F           12.0000:   START DEPTH
 STOP.F          508.5000:   STOP DEPTH
 STEP.F            0.5000:   STEP LENGTH
 NULL.          -999.2500:   NO VALUE
 COMP. LAWRENCE-ALLISON INC:   COMPANY
 WELL.   NPR #71-16-SX-10:   WELL
 FLD .           NPR NO.3:   FIELD
 LOC .      S10 T38N R78W:   LOCATION
 CNTY.            NATRONA:   COUNTY
 STAT.            WYOMING:   STATE
 CTRY. UNITED STATES OF AMERICA:   COUNTRY
 SRVC.           Gearhart:   SERVICE COMPANY
 DATE.        09-JUL-1986:   LOGDATE
 API .       490251109600:   API NUMBER
~CURVE INFORMATION
#MNEM.UNIT       API CODE    CURVE DESCRIPTION
#----------   ------------   ------------------------------
 DEPT.F                  :   
 GRR .GAPI   07 310 01 00:   GAMMA RAY FROM RES. LOG.
 RILD.OHMM   07 120 46 00:   INDUCTION LOG DEEP RESISTIVITY
 RILM.OHMM   07 120 44 00:   INDUCTION LOG MEDIUM
~PARAMETER INFORMATION
#MNEM.UNIT          VALUE    DESCRIPTION
#----------   ------------   ------------------------------
 PD  .                 GL:   PERMANENT DATUM
 EPD .F              5152:   ELEVATION PERMANENT DATUM
 LMF .                 KB:   LOG MEASURED FROM
 DAPD.F                 5:   FEET ABOVE PERMANENT DATUM
 DMF .                 KB:   DRILLING MEASURED FROM
 EKB .F              5157:   KELLING BUSHING
 EGL .F              5152:   GROUND LEVEL
 DATE.           7-9-1986:   RUN DATE
 RUN .                  1:   RUN NUMBER
 DD  .F               520:   DEPTH DRILLER
 DL  .F               518:   DEPTH LOGGER
 BLI .F               509:   BOTTOM LOG INTERVAL
 TLI .F                47:   TOP LOG INTERVAL
 CS  .IN            8.625:   CASING SIZE
 CBD .F                47:   CASING BOTTOM DRILLER
 CBL .F                47:   CASING BOTTOM LOGGER
 BS  .IN            7.875:   BIT SIZE
 BSD .F               520:   BIT SIZE AT DEPTH
 DFT .                AIR:   DRILLING FLUID TYPE
 TCS .HRS            0830:   TIME CURCULATED STOPPED
 TLAB.HRS            1119:   TIME LOGGER AT BOTTOM
 MRT .F                65:   MAXIMUM RECORDED TEMPERATURE
 LUN .               7609:   LOGGING UNIT NUMBER
 LUL .           GILLETTE:   LOGGING UNIT LOCATION
 ENGI.         WEATHERMON:   RECORDING ENGINEER
 WITN.           JENNINGS:   WITNESSED BY
 CLNT.            A2DTECH:   CLIENT CODE
 ORIG.       2", 5" PRINT:   ORIGIN OF DATA
 UWI .       490251109600:   UNIQUE WELL ID
 DICO. A2D Technologies, Inc.:   DIGITIZING COMPANY
~OTHER INFORMATION
~A   DEPT       GRR      RILD       RILM   
# ...
  376.0000    79.2145    15.2837    14.9848
  376.5000    79.4776    15.3123    14.9848
  377.0000    79.7301    15.3408    14.9848
  377.5000    80.0113    15.3693    14.9850
  378.0000    80.5147    15.4078    14.9848
  378.5000    81.4164    15.3395    14.9868
  379.0000    82.7126    15.2241    14.8729
  379.5000    84.0086    15.1104    14.7814
  380.0000    85.3036    14.9975    14.6904
  380.5000    86.6000    14.8855    14.5999
  381.0000    87.1125    14.7743    14.5100
  381.5000    86.8418    14.6639    14.4207
  382.0000    86.5705    14.5544    14.3319
  382.5000    86.5774    14.4456    14.2437
  383.0000    87.0003    14.3377    14.1560
  383.5000    88.5088    14.2305    14.0689
  384.0000    90.0487    14.1482    13.9823
  384.5000    90.2628    14.0976    13.8962
  385.0000    89.4908    14.0471    13.8106
  385.5000    88.6042    14.0296    13.7343
  386.0000    87.6323    14.0147    13.6633
  386.5000    87.1443    13.9998    13.5925
  387.0000    86.1302    13.9850    13.5258
  387.5000    85.1910    13.9702    13.5255
  388.0000    84.8404    13.9554    13.5258
  388.5000    85.4220    13.9406    13.5258
  389.0000    85.8971    13.9258    13.5258
  389.5000    85.3722    13.9111    13.5258
  390.0000    84.8638    13.8407    13.5258
  390.5000    84.5214    13.7378    13.5255
  391.0000    85.5208    13.6356    13.5243
  391.5000    86.5579    13.5342    13.5258
  392.0000    86.4826    13.4336    13.2371
  392.5000    85.9855    13.3268    13.0666
  393.0000    85.6170    13.2175    12.8984
  393.5000    85.8024    13.1091    12.7322
  394.0000    86.1100    12.9856    12.5682
  394.5000    86.8646    12.8214    12.4065
  395.0000    88.3461    12.6593    12.2591
  395.5000    90.5468    12.4992    12.1268
  396.0000    92.5494    12.3451    11.9960
  396.5000    92.7272    12.0770    11.8665
  397.0000    90.8837    11.8933    11.7384
  397.5000    89.0116    11.7095    11.6117
  398.0000    87.5155    11.5453    11.4865
  398.5000    87.0267    11.3092    11.3618
  399.0000    87.9385    10.9767    11.2399
  399.5000    90.7030    10.6549    10.9764
  400.0000    93.5018    10.3438    10.7031
  400.5000    96.2497    10.0372    10.4366
  401.0000    96.9536     9.3503    10.1768
  401.5000    97.4284     8.5565     9.9470
  402.0000    99.1794     7.9756     8.5397
  402.5000   103.3694     7.5890     8.0227
  403.0000   107.1790     7.2447     7.6078
  403.5000   109.5286     6.9777     7.2474
  404.0000   110.7694     6.7386     6.9824
  404.5000   108.4098     6.6029     6.8278
  405.0000   103.7357     6.9279     6.7270
  405.5000    99.9136     7.3158     7.0525
  406.0000    96.7862     7.7254     7.3678
  406.5000    94.1764     8.1580     7.6972
  407.0000    94.1514     8.6133     8.1154
  407.5000    94.8412     9.0660     8.6341
  408.0000    95.3241     9.5911     9.1860
  408.5000    95.1799    10.1150     9.7732
  409.0000    95.0487    10.5225    10.2739
  409.5000    94.9181    10.7880    10.4458
  410.0000    94.7845    11.0498    10.6186
  410.5000    94.6412    11.3166    10.8809
  411.0000    94.6161    11.5899    11.1199
  411.5000    96.6214    11.8698    11.3683
  412.0000    99.1543    12.1565    11.6186
  412.5000   101.0513    12.4501    11.9289
  413.0000   100.4782    12.7455    12.1407
  413.5000    97.9130    12.9266    12.3597
  414.0000    95.3982    13.0888    12.5632
  414.5000    94.6345    13.2530    12.7595
  415.0000    94.8229    13.4193    12.9586
  415.5000    94.9363    13.5876    13.1609
  416.0000    95.1039    13.7581    13.3663
  416.5000    95.3359    13.9307    13.5750
  417.0000    95.5398    14.1055    13.7278
  417.5000    95.8400    14.2122    13.8483
  418.0000    96.1400    14.3097    13.9705
  418.5000    96.4656    14.4078    14.0504
  419.0000    95.4610    14.5066    14.0266
  419.5000    93.5870    14.6061    14.3469
  420.0000    90.9556    14.7063    14.4003
  420.5000    88.3752    14.8455    14.4540
  421.0000    86.8052    14.8054    14.5078
  421.5000    87.0003    14.7375    14.5719
  422.0000    90.6243    14.6708    14.4903
  422.5000    91.6416    14.6044    14.3913
  423.0000    91.6861    14.5384    14.2924
  423.5000    91.4069    14.4726    14.1943
  424.0000    91.7691    14.4071    14.0969
  424.5000    92.1098    14.3420    14.0041
  425.0000    92.9625    14.2650    13.9176
  425.5000    95.5277    14.1707    13.8316
  426.0000    96.6127    14.0769    13.7800
  426.5000    93.4969    13.9838    13.7019
  427.0000    89.7895    13.8912    13.6043
  427.5000    89.7383    13.8002    13.4906
  428.0000    92.5445    13.5915    13.3075
  428.5000    94.9973    13.3569    13.1268
  429.0000    94.9441    13.1262    12.9486
  429.5000    94.9386    12.9388    12.6721
  430.0000    95.1671    12.7009    12.3230
  430.5000    96.5683    12.4667    12.1720
  431.0000    97.9579    12.2362    11.9681
  431.5000    99.3261    12.0383    11.7624
  432.0000    99.9506    11.8867    11.5453
  432.5000    98.3036    11.7370    11.4537
  433.0000    96.9541    11.5892    11.2952
  433.5000    98.6310    11.4432    11.1388
  434.0000   103.3032    11.2991    10.9846
  434.5000   106.6974    11.1568    10.8325
  435.0000   104.3410    11.0163    10.6825
  435.5000   101.9345    10.8776    10.5187
  436.0000   102.5027    10.8082    10.4884
  436.5000   104.5629    10.7930    10.4344
  437.0000   105.1514    10.7778    10.4212
  437.5000   104.3240    10.7626    10.4212
  438.0000   102.9609    10.7475    10.4212
  438.5000   102.3808    10.7324    10.4211
  439.0000   102.6150    10.7172    10.4211
  439.5000   101.3630    10.6374    10.4039
  440.0000   100.0067    10.5321    10.2838
  440.5000    98.6210    10.4276    10.1650
  441.0000    99.4132    10.3243    10.0476
  441.5000   100.6767    10.2220     9.9470
  442.0000   102.8131    10.1107     9.8281
  442.5000   105.2814     9.9360     9.6682
  443.0000   107.8553     9.7644     9.5109
  443.5000   108.7311     9.5833     9.3193
  444.0000   108.1423     9.4389     9.2556
  444.5000   106.3098     9.2699     9.0621
  445.0000   104.5076     9.1039     8.8727
  445.5000   102.6921     8.9408     8.6873
  446.0000   101.8692     8.8109     8.4906
  446.5000   101.9144     8.6141     8.2318
  447.0000   101.9743     8.2524     7.9582
  447.5000   102.0372     7.9059     7.6938
  448.0000   102.0982     7.7940     7.4381
  448.5000   102.1571     7.7476     7.3152
  449.0000   102.2239     7.7341     7.3450
  449.5000   102.4895     8.0359     7.3854
  450.0000   104.3180     8.3515     7.5575
  450.5000   107.7187     8.7044     7.9862
  451.0000   106.1444     9.0723     8.4470
  451.5000   103.3248     9.4556     8.9345
  452.0000   101.1200     9.8555     9.4500
  452.5000   100.4985    10.2730    10.0401
  453.0000   101.3768    10.7057    10.2017
  453.5000   101.4457    10.9627    10.5187
  454.0000   100.0846    11.0485    10.7235
  454.5000    98.5150    11.1349    11.0200
  455.0000    99.8868    11.2272    11.0119
  455.5000   101.6041    11.2165    11.0010
  456.0000   103.0845    11.1967    10.9901
  456.5000   102.1459    11.1770    10.9791
  457.0000   101.5620    11.1573    10.9682
  457.5000   102.2972    11.1376    10.9573
  458.0000   103.0298    11.1180    10.9465
  458.5000   102.8587    11.0984    10.9356
  459.0000   102.7273    11.0788    10.9242
  459.5000   103.2133    11.0593    10.8755
  460.0000   104.6646    11.0399    10.7631
  460.5000   106.1051    11.0200    10.6518
  461.0000   107.4604    10.9779    10.5414
  461.5000   107.5060    10.9352    10.4660
  462.0000   107.4883    10.9204    10.3993
  462.5000   106.8727    10.7450    10.3330
  463.0000   103.9295    10.5187    10.2664
  463.5000   101.0815    10.0888    10.2242
  464.0000    98.9294     9.6105    10.2308
  464.5000    99.0626     8.9075    11.0631
  465.0000   100.7512     8.4157    11.8029
  465.5000   102.4200     7.7565    12.0956
  466.0000   104.0934     7.0859    11.7624
  466.5000   102.6335     6.1586     9.9500
