~VERSION INFORMATION
 VERS.                2.0:   CWLS LOG ASCII STANDARD - VERSION 2.0
 WRAP.                 NO:   ONE LINE PER DEPTH STEP
~WELL INFORMATION
#MNEM.UNIT      DATA TYPE    INFORMATION
#----------   ------------   ------------------------------
 STRT.F           34.0000:   START DEPTH
 STOP.F          534.0000:   STOP DEPTH
 STEP.F            0.5000:   STEP LENGTH
 NULL.          -999.2500:   NO VALUE
 COMP.    FENIX & SCISSON:   COMPANY
 WELL.      33 SX 3 #33-3:   WELL
 FLD .             TEAPOT:   FIELD
 LOC .       S3 T38N R78W:   LOCATION
 CNTY.            NATRONA:   COUNTY
 STAT.            WYOMING:   STATE
 CTRY. UNITED STATES OF AMERICA:   COUNTRY
 SRVC.       Schlumberger:   SERVICE COMPANY
 DATE.        23-FEB-1977:   LOGDATE
 API .       490251028500:   API NUMBER
~CURVE INFORMATION
#MNEM.UNIT       API CODE    CURVE DESCRIPTION
#----------   ------------   ------------------------------
 DEPT.F                  :   
 SPR .MV     07 010 01 00:   SPONTANEOUS POTENTIAL
 LL8 .OHMM   07 220 08 00:   LATEROLOG-8 RES.
 ILD .OHMM   07 120 46 00:   INDUCTION LOG DEEP
 ILM .OHMM   07 120 44 00:   INDUCTION LOG MEDIUM
 CALD.IN     45 280 60 00:   CALIPER
 GRD .GAPI   45 310 01 00:   GAMMA RAY FROM DENSITY LOG
 RHOB.G/C3   45 350 01 00:   BULK DENSITY
 DPOR.DEC    45 890 12 00:   DENSITY POROSITY SANDSTONE
 CORR.G/C3   45 356 01 00:   DENSITY CORRECTION
~PARAMETER INFORMATION
#MNEM.UNIT          VALUE    DESCRIPTION
#----------   ------------   ------------------------------
 PD  .                 GL:   PERMANENT DATUM
 EPD .F              5170:   ELEVATION PERMANENT DATUM
 LMF .                 KB:   LOG MEASURED FROM
 DAPD.F                 5:   FEET ABOVE PERMANENT DATUM
 DMF .                 KB:   DRILLING MEASURED FROM
 EKB .F              5175:   KELLING BUSHING
 EGL .F              5170:   GROUND LEVEL
 DATE.            2-23-77:   RUN DATE
 RUN .                  1:   RUN NUMBER
 DD  .F               550:   DEPTH DRILLER
 DL  .F               535:   DEPTH LOGGER
 BLI .F               525:   BOTTOM LOG INTERVAL
 TLI .F                47:   TOP LOG INTERVAL
 CS  .IN            8.625:   CASING SIZE
 CBD .F                40:   CASING BOTTOM DRILLER
 CBL .F                47:   CASING BOTTOM LOGGER
 BS  .IN            7.875:   BIT SIZE
 BSD .F               550:   BIT SIZE AT DEPTH
 DFT .                KCL:   DRILLING FLUID TYPE
 DFD .                  9:   DRILLING FLUID DENSITY
 DFV .                 36:   DRILLING FLUID VISCOSITY
 MSS .            MUDTANK:   MUD SAMPLE SOURCE
 RMS .OHMM           .255:   RESISTIVITY MUD SAMPLE
 MST .F                74:   MUD SAMPLE TEMPERATURE
 RMF .OHMM           .246:   RESISTIVITY MUD FILTRATE SAMPLE
 MFST.F                74:   MUD FILTRATE SAMPLE TEMPERATURE
 RMC .OHMM            .38:   RESISTIVITY MUD CAKE
 MCST.F                74:   MUD CAKE SAMPLE TEMPERATURE
 MFSS.                  M:   MUD FILTRATE SAMPLE SOURCE
 MCSS.                  C:   MUD CAKE SAMPLE SOURCE
 RMB .OHMM            .34:   RESISTIVITY MUD AT BHT
 BHT .F                55:   BOTTOM HOLE TEMPERATURE
 TCS .HRS            0600:   TIME CURCULATED STOPPED
 TLAB.HRS            0730:   TIME LOGGER AT BOTTOM
 MRT .F                55:   MAXIMUM RECORDED TEMPERATURE
 LUN .               5642:   LOGGING UNIT NUMBER
 LUL .               CSPR:   LOGGING UNIT LOCATION
 ENGI.                FIX:   RECORDING ENGINEER
 WITN.         STUEBINGER:   WITNESSED BY
 CLNT.            A2DTECH:   CLIENT CODE
 ORIG.       2", 5" PRINT:   ORIGIN OF DATA
 UWI .       490251028500:   UNIQUE WELL ID
 DICO. A2D Technologies, Inc.:   DIGITIZING COMPANY
~OTHER INFORMATION
~A   DEPT      SPR        LL8        ILD        ILM       CALD         GRD      RHOB       DPOR       CORR   
# ...
  435.5000   -31.6983    12.6699    10.7048    12.0068     8.4239    88.4410     2.4321     0.1218     0.0157
  436.0000   -31.9966    12.5159    10.5931    11.8246     8.4228    88.2025     2.4459     0.1131     0.0300
  436.5000   -32.2954    12.4342    10.4826    11.7454     8.4217    89.9249     2.4698     0.1089     0.0361
  437.0000   -32.7008    12.3404    10.3733    11.6738     8.4207    90.8561     2.4700     0.1081     0.0248
  437.5000   -33.3032    12.1997    10.2651    11.6034     8.4196    91.8236     2.4795     0.1019     0.0302
  438.0000   -34.2898    12.0606    10.1581    11.4953     8.4185    91.9581     2.4752     0.0984     0.0266
  438.5000   -35.1211    11.9231    10.0587    11.2740     8.4175    92.0310     2.4677     0.1114     0.0195
  439.0000   -35.9573    11.7872     9.8290    11.0571     8.4164    91.6503     2.4602     0.1129     0.0123
  439.5000   -36.5447    11.5109     9.5608    10.8457     8.4154    91.2856     2.4527     0.1142     0.0071
  440.0000   -36.8419    11.2131     9.4774    10.6403     8.4143    91.6928     2.4451     0.1162     0.0073
  440.5000   -37.1391    10.9231     9.3911    10.4412     8.4132    94.4168     2.4469     0.1180     0.0166
  441.0000   -37.4340    10.5710     9.0563     9.8433     8.4122    97.2815     2.4618     0.1108     0.0270
  441.5000   -37.7290    10.6287     8.3997     9.1618     8.4111   100.1242     2.4731     0.1092     0.0357
  442.0000   -38.0242    10.3873     7.7906     8.5276     8.4101   100.9004     2.4717     0.1040     0.0356
  442.5000   -38.3187     9.5602     7.2258     7.9372     8.4090   100.7050     2.4633     0.1204     0.0248
  443.0000   -38.6126     8.5105     6.7019     7.3877     8.4079   101.8364     2.4549     0.1194     0.0148
  443.5000   -38.9740     7.5761     6.2159     6.8769     8.4069   105.3026     2.4412     0.1176     0.0147
  444.0000   -39.4358     6.7443     5.7652     6.4019     8.4058   110.3199     2.4026     0.1316     0.0185
  444.5000   -39.8910     6.0038     5.3472     5.9447     8.4047   115.3583     2.3925     0.1320     0.0341
  445.0000   -39.9605     5.3196     5.0331     5.8339     8.4037   117.7904     2.4037     0.1505     0.0440
  445.5000   -39.3625     5.9907     5.2298     5.8339     8.4026   114.8386     2.4154     0.1402     0.0314
  446.0000   -38.9243     8.3627     5.6023     6.4491     8.4016   108.0876     2.4359     0.1168     0.0243
  446.5000   -38.7557    11.1307     6.0013     7.1638     8.4005    99.6738     2.4855     0.0985     0.0459
  447.0000   -38.6007    11.1849     6.4573     7.9579     8.3994    95.3205     2.4871     0.0957     0.0343
  447.5000   -38.8549    11.2529     7.2721     8.8399     8.3984    94.8627     2.4786     0.1019     0.0270
  448.0000   -39.1842    11.3216     8.2570     9.8723     8.3973    96.1785     2.5215     0.0940     0.0454
  448.5000   -39.8642    11.5464     9.1201    10.0562     8.3962    97.3010     2.5336     0.0966     0.0488
  449.0000   -40.2338    11.8664     9.4997    10.3631     8.3952    97.2446     2.5287     0.0965     0.0338
  449.5000   -40.3465    12.0946     9.7421    10.7082     8.3941    96.8961     2.4902     0.0946     0.0251
  450.0000   -40.2723    12.0390     9.8419    11.0648     8.3931    97.1624     2.5116     0.0953     0.0304
  450.5000   -40.0675    11.9794     9.9428    11.4333     8.3920    97.6722     2.5385     0.0960     0.0380
  451.0000   -39.8623    11.9782    10.0446    11.5492     8.3909    99.1063     2.5107     0.1020     0.0308
  451.5000   -39.6563    12.1000    10.1475    11.6563     8.3899   100.0035     2.4980     0.1074     0.0210
  452.0000   -39.4398    12.3486    10.2515    11.8840     8.3888    98.2252     2.4998     0.1098     0.0216
  452.5000   -39.5370    12.5837    10.3565    12.0621     8.3877    96.1309     2.4834     0.1102     0.0267
  453.0000   -39.7540    12.8248    10.4343    12.2429     8.3867    96.0103     2.4632     0.1098     0.0147
  453.5000   -39.9758    13.0711    10.6349    12.4264     8.3856    97.0707     2.4718     0.1069     0.0061
  454.0000   -40.1699    13.3221    10.8638    12.6126     8.3846    98.6457     2.4802     0.1000     0.0183
  454.5000   -40.0142    13.5779    11.0977    12.8016     8.3835   100.1955     2.4780     0.1060     0.0104
  455.0000   -39.8550    13.8385    11.3365    12.9935     8.3824   100.3384     2.4758     0.1027     0.0035
  455.5000   -39.7014    14.1042    11.5805    13.1421     8.3814    98.1957     2.4824     0.0978     0.0203
  456.0000   -39.6410    14.4127    11.8298    13.3869     8.3803    96.5660     2.4837     0.0952     0.0266
  456.5000   -39.9142    14.6092    11.8950    13.3869     8.3792    95.2017     2.4823     0.0996     0.0126
  457.0000   -40.2075    14.8582    11.9458    13.5560     8.3782    95.6816     2.4890     0.0992     0.0265
  457.5000   -41.2087    14.9556    11.9969    13.7649     8.3771    97.2726     2.4813     0.0996     0.0282
  458.0000   -41.9248    14.9043    12.0482    13.9769     8.3760    98.5463     2.4713     0.1082     0.0058
  458.5000   -42.4215    14.6571    12.0997    14.1508     8.3766    97.4779     2.4612     0.1136     0.0119
  459.0000   -42.6291    14.4127    12.1515    14.1797     8.3778    96.7887     2.4514     0.1161     0.0122
  459.5000   -42.6930    14.7443    12.2034    14.2542     8.3790    96.5983     2.4508     0.1068     0.0177
  460.0000   -42.5398    15.0864    12.2556    14.3296     8.3802    94.0506     2.4910     0.0932     0.0417
  460.5000   -42.3768    15.4364    12.3080    14.4056     8.3814    91.5471     2.4969     0.0924     0.0486
  461.0000   -42.6856    15.8061    12.3200    14.4820     8.3826    90.7159     2.4434     0.1128     0.0179
  461.5000   -43.0772    15.5467    12.3202    14.5463     8.3838    91.8737     2.4679     0.1108     0.0103
  462.0000   -43.2631    15.2148    12.3202    14.4843     8.3850    93.4065     2.4621     0.1076     0.0152
  462.5000   -43.3991    14.8949    12.3088    14.4032     8.3862    94.8197     2.4524     0.1132     0.0100
  463.0000   -43.5333    14.5384    12.2337    14.3225     8.3874    93.6940     2.4590     0.1105     0.0188
  463.5000   -43.6668    14.5524    12.1590    14.2423     8.3886    91.0526     2.4814     0.1014     0.0312
  464.0000   -43.7034    14.4116    12.0848    14.1626     8.3898    88.4112     2.5033     0.0913     0.0432
  464.5000   -43.5768    14.9059    12.0112    14.0832     8.3911    87.0747     2.5210     0.0816     0.0400
  465.0000   -43.4554    15.0934    11.9379    14.0044     8.3923    88.4348     2.5127     0.0760     0.0530
  465.5000   -43.4098    14.8302    11.8571    13.9259     8.3935    91.1757     2.4939     0.0908     0.0306
  466.0000   -43.7729    14.5993    11.7157    13.8479     8.3947    93.8815     2.4766     0.1024     0.0302
  466.5000   -44.1519    14.3721    11.5760    13.7627     8.3959    95.7724     2.4763     0.0997     0.0267
  467.0000   -44.9678    14.1483    11.4380    13.5634     8.3971    96.0579     2.5034     0.0933     0.0389
  467.5000   -45.5219    13.9280    11.3016    13.3456     8.3983    96.4602     2.5040     0.0872     0.0440
  468.0000   -45.8523    13.7112    11.1669    13.1313     8.3995    97.3907     2.4889     0.0994     0.0250
  468.5000   -46.1851    13.4977    11.0337    12.9204     8.4007    99.2875     2.4769     0.1041     0.0130
  469.0000   -46.5175    13.3869    10.9021    12.7129     8.4019   101.4238     2.4672     0.1071     0.0303
  469.5000   -46.5282    13.2086    10.7721    12.5088     8.4031   102.1158     2.4461     0.1089     0.0180
  470.0000   -46.4283    13.0443    10.6437    12.3079     8.4043   102.3330     2.4567     0.1077     0.0053
  470.5000   -46.0813    12.8822    10.5168    12.1103     8.4055   102.5291     2.4769     0.1008     0.0309
  471.0000   -45.7484    12.7220    10.3913    11.9158     8.4067   102.7303     2.4973     0.0940     0.0398
  471.5000   -45.8885    12.5639    10.2674    11.7245     8.4079   102.2505     2.5015     0.0868     0.0462
