~VERSION INFORMATION
 VERS.                2.0:   CWLS LOG ASCII STANDARD - VERSION 2.0
 WRAP.                 NO:   ONE LINE PER DEPTH STEP
~WELL INFORMATION
#MNEM.UNIT      DATA TYPE    INFORMATION
#----------   ------------   ------------------------------
 STRT.F           12.0000:   START DEPTH
 STOP.F          448.0000:   STOP DEPTH
 STEP.F            0.5000:   STEP LENGTH
 NULL.          -999.2500:   NO VALUE
 COMP. LAWRENCE/ALLISON INC:   COMPANY
 WELL. LI2 -52-61 SX10 #10-10:   WELL
 FLD .             TEAPOT:   FIELD
 LOC .      S10 T38N R78W:   LOCATION
 CNTY.            NATRONA:   COUNTY
 STAT.            WYOMING:   STATE
 CTRY. UNITED STATES OF AMERICA:   COUNTRY
 SRVC.      Dresser Atlas:   SERVICE COMPANY
 DATE.        13-JAN-1985:   LOGDATE
 API .       490251100400:   API NUMBER
~CURVE INFORMATION
#MNEM.UNIT       API CODE    CURVE DESCRIPTION
#----------   ------------   ------------------------------
 DEPT.F                  :   
 AC  .US/F   60 520 00 00:   ACCOUSTIC
 SPR .MV     11 010 01 00:   SPONTANEOUS POTENTIAL FROM RES.
 RD  .OHMM   11 220 10 00:   RESISTIVITY DEEP
 RS  .OHMM   11 220 09 00:   RESISTIVITY SHALLOW
 RMLL.OHMM   11 270 04 00:   MICRO LATEROLOG
 GRD .GAPI   45 310 01 00:   GAMMA RAY FROM DENSITY LOG
 CALD.IN     45 280 60 00:   CALIPER FROM DENSITY LOG
 CORR.G/C3   45 356 01 00:   DENSITY CORRECTION
 DEN .G/C3   45 350 01 00:   COMPENSATED BULK DENSTIY
 PORD.DEC    45 890 12 00:   POROSITY DENSITY SANDSTONE
 CNC .DEC    42 890 03 00:   NEUTRON POROSITY SANDSTONE
~PARAMETER INFORMATION
#MNEM.UNIT          VALUE    DESCRIPTION
#----------   ------------   ------------------------------
 PD  .                 GL:   PERMANENT DATUM
 EPD .F              5156:   ELEVATION PERMANENT DATUM
 LMF .                 GL:   LOG MEASURED FROM
 DMF .                 GL:   DRILLING MEASURED FROM
 EGL .F              5156:   GROUND LEVEL
 DATE.        13-JAN-1985:   RUN DATE
 RUN .                  1:   RUN NUMBER
 DD  .F               450:   DEPTH DRILLER
 DL  .F               450:   DEPTH LOGGER
 BLI .F               448:   BOTTOM LOG INTERVAL
 TLI .F                20:   TOP LOG INTERVAL
 CS  .IN            8.625:   CASING SIZE
 CBD .F                20:   CASING BOTTOM DRILLER
 CBL .F                20:   CASING BOTTOM LOGGER
 BS  .IN            7.875:   BIT SIZE
 BSD .F               450:   BIT SIZE AT DEPTH
 DFT .            KCL-H2O:   DRILLING FLUID TYPE
 MSS .               TANK:   MUD SAMPLE SOURCE
 RMS .OHMM           0.16:   RESISTIVITY MUD SAMPLE
 MST .F                20:   MUD SAMPLE TEMPERATURE
 RMF .OHMM           0.12:   RESISTIVITY MUD FILTRATE SAMPLE
 MFST.F                20:   MUD FILTRATE SAMPLE TEMPERATURE
 RMC .OHMM            0.2:   RESISTIVITY MUD CAKE
 MCST.F                20:   MUD CAKE SAMPLE TEMPERATURE
 MFSS.               CALC:   MUD FILTRATE SAMPLE SOURCE
 MCSS.               CALC:   MUD CAKE SAMPLE SOURCE
 BHT .F               100:   BOTTOM HOLE TEMPERATURE
 TCS .HRS               2:   TIME CURCULATED STOPPED
 MRT .F               100:   MAXIMUM RECORDED TEMPERATURE
 LUN .               6270:   LOGGING UNIT NUMBER
 LUL .                 FM:   LOGGING UNIT LOCATION
 ENGI.          E. GOVETT:   RECORDING ENGINEER
 WITN.             GROOMS:   WITNESSED BY
 CLNT.            A2DTECH:   CLIENT CODE
 ORIG.        2" 5" PRINT:   ORIGIN OF DATA
 UWI .       490251100400:   UNIQUE WELL ID
 DICO. A2D Technologies, Inc.:   DIGITIZING COMPANY
 R1  . POROSITY WITH SANDSTONE:   REMARKS 1
~OTHER INFORMATION
~A   DEPT       AC        SPR         RD         RS       RMLL         GRD      CALD       CORR        DEN       PORD        CNC   
# ...
   42.5000   111.5893   -41.1531   343.8401    19.2486    30.4011   108.6033     8.1757     0.0329     2.4457     0.1395     0.2804
   43.0000   110.9173   -41.6121   346.1375    19.2402    28.7402   113.8668     8.1596     0.0203     2.4418     0.1416     0.2755
   43.5000   110.6198   -41.7698   348.3832    19.0986    26.9782   115.8086     8.1735     0.0025     2.4357     0.1450     0.2753
   44.0000   110.8466   -42.0884   351.0276    19.0882    26.7771   115.6515     8.1872    -0.0006     2.4296     0.1489     0.2934
   44.5000   111.3731   -42.3883   357.8916    19.0799    26.7629   115.6443     8.1861     0.0054     2.4243     0.1530     0.3062
   45.0000   111.4501   -42.6967   360.2828    19.0716    27.6956   115.4872     8.2000     0.0113     2.4190     0.1583     0.3065
   45.5000   111.3768   -42.8544   365.1856    19.1963    26.8663   115.3299     8.1990     0.0007     2.4136     0.1599     0.3044
   46.0000   111.0049   -42.8616   370.1188    19.3197    19.5361   114.5715     8.2279    -0.0024     2.4136     0.1556     0.3020
   46.5000   110.4827   -43.0196   375.1550    19.3113    18.2160   113.8146     8.2418     0.0144     2.4233     0.1490     0.3035
   47.0000   110.1851   -43.1788   377.6240    19.3029    20.3472   113.8074     8.2404     0.0246     2.4364     0.1406     0.3108
   47.5000   109.5132   -43.1860   380.1093    19.4328    22.1070   113.8003     8.2394     0.0185     2.4497     0.1335     0.3099
   48.0000   108.9161   -43.1931   377.2872    19.5561    23.0371   113.4932     8.2383     0.0109     2.4594     0.1294     0.2927
   48.5000   108.6934   -43.2003   366.6926    19.5455    23.0219   113.0129     8.2525     0.0078     2.4632     0.1324     0.2730
   49.0000   108.6207   -43.3598   354.0742    19.5370    22.6918   111.8279     8.2661     0.0077     2.4518     0.1373     0.2685
   49.5000   108.4730   -43.3669   346.6240    19.6647    22.6798   110.3214     8.2823     0.0106     2.4464     0.1410     0.2761
   50.0000   108.1006   -43.6753   341.3083    19.6540    22.6679   109.5646     8.2939     0.0438     2.4456     0.1370     0.2794
   50.5000   107.3537   -43.9146   338.6264    19.6455    24.2885   108.8078     8.2829     0.0603     2.4596     0.1259     0.2725
   51.0000   106.8315   -44.2865   336.7356    19.7739    26.5749   106.9990     8.2654     0.0618     2.4712     0.1235     0.2653
   51.5000   106.3057   -44.4415   339.0011    19.7651    28.1282   106.6945     8.2489     0.0557     2.4727     0.1226     0.2638
   52.0000   105.4018   -44.7471   338.8593    19.7546    29.4701   107.2852     8.2118     0.0465     2.4703     0.1262     0.2680
   52.5000   104.5586   -44.7515   343.5206    19.7460    29.8655   106.3784     8.1734     0.0359     2.4642     0.1299     0.2792
   53.0000   103.2160   -44.9075   348.1876    19.7374    29.8515   103.0037     8.1350     0.0207     2.4597     0.1311     0.2890
   53.5000   102.0874   -44.7601   352.9476    19.7266    29.0186   100.5367     8.0965     0.0146     2.4573     0.1314     0.3086
   54.0000   101.1835   -44.7656   357.7727    19.7181    27.4349   101.2799     8.0648     0.0175     2.4580     0.1321     0.3135
   54.5000   100.2921   -44.7699   362.6334    19.7095    24.6992   102.6245     8.0363     0.0190     2.4557     0.1354     0.2978
   55.0000    99.6148   -44.6235   365.0732    19.7009    22.9804   101.7136     8.0090     0.0143     2.4458     0.1385     0.2830
   55.5000    99.1352   -44.4774   370.0331    19.6902    21.0299    98.6973     8.0186     0.0037     2.4367     0.1451     0.2661
   56.0000    99.1379   -44.3312   372.4951    19.6816    18.5461    97.3352     8.0326    -0.0039     2.4291     0.1500     0.2585
   56.5000    99.3648   -44.1849   374.9662    19.6752    15.0458    97.8076     8.0466     0.0020     2.4268     0.1497     0.2555
   57.0000    99.8912   -44.0387   374.8093    19.6946    12.9046   100.6238     8.0453     0.0110     2.4306     0.1482     0.2586
   57.5000   100.4177   -44.0441   374.6839    19.7111    12.4577   102.4196     8.0443     0.0185     2.4297     0.1482     0.2641
   58.0000   100.6445   -43.8968   374.5585    19.7277    12.1100   100.9071     8.0583     0.0290     2.4266     0.1483     0.2698
   58.5000   100.4969   -43.7515   371.8374    19.7443    12.0191    98.6427     8.0573     0.0063     2.4251     0.1498     0.2683
   59.0000   100.3486   -43.4548   369.1362    19.7608    12.0973    98.9348     8.0713    -0.0150     2.4250     0.1507     0.2659
   59.5000   100.4110   -43.1590   363.9141    19.7774    12.1761    99.2271     8.0701    -0.0301     2.4280     0.1501     0.2638
   60.0000   101.0256   -43.0117   358.7620    19.5317    12.1703    99.3684     8.0691    -0.0332     2.4340     0.1480     0.2609
   60.5000   101.6401   -42.8654   351.2094    19.3872    12.1646   101.5448     8.0680     0.0165     2.4493     0.1393     0.2597
   61.0000   102.7547   -42.7192   341.4571    19.3781    11.9078   103.2586     8.0823     0.0482     2.4603     0.1318     0.2715
   61.5000   103.9553   -42.7246   329.6743    19.3688    11.3971   101.4453     8.0810     0.0557     2.4610     0.1303     0.2751
   62.0000   104.7814   -42.8796   316.0915    19.4928    10.9426    99.1809     8.0800     0.0284     2.4481     0.1366     0.2749
   62.5000   105.1581   -42.8966   305.1840    19.4837    10.7863   101.1271     8.0788     0.0178     2.4390     0.1454     0.2864
   63.0000   104.6359   -43.1906   300.7123    19.6105    10.6323   102.3214     8.0777     0.0282     2.4352     0.1461     0.2979
   63.5000   104.0387   -43.1949   296.5856    19.8782    10.7028   102.4631     8.0767     0.0357     2.4381     0.1440     0.2967
   64.0000   103.4416   -43.1993   294.4310    20.0056    10.8463    99.2862     8.0757     0.0372     2.4381     0.1446     0.2889
   64.5000   102.9943   -43.3543   292.2921    19.7173    10.9944    95.8268     8.0747     0.0386     2.4335     0.1467     0.2807
   65.0000   102.4721   -43.5092   290.1687    19.3029    11.2325    96.1188     8.0887     0.0370     2.4335     0.1470     0.2762
   65.5000   102.1746   -43.5136   290.0716    19.2919    11.5295    97.7643     8.0877     0.0339     2.4379     0.1440     0.2729
   66.0000   101.9515   -43.5381   287.9640    19.4198    11.6869    97.9081     8.0864     0.0263     2.4409     0.1419     0.2666
   66.5000   101.8787   -43.6740   281.8990    19.4084    11.8451    96.3934     8.0854     0.0156     2.4439     0.1383     0.2609
   67.0000   101.9563   -43.6783   275.9845    19.2648    11.5133    96.2343     8.0844     0.0156     2.4483     0.1369     0.2594
   67.5000   102.7823   -43.8333   270.1941    19.2558    11.1921    96.3759     8.0834     0.0155     2.4506     0.1357     0.2715
   68.0000   104.2826   -43.8376   264.5252    19.2466    10.9507    96.6680     8.0824     0.0094     2.4513     0.1381     0.2797
   68.5000   104.5094   -43.8420   258.9753    19.2354    10.5751    97.1082     8.0813     0.0048     2.4496     0.1520     0.2782
   69.0000   103.6876   -43.9970   255.3116    19.3629    10.2088    98.7536     8.0803     0.0017     2.4315     0.1575     0.2770
   69.5000   102.2665   -44.0024   255.2238    19.2174    10.3469   100.3990     8.0791     0.0031     2.4186     0.1560     0.2734
   70.0000   100.2462   -44.1574   264.1492    18.9430    10.7829   100.0895     8.0480     0.0075     2.4156     0.1485     0.2677
   70.5000    99.5741   -44.1617   269.6520    18.5430    11.0832    95.8702     7.9567     0.0105     2.4276     0.1427     0.2946
   71.0000    99.7261   -44.3167   269.5392    18.4058    10.4771    92.4029     6.0008     0.0089     2.4396     0.1422     0.3352
   71.5000   100.5522   -44.4716   265.7262    18.3970    10.1847    93.3063     6.0299    -0.0002     2.4411     0.1522     0.3083
   72.0000   101.9775   -44.7772   251.2579    18.5169    10.2511    96.7441     6.0289    -0.0063     2.4250     0.1576     0.2850
   72.5000   104.3089   -44.9322   244.1118    18.7654    10.2451    97.7880     8.1181    -0.0049     2.4168     0.1595     0.2762
