~VERSION INFORMATION
 VERS.                2.0:   CWLS LOG ASCII STANDARD - VERSION 2.0
 WRAP.                 NO:   ONE LINE PER DEPTH STEP
~WELL INFORMATION
#MNEM.UNIT      DATA TYPE    INFORMATION
#----------   ------------   ------------------------------
 STRT.F            0.0000:   START DEPTH
 STOP.F          964.0000:   STOP DEPTH
 STEP.F            0.5000:   STEP LENGTH
 NULL.          -999.2500:   NO VALUE
 COMP. LAWRENCE/ALLISON INC:   COMPANY
 WELL.  NPR 3 #58-16-SX-2:   WELL
 FLD .           NPR NO.3:   FIELD
 LOC .       S2 T38N R78W:   LOCATION
 CNTY.            NATRONA:   COUNTY
 STAT.            WYOMING:   STATE
 CTRY. UNITED STATES OF AMERICA:   COUNTRY
 SRVC.           Gearhart:   SERVICE COMPANY
 DATE.        07-MAY-1987:   LOGDATE
 API .       490251113700:   API NUMBER
~CURVE INFORMATION
#MNEM.UNIT       API CODE    CURVE DESCRIPTION
#----------   ------------   ------------------------------
 DEPT.F                  :   
 GRR .GAPI   07 310 01 00:   GAMMA RAY FROM RES. LOG.
 RILD.OHMM   07 120 46 00:   INDUCTION LOG DEEP RESISTIVITY
 RILM.OHMM   07 120 44 00:   INDUCTION LOG MEDIUM RESISTIVITY
~PARAMETER INFORMATION
#MNEM.UNIT          VALUE    DESCRIPTION
#----------   ------------   ------------------------------
 PD  .                 GL:   PERMANENT DATUM
 EPD .F              5173:   ELEVATION PERMANENT DATUM
 LMF .                 GL:   LOG MEASURED FROM
 DMF .                 GL:   DRILLING MEASURED FROM
 EGL .F              5173:   GROUND LEVEL
 DATE.           5-7-1987:   RUN DATE
 RUN .                  1:   RUN NUMBER
 DD  .F               971:   DEPTH DRILLER
 DL  .F               971:   DEPTH LOGGER
 BLI .F               963:   BOTTOM LOG INTERVAL
 TLI .F                37:   TOP LOG INTERVAL
 CS  .IN            8.625:   CASING SIZE
 CBD .F                44:   CASING BOTTOM DRILLER
 CBL .F                37:   CASING BOTTOM LOGGER
 BS  .IN            7.875:   BIT SIZE
 BSD .F               971:   BIT SIZE AT DEPTH
 TCS .HRS            2100:   TIME CURCULATED STOPPED
 TLAB.HRS            2338:   TIME LOGGER AT BOTTOM
 MRT .F                80:   MAXIMUM RECORDED TEMPERATURE
 LUN .               7597:   LOGGING UNIT NUMBER
 LUL .           GILLETTE:   LOGGING UNIT LOCATION
 ENGI.         WEATHERMON:   RECORDING ENGINEER
 WITN. STRONG/TAYLOR/LOWE:   WITNESSED BY
 CLNT.            A2DTECH:   CLIENT CODE
 ORIG.           5" PRINT:   ORIGIN OF DATA
 UWI .       490251113700:   UNIQUE WELL ID
 DICO. A2D Technologies, Inc.:   DIGITIZING COMPANY
~OTHER INFORMATION
~A    DEPT      GRR      RILD       RILM   
    0.0000    70.4082  -999.2500  -999.2500
    0.5000    66.7344  -999.2500  -999.2500
    1.0000    61.5084  -999.2500  -999.2500
    1.5000    58.6835  -999.2500  -999.2500
    2.0000    57.9156  -999.2500  -999.2500
    2.5000    59.2288  -999.2500  -999.2500
    3.0000    60.7126  -999.2500  -999.2500
    3.5000    62.2690  -999.2500  -999.2500
    4.0000    64.4522  -999.2500  -999.2500
    4.5000    66.8673  -999.2500  -999.2500
    5.0000    69.2582  -999.2500  -999.2500
    5.5000    70.8454  -999.2500  -999.2500
    6.0000    70.0785  -999.2500  -999.2500
    6.5000    68.8054  -999.2500  -999.2500
    7.0000    67.5209  -999.2500  -999.2500
    7.5000    66.2331  -999.2500  -999.2500
    8.0000    64.9197  -999.2500  -999.2500
    8.5000    64.9781  -999.2500  -999.2500
    9.0000    65.3313  -999.2500  -999.2500
    9.5000    65.6904  -999.2500  -999.2500
   10.0000    66.0499  -999.2500  -999.2500
   10.5000    66.5246  -999.2500  -999.2500
   11.0000    67.5089  -999.2500  -999.2500
   11.5000    68.4796  -999.2500  -999.2500
   12.0000    69.4537  -999.2500  -999.2500
   12.5000    69.4970  -999.2500  -999.2500
   13.0000    69.3816  -999.2500  -999.2500
   13.5000    69.2685  -999.2500  -999.2500
   14.0000    69.3078  -999.2500  -999.2500
   14.5000    70.0965  -999.2500  -999.2500
   15.0000    71.1768  -999.2500  -999.2500
   15.5000    72.2510  -999.2500  -999.2500
   16.0000    73.3237  -999.2500  -999.2500
   16.5000    74.0998  -999.2500  -999.2500
   17.0000    73.9797  -999.2500  -999.2500
   17.5000    73.0236  -999.2500  -999.2500
   18.0000    72.0610  -999.2500  -999.2500
   18.5000    71.3485  -999.2500  -999.2500
   19.0000    72.6013  -999.2500  -999.2500
   19.5000    73.8402  -999.2500  -999.2500
   20.0000    74.8824  -999.2500  -999.2500
   20.5000    74.5133  -999.2500  -999.2500
   21.0000    74.1647  -999.2500  -999.2500
   21.5000    73.8068  -999.2500  -999.2500
   22.0000    74.1231  -999.2500  -999.2500
   22.5000    77.0418  -999.2500  -999.2500
   23.0000    80.1301  -999.2500  -999.2500
   23.5000    83.1843  -999.2500  -999.2500
   24.0000    84.8283  -999.2500  -999.2500
   24.5000    84.0039  -999.2500  -999.2500
   25.0000    83.2205  -999.2500  -999.2500
   25.5000    82.4269  -999.2500  -999.2500
   26.0000    81.6159  -999.2500  -999.2500
   26.5000    80.7579  -999.2500  -999.2500
   27.0000    82.2803  -999.2500  -999.2500
   27.5000    83.7935  -999.2500  -999.2500
   28.0000    82.6832  -999.2500  -999.2500
   28.5000    81.4987  -999.2500  -999.2500
   29.0000    80.7240  -999.2500  -999.2500
   29.5000    81.5191  -999.2500  -999.2500
   30.0000    83.9742  -999.2500  -999.2500
   30.5000    86.3922  -999.2500  -999.2500
   31.0000    87.7067  -999.2500  -999.2500
   31.5000    88.8520  -999.2500  -999.2500
   32.0000    88.2795  -999.2500  -999.2500
   32.5000    87.2280  -999.2500  -999.2500
   33.0000    88.4749  -999.2500  -999.2500
   33.5000    89.3172  -999.2500  -999.2500
   34.0000    86.5302  -999.2500  -999.2500
   34.5000    81.6645  -999.2500  -999.2500
   35.0000    76.7500  -999.2500  -999.2500
   35.5000    76.4748  -999.2500  -999.2500
   36.0000    80.3365  -999.2500  -999.2500
   36.5000    89.7572  -999.2500   337.4940
   37.0000    98.8647     5.0524   100.8091
   37.5000   105.0651     2.8378    26.4272
   38.0000   110.8709     2.6131     9.0809
   38.5000   110.4888     2.5631     3.7953
   39.0000   109.9893     4.8002     3.7686
   39.5000   109.3088     7.4607     4.3081
   40.0000   107.5849    11.2868     5.2815
   40.5000   105.8365     9.7682     6.1972
   41.0000   105.5123     7.8056     7.4451
   41.5000   105.4840     7.8364     6.9663
   42.0000   104.3149     7.8797     6.3033
   42.5000   101.6149     6.7702     6.2114
   43.0000   100.2043     6.5839     6.1974
   43.5000    99.5029     6.9511     6.1834
   44.0000    98.8054     7.5873     6.1695
   44.5000    98.2494     7.4535     6.1622
   45.0000   100.2044     7.3361     6.3210
   45.5000   103.7759     7.1984     6.4857
   46.0000   107.5268     7.0633     6.6250
   46.5000   108.6711     6.9597     6.7096
   47.0000   105.0928     6.9298     6.7096
   47.5000   101.7457     6.9027     6.7096
   48.0000    99.4948     6.9743     6.7096
   48.5000   101.0989     7.0407     6.5232
   49.0000   102.7302     7.1077     6.3395
   49.5000   103.8879     7.1688     6.4172
   50.0000   103.6010     7.1376     6.4889
   50.5000   103.1098     7.1093     6.5614
   51.0000   102.3837     7.0811     6.6347
   51.5000   101.6698     7.0530     6.7088
   52.0000   100.9341     7.0345     6.7734
   52.5000   102.8424     7.0946     6.7366
   53.0000   106.9375     7.1399     6.7045
   53.5000   110.4311     7.1855     6.6726
   54.0000   109.8637     7.2314     6.6465
   54.5000   109.3567     7.2776     6.7944
   55.0000   108.7990     7.3153     6.9226
   55.5000   111.6780     7.3645     7.0532
   56.0000   115.4643     7.4141     7.1862
   56.5000   115.2822     7.4639     7.2467
   57.0000   114.0961     7.5141     7.2624
   57.5000   112.0039     7.5647     7.2782
   58.0000   109.9387     7.6155     7.2940
   58.5000   107.8801     7.6667     7.3099
   59.0000   106.9145     7.7183     7.3258
   59.5000   106.1547     7.7702     7.3416
   60.0000   105.3970     7.8224     7.3575
   60.5000   104.7024     7.8797     7.3748
   61.0000   104.6843     7.8683     7.4828
   61.5000   104.6977     7.8558     7.6594
   62.0000   105.1685     7.8433     7.6364
   62.5000   107.1559     7.8309     7.5936
   63.0000   109.0600     7.8184     7.5511
   63.5000   109.0303     7.8056     7.5088
   64.0000   105.8453     7.7353     7.4667
   64.5000   102.6000     7.6636     7.4249
   65.0000   102.1194     7.5925     7.3833
   65.5000   104.1877     7.5221     7.3126
   66.0000   106.2268     7.4523     7.2354
   66.5000   106.7288     7.3832     7.1590
   67.0000   107.6017     7.3148     7.0834
   67.5000   110.4390     7.2469     7.0086
   68.0000   113.1811     7.1469     6.9218
   68.5000   112.9983     7.0427     6.8208
   69.0000   112.6214     6.9399     6.7213
   69.5000   112.2423     6.8387     6.6233
   70.0000   111.2741     6.7390     6.5267
   70.5000   109.4011     6.6859     6.4479
   71.0000   107.5387     6.6524     6.4070
   71.5000   105.6844     6.6191     6.3664
   72.0000   104.3377     6.5859     6.3260
   72.5000   104.7596     6.5528     6.2858
   73.0000   105.1306     6.5200     6.2458
   73.5000   105.6580     6.4873     6.2087
   74.0000   108.8062     6.4343     6.1758
   74.5000   111.9274     6.2890     6.0877
   75.0000   111.4331     6.1470     5.9623
   75.5000   108.5794     6.0082     5.8395
   76.0000   105.7136     5.8726     5.7192
   76.5000   102.7726     5.7678     5.6014
   77.0000   100.9783     5.6815     5.4859
   77.5000    98.8301     5.5964     5.3728
   78.0000    95.9689     5.5012     5.2623
   78.5000    94.0101     5.5255     5.2471
   79.0000    96.4750     5.5537     5.2629
   79.5000   100.0134     5.5823     5.3204
   80.0000   103.5844     5.6109     5.3784
   80.5000   107.0648     5.6397     5.4371
   81.0000   105.7211     5.6766     5.5012
   81.5000   103.8721     5.7311     5.5523
   82.0000   102.0430     5.7861     5.6084
   82.5000   100.8110     5.8416     5.6649
   83.0000   102.0803     5.8977     5.7130
   83.5000   103.3019     5.9335     5.6947
   84.0000   104.5294     5.8984     5.6788
   84.5000   104.2257     5.8728     5.6628
   85.0000   103.6465     5.8474     5.6469
   85.5000   104.8586     5.8223     5.6310
   86.0000   106.8916     5.8787     5.6153
   86.5000   108.9540     5.9351     5.6062
   87.0000   108.8113     5.9921     5.6591
   87.5000   107.4058     6.0497     5.6965
   88.0000   106.9339     6.1077     5.7342
   88.5000   108.5957     6.1622     5.7722
   89.0000   110.4651     6.0996     5.8221
   89.5000   108.6915     6.0416     5.7975
   90.0000   104.7405     5.9899     5.7603
   90.5000   100.7774     5.9899     5.7237
