~VERSION INFORMATION
 VERS.                2.0:   CWLS LOG ASCII STANDARD - VERSION 2.0
 WRAP.                 NO:   ONE LINE PER DEPTH STEP
~WELL INFORMATION
#MNEM.UNIT      DATA TYPE    INFORMATION
#----------   ------------   ------------------------------
 STRT.F           22.0000:   START DEPTH
 STOP.F          500.0000:   STOP DEPTH
 STEP.F            0.5000:   STEP LENGTH
 NULL.          -999.2500:   NO VALUE
 COMP.    FENIX & SCISSON:   COMPANY
 WELL.      NPR-3 #65S3-3:   WELL
 FLD .             teapot:   FIELD
 LOC .       S3 T38N R78W:   LOCATION
 CNTY.            NATRONA:   COUNTY
 STAT.            WYOMING:   STATE
 CTRY. UNITED STATES OF AMERICA:   COUNTRY
 SRVC.           BIRDWELL:   SERVICE COMPANY
 DATE.        07-JAN-1978:   LOGDATE
 API .       490251055200:   API NUMBER
~CURVE INFORMATION
#MNEM.UNIT       API CODE    CURVE DESCRIPTION
#----------   ------------   ------------------------------
 DEPT.F                  :   
 ILD .OHMM   05 120 46 00:   INDUCTION LOG DEEP
 SN  .OHMM   05 040 16 00:   SHORT NORMAL 16"
 SPR .MV     05 010 01 00:   SPONTANEOUS POTENTIAL FROM RES.
 CALD.IN     45 280 60 00:   CALIPER FROM DENSITY LOG
 DPHI.DEC    45 890 12 00:   DENSITY POROSITY SANDSTONE
 DRHO.G/C3   45 356 01 00:   DENSITY CORRECTION
 GRD .GAPI   45 310 01 00:   GAMMA RAY FROM DENSITY LOG
 RHOB.G/C3   45 350 01 00:   BULK DENSITY
~PARAMETER INFORMATION
#MNEM.UNIT          VALUE    DESCRIPTION
#----------   ------------   ------------------------------
 PD  .                 GL:   PERMANENT DATUM
 EPD .F              5156:   ELEVATION PERMANENT DATUM
 LMF .                 KB:   LOG MEASURED FROM
 DAPD.F                 4:   FEET ABOVE PERMANENT DATUM
 DMF .                 KB:   DRILLING MEASURED FROM
 EKB .F              5160:   KELLING BUSHING
 EGL .F              5156:   GROUND LEVEL
 DATE.        07-JAN-1978:   RUN DATE
 RUN .                  1:   RUN NUMBER
 DD  .F               500:   DEPTH DRILLER
 DL  .F               502:   DEPTH LOGGER
 BLI .F               500:   BOTTOM LOG INTERVAL
 TLI .F                30:   TOP LOG INTERVAL
 CS  .IN            8.625:   CASING SIZE
 CBD .F                40:   CASING BOTTOM DRILLER
 CBL .F                40:   CASING BOTTOM LOGGER
 BS  .IN            7.875:   BIT SIZE
 BSD .F               500:   BIT SIZE AT DEPTH
 DFT .                KCL:   DRILLING FLUID TYPE
 DFD .                8.6:   DRILLING FLUID DENSITY
 DFV .                 33:   DRILLING FLUID VISCOSITY
 DFPH.                9.0:   DRILLING FLUID PH
 DFL .                7.6:   DRILLING FLUID LOSS
 MSS .           FLOWLINE:   MUD SAMPLE SOURCE
 RMS .OHMM           0.23:   RESISTIVITY MUD SAMPLE
 MST .F                60:   MUD SAMPLE TEMPERATURE
 RMF .OHMM            2.2:   RESISTIVITY MUD FILTRATE SAMPLE
 MFST.F                60:   MUD FILTRATE SAMPLE TEMPERATURE
 RMC .OHMM            3.4:   RESISTIVITY MUD CAKE
 MCST.F                60:   MUD CAKE SAMPLE TEMPERATURE
 MFSS.               MEAS:   MUD FILTRATE SAMPLE SOURCE
 MCSS.               MEAS:   MUD CAKE SAMPLE SOURCE
 RMB .OHMM            1.9:   RESISTIVITY MUD AT BHT
 BHT .F                71:   BOTTOM HOLE TEMPERATURE
 TCS .HRS               8:   TIME CURCULATED STOPPED
 MRT .F                71:   MAXIMUM RECORDED TEMPERATURE
 LUN .               2958:   LOGGING UNIT NUMBER
 LUL .             CASPER:   LOGGING UNIT LOCATION
 ENGI.            POINTER:   RECORDING ENGINEER
 WITN.      DAVE MCGINLEY:   WITNESSED BY
 CLNT.            A2DTECH:   CLIENT CODE
 ORIG.           5" PRINT:   ORIGIN OF DATA
 UWI .       490251055200:   UNIQUE WELL ID
 DICO. A2D Technologies, Inc.:   DIGITIZING COMPANY
~OTHER INFORMATION
~A   DEPT      ILD         SN        SPR       CALD       DPHI       DRHO         GRD      RHOB   
   22.0000  -999.2500  -999.2500  -999.2500  -999.2500  -999.2500  -999.2500    86.0515  -999.2500
   22.5000  -999.2500  -999.2500  -999.2500  -999.2500  -999.2500  -999.2500    86.9678  -999.2500
   23.0000  -999.2500  -999.2500  -999.2500  -999.2500  -999.2500  -999.2500    86.9913  -999.2500
   23.5000  -999.2500  -999.2500  -999.2500  -999.2500  -999.2500  -999.2500    86.4196  -999.2500
   24.0000  -999.2500  -999.2500  -999.2500  -999.2500  -999.2500  -999.2500    86.7407  -999.2500
   24.5000  -999.2500  -999.2500  -999.2500  -999.2500  -999.2500  -999.2500    89.1393  -999.2500
   25.0000  -999.2500  -999.2500  -999.2500  -999.2500  -999.2500  -999.2500    87.3829  -999.2500
   25.5000  -999.2500  -999.2500  -999.2500  -999.2500  -999.2500  -999.2500    87.1029  -999.2500
   26.0000  -999.2500  -999.2500  -999.2500  -999.2500  -999.2500  -999.2500    87.4299  -999.2500
   26.5000  -999.2500  -999.2500  -999.2500  -999.2500  -999.2500  -999.2500    88.6439  -999.2500
   27.0000  -999.2500  -999.2500  -999.2500  -999.2500  -999.2500  -999.2500    89.2626  -999.2500
   27.5000  -999.2500  -999.2500  -999.2500  -999.2500  -999.2500  -999.2500    89.2861  -999.2500
   28.0000  -999.2500  -999.2500  -999.2500  -999.2500  -999.2500  -999.2500    88.1191  -999.2500
   28.5000  -999.2500  -999.2500  -999.2500  -999.2500  -999.2500  -999.2500    86.9405  -999.2500
   29.0000  -999.2500  -999.2500  -999.2500  -999.2500  -999.2500  -999.2500    86.3804  -999.2500
   29.5000  -999.2500  -999.2500  -999.2500  -999.2500  -999.2500  -999.2500    87.3413  -999.2500
   30.0000  -999.2500  -999.2500  -999.2500  -999.2500  -999.2500  -999.2500    88.5166  -999.2500
   30.5000  -999.2500  -999.2500  -999.2500  -999.2500  -999.2500  -999.2500    89.4330  -999.2500
   31.0000  -999.2500  -999.2500  -999.2500  -999.2500  -999.2500  -999.2500    85.8850  -999.2500
   31.5000  -999.2500  -999.2500  -999.2500  -999.2500  -999.2500  -999.2500    86.5038  -999.2500
   32.0000  -999.2500  -999.2500  -999.2500  -999.2500  -999.2500  -999.2500    89.2058  -999.2500
   32.5000  -999.2500  -999.2500  -999.2500  -999.2500  -999.2500  -999.2500    91.6103  -999.2500
   33.0000  -999.2500  -999.2500  -999.2500  -999.2500  -999.2500  -999.2500    88.3600  -999.2500
   33.5000  -999.2500  -999.2500  -999.2500  -999.2500  -999.2500  -999.2500    88.6811  -999.2500
   34.0000  -999.2500  -999.2500  -999.2500  -999.2500  -999.2500  -999.2500    89.8951  -999.2500
   34.5000  -999.2500  -999.2500  -999.2500  -999.2500  -999.2500  -999.2500    92.0019  -999.2500
   35.0000  -999.2500  -999.2500  -999.2500  -999.2500  -999.2500  -999.2500    91.7219  -999.2500
   35.5000  -999.2500  -999.2500  -999.2500  -999.2500  -999.2500  -999.2500    90.5608  -999.2500
   36.0000  -999.2500  -999.2500  -999.2500  -999.2500  -999.2500  -999.2500    89.9881  -999.2500
   36.5000  -999.2500  -999.2500  -999.2500  -999.2500  -999.2500  -999.2500    89.1197  -999.2500
   37.0000  -999.2500  -999.2500  -999.2500  -999.2500  -999.2500  -999.2500    88.5479  -999.2500
   37.5000  -999.2500  -999.2500  -999.2500  -999.2500  -999.2500  -999.2500    89.1667  -999.2500
   38.0000  -999.2500  -999.2500  -999.2500  -999.2500  -999.2500  -999.2500    89.7857  -999.2500
   38.5000  -999.2500  -999.2500  -999.2500  -999.2500  -999.2500  -999.2500    89.8089  -999.2500
   39.0000  -999.2500  -999.2500  -999.2500  -999.2500  -999.2500  -999.2500    89.2372  -999.2500
   39.5000  -999.2500  -999.2500  -999.2500  -999.2500  -999.2500  -999.2500    88.9630  -999.2500
   40.0000  -999.2500  -999.2500  -999.2500     8.1960     0.2683    -0.4906    88.9924     2.0769
   40.5000  -999.2500  -999.2500  -999.2500     8.1949     0.2710    -0.4898    87.2302     2.0707
   41.0000  -999.2500  -999.2500  -999.2500     8.1938     0.2710    -0.4920    87.8489     2.0707
   41.5000  -999.2500  -999.2500  -999.2500     8.1927     0.2723    -0.4965    89.0629     2.0692
   42.0000  -999.2500  -999.2500  -999.2500     8.1916     0.2801    -0.4919    89.3840     2.0497
   42.5000  -999.2500  -999.2500  -999.2500     8.1905     0.2749    -0.4647    89.4075     2.0618
   43.0000  -999.2500  -999.2500  -999.2500     8.1893     0.2722    -0.4466    88.8358     2.0694
   43.5000  -999.2500  -999.2500  -999.2500     8.1882     0.2659    -0.4194    87.6688     2.0844
   44.0000  -999.2500  -999.2500  -999.2500     8.1871     0.2656    -0.3749    88.2875     2.0889
   44.5000  -999.2500  -999.2500  -999.2500     8.1860     0.2647    -0.3311    89.5015     2.0867
   45.0000  -999.2500  -999.2500  -999.2500     8.1849     0.2617    -0.2738    91.9059     2.0905
   45.5000  -999.2500  -999.2500  -999.2500     8.1838     0.2571    -0.1500    94.3104     2.1063
   46.0000  -999.2500  -999.2500  -999.2500     8.1827     0.2481    -0.0535    97.9053     2.1393
   46.5000  -999.2500  -999.2500  -999.2500     8.1816     0.2199     0.0167   100.0121     2.2136
   47.0000  -999.2500  -999.2500  -999.2500     8.1805     0.2022     0.0281   100.9286     2.3149
   47.5000  -999.2500  -999.2500  -999.2500     8.1794     0.1340     0.0266   100.6544     2.4170
   48.0000     5.9678     9.2917    -8.4364     8.1782     0.1283     0.0168    99.7143     2.4275
   48.5000     6.0864     9.8195    -8.4492     8.1771     0.1274     0.0123    98.6180     2.4245
   49.0000    37.5647    10.2900    -8.4608     8.1760     0.1294     0.0169    98.6474     2.4260
   49.5000    51.4104    10.7174    -8.4727     8.1749     0.1273     0.0215    98.6709     2.4471
   50.0000    17.0314    11.2408    -8.4868     8.1738     0.1318     0.0034    98.6949     2.4456
   50.5000    10.0105    11.8724    -8.3439     8.1732     0.1354     0.0004    98.7214     2.4342
   51.0000     7.2035    12.3699    -7.7523     8.1726     0.1330     0.0042    98.7479     2.4148
   51.5000     7.0463    12.4385    -7.1578     8.1719     0.1291     0.0171    98.4768     2.4206
   52.0000     7.0381    12.5106    -7.0178     8.1713     0.1260     0.0232    96.7176     2.4348
   52.5000     7.0284    12.6676    -6.8779     8.1707     0.1215     0.0285    98.2323     2.4459
   53.0000     7.1211    12.8303    -6.8923     8.1700     0.1195     0.0247    99.4493     2.4468
   53.5000     7.1111    12.9048    -7.0554     8.1694     0.1235     0.0104    98.5829     2.4331
   54.0000     7.3545    12.8854    -7.2185     8.1688     0.1182     0.0127    97.1213     2.4293
   54.5000     7.3997    13.2345    -7.6848     8.1681     0.1092     0.0068    97.1479     2.4361
   55.0000     7.4931    13.5934    -8.0020     8.1675     0.1185     0.0045    96.8768     2.4527
   55.5000     7.5898    13.8642    -8.3166     8.1669     0.1122     0.0083    96.0038     2.4564
   56.0000     7.6878    13.9446    -8.3282     8.1662     0.1122     0.0084    95.7381     2.4565
   56.5000     7.7848    14.1238    -8.1879     8.1656     0.1125     0.0084    96.3611     2.4558
   57.0000     7.8327    14.2057    -8.3515     8.1649     0.1131     0.0130    98.4709     2.4558
   57.5000     7.8765    14.2843    -8.5172     8.1643     0.1134     0.0206   100.8784     2.4574
   58.0000     7.8672    14.2663    -8.5288     8.1637     0.1032     0.0190   100.9049     2.4637
   58.5000     7.8564    14.2454    -8.3859     8.1630     0.1059     0.0192   100.9315     2.4739
   59.0000     7.9047    14.2283    -8.4004     8.1624     0.0974     0.0199   100.9583     2.4657
   59.5000     7.8935    14.3151    -8.4121     8.1618     0.0992     0.0176   100.9851     2.4807
   60.0000     7.9398    14.2937    -8.5779     8.1611     0.1067     0.0170   101.0119     2.4725
   60.5000     7.8754    14.3766    -8.7409     8.1605     0.1026     0.0238   100.7399     2.4687
   61.0000     7.8646    14.3551    -8.9040     8.1599     0.0991     0.0261   100.7731     2.4770
   61.5000     7.8557    14.3379    -9.0671     8.1592     0.1007     0.0209   100.7996     2.4823
   62.0000     7.8468    14.3207    -9.2303     8.1586     0.1028     0.0179   101.1237     2.4748
