~VERSION INFORMATION
 VERS.                2.0:   CWLS LOG ASCII STANDARD - VERSION 2.0
 WRAP.                 NO:   ONE LINE PER DEPTH STEP
~WELL INFORMATION
#MNEM.UNIT      DATA TYPE    INFORMATION
#----------   ------------   ------------------------------
 STRT.F            4.0000:   START DEPTH
 STOP.F          510.0000:   STOP DEPTH
 STEP.F            0.5000:   STEP LENGTH
 NULL.          -999.2500:   NO VALUE
 COMP. LAWRENCE/ALLISON INC:   COMPANY
 WELL.     68-46 SX #68-3:   WELL
 FLD .             TEAPOT:   FIELD
 LOC .       S3 T38N R78W:   LOCATION
 CNTY.            NATRONA:   COUNTY
 STAT.            WYOMING:   STATE
 CTRY. UNITED STATES OF AMERICA:   COUNTRY
 SRVC.           Gearhart:   SERVICE COMPANY
 DATE.        15-SEP-1987:   LOGDATE
 API .       490251116400:   API NUMBER
~CURVE INFORMATION
#MNEM.UNIT       API CODE    CURVE DESCRIPTION
#----------   ------------   ------------------------------
 DEPT.F                  :   
 GRR .GAPI   07 310 01 00:   GAMMA RAY
 RILD.OHMM   07 120 46 00:   INDUCTION LOG DEEP RESISTIVITY
 RILM.OHMM   07 120 44 00:   INDUCTION LOG MEDIUM RESISTIVITY
 RLL .OHMM   07 220 00 00:   LATEROLOG RESISTIVITY
 SPR .MV     07 010 01 00:   SPONTANEOUS POTENTIAL
~PARAMETER INFORMATION
#MNEM.UNIT          VALUE    DESCRIPTION
#----------   ------------   ------------------------------
 ENGI.           JOHNSTON:   RECORDING ENGINEER
 WITN.         MR. STRONG:   WITNESSED BY
 PD  .                 GL:   PERMANENT DATUM
 EPD .F              5162:   ELEVATION PERMANENT DATUM
 LMF .                 KB:   LOG MEASURED FROM
 DAPD.F                 8:   FEET ABOVE PERMANENT DATUM
 DMF .                 KB:   DRILLING MEASURED FROM
 EKB .F              5170:   KELLING BUSHING
 EDF .F              5169:   DRILLING FLOOR
 EGL .F              5162:   GROUND LEVEL
 DATE.        15-SEP-1987:   RUN DATE
 RUN .                  1:   RUN NUMBER
 DD  .F               519:   DEPTH DRILLER
 DL  .F               512:   DEPTH LOGGER
 BLI .F               500:   BOTTOM LOG INTERVAL
 TLI .F                50:   TOP LOG INTERVAL
 CS  .IN            8.625:   CASING SIZE
 CBD .F                50:   CASING BOTTOM DRILLER
 CBL .F                50:   CASING BOTTOM LOGGER
 BS  .IN             7.87:   BIT SIZE
 BSD .F               519:   BIT SIZE AT DEPTH
 DFT .                MUD:   DRILLING FLUID TYPE
 RMS .OHMM           0.64:   RESISTIVITY MUD SAMPLE
 MST .F                71:   MUD SAMPLE TEMPERATURE
 RMF .OHMM           0.48:   RESISTIVITY MUD FILTRATE SAMPLE
 MFST.F                71:   MUD FILTRATE SAMPLE TEMPERATURE
 RMC .OHMM           0.76:   RESISTIVITY MUD CAKE
 MCST.F                71:   MUD CAKE SAMPLE TEMPERATURE
 MFSS.              CHART:   MUD FILTRATE SAMPLE SOURCE
 MCSS.              CHART:   MUD CAKE SAMPLE SOURCE
 TCS .HRS            1100:   TIME CURCULATED STOPPED
 TLAB.HRS            1638:   TIME LOGGER AT BOTTOM
 LUN .               7650:   LOGGING UNIT NUMBER
 LUL .           GILLETTE:   LOGGING UNIT LOCATION
 CLNT.            A2DTECH:   CLIENT CODE
 ORIG.           5" PRINT:   ORIGIN OF DATA
 UWI .       490251116400:   UNIQUE WELL ID
 DICO. A2D Technologies, Inc.:   DIGITIZING COMPANY
~OTHER INFORMATION
~A    DEPT       GRR     RILD       RILM        RLL        SPR   
# ...
  248.0000   113.2652     7.0518     5.8869     9.1959    -8.2084
  248.5000   119.6520     6.9033     4.9734     7.8796    -8.6717
  249.0000   124.5167     6.9509     4.9373     6.1207    -9.4398
  249.5000   127.2505     6.9004     5.0409     5.8670   -10.2080
  250.0000   117.8077     6.8507     5.4438     5.7437    -9.2993
  250.5000   109.5826     6.9577     6.3061     6.9878   -10.5151
  251.0000   105.3149     7.6599     7.0532     8.4425   -11.7316
  251.5000   105.9178     8.4487     7.6168     9.7117   -12.6433
  252.0000   108.0428     9.2535     8.0017    10.3427   -13.7399
  252.5000   106.2089     9.9935     8.2426    10.4873   -15.0756
  253.0000   105.2897    10.6422     8.6950    10.4859   -15.9873
  253.5000   105.8941    11.0966     8.8161    10.4844   -16.7465
  254.0000   108.0175    11.3291     8.9382    10.4094   -17.5058
  254.5000   110.1440    11.4855     9.0620     9.9794   -18.2650
  255.0000   111.0187    11.8911     9.1869     9.8391   -19.3291
  255.5000   110.4010    12.3120     9.3148     9.8378   -20.3932
  256.0000   110.0877    12.8377     9.6440    10.0455   -21.4573
  256.5000   108.2523    13.4802     9.9855    10.5492   -22.6885
  257.0000   101.2419    14.1549    10.8696    11.7172   -23.7372
  257.5000    93.3940    15.1800    11.3767    12.9777   -23.5818
  258.0000    81.1306    16.5158    13.4890    16.1704   -23.5788
  258.5000    72.2938    17.7433    14.8769    18.2142   -23.7283
  259.0000    69.8496    19.1195    15.4037    18.7302   -24.3351
  259.5000    69.8407    20.0764    15.5089    18.4663   -24.6378
  260.0000    69.8318    20.6433    15.6138    16.8557   -25.5487
  260.5000    68.9097    20.9283    15.8301    16.6194   -26.3079
  261.0000    66.7699    21.0687    16.0484    18.2018   -27.3983
  261.5000    65.5383    21.0597    16.3851    19.5254   -28.5878
  262.0000    64.2761    21.0525    16.3805    19.9329   -29.4995
  262.5000    64.6102    21.0451    16.2615    19.9295   -30.7160
  263.0000    70.0808    21.0364    15.8063    19.1061   -31.6284
  263.5000    77.0734    21.0293    16.0252    17.9356   -32.5394
  264.0000    80.1087    21.0221    16.0208    17.1946   -33.1462
  264.5000    78.8822    21.0149    16.0164    17.1921   -33.4482
  265.0000    76.4380    21.1559    16.2394    18.1812   -34.0549
  265.5000    75.2115    21.5992    16.6958    19.4986   -34.3568
  266.0000    72.0975    22.5298    17.4087    20.9116   -34.2006
  266.5000    69.5463    23.6466    18.1521    21.6545   -34.0452
  267.0000    65.7458    24.6563    18.8036    22.5816   -33.7374
  267.5000    64.2148    25.3503    19.3245    23.3838   -33.1246
  268.0000    63.5971    26.0640    19.5908    22.2604   -33.1217
  268.5000    62.9794    26.6101    20.0019    22.5723   -33.1187
  269.0000    62.9706    27.1699    20.1386    22.7280   -33.7255
  269.5000    62.9617    27.7368    20.2748    22.7241   -34.3323
  270.0000    62.9528    28.1328    20.4120    22.7211   -34.6342
  270.5000    65.5212    28.5079    20.9598    23.3639   -34.6311
  271.0000    69.6300    28.6991    21.5526    23.8572   -34.0178
  271.5000    70.5365    29.0953    21.8548    24.5351   -33.7099
  272.0000    69.6122    29.4970    21.5467    25.0501   -33.8601
  272.5000    69.9078    30.1124    21.0951    25.3994   -34.0096
  273.0000    70.8121    30.7438    20.9448    25.7545   -34.1591
  273.5000    72.0209    31.1679    21.0894    25.9330   -34.4602
  274.0000    73.5341    31.3768    21.2342    25.7475   -34.6098
  274.5000    74.7580    31.5873    21.8355    25.2091   -34.7677
  275.0000    75.3428    31.5738    22.4538    27.4257   -35.0864
  275.5000    72.5920    31.3421    22.9282    28.8784   -36.1245
  276.0000    71.0611    30.4632    23.2489    29.9533   -36.7313
  276.5000    70.4434    29.8177    23.2458    30.6978   -37.1856
  277.0000    69.5213    29.3917    22.5995    29.7811   -37.3351
  277.5000    68.9036    29.1760    21.0290    25.5424   -37.6377
  278.0000    68.2859    28.5576    19.0920    23.6438   -37.7866
  278.5000    68.2720    28.1473    18.4314    22.8264   -38.7078
  279.0000    72.3166    27.7452    18.4289    22.5056   -38.0854
  279.5000    77.3894    26.9672    18.5561    23.3051   -38.0585
  280.0000    81.0335    26.5818    19.6245    23.6309   -38.2312
  280.5000    81.0247    26.2020    19.0790    23.6276   -38.5338
  281.0000    81.3224    26.0097    18.1623    23.2948   -38.9874
  281.5000    82.2268    25.6381    17.6552    21.7149   -38.8320
  282.0000    82.8267    25.0946    17.0305    20.6724   -39.1347
  282.5000    81.2936    24.5610    16.4561    20.2395   -39.4366
  283.0000    81.2847    24.0406    15.7757    19.5398   -39.7378
  283.5000    81.5802    23.3665    15.3371    19.1305   -39.7348
  284.0000    81.8758    22.7112    14.8065    19.1279   -39.5569
  284.5000    82.1713    22.2300    14.2943    18.8525   -39.1184
  285.0000    80.9426    21.7590    13.9947    18.4426   -38.9629
  285.5000    80.3271    21.1488    14.2904    17.9506   -39.1132
  286.0000    82.1425    20.8289    14.5991    17.9481   -39.1095
  286.5000    83.6560    20.5470    15.0050    18.0719   -39.2589
  287.0000    82.4292    20.5400    15.2149    18.0695   -39.7133
  287.5000    81.5069    20.3893    15.3204    17.9408   -39.8628
  288.0000    81.1915    20.3823    15.5342    17.6887   -40.0122
  288.5000    81.4871    20.5191    15.6420    17.3182   -40.0091
  289.0000    82.0892    20.6567    15.6393    17.3158   -40.3104
  289.5000    82.6892    20.7962    15.6372    17.5573   -40.0026
  290.0000    83.2869    21.0823    15.6351    17.9280   -39.8472
  290.5000    83.2781    21.0733    15.7430    18.4352   -39.9966
  291.0000    82.3559    21.0662    15.9632    18.8244   -39.8420
  291.5000    80.5154    21.0590    15.9605    18.9543   -39.9914
  292.0000    78.9488    21.0518    15.9583    18.9517   -40.1402
  292.5000    79.5874    21.0447    16.0690    18.5548   -39.9848
  293.0000    82.6226    20.7440    15.9540    18.0393   -39.9817
  293.5000    85.3535    20.5888    15.8403    17.9108   -39.6732
  294.0000    85.0402    20.1552    15.8381    17.7828   -39.8234
  294.5000    81.6828    20.0058    15.8359    17.9054   -39.6673
  295.0000    83.1960    19.9990    15.7230    17.9030   -39.2070
  295.5000    84.4049    19.8522    15.7204    18.0271   -39.0516
  296.0000    85.6135    19.7065    15.7183    17.6489   -39.8108
  296.5000    87.1245    19.5619    15.4972    17.1586   -39.8078
  297.0000    89.2465    19.2824    15.3868    16.7993   -39.8049
  297.5000    88.6288    19.1363    15.2771    16.5631   -39.4970
  298.0000    86.4891    18.7350    15.2751    16.5604   -39.3409
  298.5000    84.3493    18.4660    15.2730    16.4425   -39.0330
  299.0000    82.5139    18.4597    14.4174    16.0981   -39.0301
  299.5000    81.2874    18.3243    13.7434    15.9835   -39.0271
  300.0000    81.5830    18.3180    13.2679    15.8695   -39.1768
  300.5000    81.8785    18.1836    13.4527    15.6464   -39.0244
  301.0000    79.7503    18.3057    14.2263    15.7543   -39.0244
  301.5000    77.0076    18.4283    15.2569    15.8635   -39.0244
  302.0000    75.4825    18.4218    15.6878    15.7500   -39.0244
  302.5000    77.1234    18.5456    15.5748    15.8592   -39.0244
  303.0000    82.4774    18.6700    15.5709    15.0972   -39.0244
  303.5000    86.7362    18.9278    14.7182    14.9897   -38.5513
  304.0000    88.8641    19.0547    13.8149    14.9876   -38.2622
  304.5000    90.0788    18.9133    12.8763    15.1972   -37.9573
  305.0000    89.4670    18.6430    12.2568    14.9831   -37.9573
  305.5000    87.3331    18.4984    11.9991    14.7725   -37.5000
  306.0000    86.4169    18.8937    11.9134    14.6673   -36.8902
  306.5000    87.0227    18.6234    12.2493    14.4611   -36.8902
  307.0000    86.7153    17.8402    13.0449    14.3581   -36.8902
  307.5000    84.8655    17.2063    13.8014    14.3562   -36.8902
  308.0000    83.9697    16.8601    13.4598    14.3542   -37.0427
  308.5000    85.7924    16.8543    12.6754    14.2520   -37.1951
