~VERSION INFORMATION
 VERS.                2.0:   CWLS LOG ASCII STANDARD - VERSION 2.0
 WRAP.                 NO:   ONE LINE PER DEPTH STEP
~WELL INFORMATION
#MNEM.UNIT      DATA TYPE    INFORMATION
#----------   ------------   ------------------------------
 STRT.F           22.0000:   START DEPTH
 STOP.F          564.0000:   STOP DEPTH
 STEP.F            0.5000:   STEP LENGTH
 NULL.          -999.2500:   NO VALUE
 COMP.    FENIX & SCISSON:   COMPANY
 WELL. NPR # #3 12 - SX 11:   WELL
 FLD .             TEAPOT:   FIELD
 LOC .      S11 T38N R78W:   LOCATION
 CNTY.            NATRONA:   COUNTY
 STAT.            WYOMING:   STATE
 CTRY. UNITED STATES OF AMERICA:   COUNTRY
 SRVC.           BIRDWELL:   SERVICE COMPANY
 DATE.        29-NOV-1978:   LOGDATE
 API .       490251075500:   API NUMBER
~CURVE INFORMATION
#MNEM.UNIT       API CODE    CURVE DESCRIPTION
#----------   ------------   ------------------------------
 DEPT.F                  :   
 ILD .OHMM   05 120 46 00:   INDUCTION LOG DEEP
 SN  .OHMM   05 040 00 00:   SHORT NORMAL
 SPR .MV     05 010 01 00:   SPONTANEOUS POTENTIAL FROM RES.
 CALD.IN     45 280 60 00:   CALIPER FROM DENSITY LOG
 CORR.G/C3   45 356 01 00:   DENSITY CORRECTION
 DPHI.DEC    45 890 12 00:   DENSITY POROSITY SANDSTONE
 GRD .GAPI   45 310 01 00:   GAMMA RAY FROM DENSITY LOG
 RHOB.G/C3   45 350 01 00:   BULK DENSITY
~PARAMETER INFORMATION
#MNEM.UNIT          VALUE    DESCRIPTION
#----------   ------------   ------------------------------
 PD  .                 GL:   PERMANENT DATUM
 EPD .F              5143:   ELEVATION PERMANENT DATUM
 LMF .                 KB:   LOG MEASURED FROM
 DAPD.F                 4:   FEET ABOVE PERMANENT DATUM
 DMF .                 KB:   DRILLING MEASURED FROM
 EKB .F              5147:   KELLING BUSHING
 EGL .F              5143:   GROUND LEVEL
 DATE.        29-NOV-1978:   RUN DATE
 RUN .                  1:   RUN NUMBER
 DD  .F               562:   DEPTH DRILLER
 DL  .F               564:   DEPTH LOGGER
 BLI .F               564:   BOTTOM LOG INTERVAL
 TLI .F                30:   TOP LOG INTERVAL
 CS  .IN            8.625:   CASING SIZE
 CBL .F                48:   CASING BOTTOM LOGGER
 BS  .IN            7.875:   BIT SIZE
 BSD .F               562:   BIT SIZE AT DEPTH
 DFT .                KCL:   DRILLING FLUID TYPE
 DFD .                8.7:   DRILLING FLUID DENSITY
 DFV .                 36:   DRILLING FLUID VISCOSITY
 DFPH.               10.9:   DRILLING FLUID PH
 DFL .                 12:   DRILLING FLUID LOSS
 MSS .           FLOWLINE:   MUD SAMPLE SOURCE
 RMS .OHMM           0.34:   RESISTIVITY MUD SAMPLE
 MST .F                56:   MUD SAMPLE TEMPERATURE
 RMF .OHMM           0.32:   RESISTIVITY MUD FILTRATE SAMPLE
 MFST.F                59:   MUD FILTRATE SAMPLE TEMPERATURE
 RMC .OHMM            0.4:   RESISTIVITY MUD CAKE
 MCST.F                59:   MUD CAKE SAMPLE TEMPERATURE
 MFSS.               MEAS:   MUD FILTRATE SAMPLE SOURCE
 MCSS.               MEAS:   MUD CAKE SAMPLE SOURCE
 RMB .OHMM           0.33:   RESISTIVITY MUD AT BHT
 BHT .F                59:   BOTTOM HOLE TEMPERATURE
 TCS .HRS               1:   TIME CURCULATED STOPPED
 MRT .F                59:   MAXIMUM RECORDED TEMPERATURE
 LUN .               2958:   LOGGING UNIT NUMBER
 LUL .               CASP:   LOGGING UNIT LOCATION
 ENGI.             MILLER:   RECORDING ENGINEER
 WITN.           DINSMORE:   WITNESSED BY
 CLNT.            A2DTECH:   CLIENT CODE
 ORIG.           5" PRINT:   ORIGIN OF DATA
 UWI .       490251075500:   UNIQUE WELL ID
 DICO. A2D Technologies, Inc.:   DIGITIZING COMPANY
~OTHER INFORMATION
~A   DEPT      ILD         SN        SPR       CALD       CORR       DPHI         GRD      RHOB   
# ...
  467.5000    19.1191    16.6187   -45.4902     8.0076     0.0111     0.2013    84.7224     2.3404
  468.0000    19.2520    16.7327   -45.6712     8.0085     0.0082     0.1779    84.8787     2.3955
  468.5000    19.2576    16.7298   -46.0803     7.9943     0.0052     0.1262    85.4861     2.4473
  469.0000    19.5207    16.7275   -46.2267     7.9952     0.0038     0.1028    89.5507     2.4720
  469.5000    19.6565    16.7253   -46.8226     7.9810     0.0008     0.0926    85.3476     2.5051
  470.0000    19.7932    16.8394   -47.1198     7.9819     0.0009     0.0911    76.3310     2.5216
  470.5000    20.0694    16.8371   -47.1125     7.9828    -0.0005     0.1005    72.8652     2.5111
  471.0000    20.3495    16.8348   -47.1066     7.9837    -0.0005     0.1257    74.8392     2.4879
  471.5000    19.9308    16.6007   -47.1007     7.9848    -0.0004     0.1558    77.8556     2.4428
  472.0000    19.3859    16.2566   -47.2471     8.0008    -0.0004     0.1871    80.3048     2.3896
  472.5000    18.7257    15.6824   -47.2397     8.0043    -0.0033     0.2024    82.1053     2.3565
  473.0000    18.2137    15.2687   -47.3846     8.0176    -0.0032     0.2012    83.2840     2.3475
  473.5000    17.7157    14.9518   -47.2278     8.0486    -0.0032     0.1952    82.0884     2.3536
  474.0000    17.2314    14.8464   -47.2217     8.0194    -0.0001     0.1883    80.1395     2.3686
  474.5000    16.7410    14.6399   -47.2146     8.0203     0.0014     0.1895    76.6868     2.3686
  475.0000    16.3020    14.4363   -47.3610     8.0059     0.0015     0.1952    75.7890     2.3656
  475.5000    16.0776    14.1371   -47.6567     8.0070     0.0016     0.1994    76.9994     2.3610
  476.0000    16.0776    14.1352   -47.9510     8.0229     0.0016     0.1976    79.4114     2.3550
  476.5000    15.9666    14.1333   -48.0974     8.0238     0.0032     0.1919    77.9136     2.3554
  477.0000    15.8563    13.9367   -48.5440     8.0247     0.0062     0.1874    76.5661     2.3664
  477.5000    15.6381    13.6479   -49.1399     8.0407     0.0078     0.1841    77.1736     2.3755
  478.0000    15.4228    13.4580   -49.5865     8.0566     0.0079     0.1819    78.5329     2.3792
  478.5000    15.2105    13.3632   -50.0331     8.0575     0.0064     0.1786    78.5388     2.3845
  479.0000    14.7946    13.2537   -50.6305     8.0562     0.0050     0.1714    78.3929     2.3928
  479.5000    14.4902    13.0840   -50.9263     8.0292     0.0039     0.1663    78.5507     2.4003
  480.0000    14.1921    12.9918   -51.2220     8.0303     0.0036     0.1672    78.8559     2.4093
  480.5000    14.1839    12.9003   -51.3669     8.0462     0.0022     0.1681    77.3596     2.4071
  481.0000    13.9967    12.7209   -51.9629     8.0622     0.0007     0.1678    77.0647     2.4056
  481.5000    13.9001    12.6312   -52.1093     8.0631     0.0008     0.1675    77.2211     2.4048
  482.0000    13.9001    12.3694   -52.1019     8.0640     0.0008     0.1690    77.8286     2.4041
  482.5000    13.8041    12.2823   -52.0960     8.0347     0.0009     0.1735    79.9649     2.3989
  483.0000    13.8041    12.2806   -52.2409     8.0356     0.0010     0.1789    82.0632     2.3936
  483.5000    13.6140    12.2790   -52.3873     8.0516     0.0010     0.1759    81.2672     2.3884
  484.0000    13.6140    12.1924   -52.5309     8.0525     0.0101     0.1684    80.8599     2.3907
  484.5000    13.5200    12.1907   -52.9773     8.0684     0.0222     0.1626    82.8222     2.4001
  485.0000    13.5200    12.0909   -53.2731     8.0693     0.0297     0.1581    84.3319     2.4230
  485.5000    13.5200    12.0192   -53.5918     8.0702     0.0313     0.1527    85.3905     2.4275
  486.0000    13.5200    12.0175   -54.1648     8.0861     0.0283     0.1536    86.7498     2.4305
  486.5000    13.5279    12.0159   -54.4620     8.1021     0.0269     0.1557    86.9061     2.4275
  487.0000    13.6140    12.0143   -54.9071     8.1030     0.0255     0.1572    87.6640     2.4230
  487.5000    13.5200    12.0126   -55.0535     8.1039     0.0255     0.1575    88.5722     2.4215
  488.0000    13.4266    11.9280   -55.6495     8.0897     0.0286     0.1563    89.1796     2.4223
  488.5000    13.4266    12.0098   -56.2469     8.0755     0.0317     0.1536    88.1329     2.4261
  489.0000    13.2418    11.9247   -56.5441     8.0616     0.0377     0.1410    86.4847     2.4449
  489.5000    13.2418    11.9231   -56.8386     8.0472     0.0438     0.1380    84.9869     2.4554
  490.0000    13.1504    11.8391   -57.1341     8.0180     0.0258     0.1413    82.8876     2.4494
  490.5000    13.0596    11.7557   -57.4299     8.0040     0.0154     0.1410    82.5913     2.4487
  491.0000    12.8798    11.6728   -57.7256     7.9896     0.0139     0.1421    86.6589     2.4502
  491.5000    12.7908    11.6709   -57.8706     7.9907     0.0095     0.1436    89.8227     2.4479
  492.0000    12.7025    11.5886   -58.1648     7.9916     0.0050     0.1460    93.1370     2.4411
  492.5000    12.6075    11.5871   -58.6114     7.9925     0.0021     0.1478    92.8422     2.4360
  493.0000    12.4772    11.5054   -58.9087     8.0085     0.0037     0.1487    91.9439     2.4361
  493.5000    12.3552    11.5839   -59.0536     8.0093     0.0052     0.1493    91.9699     2.4367
  494.0000    12.3552    11.5823   -59.1985     8.0253     0.0070     0.1493    94.5943     2.4367
  494.5000    12.1851    11.5808   -59.1911     8.0262     0.0129     0.1489    96.1742     2.4359
  495.0000    12.1851    11.5792   -59.1852     8.0271     0.0204     0.1444    94.2268     2.4375
  495.5000    12.1010    11.6582   -59.4810     8.0280     0.0355     0.1304    93.7801     2.4615
  496.0000    12.1010    11.6566   -59.4751     8.0289     0.0266     0.1361    94.8401     2.4638
  496.5000    12.1010    11.7361   -59.4691     8.0300     0.0116     0.1481    98.3033     2.4419
  497.0000    12.1010    11.7345   -59.3122     8.0309     0.0026     0.1514    90.4911     2.4344
  497.5000    12.1010    11.6515   -59.1542     8.0318    -0.0003     0.1490    88.9933     2.4331
  498.0000    12.0174    11.6499   -59.3006     8.0327     0.0178     0.1421    89.3000     2.4361
  498.5000    12.0174    11.7298   -59.7457     8.0335     0.0268     0.1306    89.6067     2.4594
  499.0000    12.0174    11.7278   -59.8921     8.0344     0.0271     0.1276    89.3119     2.4699
  499.5000    12.0174    11.6451   -59.8848     8.0200     0.0195     0.1306    88.1149     2.4654
  500.0000    11.8520    11.5635   -59.7295     8.0663     0.0060     0.1349    85.1118     2.4497
  500.5000    11.7701    11.5640   -60.0352     8.0364    -0.0001     0.1432    84.0646     2.4415
  501.0000    11.6889    11.5650   -60.1911     8.0368    -0.0029     0.1498    84.0923     2.4377
  501.5000    11.6081    11.4856   -60.6095     8.0220     0.0001     0.1522    84.5257     2.4325
  502.0000    11.5280    11.4072   -60.9056     8.0072     0.0031     0.1534    85.2820     2.4303
  502.5000    11.5280    11.2508   -61.1999     8.0075     0.0062     0.1540    93.5571     2.4319
  503.0000    11.3693    11.1736   -61.4941     8.0078     0.0092     0.1504    93.8611     2.4341
  503.5000    11.2900    11.0206   -61.7884     8.0082     0.0092     0.1462    90.8592     2.4416
  504.0000    11.1353    10.8695   -61.9319     8.0085     0.0093     0.1406    89.3598     2.4566
  504.5000    10.9062    10.7206   -62.0753     8.0087     0.0063     0.1359    87.8605     2.4597
  505.0000    10.8309    10.6447   -62.0661     8.0091     0.0048     0.1377    87.7134     2.4552
  505.5000    10.7561    10.4286   -62.0587     8.0094     0.0033     0.1389    88.9220     2.4522
  506.0000    10.5348    10.2859   -62.3529     7.9945     0.0034     0.1407    92.3850     2.4507
  506.5000    10.3898    10.1449   -62.3454     8.0100     0.0019     0.1425    93.1414     2.4492
  507.0000    10.2467    10.0056   -62.5138     8.0102     0.0019     0.1440    93.4576     2.4455
  507.5000    10.0359     9.8684   -62.9323     8.0105     0.0004     0.1494    93.6013     2.4380
