~VERSION INFORMATION
 VERS.                2.0:   CWLS LOG ASCII STANDARD - VERSION 2.0
 WRAP.                 NO:   ONE LINE PER DEPTH STEP
~WELL INFORMATION
#MNEM.UNIT      DATA TYPE    INFORMATION
#----------   ------------   ------------------------------
 STRT.F            8.0000:   START DEPTH
 STOP.F         3200.0000:   STOP DEPTH
 STEP.F            0.5000:   STEP LENGTH
 NULL.          -999.2500:   NO VALUE
 COMP. BROWN JOHN E&C INC:   COMPANY
 WELL.  62 x 15-17 #62-15:   WELL
 FLD .        N.P.R NO. 3:   FIELD
 LOC .      S15 T38N R78W:   LOCATION
 CNTY.            NATRONA:   COUNTY
 STAT.            WYOMING:   STATE
 CTRY. UNITED STATES OF AMERICA:   COUNTRY
 SRVC.      Western Atlas:   SERVICE COMPANY
 DATE.        17-JUN-1986:   LOGDATE
 API .       490251104300:   API NUMBER
~CURVE INFORMATION
#MNEM.UNIT       API CODE    CURVE DESCRIPTION
#----------   ------------   ------------------------------
 DEPT.F                  :   
 GRR .GAPI   07 310 01 00:   GAMMA RAY
 CALR.IN     07 280 01 00:   CALIPER FROM RESISTIVITY
 SPR .MV     07 010 01 00:   SPONTANEOUS POTENTIAL
 RILD.OHMM   07 120 46 00:   INDUCTION LOG DEEP RESISTIVITY
 RILM.OHMM   07 120 44 00:   INDUCTION LOG MEDIUM RESISTIVITY
 RFOC.OHMM   07 220 04 00:   RESISTIVITY FOCUSED LOG
 PORD.DEC    45 890 12 00:   POROSITY DENSITY SANDSTONE
 CNC .DEC    42 890 03 00:   NEUTRON POROSITY SANDSTONE
 CORR.G/C3   45 356 01 00:   DENSITY CORRECTION
 DEN .G/C3   45 350 01 00:   COMPENSATED BULK DENSTIY
~PARAMETER INFORMATION
#MNEM.UNIT          VALUE    DESCRIPTION
#----------   ------------   ------------------------------
 PD  .                 GL:   PERMANENT DATUM
 EPD .F              5242:   ELEVATION PERMANENT DATUM
 LMF .                 KB:   LOG MEASURED FROM
 DAPD.F                11:   FEET ABOVE PERMANENT DATUM
 DMF .                 KB:   DRILLING MEASURED FROM
 EKB .F              5253:   KELLING BUSHING
 EGL .F              5242:   GROUND LEVEL
 DATE.            6-17-86:   RUN DATE
 RUN .                  1:   RUN NUMBER
 DD  .F              3200:   DEPTH DRILLER
 DL  .F              3202:   DEPTH LOGGER
 BLI .F              3200:   BOTTOM LOG INTERVAL
 CS  .IN            8.625:   CASING SIZE
 CBD .F               573:   CASING BOTTOM DRILLER
 CBL .F               573:   CASING BOTTOM LOGGER
 BS  .IN            7.875:   BIT SIZE
 BSD .F              3200:   BIT SIZE AT DEPTH
 DFT .            KCL/GEL:   DRILLING FLUID TYPE
 DFD .                8.9:   DRILLING FLUID DENSITY
 DFV .                 37:   DRILLING FLUID VISCOSITY
 DFPH.                8.5:   DRILLING FLUID PH
 DFL .               10.2:   DRILLING FLUID LOSS
 MSS .           MUD TANK:   MUD SAMPLE SOURCE
 RMS .OHMM            .39:   RESISTIVITY MUD SAMPLE
 MST .F                80:   MUD SAMPLE TEMPERATURE
 RMF .OHMM            .29:   RESISTIVITY MUD FILTRATE SAMPLE
 MFST.F                80:   MUD FILTRATE SAMPLE TEMPERATURE
 RMC .OHMM            .49:   RESISTIVITY MUD CAKE
 MCST.F                80:   MUD CAKE SAMPLE TEMPERATURE
 MFSS.               CALC:   MUD FILTRATE SAMPLE SOURCE
 MCSS.               CALC:   MUD CAKE SAMPLE SOURCE
 RMB .OHMM            .24:   RESISTIVITY MUD AT BHT
 BHT .F               130:   BOTTOM HOLE TEMPERATURE
 TCS .HRS               5:   TIME CURCULATED STOPPED
 MRT .F               130:   MAXIMUM RECORDED TEMPERATURE
 LUN .            HL 6264:   LOGGING UNIT NUMBER
 LUL .           GILLETTE:   LOGGING UNIT LOCATION
 ENGI.      P.H. FAHLSING:   RECORDING ENGINEER
 WITN.             STRONG:   WITNESSED BY
 CLNT.            A2DTECH:   CLIENT CODE
 UWI .       490251104300:   UNIQUE WELL ID
 DICO. A2D Technologies, Inc.:   DIGITIZING COMPANY
~OTHER INFORMATION
~A    DEPT     GRR       CALR        SPR       RILD       RILM       RFOC       PORD        CNC       CORR        DEN   
# ...
 1080.0000    97.4976    10.0210   -50.0148     7.9732     7.6381     8.2767  -999.2500  -999.2500  -999.2500  -999.2500
 1080.5000    99.3007    10.0213   -49.5578     7.9732     7.5854     8.1630  -999.2500  -999.2500  -999.2500  -999.2500
 1081.0000    99.6140    10.0216   -49.3824     7.9732     7.5330     8.1630  -999.2500  -999.2500  -999.2500  -999.2500
 1081.5000    98.4344    10.0219   -49.0937     7.9732     7.5330     8.1067  -999.2500  -999.2500  -999.2500  -999.2500
 1082.0000    98.1471    10.0222   -48.9375     7.9732     7.5268     8.0508  -999.2500  -999.2500  -999.2500  -999.2500
 1082.5000    99.3700    10.0225   -48.9318     7.9732     7.4810     7.9953  -999.2500  -999.2500  -999.2500  -999.2500
 1083.0000   100.5904    10.0228   -48.9260     7.9182     7.4294     7.9401  -999.2500  -999.2500  -999.2500  -999.2500
 1083.5000   100.5578    10.0081   -48.9202     7.8637     7.4294     7.8825  -999.2500  -999.2500  -999.2500  -999.2500
 1084.0000    93.7207    10.0234   -48.9143     7.7557     7.3781     7.8310  -999.2500  -999.2500  -999.2500  -999.2500
 1084.5000    90.7307    10.0237   -48.9072     7.6440     7.3272     7.8310  -999.2500  -999.2500  -999.2500  -999.2500
 1085.0000    93.1547    10.0390   -48.7511     7.4921     7.2767     7.8854  -999.2500  -999.2500  -999.2500  -999.2500
 1085.5000    95.5745    10.0232   -48.7453     7.4405     7.2767     7.8310  -999.2500  -999.2500  -999.2500  -999.2500
 1086.0000    97.6939    10.0096   -48.5891     7.3892     7.2767     7.8310  -999.2500  -999.2500  -999.2500  -999.2500
 1086.5000    98.0120    10.0099   -48.4330     7.3383     7.2767     7.8310  -999.2500  -999.2500  -999.2500  -999.2500
 1087.0000    98.0332    10.0102   -48.4401     7.3383     7.2264     7.8310  -999.2500  -999.2500  -999.2500  -999.2500
 1087.5000    98.6512    10.0105   -48.8725     7.3383     7.2264     7.8310  -999.2500  -999.2500  -999.2500  -999.2500
 1088.0000   100.1700    10.0108   -49.3164     7.2877     7.1766     7.8310  -999.2500  -999.2500  -999.2500  -999.2500
 1088.5000   100.7880    10.0111   -49.4430     7.2877     7.1766     7.8310  -999.2500  -999.2500  -999.2500  -999.2500
 1089.0000   100.5050    10.0114   -49.7848     7.2877     7.1270     7.8854  -999.2500  -999.2500  -999.2500  -999.2500
 1089.5000    99.9091    10.0267   -50.0511     7.2877     7.1270     7.8310  -999.2500  -999.2500  -999.2500  -999.2500
 1090.0000    99.6388    10.0270   -50.0451     7.2877     7.1270     7.7770  -999.2500  -999.2500  -999.2500  -999.2500
 1090.5000   103.8647    10.0423   -50.0380     7.2877     7.1270     7.7234  -999.2500  -999.2500  -999.2500  -999.2500
 1091.0000   105.3835    10.0426   -49.8818     7.2877     7.1270     7.7234  -999.2500  -999.2500  -999.2500  -999.2500
 1091.5000   106.0014    10.0429   -49.8761     7.2877     7.1270     7.6701  -999.2500  -999.2500  -999.2500  -999.2500
 1092.0000   106.3147    10.0282   -49.8703     7.2375     7.1270     7.6701  -999.2500  -999.2500  -999.2500  -999.2500
 1092.5000   104.2343    10.0435   -49.8645     7.2375     7.1270     7.6172  -999.2500  -999.2500  -999.2500  -999.2500
 1093.0000   102.7087    10.0438   -49.4075     7.1876     7.1270     7.6172  -999.2500  -999.2500  -999.2500  -999.2500
 1093.5000   101.5706    10.0441   -49.0996     7.1381     7.1270     7.6172  -999.2500  -999.2500  -999.2500  -999.2500
 1094.0000   101.8883    10.0444   -48.7931     7.1381     7.1270     7.6172  -999.2500  -999.2500  -999.2500  -999.2500
 1094.5000   103.4071    10.0447   -48.6369     7.1381     7.1270     7.6172  -999.2500  -999.2500  -999.2500  -999.2500
 1095.0000   104.6256    10.0450   -48.4808     7.1381     7.1270     7.6172  -999.2500  -999.2500  -999.2500  -999.2500
 1095.5000   104.6658    10.0303   -48.4750     7.1381     7.1270     7.6092  -999.2500  -999.2500  -999.2500  -999.2500
 1096.0000   102.5110    10.0155   -48.3188     7.1876     7.1766     7.5977  -999.2500  -999.2500  -999.2500  -999.2500
 1096.5000    99.5769    10.0159   -48.3116     7.2877     7.3781     7.5862  -999.2500  -999.2500  -999.2500  -999.2500
 1097.0000    98.3887    10.0162   -48.6066     7.3383     7.5876     7.5747  -999.2500  -999.2500  -999.2500  -999.2500
 1097.5000    98.1101    10.0165   -48.7512     7.4921     7.9621     7.5647  -999.2500  -999.2500  -999.2500  -999.2500
 1098.0000    93.3226    10.0168   -48.8972     7.7022     8.1858     7.7770  -999.2500  -999.2500  -999.2500  -999.2500
 1098.5000    91.2372    10.0171   -49.1910     7.9732     8.4157     8.1067  -999.2500  -999.2500  -999.2500  -999.2500
 1099.0000    92.7750    10.0174   -49.6372     8.2606     8.5924     8.4520  -999.2500  -999.2500  -999.2500  -999.2500
 1099.5000    94.5801    10.0177   -49.9311     8.6033     8.7727     8.8698  -999.2500  -999.2500  -999.2500  -999.2500
 1100.0000    93.4783    10.0030   -49.7742     8.7912     8.8951     9.0630  -999.2500  -999.2500  -999.2500  -999.2500
 1100.5000    90.8070    10.0079   -49.7653     8.8859     9.0045     9.1530  -999.2500  -999.2500  -999.2500  -999.2500
 1101.0000    85.9174    10.0127   -49.7563     8.9664     9.1659     9.2430  -999.2500  -999.2500  -999.2500  -999.2500
 1101.5000    84.7271    10.0176   -49.7467     9.0281     9.3272     9.3136  -999.2500  -999.2500  -999.2500  -999.2500
 1102.0000    88.9495    10.0192   -49.7380     9.1531     9.4018     9.5053  -999.2500  -999.2500  -999.2500  -999.2500
 1102.5000    93.7689    10.0212   -49.4285     9.2799     9.4018     9.5713  -999.2500  -999.2500  -999.2500  -999.2500
 1103.0000    95.3415    10.0348   -49.2692     9.3437     9.4018     9.6377  -999.2500  -999.2500  -999.2500  -999.2500
 1103.5000    97.7055    10.0201   -49.2584     9.4732     9.4018     9.7047  -999.2500  -999.2500  -999.2500  -999.2500
 1104.0000    99.5219    10.0204   -49.0993     9.5383     9.4018     9.7720  -999.2500  -999.2500  -999.2500  -999.2500
 1104.5000    99.8331    10.0207   -49.0906     9.5375     9.4018     9.8399  -999.2500  -999.2500  -999.2500  -999.2500
 1105.0000    96.5480    10.0210   -48.9315     9.6032     9.4671     9.8399  -999.2500  -999.2500  -999.2500  -999.2500
 1105.5000    94.4605    10.0213   -48.7723     9.6375     9.4671     9.8465  -999.2500  -999.2500  -999.2500  -999.2500
 1106.0000    90.5711    10.0216   -48.7636     9.6684     9.5329     9.9082  -999.2500  -999.2500  -999.2500  -999.2500
 1106.5000    85.7809    10.0219   -48.9053     9.8024     9.5992    10.0463  -999.2500  -999.2500  -999.2500  -999.2500
 1107.0000    83.9936    10.0222   -48.7459     9.8697     9.6659    10.1161  -999.2500  -999.2500  -999.2500  -999.2500
 1107.5000    85.2130    10.0225   -48.8877     9.8009     9.6659    10.2571  -999.2500  -999.2500  -999.2500  -999.2500
 1108.0000    88.2306    10.0228   -49.0294     9.8002     9.6659    10.3283  -999.2500  -999.2500  -999.2500  -999.2500
 1108.5000    89.1424    10.0231   -49.1710     9.7996     9.6659    10.4000  -999.2500  -999.2500  -999.2500  -999.2500
 1109.0000    86.7582    10.0084   -49.6134     9.7314     9.5992    10.4000  -999.2500  -999.2500  -999.2500  -999.2500
 1109.5000    85.8682     9.9938   -49.7550     9.7308     9.5329    10.3283  -999.2500  -999.2500  -999.2500  -999.2500
 1110.0000    87.3879     9.9940   -50.0451     9.6630     9.4671    10.1863  -999.2500  -999.2500  -999.2500  -999.2500
 1110.5000    89.2042     9.9793   -50.1865     9.5957     9.4018    10.1161  -999.2500  -999.2500  -999.2500  -999.2500
 1111.0000    89.2552     9.9796   -50.3459     9.5950     9.4018    10.0463  -999.2500  -999.2500  -999.2500  -999.2500
 1111.5000    91.0388     9.9799   -50.4697     9.5283     9.4018     9.9770  -999.2500  -999.2500  -999.2500  -999.2500
 1112.0000    92.5548     9.9802   -50.3084     9.5276     9.4018     9.9082  -999.2500  -999.2500  -999.2500  -999.2500
 1112.5000    91.6648     9.9806   -50.1493     9.4614     9.4018     9.8399  -999.2500  -999.2500  -999.2500  -999.2500
 1113.0000    90.4818     9.9809   -49.8398     9.4607     9.4018     9.8399  -999.2500  -999.2500  -999.2500  -999.2500
