~VERSION INFORMATION
 VERS.                2.0:   CWLS LOG ASCII STANDARD - VERSION 2.0
 WRAP.                 NO:   ONE LINE PER DEPTH STEP
~WELL INFORMATION
#MNEM.UNIT      DATA TYPE    INFORMATION
#----------   ------------   ------------------------------
 STRT.F           53.0000:   START DEPTH
 STOP.F         4152.0000:   STOP DEPTH
 STEP.F            0.5000:   STEP LENGTH
 NULL.          -999.2500:   NO VALUE
 COMP. DEPARTMENT OF ENERGY:   COMPANY
 WELL. RES 3 TEAPOT #11-STX-11:   WELL
 FLD . TEAPOT NAVAL RESERVE:   FIELD
 LOC .      S11 T38N R78W:   LOCATION
 CNTY.            NATRONA:   COUNTY
 STAT.            WYOMING:   STATE
 CTRY. UNITED STATES OF AMERICA:   COUNTRY
 SRVC.       Schlumberger:   SERVICE COMPANY
 DATE.        24-JUL-1975:   LOGDATE
 API .       490251025200:   API NUMBER
~CURVE INFORMATION
#MNEM.UNIT       API CODE    CURVE DESCRIPTION
#----------   ------------   ------------------------------
 DEPT.F                  :   
 SPR .MV     07 010 01 00:   SPONTANEOUS POTENTIAL
 ILD .OHMM   07 120 46 00:   INDUCTION LOG DEEP
 ILM .OHMM   07 120 44 00:   INDUCTION LOG MEDIUM
 LL8 .OHMM   07 220 08 00:   LATEROLOG-8 RES.
 DPOR.DEC    45 890 12 00:   DENSITY POROSITY SANDSTONE
 NPOR.DEC    42 890 03 00:   NEUTRON POROSITY SANDSTONE
 RHOB.G/C3   45 350 01 00:   BULK DENSITY
 CORR.G/C3   45 356 01 00:   DENSITY CORRECTION
 GRD .GAPI   45 310 01 00:   GAMMA RAY FROM DENSITY LOG
 CALD.IN     45 280 60 00:   CALIPER FROM DENSITY LOG
~PARAMETER INFORMATION
#MNEM.UNIT          VALUE    DESCRIPTION
#----------   ------------   ------------------------------
 PD  .                 GL:   PERMANENT DATUM
 EPD .F              5165:   ELEVATION PERMANENT DATUM
 LMF .                 KB:   LOG MEASURED FROM
 DAPD.F                13:   FEET ABOVE PERMANENT DATUM
 DMF .                 KB:   DRILLING MEASURED FROM
 EKB .F              5178:   KELLING BUSHING
 EGL .F              5165:   GROUND LEVEL
 DATE.            7-24-75:   RUN DATE
 RUN .                  1:   RUN NUMBER
 DD  .F              4150:   DEPTH DRILLER
 DL  .F              4154:   DEPTH LOGGER
 BLI .F              4152:   BOTTOM LOG INTERVAL
 TLI .F              1800:   TOP LOG INTERVAL
 CS  .IN            8.625:   CASING SIZE
 CBD .F               625:   CASING BOTTOM DRILLER
 CBL .F               627:   CASING BOTTOM LOGGER
 BS  .IN            7.875:   BIT SIZE
 BSD .F              4150:   BIT SIZE AT DEPTH
 DFT .                FGM:   DRILLING FLUID TYPE
 DFD .                9.5:   DRILLING FLUID DENSITY
 DFV .                 85:   DRILLING FLUID VISCOSITY
 MSS .           FLOWLINE:   MUD SAMPLE SOURCE
 RMS .OHMM           1.34:   RESISTIVITY MUD SAMPLE
 MST .F                91:   MUD SAMPLE TEMPERATURE
 RMF .OHMM           1.17:   RESISTIVITY MUD FILTRATE SAMPLE
 MFST.F                91:   MUD FILTRATE SAMPLE TEMPERATURE
 MFSS.                  M:   MUD FILTRATE SAMPLE SOURCE
 RMB .OHMM            .94:   RESISTIVITY MUD AT BHT
 BHT .F               130:   BOTTOM HOLE TEMPERATURE
 TCS .HRS            1230:   TIME CURCULATED STOPPED
 TLAB.HRS            1900:   TIME LOGGER AT BOTTOM
 MRT .F               132:   MAXIMUM RECORDED TEMPERATURE
 LUN .               7680:   LOGGING UNIT NUMBER
 LUL .               CSPR:   LOGGING UNIT LOCATION
 ENGI.             FRENCH:   RECORDING ENGINEER
 WITN.             CARTER:   WITNESSED BY
 CLNT.            A2DTECH:   CLIENT CODE
 ORIG.       2", 5" PRINT:   ORIGIN OF DATA
 UWI .       490251025200:   UNIQUE WELL ID
 DICO. A2D Technologies, Inc.:   DIGITIZING COMPANY
~OTHER INFORMATION
~A   DEPT      SPR          ILD        ILM       LL8      DPOR       NPOR       RHOB       CORR        GRD       CALD   
# ...
 4006.0000  -999.2500  -999.2500  -999.2500  -999.2500     0.0433     0.2501     2.5871     0.0011   188.9934     8.2911
 4006.5000  -999.2500  -999.2500  -999.2500  -999.2500     0.0505     0.2400     2.5958     0.0056   174.2329     8.3108
 4007.0000  -999.2500  -999.2500  -999.2500  -999.2500     0.0357     0.2299     2.5857     0.0086   164.5017     8.3062
 4007.5000  -999.2500  -999.2500  -999.2500  -999.2500     0.0361     0.2200     2.5964     0.0063   150.9958     8.2951
 4008.0000  -999.2500  -999.2500  -999.2500  -999.2500     0.0349     0.2023     2.5877     0.0068   137.8720     8.2838
 4008.5000  -999.2500  -999.2500  -999.2500  -999.2500     0.0348     0.1765     2.6123     0.0154   133.7482     8.2742
 4009.0000  -999.2500  -999.2500  -999.2500  -999.2500     0.0325     0.1506     2.6263     0.0227   132.9571     8.2769
 4009.5000  -999.2500  -999.2500  -999.2500  -999.2500     0.0195     0.1416     2.6179     0.0204   143.1416     8.2799
 4010.0000  -999.2500  -999.2500  -999.2500  -999.2500     0.0141     0.1651     2.5965     0.0177   149.8821     8.2830
 4010.5000  -999.2500  -999.2500  -999.2500  -999.2500     0.0248     0.1915     2.5769     0.0155   152.3799     8.2860
 4011.0000  -999.2500  -999.2500  -999.2500  -999.2500     0.0413     0.2090     2.5848     0.0162   154.9179     8.2891
 4011.5000  -999.2500  -999.2500  -999.2500  -999.2500     0.0439     0.2074     2.5948     0.0177   157.4740     8.2921
 4012.0000  -999.2500  -999.2500  -999.2500  -999.2500     0.0384     0.2086     2.5941     0.0119   157.2502     8.2920
 4012.5000  -999.2500  -999.2500  -999.2500  -999.2500     0.0337     0.2156     2.5740     0.0067   154.0342     8.2766
 4013.0000  -999.2500  -999.2500  -999.2500  -999.2500     0.0400     0.2191     2.5639     0.0025   151.5102     8.2614
 4013.5000  -999.2500  -999.2500  -999.2500  -999.2500     0.0485     0.2065     2.5557    -0.0018   152.3335     8.2463
 4014.0000  -999.2500  -999.2500  -999.2500  -999.2500     0.0604     0.1956     2.5749    -0.0025   159.8881     8.2344
 4014.5000  -999.2500  -999.2500  -999.2500  -999.2500     0.0545     0.1867     2.5896     0.0011   164.9989     8.2425
 4015.0000  -999.2500  -999.2500  -999.2500  -999.2500     0.0445     0.1871     2.5991     0.0063   165.3002     8.2507
 4015.5000  -999.2500  -999.2500  -999.2500  -999.2500     0.0344     0.2003     2.6094    -0.0032   167.2295     8.2587
 4016.0000  -999.2500  -999.2500  -999.2500  -999.2500     0.0265     0.2097     2.6208     0.0006   168.8746     8.2669
 4016.5000  -999.2500  -999.2500  -999.2500  -999.2500     0.0199     0.2177     2.6252     0.0071   167.3925     8.2738
 4017.0000  -999.2500  -999.2500  -999.2500  -999.2500     0.0136     0.2247     2.6095     0.0136   168.6370     8.2583
 4017.5000  -999.2500  -999.2500  -999.2500  -999.2500     0.0137     0.2218     2.6113     0.0184   173.0505     8.2423
 4018.0000  -999.2500  -999.2500  -999.2500  -999.2500     0.0244     0.2184     2.6202     0.0148   174.4447     8.2264
 4018.5000  -999.2500  -999.2500  -999.2500  -999.2500     0.0208     0.2150     2.6180     0.0116   174.1559     8.2138
 4019.0000  -999.2500  -999.2500  -999.2500  -999.2500     0.0169     0.2139     2.6186     0.0090   176.5840     8.2255
 4019.5000  -999.2500  -999.2500  -999.2500  -999.2500     0.0192     0.2225     2.6382     0.0251   181.0702     8.2387
 4020.0000  -999.2500  -999.2500  -999.2500  -999.2500     0.0142     0.2305     2.6437     0.0309   185.5101     8.2518
 4020.5000  -999.2500  -999.2500  -999.2500  -999.2500     0.0021     0.2385     2.6272     0.0214   188.1649     8.2649
 4021.0000  -999.2500  -999.2500  -999.2500  -999.2500     0.0063     0.2464     2.6346     0.0146   190.5009     8.2746
 4021.5000  -999.2500  -999.2500  -999.2500  -999.2500     0.0101     0.2532     2.6449     0.0327   193.3333     8.2703
 4022.0000  -999.2500  -999.2500  -999.2500  -999.2500     0.0047     0.2588     2.6475     0.0215   198.1247     8.2662
 4022.5000  -999.2500  -999.2500  -999.2500  -999.2500    -0.0019     0.2722     2.6121     0.0103   207.5473     8.2622
 4023.0000  -999.2500  -999.2500  -999.2500  -999.2500     0.0093     0.2884     2.5880     0.0016   212.7679     8.2581
 4023.5000  -999.2500  -999.2500  -999.2500  -999.2500     0.0178     0.3041     2.5740     0.0011   210.4548     8.2539
 4024.0000  -999.2500  -999.2500  -999.2500  -999.2500     0.0407     0.3173     2.5835     0.0081   212.6661     8.2767
 4024.5000  -999.2500  -999.2500  -999.2500  -999.2500     0.0448     0.3268     2.5607     0.0114   216.0964     8.3019
 4025.0000  -999.2500  -999.2500  -999.2500  -999.2500     0.0512     0.3347     2.5940     0.0096   219.8015     8.3273
 4025.5000  -999.2500  -999.2500  -999.2500  -999.2500     0.0536     0.3441     2.6432     0.0117   219.3300     8.3524
 4026.0000  -999.2500  -999.2500  -999.2500  -999.2500     0.0215     0.3593     2.5684     0.0324   218.7034     8.3755
 4026.5000  -999.2500  -999.2500  -999.2500  -999.2500     0.0033     0.3697     2.5845     0.0492   221.4911     8.3487
 4027.0000  -999.2500  -999.2500  -999.2500  -999.2500     0.0472     0.3740     2.6144     0.0885   224.3073     8.2969
 4027.5000  -999.2500  -999.2500  -999.2500  -999.2500     0.0355     0.3766     2.6455     0.1496   222.5704     8.2979
 4028.0000  -999.2500  -999.2500  -999.2500  -999.2500     0.0215     0.3937     2.6616     0.1582   216.7607     8.3344
 4028.5000  -999.2500  -999.2500  -999.2500  -999.2500     0.0060     0.4102     2.6277     0.1682   214.7960     8.4496
 4029.0000  -999.2500  -999.2500  -999.2500  -999.2500    -0.0091     0.4238     2.5976     0.1612   213.4101     8.5355
 4029.5000  -999.2500  -999.2500  -999.2500  -999.2500     0.0111     0.4268     2.5796     0.1605   211.4860     8.4784
 4030.0000  -999.2500  -999.2500  -999.2500  -999.2500     0.0192     0.4298     2.5660     0.1580   203.0258     8.4173
 4030.5000  -999.2500  -999.2500  -999.2500  -999.2500     0.0255     0.4490     2.5322     0.1515   198.9875     8.4866
 4031.0000  -999.2500  -999.2500  -999.2500  -999.2500     0.0365     0.4612     2.4744     0.1471   196.2065     8.5171
 4031.5000  -999.2500  -999.2500  -999.2500  -999.2500     0.0606     0.4759     2.4701     0.1925   193.7399     8.5558
 4032.0000  -999.2500  -999.2500  -999.2500  -999.2500     0.0847     0.4948     2.4440     0.2153   191.2106     8.8560
 4032.5000  -999.2500  -999.2500  -999.2500  -999.2500     0.1035     0.5137     2.3759     0.1923   187.6770     8.9710
 4033.0000  -999.2500  -999.2500  -999.2500  -999.2500     0.1092     0.5415     2.3598     0.2288   184.1180     8.8478
 4033.5000  -999.2500  -999.2500  -999.2500  -999.2500     0.1120     0.5685     2.3686     0.2534   179.5593     9.1376
 4034.0000  -999.2500  -999.2500  -999.2500  -999.2500     0.1164     0.5767     2.3361     0.1929   174.2863     9.2743
 4034.5000  -999.2500  -999.2500  -999.2500  -999.2500     0.1192     0.5887     2.4239     0.1557   170.4587     8.7042
 4035.0000  -999.2500  -999.2500  -999.2500  -999.2500     0.1006     0.5775     2.6375     0.2523   170.9795     8.4037
 4035.5000  -999.2500  -999.2500  -999.2500  -999.2500     0.0554     0.5309     2.5927     0.1817   171.3355     8.6961
 4036.0000  -999.2500  -999.2500  -999.2500  -999.2500     0.0109     0.4328     2.5455     0.1042   171.3696     8.5175
 4036.5000  -999.2500  -999.2500  -999.2500  -999.2500     0.0992     0.3523     2.6145     0.0557   173.0558     8.2911
 4037.0000  -999.2500  -999.2500  -999.2500  -999.2500     0.0687     0.3042     2.6444     0.1072   180.3906     8.3332
 4037.5000  -999.2500  -999.2500  -999.2500  -999.2500     0.0229     0.2962     2.6089     0.1054   189.2236     8.4166
 4038.0000  -999.2500  -999.2500  -999.2500  -999.2500     0.0013     0.3312     2.5805     0.0903   191.7526     8.3953
 4038.5000  -999.2500  -999.2500  -999.2500  -999.2500     0.0287     0.3499     2.5699     0.0710   188.8583     8.3447
 4039.0000  -999.2500  -999.2500  -999.2500  -999.2500     0.0458     0.3514     2.5804     0.1033   185.8777     8.2882
