~VERSION INFORMATION
 VERS.                2.0:   CWLS LOG ASCII STANDARD - VERSION 2.0
 WRAP.                 NO:   ONE LINE PER DEPTH STEP
~WELL INFORMATION
#MNEM.UNIT      DATA TYPE    INFORMATION
#----------   ------------   ------------------------------
 STRT.F           30.0000:   START DEPTH
 STOP.F          715.0000:   STOP DEPTH
 STEP.F            0.5000:   STEP LENGTH
 NULL.          -999.2500:   NO VALUE
 COMP. FENIX & SCISSON INC:   COMPANY
 WELL.   NPR-3 #84SX15-15:   WELL
 FLD .             TEAPOT:   FIELD
 LOC .      S15 T38N R78W:   LOCATION
 CNTY.            NATRONA:   COUNTY
 STAT.            WYOMING:   STATE
 CTRY. UNITED STATES OF AMERICA:   COUNTRY
 SRVC.            Unknown:   SERVICE COMPANY
 DATE.        15-MAY-1978:   LOGDATE
 API .       490251064000:   API NUMBER
~CURVE INFORMATION
#MNEM.UNIT       API CODE    CURVE DESCRIPTION
#----------   ------------   ------------------------------
 DEPT.F                  :   
 SPR .MV     05 010 01 00:   SPONTANEOUS POTENTIAL FROM RES.
 SN  .OHMM   05 040 16 00:   SHORT NORMAL 16"
 ILD .OHMM   05 120 46 00:   INDUCTION LOG DEEP
 CALD.IN     45 280 60 00:   CALIPER FROM DENSITY LOG
 GRD .GAPI   45 310 01 00:   GAMMA RAY FROM DENSITY LOG
 CORR.G/C3   45 356 01 00:   DENSITY CORRECTION
 DPHI.DEC    45 890 12 00:   DENSITY POROSITY SANDSTONE
 DEN .G/C3   45 350 01 00:   COMPENSATED BULK DENSITY
~PARAMETER INFORMATION
#MNEM.UNIT          VALUE    DESCRIPTION
#----------   ------------   ------------------------------
 PD  .                 GL:   PERMANENT DATUM
 EPD .F              5247:   ELEVATION PERMANENT DATUM
 LMF .                 KB:   LOG MEASURED FROM
 DMF .                 KB:   DRILLING MEASURED FROM
 EKB .F              5251:   KELLING BUSHING
 EGL .F              5247:   GROUND LEVEL
 DATE.        15-MAY-1978:   RUN DATE
 RUN .                  1:   RUN NUMBER
 DD  .F               725:   DEPTH DRILLER
 DL  .F               720:   DEPTH LOGGER
 BLI .F               713:   BOTTOM LOG INTERVAL
 TLI .F                40:   TOP LOG INTERVAL
 CS  .IN            8.625:   CASING SIZE
 CBD .F                40:   CASING BOTTOM DRILLER
 CBL .F                40:   CASING BOTTOM LOGGER
 BS  .IN            7.875:   BIT SIZE
 BSD .F               725:   BIT SIZE AT DEPTH
 DFT .                KCL:   DRILLING FLUID TYPE
 DFD .                8.6:   DRILLING FLUID DENSITY
 DFV .                 33:   DRILLING FLUID VISCOSITY
 DFPH.                9.5:   DRILLING FLUID PH
 DFL .                 12:   DRILLING FLUID LOSS
 MSS .           FLOWLINE:   MUD SAMPLE SOURCE
 RMS .OHMM             .2:   RESISTIVITY MUD SAMPLE
 MST .F                80:   MUD SAMPLE TEMPERATURE
 RMF .OHMM            .18:   RESISTIVITY MUD FILTRATE SAMPLE
 MFST.F                83:   MUD FILTRATE SAMPLE TEMPERATURE
 RMC .OHMM            .26:   RESISTIVITY MUD CAKE
 MCST.F                83:   MUD CAKE SAMPLE TEMPERATURE
 MFSS.               MEAS:   MUD FILTRATE SAMPLE SOURCE
 RMB .OHMM             .2:   RESISTIVITY MUD AT BHT
 BHT .F                80:   BOTTOM HOLE TEMPERATURE
 TCS .HRS            0200:   TIME CURCULATED STOPPED
 MRT .F                80:   MAXIMUM RECORDED TEMPERATURE
 LUN .               3006:   LOGGING UNIT NUMBER
 LUL .               CASP:   LOGGING UNIT LOCATION
 ENGI.             MILLER:   RECORDING ENGINEER
 WITN.           MCGINLEY:   WITNESSED BY
 CLNT.            A2DTECH:   CLIENT CODE
 ORIG.           5" PRINT:   ORIGIN OF DATA
 UWI .       490251064000:   UNIQUE WELL ID
 DICO. A2D Technologies, Inc.:   DIGITIZING COMPANY
~OTHER INFORMATION
~A   DEPT      SPR         SN        ILD       CALD         GRD      CORR       DPHI        DEN   
# ...
  556.5000   -35.2271    10.4034    13.4489     7.6113    62.5706     0.0304     0.1715     2.3986
  557.0000   -35.0797    10.4006    13.4461     7.6112    66.6357     0.0304     0.1685     2.3985
  557.5000   -35.0827    10.3977    13.3507     7.5959    66.0315     0.0304     0.1640     2.4000
  558.0000   -34.9353    10.3949    13.2559     7.5504    65.4276     0.0288     0.1571     2.4022
  558.5000   -34.9383    10.3920    13.0712     7.5503    64.8237     0.0288     0.1529     2.4084
  559.0000   -34.9414    10.3891    12.8890     7.5501    63.4668     0.0363     0.1619     2.4149
  559.5000   -34.9372    10.3863    12.7975     7.5500    61.8086     0.0182     0.1688     2.4070
  560.0000   -34.9309    10.3834    12.8837     7.5951    63.3132     0.0182     0.1725     2.3968
  560.5000   -34.9247    10.3806    12.8810     7.6252    66.6249     0.0182     0.1767     2.3931
  561.0000   -34.9184    10.3777    12.9677     7.6553    66.4728     0.0181     0.1659     2.3923
  561.5000   -34.9122    10.3749    12.7781     7.6703    65.5677     0.0181     0.1617     2.3952
  562.0000   -34.9059    10.3720    12.4298     7.6701    64.8132     0.0181     0.1641     2.4020
  562.5000   -34.8997    10.2268    12.2621     7.6699    60.5949     0.0180     0.1668     2.4050
  563.0000   -34.8934    10.0835    12.0912     7.6547    60.4428     0.0180     0.1620     2.4019
  563.5000   -34.8872    10.0113    12.0887     7.5639    61.0557     0.0210     0.1674     2.3966
  564.0000   -34.8809    10.0085    12.0862     7.4278    61.8133     0.0240     0.1704     2.3928
  564.5000   -34.8747    10.0057    12.0837     7.3370    62.3961     0.0300     0.1668     2.3943
  565.0000   -34.8684    10.0030    12.0812     7.3671    62.8465     0.0344     0.1678     2.3958
  565.5000   -34.8622    10.0002    12.0787     7.4726    64.0494     0.0344     0.1755     2.3920
  566.0000   -34.8559     9.9975    12.1601     7.6084    65.4033     0.0359     0.1759     2.3867
  566.5000   -34.8497     9.9253    12.2420     7.5479    64.7994     0.0404     0.1678     2.3897
  567.0000   -34.8434     9.9225    12.3237     7.4420    62.8401     0.0463     0.1654     2.3949
  567.5000   -34.9925     9.9198    12.2363     7.4720    61.3326     0.0478     0.1570     2.4032
  568.0000   -35.1719     9.9171    12.3193     7.4870    61.9335     0.0508     0.1567     2.4106
  568.5000   -35.6006     9.9144    12.4016     7.5322    62.0830     0.0523     0.1510     2.4196
  569.0000   -35.9043     9.9116    12.3990     7.5471    61.3281     0.0522     0.1366     2.4279
  569.5000   -36.0577     9.9089    12.5697     7.4866    61.7785     0.0552     0.1339     2.4391
  570.0000   -36.2111     9.8379    12.7421     7.4109    64.6384     0.0657     0.1417     2.4466
  570.5000   -36.3644     9.8352    12.7388     7.5014    67.7996     0.0702     0.1375     2.4455
  571.0000   -36.3674     9.8325    12.6484     7.6976    67.1957     0.0702     0.1447     2.4404
  571.5000   -36.3704     9.8298    12.3862     7.6066    64.9351     0.0700     0.1558     2.4315
  572.0000   -36.3734     9.8271    12.2983     7.4695    62.6746     0.0654     0.1510     2.4254
  572.5000   -36.3759     9.8244    12.0433     7.4101    61.0165     0.0593     0.1429     2.4254
  573.0000   -36.3790     9.7541    11.8755     7.4251    59.8102     0.0535     0.1483     2.4306
  573.5000   -36.3820     9.7514    11.7912     7.4702    59.8087     0.0520     0.1493     2.4313
  574.0000   -36.3851     9.7533    11.6269     7.4906    59.9578     0.0534     0.1459     2.4313
  574.5000   -36.3881     9.7572    11.4648     7.5930    61.7635     0.0534     0.1480     2.4313
  575.0000   -36.5316     9.7611    11.3050     7.6057    64.1717     0.0579     0.1478     2.4313
  575.5000   -36.5209     9.7650    11.1474     7.5696    64.7726     0.0624     0.1511     2.4312
  576.0000   -36.5101     9.7690    11.0683     7.4846    64.7831     0.0639     0.1448     2.4282
  576.5000   -36.4994     9.7729    11.0661     7.4391    64.9202     0.0638     0.1370     2.4289
  577.0000   -36.4887     9.7768    11.0638     7.4389    64.5693     0.0548     0.1478     2.4334
  577.5000   -36.4779     9.7807    11.0615     7.4690    64.1639     0.0397     0.1538     2.4401
  578.0000   -36.4672     9.7847    11.0592     7.4840    64.6142     0.0291     0.1493     2.4281
  578.5000   -36.4564     9.7886    11.1342     7.4838    66.4199     0.0306     0.1367     2.4303
  579.0000   -36.4457     9.7895    11.0546     7.5290    67.0212     0.0336     0.1355     2.4400
  579.5000   -36.4349     9.7931    11.0523     7.5893    61.7483     0.0336     0.1370     2.4475
  580.0000   -36.4242     9.7840    11.0501     7.6193    59.9395     0.0350     0.1334     2.4490
  580.5000   -36.4240     9.8492    10.9717     7.6645    59.3356     0.0365     0.1296     2.4587
  581.0000   -36.4270     9.8465    10.8938     7.6643    59.1835     0.0395     0.1266     2.4640
  581.5000   -36.4300     9.8438    10.8916     7.6642    58.7302     0.0425     0.1260     2.4639
  582.0000   -36.4330     9.8300    10.8893     7.6489    58.4275     0.0349     0.1311     2.4599
  582.5000   -36.4361     9.8126    10.8871     7.6035    58.7273     0.0274     0.1392     2.4515
  583.0000   -36.4391     9.7952    10.8098     7.5882    60.5330     0.0213     0.1338     2.4473
  583.5000   -36.4421     9.7778    10.8076     7.4068    63.5436     0.0168     0.1311     2.4488
  584.0000   -36.4451     9.7604    10.8053     7.3160    65.3493     0.0137     0.1395     2.4457
  584.5000   -36.4481     9.7430    10.7287     7.2403    67.1550     0.0107     0.1392     2.4419
  585.0000   -36.4511     9.7256    10.7264     7.2402    68.3587     0.0107     0.1435     2.4389
  585.5000   -36.4541     9.7082    10.5769     7.2551    67.4533     0.0152     0.1372     2.4389
  586.0000   -36.4571     9.6908    10.5748     7.3003    65.7951     0.0183     0.1345     2.4456
  586.5000   -36.4601     9.6813    10.4997     7.3001    62.3298     0.0271     0.1357     2.4493
  587.0000   -36.4631     9.6786    10.4975     7.3453    62.3224     0.0333     0.1323     2.4568
  587.5000   -36.4662     9.6760    10.4954     7.4056    63.6822     0.0406     0.1282     2.4606
  588.0000   -36.4692     9.7411    10.5660     7.3903    64.7350     0.0391     0.1372     2.4515
  588.5000   -36.4722     9.7378    10.5638     7.1938    62.8660     0.0345     0.1414     2.4455
  589.0000   -36.4752     9.7351    10.6349     7.1634    61.4187     0.0285     0.1375     2.4447
  589.5000   -36.4782     9.6653    10.7065     7.1784    61.9411     0.0284     0.1360     2.4447
  590.0000   -36.4812     9.6627    10.8534     7.2235    64.2768     0.0284     0.1381     2.4446
  590.5000   -36.4842     9.6600    10.8511     7.2385    64.7275     0.0269     0.1396     2.4446
  591.0000   -36.4872     9.5908    10.9242     7.2384    64.7256     0.0253     0.1333     2.4453
  591.5000   -36.4902     9.5882    10.8466     7.2231    64.7241     0.0238     0.1288     2.4468
  592.0000   -36.4932     9.5195    10.7697     7.2381    65.3254     0.0238     0.1274     2.4565
  592.5000   -36.4962     9.4513    10.6196     7.2984    67.1308     0.0238     0.1289     2.4603
  593.0000   -36.4992     9.3836    10.3993     7.3888    67.7321     0.0222     0.1373     2.4602
  593.5000   -36.5022     9.3164    10.1756     7.4189    67.7302     0.0222     0.1334     2.4602
  594.0000   -36.3469     9.2497     9.9726     7.4187    67.1263     0.0222     0.1301     2.4579
  594.5000   -35.5945     9.3119     9.9705     7.4186    66.5228     0.0221     0.1337     2.4579
  595.0000   -34.8420     9.3087    10.0492     7.3882    67.7258     0.0221     0.1322     2.4594
  595.5000   -34.0712     9.3714    10.1883     7.3427    69.5315     0.0251     0.1277     2.4601
  596.0000   -33.5006     9.5645    10.3865     7.2822    68.9276     0.0281     0.1253     2.4638
  596.5000   -33.2503     9.7623    10.9744     7.2820    63.5044     0.0295     0.1226     2.4690
