~VERSION INFORMATION
 VERS.                2.0:   CWLS LOG ASCII STANDARD - VERSION 2.0
 WRAP.                 NO:   ONE LINE PER DEPTH STEP
~WELL INFORMATION
#MNEM.UNIT      DATA TYPE    INFORMATION
#----------   ------------   ------------------------------
 STRT.F           17.0000:   START DEPTH
 STOP.F         1345.0000:   STOP DEPTH
 STEP.F            0.5000:   STEP LENGTH
 NULL.          -999.2500:   NO VALUE
 COMP. DEPARTMENT OF ENERGY:   COMPANY
 WELL. RES 3 TEAPOT DOME ##86S-11:   WELL
 FLD .             TEAPOT:   FIELD
 LOC .      S11 T38N R78W:   LOCATION
 CNTY.            NATRONA:   COUNTY
 STAT.            WYOMING:   STATE
 CTRY. UNITED STATES OF AMERICA:   COUNTRY
 SRVC.       Schlumberger:   SERVICE COMPANY
 DATE.        13-AUG-1959:   LOGDATE
 API .       490250633200:   API NUMBER
~CURVE INFORMATION
#MNEM.UNIT       API CODE    CURVE DESCRIPTION
#----------   ------------   ------------------------------
 DEPT.F                  :   
 SPR .MV     05 010 01 00:   SPONTANEOUS POTENTIAL FROM RES.
 CILD.MMHO   05 110 46 00:   CONDUCTIVITY INDUCTION LOG DEEP
 ILD .OHMM   05 120 46 00:   INDUCTION LOG DEEP
 ASN .OHMM   05 041 16 00:   AMPLIFIED SHORT NORMAL 16"
~PARAMETER INFORMATION
#MNEM.UNIT          VALUE    DESCRIPTION
#----------   ------------   ------------------------------
 PD  .                 GL:   PERMANENT DATUM
 EPD .F              5295:   ELEVATION PERMANENT DATUM
 LMF .                 KB:   LOG MEASURED FROM
 DAPD.F                 4:   FEET ABOVE PERMANENT DATUM
 DMF .                 KB:   DRILLING MEASURED FROM
 EKB .F              5299:   KELLING BUSHING
 EGL .F              5295:   GROUND LEVEL
 DATE.            8-13-59:   RUN DATE
 RUN .                  1:   RUN NUMBER
 DD  .F              1350:   DEPTH DRILLER
 DL  .F              1350:   DEPTH LOGGER
 BLI .F              1345:   BOTTOM LOG INTERVAL
 TLI .F                17:   TOP LOG INTERVAL
 CBD .F                17:   CASING BOTTOM DRILLER
 CBL .F                17:   CASING BOTTOM LOGGER
 BS  .IN             6.75:   BIT SIZE
 BSD .F              1350:   BIT SIZE AT DEPTH
 DFT .                GEL:   DRILLING FLUID TYPE
 DFD .                9.8:   DRILLING FLUID DENSITY
 DFV .                 65:   DRILLING FLUID VISCOSITY
 DFPH.                9.5:   DRILLING FLUID PH
 DFL .                5.4:   DRILLING FLUID LOSS
 RMS .OHMM           2.84:   RESISTIVITY MUD SAMPLE
 MST .F                69:   MUD SAMPLE TEMPERATURE
 RMF .OHMM            2.5:   RESISTIVITY MUD FILTRATE SAMPLE
 MFST.F                69:   MUD FILTRATE SAMPLE TEMPERATURE
 RMC .OHMM           2.46:   RESISTIVITY MUD CAKE
 MCST.F                69:   MUD CAKE SAMPLE TEMPERATURE
 MFSS.                  M:   MUD FILTRATE SAMPLE SOURCE
 MCSS.                  M:   MUD CAKE SAMPLE SOURCE
 TCS .HRS               1:   TIME CURCULATED STOPPED
 LUN .               2523:   LOGGING UNIT NUMBER
 LUL .               CSPR:   LOGGING UNIT LOCATION
 ENGI.             KNOBEL:   RECORDING ENGINEER
 WITN.             MARTIN:   WITNESSED BY
 CLNT.            A2DTECH:   CLIENT CODE
 ORIG.         2"5" PRINT:   ORIGIN OF DATA
 UWI .       490250633200:   UNIQUE WELL ID
 DICO. A2D Technologies, Inc.:   DIGITIZING COMPANY
~OTHER INFORMATION
~A   DEPT      SPR        CILD         ILD      ASN   
# ...
  674.0000   -10.1104   247.7173     4.4900     4.6963
  674.5000    -9.9786   270.0220     4.2237     4.3760
  675.0000    -9.8289   292.3267     3.9631     4.0739
  675.5000    -9.7783   314.6314     3.6892     3.7350
  676.0000    -9.9603   335.0496     3.4881     3.5944
  676.5000   -10.1490   353.6369     3.4415     3.7978
  677.0000   -10.3408   372.2241     3.3594     3.7523
  677.5000   -10.5295   390.8114     3.3128     3.6756
  678.0000   -10.7224   399.5964     3.4286     3.6740
  678.5000   -10.9076   386.0569     3.5827     3.9294
  679.0000   -11.1065   373.4330     3.8549     4.2093
  679.5000   -11.2798   322.5228     4.1451     4.4533
  680.0000   -11.5021   273.5612     4.4192     4.5691
  680.5000   -11.4154   247.6325     4.7167     4.7365
  681.0000   -11.1201   240.8120     4.8435     4.9166
  681.5000   -10.8953   232.4577     4.8292     5.0196
  682.0000   -10.6763   228.8310     4.8332     5.0893
  682.5000   -10.6912   225.2042     4.8370     5.1785
  683.0000   -10.9647   221.5774     4.7753     5.2059
  683.5000   -11.1699   218.2574     4.6501     5.1890
  684.0000   -10.9853   223.8298     4.5413     5.0597
  684.5000   -10.7749   228.9678     4.4247     4.8701
  685.0000   -10.5711   233.5945     4.3127     4.7011
  685.5000   -10.3623   241.7142     4.1978     4.5206
  686.0000   -10.1604   256.9358     4.0856     4.3498
  686.5000    -9.9458   270.7176     3.9712     4.1694
  687.0000    -9.7824   280.4720     3.9051     4.0834
  687.5000    -9.7632   286.9847     3.8740     4.0445
  688.0000    -9.8242   289.6655     3.8383     3.9627
  688.5000    -9.9324   299.8660     3.8061     3.9130
  689.0000   -10.0280   308.8895     3.7701     3.8605
  689.5000   -10.1269   316.6531     3.7396     3.8082
  690.0000   -10.2286   319.6307     3.6998     3.7591
  690.5000   -10.3046   322.3856     3.6783     3.7019
  691.0000   -10.3127   324.4354     3.5642     3.6623
  691.5000   -10.2954   326.5195     3.3856     3.5419
  692.0000   -10.1699   353.5850     3.2313     3.3667
  692.5000   -10.0492   391.4445     3.0651     3.2121
  693.0000    -9.9288   423.8265     2.9191     3.0501
  693.5000    -9.8079   456.2084     2.7196     2.8925
  694.0000    -9.6883   472.5831     2.6557     2.8412
  694.5000    -9.5659   479.8908     2.6654     2.8520
  695.0000    -9.4514   487.1082     2.6740     2.9031
  695.5000    -9.3984   488.9126     2.7242     2.9733
  696.0000    -9.5025   488.9126     2.7237     3.0059
  696.5000    -9.6666   488.9126     2.9638     3.2132
  697.0000    -9.8080   427.1671     3.3549     3.5286
  697.5000    -9.9590   372.9188     3.6737     3.7944
  698.0000   -10.1051   324.6826     4.0431     4.0510
  698.5000   -10.2537   287.7256     4.2708     4.2682
  699.0000   -10.4015   261.6223     4.1893     4.2030
  699.5000   -10.5486   255.2469     4.1080     4.0845
  700.0000   -10.6978   266.2235     4.0247     3.9853
  700.5000   -10.8431   275.0486     3.9420     3.8663
  701.0000   -11.0035   283.8737     3.8477     3.8094
  701.5000   -10.8936   294.1491     3.7161     3.7649
  702.0000   -10.6889   308.6201     3.5489     3.7061
  702.5000   -10.5049   326.5195     3.3831     3.5837
  703.0000   -10.3093   351.3656     3.2217     3.4492
  703.5000   -10.1222   391.4767     3.0430     3.3308
  704.0000    -9.9267   408.8438     2.8885     3.1538
  704.5000    -9.7434   436.5859     2.8409     3.0174
  705.0000    -9.5322   442.9012     2.8430     3.0578
  705.5000    -9.3910   450.1187     2.8427     3.1619
  706.0000    -9.5038   450.1187     2.8764     3.2822
  706.5000    -9.8182   446.4979     2.9392     3.4090
  707.0000   -10.1182   434.7816     3.2354     3.7324
  707.5000   -10.4740   393.1006     3.6614     4.1289
  708.0000   -10.6861   337.9471     4.0406     4.5741
  708.5000   -10.6576   265.1709     4.4920     4.8930
  709.0000   -10.6737   248.5311     4.8137     4.9956
  709.5000   -10.6616   227.5480     4.9453     5.1502
  710.0000   -10.6749   211.6714     5.1244     5.2804
  710.5000   -10.6535   207.3352     5.2812     5.4229
  711.0000   -10.7816   203.4157     5.4503     5.5644
  711.5000   -11.1331   199.0483     5.6122     5.7524
  712.0000   -11.5164   193.3752     5.7790     6.0487
  712.5000   -11.9008   187.6987     5.9405     6.3439
  713.0000   -11.9206   181.9521     6.1100     6.6285
  713.5000   -11.8003   176.2112     6.2661     6.9708
  714.0000   -11.6389   170.4581     6.4520     7.0127
  714.5000   -11.4847   164.6099     6.5494     7.0565
  715.0000   -11.3271   157.8110     6.5103     7.0968
  715.5000   -11.1702   158.7442     6.4920     7.1308
  716.0000   -11.0138   159.8748     6.4629     7.1067
  716.5000   -10.8549   161.0053     6.4396     7.0641
  717.0000   -10.7020   162.1359     6.4133     7.0252
  717.5000   -10.5381   163.2664     6.3885     6.9858
  718.0000   -10.3950   164.3970     6.3629     6.9438
  718.5000   -10.2076   165.5275     6.3378     6.9041
  719.0000   -10.2055   166.8329     6.3126     6.9011
  719.5000   -10.4792   166.8329     6.2875     6.8934
  720.0000   -10.7266   166.8329     6.2622     6.8823
  720.5000   -10.9889   166.8329     6.2372     6.8728
  721.0000   -11.2445   166.8329     6.2116     6.8490
  721.5000   -11.5005   168.1222     6.1871     6.8010
  722.0000   -11.7677   169.6296     6.1605     6.7467
  722.5000   -11.9823   171.1370     6.1379     6.6915
  723.0000   -12.1084   172.6444     6.1068     6.6350
  723.5000   -12.1007   174.1518     6.1151     6.5922
  724.0000   -12.1039   175.8547     6.1789     6.6341
  724.5000   -12.1019   174.7985     6.2372     6.7497
  725.0000   -12.1030   171.9560     6.2988     6.8601
  725.5000   -12.1025   169.1134     6.3585     6.9746
  726.0000   -12.1024   165.9307     6.4193     7.0927
  726.5000   -12.1024   162.9734     6.4794     7.2017
  727.0000   -12.1017   159.6141     6.5448     7.3124
  727.5000   -12.1034   156.2547     6.6206     7.4345
  728.0000   -12.0889   152.8954     6.7053     7.5358
  728.5000   -11.8936   149.5361     6.7883     7.6065
  729.0000   -11.6442   146.1767     6.8733     7.6052
  729.5000   -11.4115   142.4739     6.9555     7.5386
  730.0000   -11.3757   143.2858     7.0443     7.4822
  730.5000   -11.4166   144.1903     7.1001     7.4026
  731.0000   -11.4964   145.0947     7.0530     7.2652
  731.5000   -11.5761   145.9992     6.9680     7.0817
  732.0000   -11.6575   146.9848     6.8031     6.9690
  732.5000   -11.7354   154.3940     6.5238     6.7158
  733.0000   -11.7475   162.5340     6.2605     6.3932
  733.5000   -11.7299   171.3438     5.8631     6.0766
  734.0000   -11.5288   204.5442     5.2879     5.7735
  734.5000   -11.2821   240.7218     4.7380     5.3018
  735.0000   -11.0442   276.8994     4.1362     4.5452
  735.5000   -10.8025   313.0769     3.6505     4.0871
  736.0000   -10.5624   345.7076     3.2366     3.7201
  736.5000   -10.3223   373.6161     2.9294     3.5588
  737.0000   -10.0766   401.5245     2.9276     3.5670
  737.5000    -9.9127   431.1729     2.9346     3.8172
  738.0000   -10.1669   433.9876     2.9372     4.1533
  738.5000   -10.7092   401.4008     3.2850     4.5232
  739.0000   -11.2271   351.3837     3.9736     4.9291
  739.5000   -11.7584   298.3232     6.1271     4.9421
  740.0000   -12.2830   245.2627     7.5315     6.2950
  740.5000   -12.8100   192.2023     7.9321     7.7044
  741.0000   -13.3443   147.3517     8.8335     9.1900
  741.5000   -13.6979   110.7420     9.5310     9.5703
  742.0000   -13.7002    96.8227     9.6597     9.9585
  742.5000   -13.4128    98.9845     9.7872     9.9807
  743.0000   -13.0832   102.3407     9.9295     9.9265
  743.5000   -12.7598   105.4298     9.6810     9.8427
  744.0000   -12.4345   111.3177     9.1862     9.3509
  744.5000   -12.0994   120.3973     8.7152     8.8414
  745.0000   -11.7073   129.7282     8.2319     8.3309
  745.5000   -11.3019   134.7427     7.7529     7.8159
  746.0000   -10.8939   139.7673     7.2899     7.5589
  746.5000   -10.5118   144.7920     7.0951     7.6237
