~VERSION INFORMATION
 VERS.                2.0:   CWLS LOG ASCII STANDARD - VERSION 2.0
 WRAP.                 NO:   ONE LINE PER DEPTH STEP
~WELL INFORMATION
#MNEM.UNIT      DATA TYPE    INFORMATION
#----------   ------------   ------------------------------
 STRT.F           28.0000:   START DEPTH
 STOP.F          630.0000:   STOP DEPTH
 STEP.F            0.5000:   STEP LENGTH
 NULL.          -999.2500:   NO VALUE
 COMP. FENIX & SCISSON INC:   COMPANY
 WELL. NAVAL PETROLEUM RESERVE 3 SX-1 #81-15:   WELL
 FLD .             TEAPOT:   FIELD
 LOC .      S15 T38N R78W:   LOCATION
 CNTY.            NATRONA:   COUNTY
 STAT.            WYOMING:   STATE
 CTRY. UNITED STATES OF AMERICA:   COUNTRY
 SRVC.           BIRDWELL:   SERVICE COMPANY
 DATE.        03-JUN-1978:   LOGDATE
 API .       490251063900:   API NUMBER
~CURVE INFORMATION
#MNEM.UNIT       API CODE    CURVE DESCRIPTION
#----------   ------------   ------------------------------
 DEPT.F                  :   
 SPR .MV     05 010 01 00:   SPONTANEOUS POTENTIAL FROM RES.
 SN  .OHMM   05 040 16 00:   SHORT NORMAL 16"
 ILD .OHMM   05 120 46 00:   INDUCTION LOG DEEP
 CALD.IN     45 280 60 00:   CALIPER FROM DENSITY LOG
 GRD .GAPI   45 310 01 00:   GAMMA RAY FROM DENSITY LOG
 CORR.G/C3   45 356 01 00:   DENSITY CORRECTION
 DPHI.DEC    45 890 12 00:   DENSITY POROSITY SANDSTONE
 DEN .G/C3   45 350 01 00:   COMPENSATED BULK DENSITY
~PARAMETER INFORMATION
#MNEM.UNIT          VALUE    DESCRIPTION
#----------   ------------   ------------------------------
 PD  .                 GL:   PERMANENT DATUM
 EPD .F              5263:   ELEVATION PERMANENT DATUM
 LMF .                 KB:   LOG MEASURED FROM
 DAPD.F                 4:   FEET ABOVE PERMANENT DATUM
 DMF .                 KB:   DRILLING MEASURED FROM
 EKB .F              5267:   KELLING BUSHING
 EGL .F              5263:   GROUND LEVEL
 DATE.        03-JUN-1978:   RUN DATE
 RUN .                  1:   RUN NUMBER
 DD  .F               632:   DEPTH DRILLER
 DL  .F               636:   DEPTH LOGGER
 BLI .F               630:   BOTTOM LOG INTERVAL
 TLI .F                40:   TOP LOG INTERVAL
 CS  .IN            8.625:   CASING SIZE
 CBD .F                40:   CASING BOTTOM DRILLER
 CBL .F                40:   CASING BOTTOM LOGGER
 BS  .IN            7.875:   BIT SIZE
 BSD .F               632:   BIT SIZE AT DEPTH
 DFT .                KCL:   DRILLING FLUID TYPE
 DFD .                8.7:   DRILLING FLUID DENSITY
 DFV .                 31:   DRILLING FLUID VISCOSITY
 DFPH.                 10:   DRILLING FLUID PH
 DFL .                9.2:   DRILLING FLUID LOSS
 MSS .           FLOWLINE:   MUD SAMPLE SOURCE
 RMS .OHMM            .26:   RESISTIVITY MUD SAMPLE
 MST .F                66:   MUD SAMPLE TEMPERATURE
 RMF .OHMM            .24:   RESISTIVITY MUD FILTRATE SAMPLE
 MFST.F                74:   MUD FILTRATE SAMPLE TEMPERATURE
 RMC .OHMM            .34:   RESISTIVITY MUD CAKE
 MCST.F                75:   MUD CAKE SAMPLE TEMPERATURE
 MFSS.               MEAS:   MUD FILTRATE SAMPLE SOURCE
 MCSS.               MEAS:   MUD CAKE SAMPLE SOURCE
 RMB .OHMM            .23:   RESISTIVITY MUD AT BHT
 BHT .F                74:   BOTTOM HOLE TEMPERATURE
 TCS .HRS            0100:   TIME CURCULATED STOPPED
 MRT .F                74:   MAXIMUM RECORDED TEMPERATURE
 LUN .               2958:   LOGGING UNIT NUMBER
 LUL .               CASP:   LOGGING UNIT LOCATION
 ENGI.             MILLER:   RECORDING ENGINEER
 WITN.           MCGINLEY:   WITNESSED BY
 CLNT.            A2DTECH:   CLIENT CODE
 ORIG.           5" PRINT:   ORIGIN OF DATA
 UWI .       490251063900:   UNIQUE WELL ID
 DICO. A2D Technologies, Inc.:   DIGITIZING COMPANY
~OTHER INFORMATION
~A   DEPT      SPR         SN        ILD       CALD         GRD      CORR       DPHI        DEN   
# ...
  554.5000   -19.8609    11.4496    14.4988     8.4797    56.1798     0.0535     0.1309     2.4632
  555.0000   -20.0153    11.4451    14.3928     8.4822    56.0106     0.0502     0.1206     2.4806
  555.5000   -20.1698    11.4405    14.2887     8.4847    55.9940     0.0454     0.1176     2.4767
  556.0000   -20.1802    11.4348    14.1853     8.4871    55.9774     0.0407     0.1192     2.4698
  556.5000   -20.3297    11.4302    14.0827     8.4896    56.4189     0.0390     0.1241     2.4720
  557.0000   -20.3340    11.4256    13.9809     8.4921    57.7763     0.0387     0.1229     2.4712
  557.5000   -20.3383    11.3422    13.8798     8.4946    59.5918     0.0370     0.1253     2.4688
  558.0000   -20.3426    11.3377    13.8750     8.4970    57.8959     0.0353     0.1245     2.4695
  558.5000   -20.1967    11.2549    13.7736     8.4819    56.5052     0.0336     0.1266     2.4686
  559.0000   -20.3514    11.2503    13.6740     8.4505    55.2673     0.0334     0.1258     2.4685
  559.5000   -20.3567    11.1672    13.6695     8.4343    55.0981     0.0347     0.1267     2.4654
  560.0000   -20.2098    11.1627    13.5706     8.4485    55.9975     0.0375     0.1292     2.4600
  560.5000   -20.2152    11.0813    13.4725     8.4474    56.4431     0.0405     0.1301     2.4569
  561.0000   -20.2195    11.0768    13.4679     8.4615    55.2010     0.0431     0.1256     2.4615
  561.5000   -20.3740    11.0724    13.4624     8.4756    54.5738     0.0429     0.1232     2.4705
  562.0000   -20.3874    11.0676    13.3650     8.4897    55.6259     0.0411     0.1224     2.4734
  562.5000   -20.6840    10.9870    13.3605     8.4722    57.2887     0.0364     0.1224     2.4748
  563.0000   -20.6883    10.9824    13.2639     8.3777    58.0355     0.0347     0.1221     2.4762
  563.5000   -20.8428    10.9777    13.1680     8.3350    58.1757     0.0344     0.1213     2.4761
  564.0000   -20.8471    10.9733    13.1636     8.3337    53.8761     0.0342     0.1237     2.4669
  564.5000   -21.0016    10.8931    13.0683     8.3481    52.1801     0.0401     0.1262     2.4623
  565.0000   -21.0060    10.8877    13.0629     8.3468    52.6215     0.0460     0.1262     2.4645
  565.5000   -21.1614    10.8840    12.9685     8.3611    54.4370     0.0488     0.1210     2.4773
  566.0000   -21.1658    10.8790    12.9641     8.3598    56.7105     0.0471     0.1157     2.4878
  566.5000   -21.3202    10.8750    12.8704     8.3742    57.6100     0.0423     0.1124     2.4916
  567.0000   -21.4747    10.8696    12.8661     8.3729    59.7308     0.0345     0.1185     2.4755
  567.5000   -21.4790    10.8653    12.7730     8.3720    62.9203     0.0282     0.1201     2.4755
  568.0000   -21.4835    10.7842    12.6796     8.3709    65.1939     0.0280     0.1265     2.4595
  568.5000   -21.6389    10.7689    12.6754     8.3698    63.4979     0.0339     0.1338     2.4548
  569.0000   -21.6432    10.7535    12.5837     8.3688    59.9699     0.0397     0.1226     2.4745
  569.5000   -21.6475    10.7382    12.5795     8.3676    59.6521     0.0380     0.1214     2.4753
  570.0000   -21.8020    10.7228    12.5753     8.3819    60.2421     0.0393     0.1266     2.4622
  570.5000   -21.8063    10.7075    12.4844     8.3806    60.8362     0.0440     0.1239     2.4704
  571.0000   -21.8108    10.6921    12.4709     8.3950    62.0410     0.0495     0.1203     2.4787
  571.5000   -21.9662    10.6805    12.3889     8.4088    62.7919     0.0477     0.1155     2.4839
  572.0000   -22.1207    10.6762    12.2993     8.4078    63.5346     0.0445     0.1134     2.4884
  572.5000   -22.2752    10.6719    12.2104     8.4067    62.9073     0.0443     0.1132     2.4913
  573.0000   -22.4296    10.6676    12.1221     8.4211    57.3904     0.0441     0.1111     2.4936
  573.5000   -22.7342    10.6623    11.9513     8.4352    56.7631     0.0439     0.1099     2.4949
  574.0000   -22.7627    10.5845    11.8649     8.4339    56.6022     0.0436     0.1102     2.4926
  574.5000   -22.8941    10.5073    11.6968     8.3874    57.0436     0.0434     0.1090     2.4940
  575.0000   -23.1987    10.4306    11.5321     8.3409    57.1756     0.0417     0.1076     2.4947
  575.5000   -23.2031    10.3545    11.3697     8.3095    57.0022     0.0370     0.1113     2.4923
  576.0000   -23.3575    10.2080    11.2096     8.3073    56.0696     0.0352     0.1101     2.4870
  576.5000   -23.5120    10.1333    11.1285     8.3680    54.9843     0.0305     0.1065     2.4990
  577.0000   -23.6676     9.9891    11.0480     8.4124    55.8838     0.0287     0.1075     2.5020
  577.5000   -23.8220     9.8477    10.9680     8.4114    58.9206     0.0285     0.1184     2.4806
  578.0000   -23.9765     9.7084    10.8879     8.4103    61.6521     0.0344     0.1194     2.4745
  578.5000   -24.1310     9.5050    10.8091     8.4244    63.4676     0.0419     0.1133     2.4888
  579.0000   -24.2854     9.3705    10.7309     8.4233    64.9778     0.0461     0.1103     2.4902
  579.5000   -24.4399     9.1712    10.5798     8.4375    65.8772     0.0474     0.1125     2.4894
  580.0000   -24.4453     8.9810    10.4308     8.4362    66.4714     0.0508     0.1112     2.4969
  580.5000   -24.4496     8.7929    10.1396     8.4505    65.5387     0.0506     0.1089     2.4960
  581.0000   -24.4539     8.5492     9.4599     8.4644    64.9115     0.0443     0.1114     2.4967
  581.5000   -24.4583     8.2550     8.9471     8.4633    64.8949     0.0365     0.1181     2.4883
  582.0000   -24.4626     7.9158     8.2309     8.4623    65.1837     0.0347     0.1249     2.4700
  582.5000   -24.4670     7.4862     7.6246     8.4612    65.4766     0.0360     0.1313     2.4548
  583.0000   -24.3211     7.1726     7.2113     8.4602    66.0624     0.0358     0.1394     2.4433
  583.5000   -24.0251     6.9309     7.0120     8.4440    67.8779     0.0416     0.1463     2.4349
  584.0000   -23.5801     6.8328     6.9612     8.4573    71.5255     0.0627     0.1426     2.4250
  584.5000   -23.1339     6.8301     6.9103     8.4548    75.1772     0.0518     0.1217     2.4734
  585.0000   -22.8379     6.9707     7.2011     8.4523    75.1564     0.0334     0.1214     2.4733
  585.5000   -22.6921     7.2134     7.8768     8.4498    76.2086     0.0331     0.1166     2.4937
  586.0000   -22.5463     7.7340     8.8580     8.4474    77.4134     0.0390     0.1069     2.4959
  586.5000   -22.5517     8.6286    10.0306     8.4449    75.5647     0.0464     0.1009     2.5058
  587.0000   -22.5560     9.3079    10.7482     8.4424    68.5253     0.0492     0.0961     2.5149
  587.5000   -22.5603     9.6989    11.1339     8.4399    65.7647     0.0489     0.0937     2.5200
  588.0000   -22.5646     9.8985    11.1947     8.4375    61.6219     0.0472     0.0916     2.5259
  588.5000   -22.5691    10.1725    11.1900     8.4350    60.3839     0.0363     0.0950     2.5159
  589.0000   -22.4242    10.3819    11.1863     8.4323    62.0468     0.0437     0.1035     2.5151
  589.5000   -22.4285    10.5225    11.3385     8.4313    63.8622     0.0511     0.0999     2.5150
  590.0000   -22.2816    10.6650    11.4929     8.4303    64.4605     0.0508     0.0986     2.5149
  590.5000   -22.2870    10.8834    11.8187     8.4292    62.1497     0.0491     0.1003     2.5141
  591.0000   -22.1411    11.1074    12.3077     8.4433    60.9118     0.0489     0.1010     2.5140
  591.5000   -21.9954    11.2589    12.6491     8.4574    62.4219     0.0486     0.1001     2.5147
  592.0000   -21.8495    11.4895    13.0001     8.4715    64.2333     0.0484     0.0979     2.5154
  592.5000   -21.7037    11.6478    13.2686     8.4856    63.4533     0.0497     0.1002     2.5168
  593.0000   -21.7091    11.8836    13.4491     8.4997    62.6734     0.0495     0.1023     2.5137
  593.5000   -21.7134    12.0446    13.4446     8.4986    63.2675     0.0508     0.1051     2.5106
  594.0000   -21.7178    12.1246    13.5484     8.4976    64.9303     0.0505     0.1003     2.5059
  594.5000   -21.7222    12.2040    13.7177     8.4965    66.2878     0.0503     0.0967     2.5172
