~VERSION INFORMATION
 VERS.                2.0:   CWLS LOG ASCII STANDARD - VERSION 2.0
 WRAP.                 NO:   ONE LINE PER DEPTH STEP
~WELL INFORMATION
#MNEM.UNIT      DATA TYPE    INFORMATION
#----------   ------------   ------------------------------
 STRT.F           20.0000:   START DEPTH
 STOP.F          610.0000:   STOP DEPTH
 STEP.F            0.5000:   STEP LENGTH
 NULL.          -999.2500:   NO VALUE
 COMP. LAWRENCE/ALLISON INC:   COMPANY
 WELL.    44-55 SX #10-10:   WELL
 FLD .             TEAPOT:   FIELD
 LOC .      S10 T38N R78W:   LOCATION
 CNTY.            NATRONA:   COUNTY
 STAT.            WYOMING:   STATE
 CTRY. UNITED STATES OF AMERICA:   COUNTRY
 SRVC.            Unknown:   SERVICE COMPANY
 DATE.        29-AUG-1984:   LOGDATE
 API .       490251098300:   API NUMBER
~CURVE INFORMATION
#MNEM.UNIT       API CODE    CURVE DESCRIPTION
#----------   ------------   ------------------------------
 DEPT.F                  :   
 AC  .US/F   60 520 00 00:   ACOUSTIC SONIC
 SPR .MV     07 010 01 00:   SPONTANEOUS POTENTIAL
 RILD.OHMM   07 120 46 00:   INDUCTION LOG DEEP RESISTIVITY
 RILM.OHMM   07 120 44 00:   INDUCTION LOG MEDIUM RESISTIVITY
 RFOC.OHMM   07 220 04 00:   RESISTIVITY FOCUSED LOG
 GRD .GAPI   45 310 01 00:   GAMMA RAY FROM DENSITY LOG
 CALD.IN     45 280 60 00:   CALIPER
 DEN .G/C3   45 350 01 00:   COMPENSATED BULK DENSTIY
 CNC .DEC    42 890 03 00:   NEUTRON POROSITY SANDSTONE
 PORD.DEC    45 890 12 00:   DENSITY POROSITY SANDSTONE
 CORR.G/C3   45 356 01 00:   DENSITY CORRECTION
~PARAMETER INFORMATION
#MNEM.UNIT          VALUE    DESCRIPTION
#----------   ------------   ------------------------------
 PD  .                 GL:   PERMANENT DATUM
 EPD .F              5247:   ELEVATION PERMANENT DATUM
 LMF .                 KB:   LOG MEASURED FROM
 DAPD.F                13:   FEET ABOVE PERMANENT DATUM
 DMF .                 KB:   DRILLING MEASURED FROM
 EKB .F              5260:   KELLING BUSHING
 EGL .F              5247:   GROUND LEVEL
 DATE.        29-AUG-1984:   RUN DATE
 RUN .                  1:   RUN NUMBER
 DD  .F               613:   DEPTH DRILLER
 DL  .F               607:   DEPTH LOGGER
 BLI .F               607:   BOTTOM LOG INTERVAL
 TLI .F                42:   TOP LOG INTERVAL
 CBL .F                42:   CASING BOTTOM LOGGER
 BS  .IN            7.875:   BIT SIZE
 BSD .F               613:   BIT SIZE AT DEPTH
 DFT .          KCL WATER:   DRILLING FLUID TYPE
 MSS .               TANK:   MUD SAMPLE SOURCE
 RMS .OHMM           .295:   RESISTIVITY MUD SAMPLE
 MST .F                75:   MUD SAMPLE TEMPERATURE
 TCS .HRS               3:   TIME CURCULATED STOPPED
 MRT .F               100:   MAXIMUM RECORDED TEMPERATURE
 LUN .               4082:   LOGGING UNIT NUMBER
 LUL .               ROOS:   LOGGING UNIT LOCATION
 ENGI.             MILLER:   RECORDING ENGINEER
 WITN.            JOHNSON:   WITNESSED BY
 CLNT.            A2DTECH:   CLIENT CODE
 ORIG.       2", 5" PRINT:   ORIGIN OF DATA
 UWI .       490251098300:   UNIQUE WELL ID
 DICO. A2D Technologies, Inc.:   DIGITIZING COMPANY
~OTHER INFORMATION
~A   DEPT       AC        SPR       RILD       RILM       RFOC         GRD      CALD        DEN        CNC       PORD       CORR   
# ...
  538.5000   114.2765   -47.7816     3.4990     4.6187     5.5656    95.1491     7.6458     2.4287     0.2985     0.1515     0.0675
  539.0000   107.9142   -48.1510     3.9388     5.2989     7.5053    89.9800     7.6009     2.5223     0.2985     0.0973     0.0828
  539.5000   101.5626   -48.5175     4.4090     5.5603     9.0307    91.8574     7.6005     2.5396     0.2985     0.0848     0.1124
  540.0000    98.2335   -48.8879     5.1864     6.3042     8.7989    95.0936     7.6003     2.5319     0.2986     0.0897     0.1332
  540.5000    97.9341   -49.0001     6.0562     7.2482     8.5461    98.4008     7.6004     2.5259     0.2878     0.0916     0.1146
  541.0000    97.6347   -48.9070     7.0718     7.7558     8.8672    99.8628     7.6004     2.5322     0.2838     0.0886     0.0885
  541.5000    96.6214   -48.8125     7.7242     8.0177     9.1287   100.7877     7.6004     2.5390     0.2900     0.0844     0.0700
  542.0000    95.7021   -48.7186     7.8891     8.3137     9.3980   102.2639     7.6004     2.5457     0.2951     0.0802     0.0580
  542.5000    95.2425   -48.6250     7.9946     8.3893     9.8079   104.2396     7.6004     2.5526     0.3003     0.0772     0.0520
  543.0000    95.5890   -48.5314     8.1016     8.4734     9.7643   105.7224     7.6004     2.5522     0.3055     0.0775     0.0521
  543.5000    96.0856   -48.4378     8.2100     8.5582     9.6711   106.7742     7.6004     2.5509     0.3107     0.0779     0.0579
  544.0000    96.5245   -48.3444     8.3198     8.6440     9.5427   107.8272     7.6004     2.5512     0.3177     0.0769     0.0635
  544.5000    96.9361   -48.2500     8.4311     8.7305     9.6022   108.9283     7.6004     2.5565     0.3226     0.0728     0.0646
  545.0000    97.0359   -48.2111     8.5461     8.7851     9.7092   110.4234     7.6004     2.5607     0.3193     0.0700     0.0588
  545.5000    96.9323   -48.2127     8.5461     8.7481     9.8173   111.4672     7.6004     2.5572     0.3147     0.0741     0.0531
  546.0000    96.8171   -48.3383     8.4900     8.7169     9.9270   109.0583     7.6004     2.5440     0.3086     0.0822     0.0503
  546.5000    96.8046   -48.6665     8.4337     8.6857    10.0015   105.5878     7.6003     2.5312     0.3051     0.0904     0.0701
  547.0000    97.0314   -48.9914     8.3779     8.6547    10.0263   106.0628     7.5991     2.5264     0.3018     0.0916     0.0954
  547.5000    97.2347   -49.3170     8.3224     8.6250    10.0508   105.6708     7.5980     2.5290     0.2998     0.0897     0.1007
  548.0000    97.3339   -49.6426     8.2672     8.5263    10.0753   104.3448     7.5968     2.5319     0.2990     0.0869     0.0828
  548.5000    97.0593   -49.9679     8.2124     8.4326    10.0838   103.1973     7.5957     2.5398     0.3051     0.0826     0.0806
  549.0000    96.8108   -50.2967     8.1622     8.3389    10.0833   105.0114     7.5945     2.5484     0.3106     0.0784     0.0868
  549.5000    96.6367   -50.4028     8.1621     8.2504    10.0887   105.5802     7.5933     2.5518     0.3265     0.0776     0.0959
  550.0000    96.8547   -50.5333     8.1622     7.9873     9.8995   106.8635     7.5922     2.5520     0.3455     0.0758     0.1040
  550.5000    97.2908   -50.4398     8.1622     7.7956     9.6390   111.8189     7.5910     2.5559     0.3455     0.0740     0.0917
  551.0000    97.5908   -50.1255     8.1622     7.8508     9.3854   116.7969     7.5899     2.5553     0.3253     0.0744     0.0668
  551.5000    97.7345   -49.8117     8.1622     7.9011     9.1320   114.1665     7.5887     2.5464     0.3070     0.0807     0.0411
  552.0000    97.6347   -49.4950     8.1622     7.9521     9.2771   109.1766     7.5876     2.5376     0.2984     0.0850     0.0335
  552.5000    97.0908   -49.3268     8.1622     8.0033     9.4616   105.5271     7.5864     2.5369     0.2997     0.0856     0.0302
  553.0000    96.6955   -49.2150     8.1622     8.0548     9.6498   106.6365     7.5853     2.5376     0.3010     0.0862     0.0303
  553.5000    96.5536   -49.1044     8.1622     8.1066     9.8418   107.6403     7.5841     2.5312     0.3022     0.0887     0.0342
  554.0000    96.5397   -49.0221     8.1622     8.1587    10.0838   108.6313     7.5830     2.5250     0.2969     0.0922     0.0395
  554.5000    96.7406   -49.1699     8.1622     8.2112     9.8434   109.6303     7.5818     2.5187     0.3052     0.0958     0.0446
  555.0000    97.2255   -49.3209     8.1622     8.2376     9.5099   110.6128     7.5807     2.5183     0.2974     0.0980     0.0525
  555.5000    97.6347   -49.4711     8.1018     8.2376     9.1982   110.2884     7.5812     2.5228     0.2954     0.0950     0.0602
  556.0000    97.8343   -49.6211     8.0164     8.2376     9.2159   109.7764     7.5820     2.5271     0.2947     0.0923     0.0680
  556.5000    97.8343   -49.7712     7.9116     8.2102     9.2512   109.2611     7.5827     2.5327     0.2972     0.0896     0.0684
  557.0000    97.7961   -49.9212     7.6310     7.9415     9.2867   108.7479     7.5835     2.5360     0.2998     0.0869     0.0683
  557.5000    97.7606   -50.0713     7.3604     7.6815     9.3224   108.2421     7.5843     2.5392     0.3023     0.0841     0.0684
  558.0000    97.7345   -50.2214     7.0993     7.4301     9.3581   107.6916     7.5851     2.5428     0.3054     0.0826     0.0682
  558.5000    98.3395   -50.3715     6.8475     7.1869     9.3689   107.4440     7.5858     2.5299     0.3426     0.0942     0.0504
  559.0000    99.6482   -50.5223     6.6047     6.9516     9.1350   111.8581     7.5866     2.5023     0.3418     0.1069     0.0298
  559.5000   101.0516   -50.5956     6.4865     6.7915     8.2056   117.0442     7.5874     2.4777     0.3543     0.1196     0.0268
  560.0000   102.1856   -50.4266     6.6563     6.8281     7.3020   123.2288     7.5882     2.4597     0.3278     0.1285     0.0414
  560.5000   102.7245   -50.2372     6.5652     6.8806     6.6678   125.4799     7.5890     2.4671     0.3011     0.1252     0.0557
  561.0000   101.7208   -50.0475     6.4865     6.9335     7.0329   118.1952     7.5897     2.4830     0.2995     0.1187     0.0505
  561.5000   100.5311   -49.8599     6.7029     6.9814     8.1472   112.0074     7.5905     2.4909     0.3076     0.1116     0.0438
  562.0000    99.3414   -49.5688     6.9198     7.3154     9.0789   112.0407     7.5913     2.4892     0.3240     0.1122     0.0371
  562.5000    98.1517   -49.2381     7.1834     7.6808     9.2416   113.4326     7.5921     2.4856     0.3338     0.1142     0.0294
  563.0000    97.2870   -48.9064     7.4573     8.0253     9.4072   114.2467     7.5928     2.4830     0.3370     0.1162     0.0174
  563.5000    96.6000   -48.5739     7.7416     8.3852     9.5757   113.8718     7.5936     2.4830     0.3368     0.1176    -0.0086
  564.0000    95.9139   -48.2473     8.0367     8.7614     9.7472   110.4733     7.5944     2.4841     0.3303     0.1170    -0.0344
  564.5000    95.2278   -48.1096     8.3430     9.1387     9.9219   103.9884     7.5951     2.4984     0.3192     0.1096    -0.0336
  565.0000    94.6787   -47.9676     8.6611     9.3852    10.0996   104.1478     7.5959     2.5134     0.3070     0.1009     0.0100
  565.5000    94.3038   -47.8287     8.9912     9.6378    10.2810   111.4583     7.5967     2.5284     0.3019     0.0920     0.0449
  566.0000    93.9421   -47.9519     9.3339     9.8977    10.4653   109.7158     7.5975     2.5435     0.2998     0.0840     0.0809
  566.5000    93.9406   -48.1077     9.3701    10.0838    10.5467   107.1890     7.5982     2.5593     0.2998     0.0760     0.0955
  567.0000    94.0288   -48.2635     9.3824    10.0643    10.3777   110.5033     7.5990     2.5635     0.2998     0.0700     0.1135
  567.5000    94.4154   -48.4190     9.3941    10.0422    10.2591   113.7653     7.5998     2.5624     0.2994     0.0702     0.0923
  568.0000    94.6622   -48.5741     9.4060    10.0200    10.1419   114.6171     7.6003     2.5465     0.2986     0.0744     0.0472
  568.5000    94.7735   -48.7296     9.4181     9.9981    10.0838   111.6757     7.5995     2.5310     0.2893     0.0859     0.0409
