~VERSION INFORMATION
 VERS.                2.0:   CWLS LOG ASCII STANDARD - VERSION 2.0
 WRAP.                 NO:   ONE LINE PER DEPTH STEP
~WELL INFORMATION
#MNEM.UNIT      DATA TYPE    INFORMATION
#----------   ------------   ------------------------------
 STRT.F           30.0000:   START DEPTH
 STOP.F          547.0000:   STOP DEPTH
 STEP.F            0.5000:   STEP LENGTH
 NULL.          -999.2500:   NO VALUE
 COMP.   FINIX & SCISSION:   COMPANY
 WELL. SX-11 NPR #3 #11-11:   WELL
 FLD .             TEAPOT:   FIELD
 LOC .      S11 T38N R78W:   LOCATION
 CNTY.            NATRONA:   COUNTY
 STAT.            WYOMING:   STATE
 CTRY. UNITED STATES OF AMERICA:   COUNTRY
 SRVC.       Schlumberger:   SERVICE COMPANY
 DATE.        01-MAR-1977:   LOGDATE
 API .       490251058500:   API NUMBER
~CURVE INFORMATION
#MNEM.UNIT       API CODE    CURVE DESCRIPTION
#----------   ------------   ------------------------------
 DEPT.F                  :   
 ILD .OHMM               :   INDUCTION LOG DEEP
 ILM .OHMM   07 120 44 00:   INDUCTION LOG MEDIUM
 LL8 .OHMM   07 220 08 00:   
 SPR .MV     07 010 01 00:   SPONTANEOUS POTENTIAL
 CALD.IN     45 280 60 00:   CALIPER FROM DENSITY LOG
 CORR.G/C3   45 356 01 00:   DENSITY CORRECTION
 DPHI.DEC    45 890 12 00:   DENSITY POROSITY SANDSTONE
 GRD .GAPI   45 310 01 00:   GAMMA RAY FROM DENSITY LOG
 RHOB.G/C3   45 350 01 00:   BULK DENSITY
~PARAMETER INFORMATION
#MNEM.UNIT          VALUE    DESCRIPTION
#----------   ------------   ------------------------------
 PD  .                 GL:   PERMANENT DATUM
 EPD .F              5158:   ELEVATION PERMANENT DATUM
 LMF .                 GL:   LOG MEASURED FROM
 DMF .                 GL:   DRILLING MEASURED FROM
 EKB .F              5161:   KELLING BUSHING
 EGL .F              5158:   GROUND LEVEL
 DATE.        01-MAR-1977:   RUN DATE
 RUN .                  1:   RUN NUMBER
 DD  .F               575:   DEPTH DRILLER
 DL  .F               548:   DEPTH LOGGER
 BLI .F               547:   BOTTOM LOG INTERVAL
 TLI .F                45:   TOP LOG INTERVAL
 CS  .IN            8.625:   CASING SIZE
 CBD .F                40:   CASING BOTTOM DRILLER
 CBL .F                45:   CASING BOTTOM LOGGER
 BS  .IN            7.875:   BIT SIZE
 BSD .F               575:   BIT SIZE AT DEPTH
 DFT .                PIT:   DRILLING FLUID TYPE
 DFD .                8.7:   DRILLING FLUID DENSITY
 DFV .                 46:   DRILLING FLUID VISCOSITY
 DFPH.                  8:   DRILLING FLUID PH
 DFL .                6.8:   DRILLING FLUID LOSS
 MSS .                PIT:   MUD SAMPLE SOURCE
 RMS .OHMM          0.632:   RESISTIVITY MUD SAMPLE
 MST .F                65:   MUD SAMPLE TEMPERATURE
 RMF .OHMM          0.465:   RESISTIVITY MUD FILTRATE SAMPLE
 MFST.F                65:   MUD FILTRATE SAMPLE TEMPERATURE
 MFSS.               MEAS:   MUD FILTRATE SAMPLE SOURCE
 RMB .OHMM          0.635:   RESISTIVITY MUD AT BHT
 BHT .F                68:   BOTTOM HOLE TEMPERATURE
 TCS .HRS              12:   TIME CURCULATED STOPPED
 MRT .F                68:   MAXIMUM RECORDED TEMPERATURE
 LUN .               5642:   LOGGING UNIT NUMBER
 LUL .               CSPR:   LOGGING UNIT LOCATION
 ENGI.         JIM MARTIN:   RECORDING ENGINEER
 WITN.         STUEBINGER:   WITNESSED BY
 CLNT.            A2DTECH:   CLIENT CODE
 ORIG.           5" PRINT:   ORIGIN OF DATA
 UWI .       490251058500:   UNIQUE WELL ID
 DICO. A2D Technologies, Inc.:   DIGITIZING COMPANY
~OTHER INFORMATION
~A   DEPT      ILD        ILM        LL8        SPR       CALD       CORR       DPHI         GRD      RHOB   
# ...
  322.0000     6.6383     6.3493     7.0916   -31.9102     8.0819     0.0360     0.1054    95.2052     2.4820
  322.5000     7.1142     6.9947     8.0870   -32.1083     8.0832     0.0442     0.1039    95.5622     2.4890
  323.0000     7.4163     7.3927     8.2569   -32.1766     8.0992     0.0278     0.1088    95.8284     2.4756
  323.5000     7.6252     7.6004     8.1570   -32.3096     8.1002     0.0180     0.1123    96.1430     2.4733
  324.0000     7.7323     7.7067     8.0329   -32.2226     8.1013     0.0135     0.1060    98.2538     2.4913
  324.5000     7.8411     7.7607     7.9781   -32.1271     8.1022     0.0105     0.1027   100.2146     2.4981
  325.0000     7.9192     7.8150     8.0464   -31.8114     8.1033     0.0157     0.1081   101.8755     2.4831
  325.5000     8.0042     7.9243     8.1464   -31.5684     8.1045     0.0232     0.1117    99.9383     2.4719
  326.0000     8.0640     7.9965     8.2699   -31.3293     8.1054     0.0307     0.1135    96.5018     2.4666
  326.5000     8.1210     8.0914     8.4339   -31.5434     8.1066     0.0427     0.0979    94.4146     2.5154
  327.0000     8.1785     8.1480     8.5518   -31.7459     8.1075     0.0422     0.1039    93.2270     2.4937
  327.5000     8.1768     8.0086     8.6715   -31.7290     8.0936     0.0396     0.1069    92.3393     2.4787
  328.0000     7.9577     7.8490     8.7596   -31.7126     8.1097     0.0538     0.0925    91.3016     2.5515
  328.5000     7.8496     7.7625     8.7933   -31.6073     8.1108     0.0485     0.0883    92.0630     2.5538
  329.0000     7.8188     7.6522     8.7333   -31.3770     8.1117     0.0418     0.0964    93.7422     2.5361
  329.5000     7.7440     7.5543     8.6738   -31.1677     8.1128     0.0365     0.1015    95.2743     2.5119
  330.0000     7.6917     7.4512     8.6130   -30.8952     8.1138     0.0268     0.1054    96.5067     2.4915
  330.5000     7.6930     7.4518     8.5497   -30.7959     8.1149     0.0305     0.1003    97.5104     2.5065
  331.0000     7.6941     7.4523     8.4808   -30.5631     8.1159     0.0380     0.1073    96.9225     2.4893
  331.5000     7.6950     7.5044     8.4343   -30.3970     8.1170     0.0125     0.1150    97.0842     2.4608
  332.0000     7.7494     7.6094     8.3822   -30.6842     8.1180     0.0080     0.1224    99.3449     2.4398
  332.5000     7.7506     7.7157     8.3828   -30.8134     8.1190     0.0125     0.1178   101.3057     2.4481
  333.0000     7.8054     7.7163     8.3834   -30.8909     8.1201     0.0087     0.1148   102.5169     2.4579
  333.5000     7.8606     7.7704     8.4421   -30.9345     8.1211     0.0035     0.1193   101.6291     2.4496
  334.0000     7.8075     7.6642     8.5012   -30.9162     8.1223     0.0257     0.1076   100.4415     2.4684
  334.5000     7.5445     7.4045     8.6201   -30.8977     8.1232     0.0484     0.0962    99.4038     2.5067
  335.0000     7.2703     7.0068     8.7407   -30.8832     8.1243     0.0678     0.0902    98.9655     2.4984
  335.5000     6.9451     6.7227     8.9862   -30.8650     8.1253     0.0468     0.1028   100.1770     2.5149
  336.0000     6.6181     6.4949     9.5634   -30.8472     8.1263     0.0311     0.1106   101.7001     2.4935
  336.5000     6.3837     6.3183     8.6823   -30.8323     8.1274     0.0401     0.1073   102.9160     2.4700
  337.0000     6.2208     6.1891     7.8823   -30.9656     8.1284     0.0386     0.1013   103.8381     2.4880
  337.5000     6.1788     6.1468     7.2056   -31.1030     8.1295     0.0356     0.1103   101.1266     2.4940
  338.0000     6.1796     6.2328     6.6858   -31.3861     8.1306     0.0333     0.1160    97.8401     2.4678
  338.5000     6.2342     6.3200     6.2765   -31.3656     8.1316     0.0468     0.0938    96.6525     2.4865
  339.0000     6.2684     6.2337     6.4975   -31.0499     8.1326     0.0632     0.0863    96.9641     2.5263
  339.5000     6.2492     6.0642     7.1580   -30.8838     8.1337     0.0682     0.0981    97.2757     2.5488
  340.0000     5.9676     5.8586     7.7773   -31.0171     8.1347     0.0504     0.1030    96.2381     2.5188
  340.5000     5.8005     5.7006     8.6870   -31.0926     8.1358     0.0392     0.1076    95.6501     2.4828
  341.0000     5.5376     5.5634     8.9512   -31.2838     8.1518     0.0354     0.1142    97.9108     2.4656
  341.5000     5.3135     5.3936     7.5147   -31.2675     8.1531     0.0422     0.1298   100.3214     2.4461
  342.0000     5.1337     5.2804     6.2704   -31.4008     8.1391     0.0219     0.1466   101.5326     2.4116
  342.5000     5.3518     5.2923     5.2111   -31.3847     8.1400     0.0152     0.1403   100.3450     2.3885
  343.0000     5.6959     5.5903     5.6053   -31.3683     8.1410     0.0272     0.1148    99.1514     2.4493
  343.5000     5.9865     5.8288     6.1772   -31.2020     8.1422     0.0361     0.0998    98.2429     2.4806
  344.0000     6.2329     6.0262     6.6376   -31.1856     8.1433     0.0413     0.0947    96.9340     2.5087
  344.5000     6.3550     6.2385     7.0160   -31.0135     8.1442     0.0473     0.0914    95.5965     2.5250
  345.0000     6.6346     6.5481     7.2765   -30.5439     8.1452     0.0548     0.0866    94.2590     2.5055
  345.5000     6.9164     6.8257     7.5711   -30.0743     8.1463     0.0645     0.0809    93.2213     2.5145
  346.0000     7.2601     7.1151     7.7838   -29.8383     8.1474     0.0488     0.0893    92.6304     2.5108
  346.5000     7.4132     7.3657     8.0580   -29.7560     8.1484     0.0330     0.1037    94.4442     2.4898
  347.0000     7.2621     7.1654     8.3418   -29.8899     8.1494     0.0248     0.1094    95.0557     2.4755
  347.5000     6.6852     6.7339     8.6955   -29.7198     8.1506     0.0184     0.1149    95.6672     2.4643
  348.0000     6.2552     6.2847     9.1270   -29.5537     8.1665     0.0302     0.1080    97.3524     2.4748
  348.5000     5.9459     5.7452    10.1946   -29.2380     8.1677     0.0397     0.1028    99.0449     2.4966
  349.0000     5.5497     5.2520    11.0002   -29.0749     8.1686     0.0390     0.1115   101.1028     2.4741
  349.5000     5.1799     4.8345     7.7875   -28.9058     8.1696     0.0509     0.1179   102.6139     2.4546
  350.0000     4.7356     3.8757     6.1151   -29.4897     8.1457     0.0262     0.1305   104.2729     2.4276
  350.5000     4.3594     4.3719     4.7308   -29.7769     8.1265     0.0060     0.1484   102.0030     2.3699
  351.0000     4.9558     4.9198     5.0549   -29.9104     8.1276    -0.0015     0.1435   100.6536     2.4059
  351.5000     5.2189     5.1107     5.3999   -30.3393     8.1285     0.0127     0.1350    99.2089     2.4269
  352.0000     5.4405     5.3274     5.6285   -30.4728     8.1362     0.0195     0.1296    98.3197     2.4194
  352.5000     5.8305     5.6695     5.9896   -30.6064     8.1452     0.0135     0.1224    97.4305     2.4446
  353.0000     6.2485     6.1177     6.4181   -30.7399     8.1461     0.0097     0.1122    96.8385     2.4758
  353.5000     6.6503     6.6012     6.9729   -30.7231     8.1320     0.0060     0.1074    96.2491     2.4727
  354.0000     7.1270     7.0252     7.6283   -30.7035     8.1329     0.0030     0.1131    95.8096     2.4652
  354.5000     7.5330     7.5283     8.1740   -30.6679     8.1340     0.0072     0.1044    96.2723     2.4832
  355.0000     8.0174     8.0674     8.6984   -30.5214     8.1347     0.0187     0.0923    95.2332     2.4959
  355.5000     8.5330     8.6451     9.1928   -30.5052     8.1356     0.0225     0.0893    92.2450     2.5005
  356.0000     8.9331     9.0741     9.3853   -30.4890     8.1217     0.0277     0.0845    90.9060     2.4982
  356.5000     9.2093     8.8835     9.1928   -30.4746     8.1225     0.0329     0.0894    90.1664     2.4885
  357.0000     8.9595     8.7068     8.9405   -30.4581     8.1235     0.0135     0.0967    91.8261     2.4825
  357.5000     8.7165     8.5880     8.6769   -30.4405     8.1243     0.0045     0.1017    93.6507     2.4780
  358.0000     8.5349     8.5886     8.3932   -30.4243     8.1252     0.0112     0.1056    92.5427     2.4810
