~VERSION INFORMATION
 VERS.                2.0:   CWLS LOG ASCII STANDARD - VERSION 2.0
 WRAP.                 NO:   ONE LINE PER DEPTH STEP
~WELL INFORMATION
#MNEM.UNIT      DATA TYPE    INFORMATION
#----------   ------------   ------------------------------
 STRT.F           40.0000:   START DEPTH
 STOP.F          512.0000:   STOP DEPTH
 STEP.F            0.5000:   STEP LENGTH
 NULL.          -999.2500:   NO VALUE
 COMP. LAWRENCE/ALLISON INC:   COMPANY
 WELL.   65-21 SX F1 #3-3:   WELL
 FLD .             TEAPOT:   FIELD
 LOC .       S3 T38N R78W:   LOCATION
 CNTY.            NATRONA:   COUNTY
 STAT.            WYOMING:   STATE
 CTRY. UNITED STATES OF AMERICA:   COUNTRY
 SRVC.       Schlumberger:   SERVICE COMPANY
 DATE.        14-JUL-1982:   LOGDATE
 API .       490251089600:   API NUMBER
~CURVE INFORMATION
#MNEM.UNIT       API CODE    CURVE DESCRIPTION
#----------   ------------   ------------------------------
 DEPT.F                  :   
 CALD.IN     45 280 60 00:   CALIPER FROM DENSITY LOG
 CORR.G/C3   45 356 01 00:   DENSITY CORRECTION
 DPHI.DEC    45 890 12 00:   DENSITY POROSITY SANDSTONE
 GRD .GAPI   45 310 01 00:   GAMMA RAY FROM DENSITY LOG
 RHOB.G/C3   45 350 01 00:   BULK DENSITY
~PARAMETER INFORMATION
#MNEM.UNIT          VALUE    DESCRIPTION
#----------   ------------   ------------------------------
 PD  .                 GL:   PERMANENT DATUM
 EPD .F              5155:   ELEVATION PERMANENT DATUM
 LMF .                 KB:   LOG MEASURED FROM
 DAPD.F                 9:   FEET ABOVE PERMANENT DATUM
 DMF .                 KB:   DRILLING MEASURED FROM
 EKB .F              5164:   KELLING BUSHING
 EDF .F            5162.5:   DRILLING FLOOR
 EGL .F              5155:   GROUND LEVEL
 DATE.        14-JUL-1982:   RUN DATE
 RUN .                  1:   RUN NUMBER
 DD  .F               500:   DEPTH DRILLER
 DL  .F               515:   DEPTH LOGGER
 BLI .F               512:   BOTTOM LOG INTERVAL
 TLI .F                50:   TOP LOG INTERVAL
 CS  .IN           13.375:   CASING SIZE
 CBD .F                50:   CASING BOTTOM DRILLER
 CBL .F                50:   CASING BOTTOM LOGGER
 BS  .IN            12.25:   BIT SIZE
 BSD .F               500:   BIT SIZE AT DEPTH
 DFT .                KCL:   DRILLING FLUID TYPE
 TCS .HRS            0600:   TIME CURCULATED STOPPED
 TLAB.HRS            1000:   TIME LOGGER AT BOTTOM
 LUN .               8035:   LOGGING UNIT NUMBER
 LUL .             CASPER:   LOGGING UNIT LOCATION
 ENGI.            PERARIS:   RECORDING ENGINEER
 WITN.             TAYLOR:   WITNESSED BY
 CLNT.            A2DTECH:   CLIENT CODE
 ORIG.         2.5" PRINT:   ORIGIN OF DATA
 UWI .       490251089600:   UNIQUE WELL ID
 DICO. A2D Technologies, Inc.:   DIGITIZING COMPANY
~OTHER INFORMATION
~A   DEPT     CALD       CORR       DPHI         GRD      RHOB   
# ...
  284.0000    12.7225     0.0525     0.1377    91.2001     2.4537
  284.5000    12.7233     0.0487     0.1426    86.7269     2.4410
  285.0000    12.7539     0.0395     0.1444    84.0448     2.4394
  285.5000    12.7546     0.0280     0.1492    83.1537     2.4347
  286.0000    12.7852     0.0195     0.1620    84.5313     2.4189
  286.5000    12.7859     0.0183     0.1590    85.4463     2.4136
  287.0000    12.7866     0.0485     0.1511    86.3015     2.4324
  287.5000    12.7874     0.0880     0.1456    86.9030     2.4421
  288.0000    12.7582     0.1153     0.1438    88.2806     2.4397
  288.5000    12.6993     0.1213     0.1857    90.0015     2.4032
  289.0000    12.6403     0.0408     0.2179    91.2448     2.3493
  289.5000    12.6112     0.0240     0.2277    89.9062     2.3050
  290.0000    12.5821     0.0103     0.2307    82.7463     2.3239
  290.5000    12.5520     0.0057     0.1492    80.7955     2.3617
  291.0000    12.5239     0.0042     0.1328    80.3373     2.4294
  291.5000    12.5246     0.0072     0.1340    79.6254     2.4532
  292.0000    12.5552     0.0118     0.1365    78.9731     2.4551
  292.5000    12.5560     0.0163     0.1359    78.5149     2.4500
  293.0000    12.5567     0.0193     0.1340    77.8478     2.4515
  293.5000    12.5575     0.0223     0.1328    78.5537     2.4545
  294.0000    12.5582     0.0238     0.1329    80.0964     2.4560
  294.5000    12.5590     0.0222     0.1383    81.4441     2.4408
  295.0000    12.5597     0.0100     0.1564    82.7918     2.4241
  295.5000    12.5604     0.0086     0.1590    83.2439     2.4195
  296.0000    12.5612     0.0325     0.1499    79.6663     2.4286
  296.5000    12.5619     0.0515     0.1440    70.2677     2.4393
  297.0000    12.5627     0.0589     0.1406    63.5557     2.4453
  297.5000    12.5634     0.0620     0.1582    55.9481     2.4225
  298.0000    12.5642     0.0556     0.2004    49.2361     2.3602
  298.5000    12.5649     0.0309     0.2359    45.2107     2.3009
  299.0000    12.5658     0.0143     0.2599    43.8718     2.2675
  299.5000    12.5666     0.0029     0.2740    42.5329     2.2371
  300.0000    12.5669     0.0008     0.2703    44.3284     2.2310
  300.5000    12.5666     0.0096     0.2634    48.3881     2.2551
  301.0000    12.5663     0.0250     0.2537    50.1791     2.2678
  301.5000    12.5789     0.0363     0.2378    51.5373     2.2785
  302.0000    12.5811     0.0372     0.2356    52.4477     2.2878
  302.5000    12.5948     0.0372     0.2359    53.8060     2.2878
  303.0000    12.5943     0.0348     0.2435    54.2686     2.2619
  303.5000    12.5939     0.0293     0.2561    54.6269     2.2394
  304.0000    12.5635     0.0219     0.2693    53.2537     2.2247
  304.5000    12.5631     0.0189     0.2735    50.1940     2.2201
  305.0000    12.5626     0.0158     0.2741    47.3134     2.2201
  305.5000    12.5622     0.0143     0.2753    46.2388     2.2170
  306.0000    12.5319     0.0127     0.2760    45.2239     2.2139
  306.5000    12.5314     0.0173     0.2749    45.8657     2.2215
  307.0000    12.5310     0.0249     0.2712    46.5672     2.2260
  307.5000    12.5306     0.0309     0.2684    46.5672     2.2305
  308.0000    12.5301     0.0188     0.2723    46.8060     2.2214
  308.5000    12.5297     0.0096     0.2709    48.2239     2.2259
  309.0000    12.5591     0.0309     0.2563    51.9403     2.2639
  309.5000    12.5587     0.0537     0.2326    53.7313     2.2960
  310.0000    12.5582     0.0582     0.2198    55.0746     2.3033
  310.5000    12.5578     0.0532     0.2441    52.8358     2.2829
  311.0000    12.5573     0.0290     0.2624    52.3881     2.2492
  311.5000    12.5270     0.0186     0.2636    52.3881     2.2407
  312.0000    12.5266     0.0234     0.2575    51.9403     2.2449
  312.5000    12.5261     0.0249     0.2557    51.0448     2.2504
  313.0000    12.5257     0.0235     0.2545    50.5970     2.2515
  313.5000    12.5252     0.0118     0.2533    51.4925     2.2535
  314.0000    12.5248     0.0045     0.2496    53.2836     2.2587
  314.5000    12.5243     0.0014     0.2404    54.6269     2.2787
  315.0000    12.5239    -0.0002     0.2249    55.5224     2.3059
  315.5000    12.5234     0.0014     0.2124    54.1642     2.3196
  316.0000    12.5230     0.0076     0.2101    52.8060     2.3250
  316.5000    12.5225     0.0131     0.2091    52.3881     2.3296
  317.0000    12.5221     0.0154     0.2033    53.2836     2.3384
  317.5000    12.5216     0.0154     0.1892    53.1343     2.3576
  318.0000    12.5211     0.0186     0.1791    51.3134     2.3743
  318.5000    12.5207     0.0239     0.1750    50.0448     2.3864
  319.0000    12.5202     0.0275     0.1731    49.2537     2.3894
  319.5000    12.5198     0.0214     0.1936    49.6567     2.3514
  320.0000    12.5193     0.0153     0.2059    52.8359     2.3362
  320.5000    12.5488     0.0108     0.2011    56.2985     2.3437
  321.0000    12.5483     0.0138     0.1911    58.1194     2.3650
  321.5000    12.5479     0.0153     0.1861    59.1045     2.3726
  322.0000    12.5474     0.0138     0.1856    58.6567     2.3726
  322.5000    12.5470     0.0062     0.1952    58.6567     2.3467
  323.0000    12.5466     0.0016     0.2144    59.3433     2.3237
  323.5000    12.5455    -0.0015     0.2169    60.2538     2.3162
  324.0000    12.5158     0.0031     0.2126    61.3433     2.3147
  324.5000    12.5154     0.0152     0.2047    61.7910     2.3291
  325.0000    12.5149     0.0289     0.1950    62.2388     2.3455
  325.5000    12.5145     0.0365     0.1883    61.7910     2.3644
  326.0000    12.5140     0.0364     0.1834    61.7910     2.3730
  326.5000    12.5136     0.0331     0.1810    62.2388     2.3753
  327.0000    12.5131     0.0284     0.1920    61.7910     2.3633
  327.5000    12.5127     0.0240     0.1980    61.3433     2.3493
  328.0000    12.5122     0.0212     0.1984    60.4478     2.3442
  328.5000    12.5118     0.0242     0.1950    60.8955     2.3497
  329.0000    12.5113     0.0261     0.1913    61.3433     2.3576
  329.5000    12.5109     0.0287     0.1901    61.3433     2.3607
  330.0000    12.5104     0.0287     0.1903    60.4478     2.3606
  330.5000    12.5100     0.0261     0.1928    59.5522     2.3566
  331.0000    12.4797     0.0208     0.1967    59.5522     2.3477
  331.5000    12.5091     0.0159     0.2025    60.0896     2.3415
  332.0000    12.5087     0.0105     0.2115    60.9552     2.3324
  332.5000    12.4784     0.0051     0.2169    61.3433     2.3202
  333.0000    12.4778     0.0028     0.2151    60.8955     2.3171
  333.5000    12.4774     0.0045     0.2090    61.3433     2.3338
  334.0000    12.4770     0.0164     0.1974    61.7910     2.3581
  334.5000    12.4765     0.0286     0.1867    61.3433     2.3702
  335.0000    12.4761     0.0331     0.1849    61.3433     2.3733
  335.5000    12.4756     0.0240     0.1947    61.5075     2.3550
  336.0000    12.4752     0.0149     0.1996    61.9702     2.3443
  336.5000    12.4748     0.0088     0.1980    62.4328     2.3428
  337.0000    12.4743     0.0042     0.1956    63.1343     2.3458
  337.5000    12.4739     0.0027     0.1938    63.1343     2.3475
  338.0000    12.4734     0.0024     0.1908    63.1343     2.3525
  338.5000    12.4730     0.0148     0.1866    63.1343     2.3646
  339.0000    12.4725     0.0209     0.1835    62.6866     2.3703
  339.5000    12.4721     0.0239     0.1817    62.6866     2.3745
  340.0000    12.4716     0.0208     0.1908    62.6866     2.3737
  340.5000    12.4712     0.0116     0.1933    62.6866     2.3548
  341.0000    12.4707     0.0086     0.1927    63.1343     2.3557
  341.5000    12.4404     0.0118     0.1927    63.5821     2.3598
  342.0000    12.4400     0.0149     0.1927    64.4776     2.3609
  342.5000    12.4695     0.0162     0.1927    64.9254     2.3561
  343.0000    12.4690     0.0162     0.1927    64.9254     2.3560
  343.5000    12.4685     0.0124     0.1927    65.3731     2.3560
  344.0000    12.4681     0.0032     0.1936    65.8209     2.3457
  344.5000    12.4676    -0.0036     0.2015    67.6119     2.3332
