~VERSION INFORMATION
 VERS.                2.0:   CWLS LOG ASCII STANDARD - VERSION 2.0
 WRAP.                 NO:   ONE LINE PER DEPTH STEP
~WELL INFORMATION
#MNEM.UNIT      DATA TYPE    INFORMATION
#----------   ------------   ------------------------------
 STRT.F          588.0000:   START DEPTH
 STOP.F         1583.5000:   STOP DEPTH
 STEP.F            0.5000:   STEP LENGTH
 NULL.          -999.2500:   NO VALUE
 COMP.   FENIX & SCISSONS:   COMPANY
 WELL.   NPR 3 #23STX1-11:   WELL
 FLD .             TEAPOT:   FIELD
 LOC .      S11 T38N R78W:   LOCATION
 CNTY.            NATRONA:   COUNTY
 STAT.            WYOMING:   STATE
 CTRY. UNITED STATES OF AMERICA:   COUNTRY
 SRVC.            Unknown:   SERVICE COMPANY
 DATE.        15-JUN-1979:   LOGDATE
 API .       490251078300:   API NUMBER
~CURVE INFORMATION
#MNEM.UNIT       API CODE    CURVE DESCRIPTION
#----------   ------------   ------------------------------
 DEPT.F                  :   
 RHOB.G/C3   45 350 01 00:   BULK DENSITY
 DPHI.DEC    45 890 10 00:   DENSITY POROSITY LIMESTONE
 CORR.G/C3   45 356 01 00:   DENSITY CORRECTION
 GRD .GAPI   45 310 01 00:   GAMMA RAY FROM DENSITY LOG
 CALD.IN     45 280 60 00:   CALIPER FROM DENSITY LOG
~PARAMETER INFORMATION
#MNEM.UNIT          VALUE    DESCRIPTION
#----------   ------------   ------------------------------
 PD  .                 GL:   PERMANENT DATUM
 EPD .F              5168:   ELEVATION PERMANENT DATUM
 LMF .                 KB:   LOG MEASURED FROM
 DAPD.F                10:   FEET ABOVE PERMANENT DATUM
 DMF .                 KB:   DRILLING MEASURED FROM
 EKB .F              5178:   KELLING BUSHING
 EGL .F              5168:   GROUND LEVEL
 DATE.            6-15-79:   RUN DATE
 RUN .                  1:   RUN NUMBER
 DD  .F              1580:   DEPTH DRILLER
 DL  .F              1580:   DEPTH LOGGER
 BLI .F              1578:   BOTTOM LOG INTERVAL
 TLI .F               680:   TOP LOG INTERVAL
 CS  .IN            9.625:   CASING SIZE
 CBD .F               660:   CASING BOTTOM DRILLER
 CBL .F               670:   CASING BOTTOM LOGGER
 BS  .IN             8.75:   BIT SIZE
 BSD .F              1580:   BIT SIZE AT DEPTH
 DFT .                OIL:   DRILLING FLUID TYPE
 TCS .HRS               4:   TIME CURCULATED STOPPED
 MRT .F                80:   MAXIMUM RECORDED TEMPERATURE
 LUN .               3029:   LOGGING UNIT NUMBER
 LUL .             CASPER:   LOGGING UNIT LOCATION
 ENGI.            MULLINS:   RECORDING ENGINEER
 CLNT.            A2DTECH:   CLIENT CODE
 ORIG.     1", 2.5" PRINT:   ORIGIN OF DATA
 UWI .       490251078300:   UNIQUE WELL ID
 DICO. A2D Technologies, Inc.:   DIGITIZING COMPANY
~OTHER INFORMATION
~A   DEPT     RHOB       DPHI       CORR         GRD      CALD   
# ...
 1137.0000     2.5038     0.0284    -0.0045    93.1536     9.6385
 1137.5000     2.5144     0.0237     0.0001    94.1553     9.6336
 1138.0000     2.5220     0.0192     0.0082    91.8380     9.6288
 1138.5000     2.5126     0.0223     0.0115    89.3759     9.6241
 1139.0000     2.5067     0.0275     0.0079    92.0275     9.6194
 1139.5000     2.5116     0.0291     0.0066    93.2833     9.6146
 1140.0000     2.5080     0.0308     0.0054    93.9774     9.6100
 1140.5000     2.5058     0.0301     0.0041    93.2898     9.6052
 1141.0000     2.5089     0.0283     0.0041    92.7106     9.6004
 1141.5000     2.5110     0.0267     0.0040    91.4267     9.5949
 1142.0000     2.5099     0.0282     0.0040    90.1610     9.5883
 1142.5000     2.5080     0.0295     0.0040    89.5126     9.5816
 1143.0000     2.5058     0.0309     0.0023    92.1926     9.5749
 1143.5000     2.5063     0.0316    -0.0003    95.5680     9.5681
 1144.0000     2.5147     0.0250    -0.0032    95.3550     9.5614
 1144.5000     2.5223     0.0202    -0.0022    94.3085     9.5547
 1145.0000     2.5275     0.0178     0.0020    96.5678     9.5480
 1145.5000     2.5303     0.0178     0.0063   100.1479     9.5412
 1146.0000     2.5262     0.0187     0.0062   101.2558     9.5346
 1146.5000     2.5215     0.0210     0.0006   100.7492     9.5278
 1147.0000     2.5190     0.0238    -0.0045    98.5583     9.5209
 1147.5000     2.5103     0.0266    -0.0095    97.0382     9.5170
 1148.0000     2.5082     0.0291    -0.0148    97.1033     9.5201
 1148.5000     2.5115     0.0271    -0.0142    94.1041     9.5229
 1149.0000     2.5143     0.0244    -0.0112    94.6600     9.5259
 1149.5000     2.5171     0.0226    -0.0082    94.8251     9.5289
 1150.0000     2.5181     0.0234    -0.0051    92.1521     9.5319
 1150.5000     2.5194     0.0218    -0.0027    98.6892     9.5349
 1151.0000     2.5213     0.0201     0.0033    97.7825     9.5378
 1151.5000     2.5284     0.0158     0.0041    95.7825     9.5408
 1152.0000     2.5377     0.0082     0.0036    95.7155     9.5438
 1152.5000     2.5396     0.0103     0.0012    98.9494     9.5467
 1153.0000     2.5335     0.0153     0.0017   102.5945     9.5497
 1153.5000     2.5329     0.0131     0.0077   105.6808     9.5527
 1154.0000     2.5369     0.0105     0.0143   105.1880     9.5555
 1154.5000     2.5258     0.0191     0.0108   104.7963     9.5595
 1155.0000     2.5145     0.0281     0.0002   105.9897     9.5647
 1155.5000     2.5037     0.0311    -0.0113   108.1598     9.5696
 1156.0000     2.5063     0.0291    -0.0095   110.6307     9.5745
 1156.5000     2.5105     0.0299    -0.0070   112.4079     9.5795
 1157.0000     2.5068     0.0305    -0.0039   111.1421     9.5844
 1157.5000     2.5010     0.0300     0.0006   110.2753     9.5893
 1158.0000     2.5080     0.0264     0.0040   110.6926     9.5945
 1158.5000     2.5247     0.0194     0.0155   107.0861     9.5997
 1159.0000     2.5333     0.0136     0.0324   106.9373     9.6052
 1159.5000     2.5350     0.0105     0.0277   110.0071     9.6110
 1160.0000     2.5268     0.0153     0.0158   112.5772     9.6169
 1160.5000     2.5198     0.0201     0.0044   111.4325     9.6225
 1161.0000     2.5233     0.0206     0.0052   107.7825     9.6284
 1161.5000     2.5273     0.0185     0.0068   104.4535     9.6343
 1162.0000     2.5228     0.0198     0.0076    99.1838     9.6359
 1162.5000     2.5157     0.0228     0.0059    95.9904     9.6271
 1163.0000     2.5190     0.0213     0.0042    94.7095     9.6187
 1163.5000     2.5223     0.0198     0.0061    93.2012     9.6100
 1164.0000     2.5207     0.0215     0.0084    94.8550     9.6013
 1164.5000     2.5194     0.0218     0.0109    97.8491     9.5927
 1165.0000     2.5167     0.0204     0.0120    99.3084     9.5840
 1165.5000     2.5110     0.0243     0.0080   100.5115     9.5752
 1166.0000     2.5059     0.0288     0.0044   102.9118     9.5669
 1166.5000     2.5158     0.0232     0.0069   104.4793     9.5575
 1167.0000     2.5265     0.0143     0.0091   102.8680     9.5570
 1167.5000     2.5338     0.0137     0.0117   100.0851     9.5567
 1168.0000     2.5325     0.0143     0.0027    96.2954     9.5569
 1168.5000     2.5158     0.0256    -0.0072    97.2280     9.5569
 1169.0000     2.5135     0.0257    -0.0177    99.3608     9.5569
 1169.5000     2.5130     0.0253    -0.0155   100.1090     9.5569
 1170.0000     2.5206     0.0230    -0.0089   101.7417     9.5569
 1170.5000     2.5204     0.0194    -0.0022   104.1460     9.5569
 1171.0000     2.5177     0.0219     0.0001   105.5620     9.5569
 1171.5000     2.5225     0.0178     0.0001   103.8023     9.5569
 1172.0000     2.5271     0.0219    -0.0011   100.4943     9.5569
 1172.5000     2.5151     0.0275    -0.0056   101.5887     9.5569
 1173.0000     2.5120     0.0256    -0.0080   103.8689     9.5569
 1173.5000     2.5156     0.0228    -0.0065   105.7604     9.5569
 1174.0000     2.5212     0.0201    -0.0055   105.7097     9.5569
 1174.5000     2.5264     0.0178    -0.0043   103.8352     9.5569
 1175.0000     2.5211     0.0236    -0.0038   105.1431     9.5569
 1175.5000     2.5120     0.0270    -0.0061   109.5047     9.5569
 1176.0000     2.5115     0.0247    -0.0077   110.1360     9.5569
 1176.5000     2.5165     0.0223    -0.0060   109.2648     9.5569
 1177.0000     2.5212     0.0218    -0.0043   108.0509     9.5569
 1177.5000     2.5193     0.0235    -0.0061   108.6800     9.5569
 1178.0000     2.5123     0.0264    -0.0101   107.1952     9.5569
 1178.5000     2.5042     0.0297    -0.0145   102.6444     9.5569
 1179.0000     2.5008     0.0324    -0.0165   101.2915     9.5569
 1179.5000     2.5019     0.0324    -0.0147   104.4830     9.5569
 1180.0000     2.5080     0.0300    -0.0104   105.4911     9.5569
 1180.5000     2.5177     0.0222    -0.0060   105.4056     9.5569
 1181.0000     2.5250     0.0171    -0.0019   105.2196     9.5569
 1181.5000     2.5310     0.0147     0.0015   106.5466     9.5569
 1182.0000     2.5396     0.0113     0.0052   101.5685     9.5568
 1182.5000     2.5489     0.0076     0.0097    99.8559     9.5569
 1183.0000     2.5405     0.0094     0.0114   101.4670     9.5571
 1183.5000     2.5323     0.0123     0.0076   105.2151     9.5625
 1184.0000     2.5269     0.0154     0.0042   106.8648     9.5685
 1184.5000     2.5270     0.0178     0.0008   105.6227     9.5747
 1185.0000     2.5248     0.0203    -0.0027   106.3290     9.5808
 1185.5000     2.5169     0.0229    -0.0064   107.5839     9.5869
 1186.0000     2.5168     0.0235    -0.0054   108.3593     9.5930
 1186.5000     2.5285     0.0162     0.0035   106.0793     9.5993
 1187.0000     2.5259     0.0180     0.0022   102.8486     9.6062
 1187.5000     2.5218     0.0200     0.0003    96.6044     9.6132
 1188.0000     2.5268     0.0174    -0.0018    96.1240     9.6200
 1188.5000     2.5323     0.0123    -0.0040    96.0163     9.6270
 1189.0000     2.5368     0.0131    -0.0040    96.1519     9.6343
 1189.5000     2.5285     0.0186    -0.0038    97.4427     9.6396
 1190.0000     2.5214     0.0243    -0.0081    98.7356     9.6420
 1190.5000     2.5138     0.0272    -0.0118   100.1416     9.6449
 1191.0000     2.5054     0.0302    -0.0076   101.5123     9.6477
 1191.5000     2.5015     0.0311    -0.0059   102.9803     9.6505
 1192.0000     2.4992     0.0320    -0.0051   102.6528     9.6533
 1192.5000     2.4990     0.0328    -0.0092   101.4572     9.6561
 1193.0000     2.4991     0.0330    -0.0127   102.3798     9.6589
 1193.5000     2.5028     0.0288    -0.0156   103.2642     9.6617
 1194.0000     2.5116     0.0243    -0.0076   104.2589     9.6645
 1194.5000     2.5319     0.0206     0.0000   104.6924     9.6673
 1195.0000     2.5506     0.0004     0.0026   104.9516     9.6701
 1195.5000     2.5752    -0.0087    -0.0033   102.2022     9.6731
 1196.0000     2.5710    -0.0065    -0.0084    99.3541     9.6756
 1196.5000     2.5514     0.0026    -0.0118    94.6814     9.6785
 1197.0000     2.5449     0.0081    -0.0070    95.5122     9.6700
 1197.5000     2.5352     0.0087    -0.0006    96.3012     9.6597
