~VERSION INFORMATION
 VERS.                2.0:   CWLS LOG ASCII STANDARD - VERSION 2.0
 WRAP.                 NO:   ONE LINE PER DEPTH STEP
~WELL INFORMATION
#MNEM.UNIT      DATA TYPE    INFORMATION
#----------   ------------   ------------------------------
 STRT.F           16.0000:   START DEPTH
 STOP.F          634.0000:   STOP DEPTH
 STEP.F            0.5000:   STEP LENGTH
 NULL.          -999.2500:   NO VALUE
 COMP. LAWRENCE/ALLISON INC:   COMPANY
 WELL.    14-15 SX #11-11:   WELL
 FLD .             TEAPOT:   FIELD
 LOC .      S11 T38N R78W:   LOCATION
 CNTY.            NATRONA:   COUNTY
 STAT.            WYOMING:   STATE
 CTRY. UNITED STATES OF AMERICA:   COUNTRY
 SRVC.      Dresser Atlas:   SERVICE COMPANY
 DATE.        06-JAN-1985:   LOGDATE
 API .       490251101700:   API NUMBER
~CURVE INFORMATION
#MNEM.UNIT       API CODE    CURVE DESCRIPTION
#----------   ------------   ------------------------------
 DEPT.F                  :   
 SPR .MV     11 010 01 00:   SPONTANEOUS POTENTIAL FROM RES.
 RD  .OHMM   11 220 10 00:   RESISTIVITY DEEP
 RS  .OHMM   11 220 09 00:   RESISTIVITY SHALLOW
 RMLL.OHMM   20 270 04 00:   RESISTIVITY MICROLATEROLOG
 AC  .US/F   60 520 00 00:   ACCOUSTIC SONIC
 CNC .DEC    42 890 03 00:   COMPENSATED NEUTRON POROSITY SANDSTONE
 PORD.DEC    45 890 12 00:   POROSITY DENSITY SANDSTONE
 GRD .GAPI   45 310 01 00:   GAMMA RAY FROM DENSITY LOG
 CALD.IN     45 280 60 00:   CALIPER FROM DENSITY
 CORR.G/C3   45 356 01 00:   DENSITY CORRECTION
 DEN .G/C3   45 350 01 00:   COMPENSATED BULK DENSTIY
~PARAMETER INFORMATION
#MNEM.UNIT          VALUE    DESCRIPTION
#----------   ------------   ------------------------------
 PD  .                 GL:   PERMANENT DATUM
 EPD .F            5196.8:   ELEVATION PERMANENT DATUM
 LMF .                 KB:   LOG MEASURED FROM
 DMF .                 KB:   DRILLING MEASURED FROM
 EKB .F            5196.8:   KELLING BUSHING
 EGL .F            5196.8:   GROUND LEVEL
 DATE.        06-JAN-1985:   RUN DATE
 RUN .                  1:   RUN NUMBER
 DD  .F               650:   DEPTH DRILLER
 DL  .F               636:   DEPTH LOGGER
 BLI .F               634:   BOTTOM LOG INTERVAL
 CS  .IN            8.625:   CASING SIZE
 CBD .F                20:   CASING BOTTOM DRILLER
 CBL .F                22:   CASING BOTTOM LOGGER
 BS  .IN             6.25:   BIT SIZE
 BSD .F               650:   BIT SIZE AT DEPTH
 DFT .        KCL POLYMER:   DRILLING FLUID TYPE
 RMS .OHMM           .105:   RESISTIVITY MUD SAMPLE
 MST .F                72:   MUD SAMPLE TEMPERATURE
 RMF .OHMM            .08:   RESISTIVITY MUD FILTRATE SAMPLE
 MFST.F                72:   MUD FILTRATE SAMPLE TEMPERATURE
 RMC .OHMM            .13:   RESISTIVITY MUD CAKE
 MCST.F                72:   MUD CAKE SAMPLE TEMPERATURE
 MFSS.               CALC:   MUD FILTRATE SAMPLE SOURCE
 MCSS.               CALC:   MUD CAKE SAMPLE SOURCE
 TCS .HRS               3:   TIME CURCULATED STOPPED
 LUN .               6307:   LOGGING UNIT NUMBER
 LUL .               GLTE:   LOGGING UNIT LOCATION
 ENGI.               MACK:   RECORDING ENGINEER
 WITN.               PAGE:   WITNESSED BY
 CLNT.            A2DTECH:   CLIENT CODE
 ORIG.           5" PRINT:   ORIGIN OF DATA
 UWI .       490251101700:   UNIQUE WELL ID
 DICO. A2D Technologies, Inc.:   DIGITIZING COMPANY
 R1  . POROSITY WITH SANDSTONE:   REMARKS 1
~OTHER INFORMATION
~A   DEPT      SPR         RD         RS       RMLL         AC        CNC       PORD        GRD       CALD       CORR        DEN   
# ...
  504.0000   -60.3211    16.8665    16.1974     7.4441    95.5188     0.2586     0.1397    90.1461     6.6091     0.1014     2.4553
  504.5000   -60.3270    16.8584    16.1918     7.7041    95.5226     0.2685     0.1527    97.5696     6.6245     0.1184     2.4296
  505.0000   -60.3330    16.8503    16.1863     7.9731    95.2882     0.2709     0.1593    98.9390     6.6398     0.1494     2.4107
  505.5000   -60.3389    16.8422    16.2948     8.1381    94.1774     0.2730     0.1620    96.5315     6.6400     0.1600     2.4115
  506.0000   -60.6470    16.8342    16.2878     8.0241    92.4518     0.2736     0.1530    88.2209     6.6553     0.1556     2.4236
  506.5000   -60.9551    16.8261    16.2823     7.9665    93.7337     0.2733     0.1458    90.5010     6.6555     0.1603     2.4396
  507.0000   -61.5653    16.8181    16.2767     7.8007    95.3916     0.2699     0.1452    91.7218     6.6708     0.1679     2.4419
  507.5000   -61.5712    16.8100    16.0470     7.8536    95.9968     0.2602     0.1473    91.2784     6.6710     0.1861     2.4305
  508.0000   -61.7282    16.6858    15.8205     7.9073    95.8501     0.2550     0.1618    87.2002     6.6711     0.2134     2.4086
  508.5000   -61.7342    16.6778    15.7058     8.1283    95.2523     0.2575     0.1663    87.0634     6.6713     0.2165     2.4026
  509.0000   -61.7402    16.4402    15.5919     8.5899    95.1799     0.2602     0.1645    87.0741     6.6714     0.2061     2.4057
  509.5000   -61.7462    16.3187    15.4787     9.0222    95.3349     0.2607     0.1564    87.9360     6.6716     0.1881     2.4156
  510.0000   -61.7523    16.3033    15.3654     9.3877    95.1883     0.2605     0.1513    91.3334     6.6717     0.1716     2.4277
  510.5000   -61.9106    16.1768    15.3601     9.6485    94.7409     0.2614     0.1483    91.4926     6.6567     0.1762     2.4338
  511.0000   -62.2186    16.0513    15.3549     9.4358    94.2183     0.2629     0.1468    89.8415     6.6416     0.1929     2.4354
  511.5000   -62.2246    15.9502    15.3496     9.3146    93.7709     0.2650     0.1465    87.8853     6.6266     0.2141     2.4361
  512.0000   -62.3816    15.8324    15.3444     9.1207    93.5489     0.2632     0.1447    84.7187     6.6267     0.2173     2.4392
  512.5000   -62.6897    15.8248    15.0233     9.1182    93.4775     0.2572     0.1411    81.2496     6.6269     0.2080     2.4456
  513.0000   -62.8467    15.7079    14.8113     9.1157    93.1805     0.2584     0.1372    79.4447     6.6423     0.1702     2.4538
  513.5000   -62.8527    15.3771    14.5013     9.1132    92.8822     0.2596     0.1360    78.5448     6.6424     0.1482     2.4560
  514.0000   -63.0097    15.1580    14.1979     9.3664    92.5012     0.2584     0.1375    79.7682     6.6426     0.1226     2.4485
  514.5000   -63.3178    14.9420    14.0949     9.5603    91.9886     0.2572     0.1426    84.1660     6.6427     0.1212     2.4371
  515.0000   -63.4748    14.6274    13.9927     9.6247    91.8419     0.2588     0.1459    87.6560     6.6429     0.1258     2.4364
  515.5000   -63.7828    14.5193    13.7953     9.3587    92.1473     0.2576     0.1462    87.2126     6.6278     0.1229     2.4395
  516.0000   -64.0909    14.3124    13.6952     9.1007    92.0759     0.2549     0.1451    85.2564     6.6280     0.1109     2.4403
  516.5000   -64.2479    14.1085    13.4086     8.9731    91.9292     0.2534     0.1439    84.0566     6.6281     0.1005     2.4418
  517.0000   -64.5560    14.0043    13.3114     8.9088    91.7064     0.2606     0.1430    83.0081     6.6283     0.0990     2.4457
  517.5000   -64.7130    13.8048    13.2148     8.8449    91.4094     0.2630     0.1409    81.2031     6.6284     0.0992     2.4517
  518.0000   -64.7190    13.7028    13.1189     8.9657    91.2627     0.2616     0.1354    80.6082     6.6286     0.0977     2.4571
  518.5000   -64.8761    13.6016    13.1135     9.0261    91.3426     0.2573     0.1370    81.3754     6.6287     0.0843     2.4541
  519.0000   -64.8822    13.5950    13.0184     8.8376    91.2711     0.2589     0.1403    83.2013     6.6289     0.0678     2.4428
  519.5000   -64.8894    13.5884    13.0140     8.6537    91.1235     0.2571     0.1424    85.7942     6.6290     0.0634     2.4420
  520.0000   -65.0464    13.5818    12.9196     8.8941    90.8264     0.2559     0.1412    88.5174     6.6292     0.0680     2.4481
  520.5000   -65.0524    13.5752    12.9152     9.0162    90.5294     0.2634     0.1391    88.5280     6.6293     0.0968     2.4497
  521.0000   -65.0583    13.6635    12.9108     9.0131    90.2333     0.2649     0.1400    88.7363     6.6295     0.0951     2.4467
  521.5000   -65.2153    13.5609    12.9064     9.1362    89.9363     0.2646     0.1397    91.4257     6.6297     0.0799     2.4467
  522.0000   -65.3724    13.5544    12.9019     9.3900    89.4137     0.2635     0.1352    92.7978     6.6450     0.0682     2.4551
  522.5000   -65.8315    13.5479    12.8975     9.5843    88.9662     0.2583     0.1340    92.2031     6.6452     0.0580     2.4574
  523.0000   -66.1396    13.5414    12.8931     9.5817    88.7444     0.2535     0.1365    91.6058     6.6453     0.0566     2.4537
  523.5000   -66.2966    13.4414    12.8887     9.5791    88.8246     0.2490     0.1383    91.6189     6.6303     0.0567     2.4514
  524.0000   -66.6047    13.4349    12.8843     9.5764    89.3684     0.2457     0.1336    91.6294     6.6304     0.0568     2.4561
  524.5000   -66.6106    13.4285    12.8799     9.5738    90.2769     0.2445     0.1303    88.3116     6.6154     0.0614     2.4647
  525.0000   -66.6166    13.4221    12.8755     9.5712    90.8020     0.2452     0.1260    86.2014     6.6155     0.0796     2.4762
  525.5000   -66.7736    13.4157    12.7821     9.5685    90.8691     0.2489     0.1132    87.4248     6.6157     0.1009     2.4917
  526.0000   -66.7795    13.4092    12.6894     9.5659    90.5721     0.2515     0.1094    91.6713     6.6158     0.0919     2.4978
  526.5000   -66.7855    13.4028    12.5973     9.5633    90.2741     0.2475     0.1115    97.1281     6.6160     0.0860     2.4994
  527.0000   -66.7915    13.3964    12.5051     9.5606    90.1275     0.2416     0.1115    97.4385     6.6009     0.0936     2.4986
  527.5000   -66.7799    13.3900    12.5008     9.4921    90.2073     0.2404     0.1118    95.3336     6.6011     0.1058     2.4987
  528.0000   -66.6523    13.1992    12.4965     9.2945    90.2862     0.2500     0.1133    90.8028     6.6012     0.1527     2.4972
  528.5000   -66.6598    13.0075    12.4059     9.2920    90.6659     0.2552     0.1154    92.0262     6.6014     0.1604     2.4927
  529.0000   -66.5132    12.8174    12.3160     9.2894    90.8951     0.2555     0.1188    94.4573     6.6015     0.1605     2.4844
  529.5000   -66.5206    12.5554    12.2267     9.2868    91.1244     0.2549     0.1248    94.6190     6.6017     0.1621     2.4761
  530.0000   -66.5266    12.4614    12.1380     9.4180    91.0529     0.2594     0.1272    93.1165     6.6019     0.1910     2.4678
  530.5000   -66.6836    12.4554    12.0500     9.4823    90.8311     0.2679     0.1245    93.8836     6.6172     0.1955     2.4709
  531.0000   -66.6896    12.4495    12.0459     9.5396    90.6083     0.2703     0.1176    95.4189     6.6173     0.1512     2.4770
  531.5000   -66.8466    12.4435    12.0418     9.5369    90.3874     0.2700     0.1143    99.0771     6.6175     0.0991     2.4876
  532.0000   -66.8525    12.4375    12.0377     9.5343    90.3911     0.2640     0.1146   100.1177     6.6176     0.1007     2.4892
  532.5000   -67.1606    12.5196    12.0336     9.5316    90.5452     0.2532     0.1137    97.3373     6.6178     0.1084     2.4900
  533.0000   -67.3176    12.5121    12.1132     9.5285    90.6993     0.2526     0.1113    96.9617     6.6331     0.1191     2.4930
  533.5000   -67.4746    12.5947    12.1090     9.5258    90.8546     0.2526     0.1092   100.3031     6.6333     0.1252     2.4976
  534.0000   -67.6316    12.5871    12.1048     9.4575    90.9373     0.2583     0.1083   101.8264     6.6334     0.1238     2.5007
