~VERSION INFORMATION
 VERS.                2.0:   CWLS LOG ASCII STANDARD - VERSION 2.0
 WRAP.                 NO:   ONE LINE PER DEPTH STEP
~WELL INFORMATION
#MNEM.UNIT      DATA TYPE    INFORMATION
#----------   ------------   ------------------------------
 STRT.F           80.0000:   START DEPTH
 STOP.F          814.0000:   STOP DEPTH
 STEP.F            0.5000:   STEP LENGTH
 NULL.          -999.2500:   NO VALUE
 COMP.          U.S. NAVY:   COMPANY
 WELL. RES 3 TEAPOT DOM #17-S-35:   WELL
 FLD .             TEAPOT:   FIELD
 LOC .      S35 T39N R78W:   LOCATION
 CNTY.            NATRONA:   COUNTY
 STAT.            WYOMING:   STATE
 CTRY. UNITED STATES OF AMERICA:   COUNTRY
 SRVC. Schlumberger Well Surveying Corp:   SERVICE COMPANY
 DATE.        20-JUL-1952:   LOGDATE
 API .       490250650200:   API NUMBER
~CURVE INFORMATION
#MNEM.UNIT       API CODE    CURVE DESCRIPTION
#----------   ------------   ------------------------------
 DEPT.F                  :   
 SPR .MV     05 010 01 00:   SPONTANEOUS POTENTIAL FROM RES.
 ILD .OHMM   05 120 46 00:   INDUCTION LOG DEEP
 ASN .OHMM   05 041 16 00:   AMPLIFIED SHORT NORMAL 16"
 CILD.MMHO   05 110 46 00:   CONDUCTIVITY INDUCTION LOG DEEP
 GR  .GAPI   30 310 01 00:   GAMMA RAY
~PARAMETER INFORMATION
#MNEM.UNIT          VALUE    DESCRIPTION
#----------   ------------   ------------------------------
 PD  .                 KB:   PERMANENT DATUM
 LMF .                 KB:   LOG MEASURED FROM
 DMF .                 KB:   DRILLING MEASURED FROM
 EKB .F              5101:   KELLING BUSHING
 EGL .F              5096:   GROUND LEVEL
 DATE.        20-JUL-1962:   RUN DATE
 RUN .                  1:   RUN NUMBER
 DD  .F               815:   DEPTH DRILLER
 DL  .F               815:   DEPTH LOGGER
 BLI .F               814:   BOTTOM LOG INTERVAL
 TLI .F                80:   TOP LOG INTERVAL
 BS  .IN             6.75:   BIT SIZE
 BSD .F               815:   BIT SIZE AT DEPTH
 DFT .       OIL EMULSION:   DRILLING FLUID TYPE
 DFD .               10.0:   DRILLING FLUID DENSITY
 DFV .                 45:   DRILLING FLUID VISCOSITY
 DFL .                2.7:   DRILLING FLUID LOSS
 RMS .OHMM           3.64:   RESISTIVITY MUD SAMPLE
 MST .F                89:   MUD SAMPLE TEMPERATURE
 RMF .OHMM           3.01:   RESISTIVITY MUD FILTRATE SAMPLE
 MFST.F                89:   MUD FILTRATE SAMPLE TEMPERATURE
 RMC .OHMM           3.41:   RESISTIVITY MUD CAKE
 MCST.F                89:   MUD CAKE SAMPLE TEMPERATURE
 RMB .OHMM           3.41:   RESISTIVITY MUD AT BHT
 BHT .F                89:   BOTTOM HOLE TEMPERATURE
 TCS .HRS              .5:   TIME CURCULATED STOPPED
 LUN .               2503:   LOGGING UNIT NUMBER
 LUL .               CSPR:   LOGGING UNIT LOCATION
 ENGI.             DANNER:   RECORDING ENGINEER
 WITN.          JORGENSEN:   WITNESSED BY
 CLNT.            A2DTECH:   CLIENT CODE
 ORIG.           5" PRINT:   ORIGIN OF DATA
 UWI .       490250650200:   UNIQUE WELL ID
 DICO. A2D Technologies, Inc.:   DIGITIZING COMPANY
~OTHER INFORMATION
~A   DEPT      SPR          ILD        ASN      CILD        GR   
# ...
  507.0000   -49.5830    11.4806    11.4646    87.5667  -999.2500
  507.5000   -49.4331    11.5523    11.5426    86.7869  -999.2500
  508.0000   -49.4449    11.7054    11.6986    84.4897  -999.2500
  508.5000   -49.2950    12.0130    11.9335    82.9513  -999.2500
  509.0000   -49.3068    12.1661    12.2470    80.6282  -999.2500
  509.5000   -49.3163    12.1592    12.3249    79.8744  -999.2500
  510.0000   -49.1664    11.9178    12.0093    79.9063  -999.2500
  510.5000   -48.8619    11.7550    11.8511    80.7228  -999.2500
  511.0000   -48.5597    11.5136    11.6929    81.5393  -999.2500
  511.5000   -48.5692    11.3509    11.5347    82.3558  -999.2500
  512.0000   -48.5787    11.1881    11.3766    84.7421  -999.2500
  512.5000   -48.9021    11.1040    11.2184    86.3435  -999.2500
  513.0000   -49.5395    11.0198    11.1388    87.9450  -999.2500
  513.5000   -50.0199    10.8571    10.9806    89.5464  -999.2500
  514.0000   -50.1863    10.7729    10.9013    91.9327  -999.2500
  514.5000   -49.8818    10.6102    10.8217    94.3191  -999.2500
  515.0000   -49.4203    10.5260    10.7422    96.7054  -999.2500
  515.5000   -48.8018    10.4419    10.7412    95.9441  -999.2500
  516.0000   -49.1253    10.3578    10.6617    95.9836  -999.2500
  516.5000   -49.6057    10.2736    10.5494    96.0151  -999.2500
  517.0000   -49.9291    10.1895    10.4063    96.0467  -999.2500
  517.5000   -50.2526    10.0267    10.2632    97.6481  -999.2500
  518.0000   -50.4190     9.9426    10.2018    99.2495  -999.2500
  518.5000   -50.4285     9.8584    10.1380   100.0660  -999.2500
  519.0000   -50.4379     9.8529    10.0270   101.6674  -999.2500
  519.5000   -50.2880     9.8474     9.9474   102.4839  -999.2500
  520.0000   -49.8289     9.8418     9.8364   103.3004  -999.2500
  520.5000   -49.2104     9.7577     9.8514   104.1169  -999.2500
  521.0000   -48.4349     9.7522     9.8031   104.1484  -999.2500
  521.5000   -47.9734     9.7467     9.4405   104.1800  -999.2500
  522.0000   -48.1399     9.7411     9.3766   104.2115  -999.2500
  522.5000   -48.7773     9.7356     9.7845   103.4582  -999.2500
  523.0000   -49.1007     9.7301     9.8624   103.4897  -999.2500
  523.5000   -49.4241     9.8032     9.8140   103.5213  -999.2500
  524.0000   -49.5887     9.7987     9.7974   103.5528  -999.2500
  524.5000   -49.5981     9.7932     9.7493   102.7995  -999.2500
  525.0000   -49.6075     9.7747     9.7011   102.8310  -999.2500
  525.5000   -49.6170     9.5346     9.6059   105.2173  -999.2500
  526.0000   -49.6264     9.1269     9.2118   108.3886  -999.2500
  526.5000   -49.6358     8.7401     8.7549   112.3448  -999.2500
  527.0000   -49.6452     8.4214     8.6282   115.5161  -999.2500
  527.5000   -49.4845     8.1879     8.4543   119.4723  -999.2500
  528.0000   -49.0255     8.0985     8.2017   121.8586  -999.2500
  528.5000   -48.4098     8.0196     8.1536   124.3904  -999.2500
  529.0000   -47.7938     8.0928     8.0583   127.5459  -999.2500
  529.5000   -47.1805     8.1659     8.0419   131.3658  -999.2500
  530.0000   -47.0330     8.2390     8.3395   130.4026  -999.2500
  530.5000   -47.1994     8.3121     8.4174   125.0599  -999.2500
  531.0000   -47.3659     8.3066     8.4321   121.1826  -999.2500
  531.5000   -47.5323     8.2224     8.4626   118.8749  -999.2500
  532.0000   -47.6987     8.2169     8.5086   116.6087  -999.2500
  532.5000   -48.0222     8.1327     8.5549   117.4518  -999.2500
  533.0000   -48.1886     8.2059     8.6011   119.0267  -999.2500
  533.5000   -48.3551     8.2789     8.5530   119.0581  -999.2500
  534.0000   -48.5215     8.3522     8.5365   118.3046  -999.2500
  534.5000   -48.6880     8.4253     8.5698   117.5510  -999.2500
  535.0000   -49.0114     8.5768     8.6342   116.7975  -999.2500
  535.5000   -49.1778     8.7285     8.7766   115.2597  -999.2500
  536.0000   -49.3443     8.8019     8.8786   114.5055  -999.2500
  536.5000   -49.5107     8.9547     8.8777   112.9670  -999.2500
  537.0000   -49.5202     9.0278     8.9129   112.2135  -999.2500
  537.5000   -49.3703     9.0209     9.1300   109.8901  -999.2500
  538.0000   -49.2251     9.0154     9.1422   109.9230  -999.2500
  538.5000   -49.0752     8.9312     9.0775   109.9545  -999.2500
  539.0000   -48.7707     8.9257     9.0134   110.7710  -999.2500
  539.5000   -48.1546     8.9202     8.9346   111.5875  -999.2500
  540.0000   -47.8477     8.8360     8.8711   113.1889  -999.2500
  540.5000   -47.5456     8.8305     8.8230   114.0054  -999.2500
  541.0000   -47.3957     8.8250     8.7434   114.8219  -999.2500
  541.5000   -47.0935     8.8194     8.7110   114.8534  -999.2500
  542.0000   -46.7890     8.7353     8.7258   114.8850  -999.2500
  542.5000   -46.4845     8.7298     8.8034   114.9165  -999.2500
  543.0000   -46.3346     8.7242     8.9126   114.9481  -999.2500
  543.5000   -46.3464     8.6401     8.9902   114.9797  -999.2500
  544.0000   -46.6699     8.6346     8.9264   115.7962  -999.2500
  544.5000   -47.1503     8.6290     8.8468   115.8277  -999.2500
  545.0000   -47.7877     8.5449     8.7515   115.8593  -999.2500
  545.5000   -48.1111     8.5394     8.6877   116.6757  -999.2500
  546.0000   -47.4903     8.5339     8.6396   116.7073  -999.2500
  546.5000   -47.0288     8.5283     8.6386   116.7388  -999.2500
  547.0000   -46.7243     8.5228     8.6536   118.3403  -999.2500
  547.5000   -46.5767     8.4387     8.5267   118.3718  -999.2500
  548.0000   -46.4316     8.4331     8.4471   119.1883  -999.2500
  548.5000   -46.5956     8.4276     8.4621   120.0048  -999.2500
  549.0000   -46.4481     8.4221     8.4609   122.3911   116.0315
  549.5000   -46.4599     8.4166     8.4759   122.4227   117.7360
  550.0000   -46.3100     8.4012     8.4492   122.4464   120.5255
  550.5000   -46.7776     8.2674     8.3889   122.0017   116.3681
  551.0000   -47.4334     8.1667     8.3477   121.7391   109.1244
  551.5000   -47.7583     8.0834     8.2527   122.5731    97.7140
  552.0000   -47.2983     7.9213     8.1263   124.1821   106.9826
  552.5000   -46.6813     7.7542     7.9370   128.1459   111.3106
  553.0000   -46.3755     7.5064     7.7320   135.2495    98.9742
  553.5000   -46.3892     7.1849     7.5427   141.5681   115.6526
  554.0000   -46.4001     6.8721     7.3219   147.1018   119.2089
  554.5000   -46.4111     6.6305     7.1012   151.8505   121.5354
  555.0000   -46.5790     6.4675     7.0691   155.0294   111.8225
  555.5000   -47.0609     6.3946     7.0685   158.2083   115.3789
  556.0000   -47.6998     6.4025     6.5490   161.3872    99.8018
  556.5000   -47.2397     6.5427     6.5170   162.9963   118.6407
  557.0000   -46.9367     6.6166     7.3024   160.6807   130.5926
  557.5000   -46.6337     6.8465     7.4435   155.2253   134.5521
  558.0000   -46.4849     6.9991     7.3483   149.7700   129.6956
  558.5000   -46.4985     7.2388     7.3792   145.0996   116.6709
  559.0000   -46.5095     7.3831     7.4886   139.6443   115.2900
  559.5000   -46.6774     7.5369     7.5823   136.5340   112.9845
  560.0000   -47.1593     7.6108     7.6603   133.4432   123.9506
  560.5000   -47.7982     7.7633     7.7070   131.9027   121.3365
  561.0000   -48.1231     7.8372     7.7378   130.3721   111.6236
  561.5000   -47.8200     7.9111     7.7529   128.0663   119.1947
  562.0000   -47.3600     7.9053     7.7521   126.5356   127.3830
  562.5000   -46.7430     7.9006     7.7200   126.5748   119.9850
  563.0000   -46.2826     7.8172     7.6880   127.3989   117.2165
  563.5000   -46.2939     7.8125     7.6402   129.0079   114.9110
  564.0000   -46.3048     7.8078     7.5452   131.4019    97.3278
  564.5000   -46.9437     7.7245     7.4345   135.3657   105.8248
  565.0000   -47.7396     7.6412     7.3395   139.3295   101.2045
  565.5000   -47.7505     7.5579     7.2446   143.2934   108.9299
  566.0000   -47.4475     7.3959     7.1024   148.8270   121.7478
  566.5000   -47.3014     6.9982     6.9603   158.2854   116.6646
  567.0000   -46.8394     6.5218     6.7553   170.8834   116.8282
  567.5000   -46.5384     6.1240     6.4559   179.5568   121.1562
