~VERSION INFORMATION
 VERS.                2.0:   CWLS LOG ASCII STANDARD - VERSION 2.0
 WRAP.                 NO:   ONE LINE PER DEPTH STEP
~WELL INFORMATION
#MNEM.UNIT      DATA TYPE    INFORMATION
#----------   ------------   ------------------------------
 STRT.F           18.0000:   START DEPTH
 STOP.F         2312.0000:   STOP DEPTH
 STEP.F            0.5000:   STEP LENGTH
 NULL.          -999.2500:   NO VALUE
 COMP. FENIX & SCISSON INC:   COMPANY
 WELL.  NPR 3 #51 SHX -15:   WELL
 FLD .             TEAPOT:   FIELD
 LOC .      S15 T38N R78W:   LOCATION
 CNTY.            NATRONA:   COUNTY
 STAT.            WYOMING:   STATE
 CTRY. UNITED STATES OF AMERICA:   COUNTRY
 SRVC.            Unknown:   SERVICE COMPANY
 DATE.        14-MAR-1978:   LOGDATE
 API .       490251060000:   API NUMBER
~CURVE INFORMATION
#MNEM.UNIT       API CODE    CURVE DESCRIPTION
#----------   ------------   ------------------------------
 DEPT.F                  :   
 ILD .OHMM   05 120 46 00:   INDUCTION LOG DEEP
 CILD.MMHO   05 110 46 00:   CONDUCTIVITY INDUCTION LOG DEEP
 CALD.IN     45 280 60 00:   CALIPER FROM DENSITY LOG
 GRD .GAPI   45 310 01 00:   GAMMA RAY FROM DENSITY LOG
 CORR.G/C3   45 356 01 00:   DENSITY CORRECTION
 RHOB.G/C3   45 350 01 00:   BULK DENSITY
 DPHI.DEC    45 890 12 00:   DENSITY POROSITY SANDSTONE
~PARAMETER INFORMATION
#MNEM.UNIT          VALUE    DESCRIPTION
#----------   ------------   ------------------------------
 PD  .                 GL:   PERMANENT DATUM
 EPD .F              5223:   ELEVATION PERMANENT DATUM
 LMF .                 KB:   LOG MEASURED FROM
 DAPD.F                10:   FEET ABOVE PERMANENT DATUM
 DMF .                 KB:   DRILLING MEASURED FROM
 EKB .F              5233:   KELLING BUSHING
 EGL .F              5223:   GROUND LEVEL
 DATE.            3-14-78:   RUN DATE
 RUN .                  1:   RUN NUMBER
 DD  .F              2323:   DEPTH DRILLER
 DL  .F              2314:   DEPTH LOGGER
 BLI .F              2312:   BOTTOM LOG INTERVAL
 TLI .F                20:   TOP LOG INTERVAL
 CS  .IN                9:   CASING SIZE
 CBD .F               680:   CASING BOTTOM DRILLER
 CBL .F               682:   CASING BOTTOM LOGGER
 BS  .IN            7.875:   BIT SIZE
 BSD .F              2323:   BIT SIZE AT DEPTH
 DFT .           AIR MIST:   DRILLING FLUID TYPE
 TCS .HRS               2:   TIME CURCULATED STOPPED
 LUN .               2958:   LOGGING UNIT NUMBER
 LUL .               CASP:   LOGGING UNIT LOCATION
 ENGI.             MILLER:   RECORDING ENGINEER
 WITN.           MCGINLEY:   WITNESSED BY
 CLNT.            A2DTECH:   CLIENT CODE
 ORIG.       2", 5" PRINT:   ORIGIN OF DATA
 UWI .       490251060000:   UNIQUE WELL ID
 DICO. A2D Technologies, Inc.:   DIGITIZING COMPANY
~OTHER INFORMATION
~A   DEPT      ILD       CILD       CALD         GRD      CORR       RHOB       DPHI   
# ...
 2247.5000     4.4690   225.1776     8.8708   115.7936     0.0084     2.4768     0.0962
 2248.0000     4.4763   223.9639     8.8709   119.8446     0.0061     2.5107     0.0936
 2248.5000     4.4689   225.9732     8.8718   124.2290     0.0027     2.5009     0.0970
 2249.0000     4.4566   227.9526     8.8750   126.5908     0.0024     2.4838     0.1030
 2249.5000     4.4439   229.9396     8.8781   127.6485     0.0043     2.4778     0.1072
 2250.0000     4.4092   228.1919     8.8811   128.4482     0.0067     2.4722     0.1066
 2250.5000     4.4745   222.7064     8.8842   122.4428     0.0081     2.4812     0.1053
 2251.0000     4.5825   219.8526     8.8874   116.2724     0.0066     2.4824     0.1045
 2251.5000     4.6379   219.5585     8.8906   115.6504     0.0087     2.4852     0.1050
 2252.0000     4.6381   219.2644     8.8892   121.7232     0.0104     2.4850     0.1055
 2252.5000     4.6390   218.9703     8.8875   120.5974     0.0074     2.4759     0.1050
 2253.0000     4.6397   214.4890     8.8858   121.9185     0.0067     2.4832     0.1038
 2253.5000     4.7575   203.5705     8.8841   120.3694     0.0073     2.4838     0.1043
 2254.0000     5.0005   192.0176     8.8823   116.8780     0.0080     2.4810     0.1028
 2254.5000     5.2522   185.9885     8.8806   113.2924     0.0083     2.4869     0.0984
 2255.0000     5.3092   185.9285     8.8789   112.2750     0.0072     2.4938     0.1063
 2255.5000     5.2970   185.8724     8.8772   119.2644     0.0075     2.4893     0.1103
 2256.0000     5.2775   187.3308     8.8755   126.0134     0.0122     2.4771     0.1071
 2256.5000     5.1739   193.1522     8.8738   120.9656     0.0161     2.4807     0.1025
 2257.0000     5.0737   200.9547     8.8723   113.8713     0.0117     2.4843     0.1007
 2257.5000     5.0049   202.9547     8.8698   110.0276     0.0517     2.4802     0.0914
 2258.0000     5.0365   198.5957     8.8439   113.5214     0.0772     2.5079     0.0776
 2258.5000     5.0979   193.5918     8.8310   116.5289     0.0496     2.5359     0.0975
 2259.0000     5.1641   191.1223     8.8299   115.0139     0.0001     2.4974     0.1176
 2259.5000     5.1915   191.5654     8.8288   112.2768     0.0002     2.4715     0.1132
 2260.0000     5.1723   191.4496     8.8278   108.9829     0.0019     2.4688     0.1176
 2260.5000     5.1912   189.7829     8.8268   110.1555    -0.0019     2.4656     0.1185
 2261.0000     5.2245   189.8798     8.8259   111.1111    -0.0057     2.4618     0.1184
 2261.5000     5.1550   195.1603     8.8249   110.0136    -0.0093     2.4556     0.1292
 2262.0000     5.0067   202.9379     8.8239   111.0279    -0.0034     2.4493     0.1221
 2262.5000     4.6947   218.9379     8.8229   114.0716     0.0032     2.4458     0.1262
 2263.0000     4.3892   234.9379     8.8219   116.6888     0.0097     2.4430     0.1288
 2263.5000     4.1498   246.9940     8.8209   118.8707     0.0239     2.4419     0.1258
 2264.0000     4.1568   242.8876     8.8199   117.1509     0.0446     2.4515     0.1148
 2264.5000     4.1673   236.5240     8.8189   113.4979     0.0602     2.4689     0.1012
 2265.0000     4.1767   232.5251     8.8179   110.1421     0.0428     2.4941     0.1012
 2265.5000     4.1875   231.5251     8.8169   110.8103     0.0186     2.4735     0.1071
 2266.0000     4.2045   247.6341     8.8159   111.6193     0.0083     2.4527     0.1160
 2266.5000     3.9720   258.8799     8.8149   112.0384     0.0226     2.4527     0.1146
 2267.0000     3.7178   265.1655     8.8139   116.9862     0.0369     2.4605     0.1118
 2267.5000     3.6041   272.7356     8.8129   123.0232     0.0355     2.4313     0.1110
 2268.0000     3.4975   280.2705     8.8120   118.9506     0.0365     2.4356     0.1252
 2268.5000     3.3907   287.7705     8.8123   113.2080     0.0367     2.4411     0.1186
 2269.0000     3.2838   295.0902     8.8165   108.0538     0.0362     2.4483     0.1346
 2269.5000     3.1764   318.4157     8.8206   108.6964     0.0435     2.4455     0.1235
 2270.0000     3.0746   336.1723     8.8246   115.7002     0.0310     2.4682     0.1179
 2270.5000     3.0715   336.1723     8.8287   122.0841     0.0174     2.4561     0.1240
 2271.0000     3.0715   335.1703     8.8328   121.7294     0.0283     2.4467     0.1223
 2271.5000     3.0749   333.1663     8.8368   119.2263     0.0260     2.4660     0.1248
 2272.0000     3.1641   315.1302     8.8409   118.5015     0.0211     2.4513     0.1268
 2272.5000     3.2563   313.1263     8.8449   118.4183     0.0342     2.4854     0.1158
 2273.0000     3.2815   315.1302     8.8489   118.5730     0.0448     2.4899     0.1052
 2273.5000     3.2922   312.7074     8.8499   120.0863     0.0445     2.4883     0.0998
 2274.0000     3.3019   308.0962     8.8479   121.7423     0.0425     2.4905     0.0984
 2274.5000     3.3166   303.0962     8.8458   119.7149     0.0377     2.4912     0.0996
 2275.0000     3.4555   298.0962     8.8437   121.3483     0.0279     2.4868     0.0988
 2275.5000     3.5996   274.4962     8.8416   127.3618     0.0172     2.4963     0.0999
 2276.0000     3.7772   262.5451     8.8395   130.5327     0.0068     2.4910     0.0972
 2276.5000     4.0912   239.6879     8.8375   130.1601     0.0065     2.5003     0.0844
 2277.0000     4.4055   224.5541     8.8354   128.2009     0.0064     2.5173     0.0860
 2277.5000     4.6304   213.4519     8.8333   123.3286     0.0010     2.5138     0.0932
 2278.0000     4.7053   210.9519     8.8312   117.0290    -0.0004     2.5050     0.0924
 2278.5000     4.7791   207.9860     8.8291   119.3552     0.0013     2.5037     0.0864
 2279.0000     4.9596   202.9860     8.8270   123.4514     0.0030     2.5141     0.0856
 2279.5000     5.0227   199.9810     8.8249   127.6104     0.0041     2.5152     0.0864
 2280.0000     5.0539   198.4021     8.8229   131.7810     0.0017     2.5148     0.0897
 2280.5000     5.0836   196.8231     8.8208   133.3232    -0.0009     2.5037     0.0931
 2281.0000     5.1113   195.2442     8.8187   125.0808    -0.0034     2.5026     0.0957
 2281.5000     5.2103   190.5273     8.8166   115.0243    -0.0029     2.4961     0.0980
 2282.0000     5.3730   184.2057     8.8145   113.4573    -0.0022     2.4926     0.0998
 2282.5000     5.6206   174.5391     8.8124   112.3439    -0.0015     2.4835     0.1004
 2283.0000     5.9726   164.8724     8.8104   111.1595     0.0010     2.4802     0.1009
 2283.5000     6.3471   155.2690     8.8083   109.8046     0.0038     2.4865     0.1002
 2284.0000     6.7249   146.3976     8.8062   108.1096     0.0045     2.4924     0.0967
 2284.5000     6.9792   139.5422     8.8041   107.4528     0.0045     2.4928     0.0949
 2285.0000     7.1414   136.2391     8.8020   107.7511     0.0044     2.4876     0.0942
 2285.5000     7.3036   132.9058     8.7999   108.4641     0.0072     2.4861     0.0936
 2286.0000     7.4651   130.6929     8.7978   109.9818     0.0113     2.5018     0.0924
 2286.5000     7.5753   130.5006     8.7958   111.1674     0.0138     2.5048     0.0948
 2287.0000     7.5831   130.3083     8.7936   111.6817     0.0193     2.5014     0.0898
 2287.5000     7.5926   130.1160     8.7915   113.4468     0.0265     2.5085     0.0890
 2288.0000     7.6023   129.9237     8.7978   115.8786     0.0294     2.5106     0.0894
 2288.5000     7.6209   129.5157     8.8051   120.6851     0.0294     2.5100     0.0887
 2289.0000     7.6929   127.8490     8.8100   125.5276     0.0280     2.5100     0.0918
 2289.5000     7.7653   126.1824     8.7815   125.7499     0.0157     2.4989     0.0989
 2290.0000     7.8376   124.7082     8.7529   126.7876     0.0085     2.4715     0.1072
 2290.5000     7.9096   124.4141     8.7514   127.7112     0.0083     2.4769     0.1046
 2291.0000     7.9724   124.1200     8.7516   127.0556     0.0081     2.4820     0.1011
 2291.5000     7.9767   123.8259     8.7517   124.5242     0.0079     2.4870     0.1000
 2292.0000     7.9805   123.6641     8.7517   123.4419     0.0077     2.4872     0.1022
 2292.5000     7.9845   123.5505     8.7517   128.0596     0.0075     2.4778     0.1060
