~VERSION INFORMATION
 VERS.                2.0:   CWLS LOG ASCII STANDARD - VERSION 2.0
 WRAP.                 NO:   ONE LINE PER DEPTH STEP
~WELL INFORMATION
#MNEM.UNIT      DATA TYPE    INFORMATION
#----------   ------------   ------------------------------
 STRT.F           24.0000:   START DEPTH
 STOP.F          609.0000:   STOP DEPTH
 STEP.F            0.5000:   STEP LENGTH
 NULL.          -999.2500:   NO VALUE
 COMP. FENIX & SCISSON INC:   COMPANY
 WELL.        S 34 #48-34:   WELL
 FLD .            NPR - 3:   FIELD
 LOC .      S34 T39N R78W:   LOCATION
 CNTY.            NATRONA:   COUNTY
 STAT.            WYOMING:   STATE
 CTRY. UNITED STATES OF AMERICA:   COUNTRY
 SRVC.              Welex:   SERVICE COMPANY
 DATE.        03-MAY-1977:   LOGDATE
 API .       490251035700:   API NUMBER
~CURVE INFORMATION
#MNEM.UNIT       API CODE    CURVE DESCRIPTION
#----------   ------------   ------------------------------
 DEPT.F                  :   
 CALD.IN     45 280 60 00:   CALIPER FROM DENSITY LOG
 CORR.G/C3   45 356 01 00:   DENSITY CORRECTION
 DPHI.DEC    45 890 12 00:   DENSITY POROSITY SANDSTONE
 GRD .GAPI   45 310 01 00:   GAMMA RAY FROM DENSITY LOG
 RHOB.G/C3   45 350 01 00:   BULK DENSITY
 GURD.OHMM   07 220 05 00:   SHALLOW GUARD RESISTIVITY
 ILD .OHMM   07 120 46 00:   INDUCTION LOG DEEP
 ILM .OHMM   07 120 44 00:   INDUCTION LOG MEDIUM
 SPR .MV     07 010 01 00:   SPONTANEOUS POTENTIAL FROM RES.
~PARAMETER INFORMATION
#MNEM.UNIT          VALUE    DESCRIPTION
#----------   ------------   ------------------------------
 PD  .                 GL:   PERMANENT DATUM
 EPD .F              5160:   ELEVATION PERMANENT DATUM
 LMF .                 GL:   LOG MEASURED FROM
 DMF .                 GL:   DRILLING MEASURED FROM
 EGL .F              5160:   GROUND LEVEL
 DATE.        03-MAY-1977:   RUN DATE
 RUN .                  1:   RUN NUMBER
 DD  .F               610:   DEPTH DRILLER
 DL  .F               611:   DEPTH LOGGER
 BLI .F               609:   BOTTOM LOG INTERVAL
 TLI .F                30:   TOP LOG INTERVAL
 CS  .IN            8.625:   CASING SIZE
 CBD .F                40:   CASING BOTTOM DRILLER
 CBL .F                32:   CASING BOTTOM LOGGER
 BS  .IN            7.875:   BIT SIZE
 BSD .F               610:   BIT SIZE AT DEPTH
 DFT .            KCL GEL:   DRILLING FLUID TYPE
 DFD .                8.9:   DRILLING FLUID DENSITY
 DFV .                 33:   DRILLING FLUID VISCOSITY
 DFPH.                8.0:   DRILLING FLUID PH
 DFL .                7.2:   DRILLING FLUID LOSS
 MSS .            MUD PIT:   MUD SAMPLE SOURCE
 RMS .OHMM           0.19:   RESISTIVITY MUD SAMPLE
 MST .F                65:   MUD SAMPLE TEMPERATURE
 RMF .OHMM           0.16:   RESISTIVITY MUD FILTRATE SAMPLE
 MFST.F                65:   MUD FILTRATE SAMPLE TEMPERATURE
 RMC .OHMM           0.24:   RESISTIVITY MUD CAKE
 MCST.F                65:   MUD CAKE SAMPLE TEMPERATURE
 MFSS.               MEAS:   MUD FILTRATE SAMPLE SOURCE
 MCSS.               MEAS:   MUD CAKE SAMPLE SOURCE
 RMB .OHMM           0.17:   RESISTIVITY MUD AT BHT
 BHT .F                72:   BOTTOM HOLE TEMPERATURE
 TCS .HRS               2:   TIME CURCULATED STOPPED
 MRT .F                72:   MAXIMUM RECORDED TEMPERATURE
 LUN .               8766:   LOGGING UNIT NUMBER
 LUL .             CASPER:   LOGGING UNIT LOCATION
 ENGI.          T. JOYNER:   RECORDING ENGINEER
 WITN.           ROB LYON:   WITNESSED BY
 CLNT.            A2DTECH:   CLIENT CODE
 ORIG.           5" PRINT:   ORIGIN OF DATA
 UWI .       490251035700:   UNIQUE WELL ID
 DICO. A2D Technologies, Inc.:   DIGITIZING COMPANY
~OTHER INFORMATION
~A   DEPT       CALD      CORR        DPHI      GRD         RHOB     GURD        ILD        ILM        SPR   
# ...
  425.5000     7.7254     0.0274     0.1603    77.9088     2.4081    23.5578    18.4254    20.5788   -10.8505
  426.0000     7.7272     0.0275     0.1636    76.5875     2.4058    23.5785    18.4446    20.8801   -10.9876
  426.5000     7.7141     0.0276     0.1653    74.8220     2.4021    23.7632    18.4637    20.4648   -10.9760
  427.0000     7.7009     0.0322     0.1602    73.0010     2.4075    24.7931    18.4864    18.7157   -10.8155
  427.5000     7.7031     0.0340     0.1533    70.7002     2.4211    25.8738    18.6336    18.0330   -10.8036
  428.0000     7.7048     0.0399     0.1521    72.4951     2.4233    26.4346    18.6525    17.5534   -10.7893
  428.5000     7.7066     0.0430     0.1550    77.8508     2.4167    26.4629    18.6714    17.3249   -10.9265
  429.0000     7.7083     0.0401     0.1568    81.4261     2.4213    26.4862    18.6903    17.5828   -10.9148
  429.5000     7.7101     0.0327     0.1535    84.4079     2.4273    26.3207    18.9699    18.9887   -11.0549
  430.0000     7.7118     0.0268     0.1514    87.2377     2.4274    26.1651    19.1210    19.5329   -11.0403
  430.5000     7.7135     0.0164     0.1501    84.4368     2.4275    26.1907    19.2733    18.4974   -11.1804
  431.0000     7.7153     0.0105     0.1495    83.8576     2.4283    26.2137    19.5620    18.0054   -11.1658
  431.5000     7.7346     0.0046     0.1435    82.6224     2.4336    26.2367    19.7425    17.7677   -11.1542
  432.0000     7.7786     0.0094     0.1312    78.9971     2.4502    26.2598    20.1565    18.6675   -11.1425
  432.5000     7.7804     0.0123     0.1176    75.0026     2.4683    26.0927    20.4581    19.7456   -11.5774
  433.0000     7.7821     0.0169     0.1128    72.7916     2.4863    25.5872    20.9084    19.8978   -11.7144
  433.5000     7.7838     0.0170     0.1101    71.3223     2.4954    26.5178    21.6664    19.3307   -11.7024
  434.0000     7.7856     0.0202     0.1168    71.6335     2.4775    27.2865    22.6077    17.4737   -12.2864
  434.5000     7.7725     0.0233     0.1266    76.8409     2.4543    26.0182    23.5900    17.2430   -12.7182
  435.0000     7.7671     0.0294     0.1432    81.6031     2.4394    26.9585    24.6149    17.7438   -12.7066
  435.5000     7.7462     0.0340     0.1546    85.1784     2.4207    31.6409    25.5079    18.5103   -12.6949
  436.0000     7.7480     0.0296     0.1603    87.5668     2.4110    43.5488    26.2699    19.3100   -12.8350
  436.5000     7.7349     0.0297     0.1606    87.2492     2.4119    68.3670    26.8343    19.0586   -12.6716
  437.0000     7.7370     0.0298     0.1599    84.0384     2.4119    72.3549    26.6762    18.4230   -12.8117
  437.5000     7.7536     0.0299     0.1635    83.7525     2.4059    56.7637    26.1546    18.6945   -12.7971
  438.0000     7.7553     0.0300     0.1629    85.9961     2.4023    38.0580    25.2907    19.3694   -12.7855
  438.5000     7.7571     0.0301     0.1595    87.6426     2.4109    22.9762    24.1192    19.9267   -12.7738
  439.0000     7.7587     0.0302     0.1577    89.4375     2.4168    22.2137    22.2198    19.9449   -12.7619
  439.5000     7.7605     0.0303     0.1592    91.2323     2.4116    22.3877    21.1906    19.4144   -12.8993
  440.0000     7.7553     0.0289     0.1612    93.3239     2.4072    22.7199    20.6329    19.6998   -13.0365
  440.5000     7.7492     0.0258     0.1627    92.2998     2.4042    22.5829    19.3781    19.9894   -13.0219
  441.0000     7.7510     0.0246     0.1633    89.0920     2.4021    22.2870    17.1513    20.0043   -13.1620
  441.5000     7.7527     0.0247     0.1615    85.9489     2.4066    21.8527    17.4124    20.0192   -13.2992
  442.0000     7.7548     0.0278     0.1545    88.3408     2.4157    21.5691    17.6729    19.8921   -13.4363
  442.5000     7.7566     0.0369     0.1488    91.3226     2.4278    21.2930    17.4476    19.5008   -13.5735
  443.0000     7.7583     0.0460     0.1443    91.9306     2.4391    21.3164    16.9885    18.5923   -13.5589
  443.5000     7.7599     0.0491     0.1443    90.7581     2.4347    21.3351    16.2016    17.4729   -13.5472
  444.0000     7.7617     0.0462     0.1512    87.8052     2.4250    21.2065    15.7752    16.8597   -13.6845
  444.5000     7.7635     0.0433     0.1532    84.8523     2.4243    20.7841    15.5736    16.1118   -13.8216
  445.0000     7.7652     0.0435     0.1535    83.9765     2.4251    20.5162    15.3757    15.4704   -13.8095
  445.5000     7.7670     0.0375     0.1582    81.2967     2.4177    20.3925    15.4984    15.2661   -13.9442
  446.0000     7.7688     0.0377     0.1615    79.2146     2.4080    20.6996    15.7496    15.6011   -14.0842
  446.5000     7.7709     0.0318     0.1609    78.3819     2.4104    20.8618    16.1919    16.1628   -14.2214
  447.0000     7.7726     0.0319     0.1593    83.1477     2.4142    21.4668    16.3209    16.4004   -14.3585
  447.5000     7.7744     0.0294     0.1587    87.9099     2.4134    21.7858    16.4508    16.1869   -14.3440
  448.0000     7.7761     0.0261     0.1608    90.2177     2.4097    21.8090    16.4675    15.8658   -14.4840
  448.5000     7.7778     0.0232     0.1610    86.5905     2.4109    21.5231    16.4842    15.3282   -14.7671
  449.0000     7.7796     0.0201     0.1589    83.8753     2.4168    21.1038    16.5009    14.7102   -14.9043
  449.5000     7.7813     0.0144     0.1574    80.7001     2.4176    20.6880    16.2905    14.2361   -14.8926
  450.0000     7.7831     0.0085     0.1570    88.8748     2.4154    20.4213    16.3070    13.9538   -14.8810
  450.5000     7.7848     0.0086     0.1573    85.9219     2.4147    20.3647    15.9772    13.6771   -15.1669
  451.0000     7.7870     0.0087     0.1570    84.1559     2.4186    20.2743    15.6795    13.4965   -15.3294
  451.5000     7.7887     0.0133     0.1531    84.4671     2.4261    20.0677    15.4796    13.2313   -15.4412
  452.0000     7.7904     0.0179     0.1482    89.0810     2.4322    19.8134    15.2823    13.0566   -15.8731
  452.5000     7.8070     0.0210     0.1478    92.8046     2.4293    19.4273    15.1885    12.8000   -16.1591
  453.0000     7.8088     0.0211     0.1503    93.8577     2.4233    19.3144    15.0990    12.7209   -16.4479
  453.5000     7.8254     0.0210     0.1530    93.4270     2.4219    19.2021    15.1181    12.5555   -16.6642
  454.0000     7.8420     0.0169     0.1520    91.9614     2.4295    19.2233    15.1334    12.6698   -16.7790
  454.5000     7.8437     0.0154     0.1484    89.8987     2.4318    19.2446    15.1487    12.8173   -17.1001
  455.0000     7.8603     0.0156     0.1465    88.1327     2.4304    19.2659    15.1642    13.1186   -17.2357
  455.5000     7.8621     0.0157     0.1474    86.8119     2.4297    19.2873    15.1800    13.2478   -17.5112
  456.0000     7.8489     0.0158     0.1489    85.3426     2.4298    19.1507    14.9860    12.5072   -17.7912
  456.5000     7.8511     0.0159     0.1480    83.4283     2.4321    19.0630    14.4946    13.2397   -18.2200
  457.0000     7.8472     0.0160     0.1443    80.3270     2.4375    19.0891    14.1132    13.2508   -18.4999
  457.5000     7.8393     0.0266     0.1404    81.6768     2.4459    18.7171    13.7418    13.0743   -18.7799
  458.0000     7.8262     0.0297     0.1410    84.6647     2.4473    18.3524    13.5667    12.8931   -18.9226
  458.5000     7.8130     0.0238     0.1437    85.6073     2.4389    18.1148    13.4833    12.6223   -19.2093
  459.0000     7.8152     0.0119     0.1454    86.0264     2.4355    18.1397    13.4068    12.5268   -19.3472
  459.5000     7.8170     0.0120     0.1466    87.6729     2.4333    18.7994    13.4209    12.4313   -19.6022
  460.0000     7.8187     0.0181     0.1448    84.1266     2.4356    19.0825    13.4347    12.3342   -19.7333
  460.5000     7.8205     0.0242     0.1384    83.8407     2.4462    19.1034    13.5420    12.9566   -19.8645
  461.0000     7.8226     0.0303     0.1321    85.0457     2.4560    19.1243    13.6493    13.5190   -19.8424
  461.5000     7.8243     0.0274     0.1303    86.5438     2.4606    19.0080    12.7528    13.8108   -19.8248
