~VERSION INFORMATION
 VERS.                2.0:   CWLS LOG ASCII STANDARD - VERSION 2.0
 WRAP.                 NO:   ONE LINE PER DEPTH STEP
~WELL INFORMATION
#MNEM.UNIT      DATA TYPE    INFORMATION
#----------   ------------   ------------------------------
 STRT.F            3.0000:   START DEPTH
 STOP.F          604.0000:   STOP DEPTH
 STEP.F            0.5000:   STEP LENGTH
 NULL.          -999.2500:   NO VALUE
 COMP. BROWN JOHN E&C INC:   COMPANY
 WELL.    73-2 SX-3 #73-3:   WELL
 FLD .             TEAPOT:   FIELD
 LOC .       S3 T38N R78W:   LOCATION
 CNTY.            NATRONA:   COUNTY
 STAT.            WYOMING:   STATE
 CTRY. UNITED STATES OF AMERICA:   COUNTRY
 SRVC.     Atlas Wireline:   SERVICE COMPANY
 DATE.        13-APR-1992:   LOGDATE
 API .       490252251100:   API NUMBER
~CURVE INFORMATION
#MNEM.UNIT       API CODE    CURVE DESCRIPTION
#----------   ------------   ------------------------------
 DEPT.F                  :   
 GRR .GAPI   07 310 01 00:   GAMMA RAY
 RILD.OHMM   07 120 46 00:   INDUCTION LOG DEEP RESISTIVITY
 RILM.OHMM   07 120 44 00:   INDUCTION LOG MEDIUM RESISTIVITY
~PARAMETER INFORMATION
#MNEM.UNIT          VALUE    DESCRIPTION
#----------   ------------   ------------------------------
 PD  .                 GL:   PERMANENT DATUM
 EPD .F              5131:   ELEVATION PERMANENT DATUM
 LMF .                 KB:   LOG MEASURED FROM
 DAPD.F                 5:   FEET ABOVE PERMANENT DATUM
 DMF .                 KB:   DRILLING MEASURED FROM
 EKB .F              5136:   KELLING BUSHING
 EDF .F              5135:   DRILLING FLOOR
 EGL .F              5131:   GROUND LEVEL
 DATE.        13-APR-1992:   RUN DATE
 RUN .                  1:   RUN NUMBER
 DD  .F               610:   DEPTH DRILLER
 DL  .F               608:   DEPTH LOGGER
 BLI .F               605:   BOTTOM LOG INTERVAL
 TLI .F                 3:   TOP LOG INTERVAL
 CS  .IN            8.625:   CASING SIZE
 CBD .F                45:   CASING BOTTOM DRILLER
 CBL .F                50:   CASING BOTTOM LOGGER
 BS  .IN            7.875:   BIT SIZE
 BSD .F               610:   BIT SIZE AT DEPTH
 DFT .                AIR:   DRILLING FLUID TYPE
 LUN .           HL- 6272:   LOGGING UNIT NUMBER
 LUL .             CASPER:   LOGGING UNIT LOCATION
 ENGI.       P. RASHUSSEN:   RECORDING ENGINEER
 WITN.          G. STRONG:   WITNESSED BY
 CLNT.            A2DTECH:   CLIENT CODE
 ORIG.           5" PRINT:   ORIGIN OF DATA
 UWI .       490252251100:   UNIQUE WELL ID
 DICO. A2D Technologies, Inc.:   DIGITIZING COMPANY
~OTHER INFORMATION
~A    DEPT      GRR      RILD       RILM   
# ...
  549.0000   116.1727    10.5317    10.8629
  549.5000   115.5318    10.6768    10.9360
  550.0000   118.5376    10.8918    11.0096
  550.5000   117.3010    11.1272    11.1610
  551.0000   116.0644    11.2014    11.2375
  551.5000   114.8278    11.1982    11.2346
  552.0000   114.1992    11.1952    11.2324
  552.5000   112.6586    11.1142    11.1513
  553.0000   109.9023    10.8804    11.0715
  553.5000   111.0973    10.7267    10.9922
  554.0000   111.3805    10.6492    10.8375
  554.5000   111.0558    10.5723    10.6850
  555.0000   114.6772    10.4229    10.5347
  555.5000   114.6564    10.3476    10.5326
  556.0000   110.9883    10.2729    10.5304
  556.5000   110.3596    10.2701    10.5282
  557.0000   111.2507    10.1959    10.4529
  557.5000   114.5733    10.1848    10.3775
  558.0000   116.3763    10.0484    10.2315
  558.5000   115.7476     9.9758    10.0875
  559.0000   113.9027     9.9038     9.8764
  559.5000   114.1863     9.7639     9.6696
  560.0000   121.7591     9.4925     9.5336
  560.5000   124.1751     9.2934     9.2691
  561.0000   122.9334     9.1621     9.0119
  561.5000   119.2652     9.0326     8.8851
  562.0000   118.6417     8.9674     8.8833
  562.5000   120.1355     8.9025     8.9442
  563.0000   122.5446     8.8382     8.9415
  563.5000   125.2594     8.6523     8.8774
  564.0000   128.8860     8.4707     8.8756
  564.5000   127.6494     8.4095     8.6898
  565.0000   126.1089     8.4072     8.5676
  565.5000   123.9605     8.4638     8.4470
  566.0000   124.0528     8.4615     8.4453
  566.5000   128.1742     8.4592     8.4436
  567.0000   126.3246     8.5161     8.5014
  567.5000   123.8722     8.5138     8.4988
  568.0000   122.3316     8.5114     8.4971
  568.5000   120.1832     8.3906     8.4954
  569.0000   118.9466     8.3300     8.4936
  569.5000   120.7496     8.2124     8.4328
  570.0000   123.7683     8.1530     8.3724
  570.5000   127.3949     8.0379     8.2546
  571.0000   130.4316     7.9243     8.1385
  571.5000   131.9597     7.8671     7.9681
  572.0000   133.4065     7.7559     7.8560
  572.5000   133.3857     7.6455     7.6912
  573.0000   132.7570     7.4858     7.5302
  573.5000   131.2165     7.3797     7.4763
  574.0000   128.1562     7.2754     7.3711
  574.5000   125.7038     7.1726     7.1666
  575.0000   125.6830     7.0221     7.0166
  575.5000   126.2701     6.9229     6.8697
  576.0000   127.1769     6.8251     6.7259
  576.5000   128.4677     6.6819     6.6313
  577.0000   130.4580     6.4511     6.5380
  577.5000   130.1332     6.0568     6.3563
  578.0000   127.9848     5.9712     6.0097
  578.5000   127.0522     6.0609     5.9673
  579.0000   129.4630     6.2663     6.1774
  579.5000   130.6580     6.4870     6.3511
  580.0000   133.0689     6.7154     6.5296
  580.5000   135.4802     7.0006     6.6668
  581.0000   135.4589     7.2472     6.9020
  581.5000   130.4103     7.5025     7.2462
  582.0000   124.4699     7.8211     7.6077
  582.5000   127.4887     8.1533     8.0990
  583.0000   129.9047     8.5022     8.5030
  583.5000   128.0550     8.7464     8.8033
  584.0000   125.6026     8.9820     8.9258
  584.5000   124.3661     9.1057     8.9865
  585.0000   125.2571     9.1032     8.9842
  585.5000   126.4522     9.0375     8.9824
  586.0000   126.4314     8.9098     8.9805
  586.5000   125.1945     8.8454     8.9787
  587.0000   125.4780     8.6598     8.8524
  587.5000   128.4915     8.5375     8.7885
  588.0000   129.9957     8.4758     8.7867
  588.5000   127.5381     8.4145     8.6631
  589.0000   128.1253     8.4117     8.5412
  589.5000   130.2373     8.4689     8.4800
  590.0000   128.9956     8.5259     8.4783
  590.5000   126.8471     8.5832     8.5364
  591.0000   126.5224     8.6404     8.5945
  591.5000   127.7392     8.5780     8.7135
  592.0000   130.6496     8.5756     8.7113
  592.5000   131.3233     8.5733     8.6485
  593.0000   127.6499     8.3934     8.5268
  593.5000   127.9331     8.1558     8.3483
  594.0000   131.9718     7.8686     8.0602
  594.5000   133.6701     7.5526     7.7279
  595.0000   133.6441     7.2410     7.2557
  595.5000   134.2365     6.9422     6.8601
  596.0000   134.2105     6.7024     6.5315
  596.5000   133.2778     6.4258     6.3061
  597.0000     2.2592     6.1607     6.0885
  597.5000  -999.2500     5.7439     5.6369
  598.0000  -999.2500     4.8232     5.1467
  598.5000  -999.2500     4.2146     4.1731
  599.0000  -999.2500     3.4495     3.4796
  599.5000  -999.2500     2.7769     2.8214
  600.0000  -999.2500     2.3645     2.4023
  600.5000  -999.2500     2.2828     2.2872
  601.0000  -999.2500     2.3142     2.3515
  601.5000  -999.2500     2.4464     2.5387
  602.0000  -999.2500     2.7731     2.7218
  602.5000  -999.2500     3.2777     3.1071
  603.0000  -999.2500     3.6384     3.5226
  603.5000  -999.2500     3.8736     3.9107
  604.0000  -999.2500     3.9817     3.9653
