~VERSION INFORMATION
 VERS.                2.0:   CWLS LOG ASCII STANDARD - VERSION 2.0
 WRAP.                 NO:   ONE LINE PER DEPTH STEP
~WELL INFORMATION
#MNEM.UNIT      DATA TYPE    INFORMATION
#----------   ------------   ------------------------------
 STRT.F           66.0000:   START DEPTH
 STOP.F          814.0000:   STOP DEPTH
 STEP.F            0.5000:   STEP LENGTH
 NULL.          -999.2500:   NO VALUE
 COMP.   FLUOR DANIEL INC:   COMPANY
 WELL. NAVAL PETROLEUM RESERVE 3 SX-2 #32-11-2:   WELL
 FLD .        N.P.R NO. 3:   FIELD
 LOC .       S2 T38N R78W:   LOCATION
 CNTY.            NATRONA:   COUNTY
 STAT.            WYOMING:   STATE
 CTRY. UNITED STATES OF AMERICA:   COUNTRY
 SRVC.      Dresser Atlas:   SERVICE COMPANY
 DATE.        15-AUG-1985:   LOGDATE
 API .       490251104000:   API NUMBER
~CURVE INFORMATION
#MNEM.UNIT       API CODE    CURVE DESCRIPTION
#----------   ------------   ------------------------------
 DEPT.F                  :   
 SPR .MV     07 010 01 00:   SPONTANEOUS POTENTIAL
 RILD.OHMM   07 120 46 00:   INDUCTION LOG DEEP RESISTIVITY
 RILM.OHMM   07 120 44 00:   INDUCTION LOG MEDIUM RESISTIVITY
 RFOC.OHMM   07 220 04 00:   RESISTIVITY FOCUSED LOG
 PORD.DEC    45 890 12 00:   POROSITY DENSITY SANDSTONE
 CNC .DEC    42 890 03 00:   NEUTRON POROSITY SANDSTONE
 GRD .GAPI   45 310 01 00:   GAMMA RAY FROM DENSITY LOG
 CALD.IN     45 280 60 00:   CALIPER FROM DENSITY LOG
 CORR.G/C3   45 356 01 00:   DENSITY CORRECTION
 DEN .G/C3   45 350 01 00:   COMPENSATED BULK DENSTIY
~PARAMETER INFORMATION
#MNEM.UNIT          VALUE    DESCRIPTION
#----------   ------------   ------------------------------
 PD  .                 GL:   PERMANENT DATUM
 EPD .F              5113:   ELEVATION PERMANENT DATUM
 LMF .                 GL:   LOG MEASURED FROM
 DMF .                 GL:   DRILLING MEASURED FROM
 EGL .F              5113:   GROUND LEVEL
 DATE.            8-15-85:   RUN DATE
 RUN .                  1:   RUN NUMBER
 DD  .F               817:   DEPTH DRILLER
 DL  .F               817:   DEPTH LOGGER
 BLI .F               814:   BOTTOM LOG INTERVAL
 CS  .IN            8.625:   CASING SIZE
 CBD .F                79:   CASING BOTTOM DRILLER
 CBL .F                79:   CASING BOTTOM LOGGER
 BS  .IN            7.875:   BIT SIZE
 BSD .F               817:   BIT SIZE AT DEPTH
 DFT .          KCL WATER:   DRILLING FLUID TYPE
 MSS .               TANK:   MUD SAMPLE SOURCE
 RMS .OHMM            .25:   RESISTIVITY MUD SAMPLE
 MST .F                70:   MUD SAMPLE TEMPERATURE
 BHT .F               100:   BOTTOM HOLE TEMPERATURE
 TCS .HRS               2:   TIME CURCULATED STOPPED
 MRT .F               100:   MAXIMUM RECORDED TEMPERATURE
 LUN .            HL-6274:   LOGGING UNIT NUMBER
 LUL .           GILLETTE:   LOGGING UNIT LOCATION
 ENGI.             RAUTIO:   RECORDING ENGINEER
 WITN.           JENNINGS:   WITNESSED BY
 CLNT.            A2DTECH:   CLIENT CODE
 ORIG.       2", 5" PRINT:   ORIGIN OF DATA
 UWI .       490251104000:   UNIQUE WELL ID
 DICO. A2D Technologies, Inc.:   DIGITIZING COMPANY
~OTHER INFORMATION
~A   DEPT      SPR       RILD       RILM       RFOC       PORD        CNC        GRD       CALD       CORR        DEN   
# ...
   99.5000   -29.6537     5.4443     5.4694     5.5115     0.1676     0.3256    99.4127     8.2597     0.0191     2.3952
  100.0000   -29.8036     5.5628     5.5469     5.6674     0.1682     0.3223   101.8006     8.2574     0.0238     2.4003
  100.5000   -29.6100     5.5774     5.5694     5.7156     0.1637     0.3136   104.1885     8.2469     0.0403     2.4170
  101.0000   -29.4429     5.5920     5.5919     5.7638     0.1600     0.3142   105.3753     8.2364     0.0585     2.4133
  101.5000   -29.3448     5.6031     5.6145     5.8120     0.1606     0.3166   105.2803     8.2272     0.0661     2.4103
  102.0000   -29.1921     5.6045     5.6311     5.8318     0.1615     0.3196    98.1356     8.2718     0.0422     2.4096
  102.5000   -29.1906     5.5282     5.6326     5.7527     0.1609     0.3254    93.3467     8.2711     0.0393     2.4097
  103.0000   -28.8694     5.4910     5.5178     5.6363     0.1594     0.3343    93.0399     8.2705     0.0394     2.4111
  103.5000   -28.4309     5.4162     5.4051     5.5603     0.1591     0.3455    95.4315     8.2547     0.0380     2.4081
  104.0000   -28.1269     5.3795     5.2222     5.5182     0.1618     0.3572    93.6211     8.2541     0.0352     2.4029
  104.5000   -27.9741     5.0896     4.9755     5.4120     0.1663     0.3530    91.5103     8.2385     0.0368     2.3969
  105.0000   -27.9726     4.8151     4.7033     5.3021     0.1730     0.3470    92.4324     8.2379     0.0354     2.3909
  105.5000   -27.9712     4.5113     4.3930     5.1944     0.1766     0.3560    92.6943     8.2072     0.0340     2.3840
  106.0000   -27.9697     4.1625     4.0707     5.0187     0.1814     0.3783    89.6805     8.2066     0.0341     2.3744
  106.5000   -28.1230     3.9107     3.8249     4.6508     0.1853     0.3802    88.7710     8.2211     0.0283     2.3684
  107.0000   -28.4438     3.6997     3.5690     4.3700     0.1886     0.3590    89.0648     8.2356     0.0118     2.3609
  107.5000   -28.7214     3.4759     3.3768     4.2180     0.1935     0.3696    92.3573     8.2650    -0.0061     2.3459
  108.0000   -28.8716     3.3345     3.2624     3.9956     0.2110     0.3910    98.2462     8.3247    -0.0030     2.3264
  108.5000   -28.7184     3.2436     3.2406     3.8071     0.2206     0.3958   104.0496     8.3693     0.0078     2.3076
  109.0000   -28.5657     3.2669     3.2871     3.5775     0.2254     0.3892   106.7437     8.3084     0.0198     2.2994
  109.5000   -28.2617     3.4070     3.4280     3.3383     0.2242     0.3732   102.8312     8.2625     0.0215     2.3040
  110.0000   -28.1089     3.6532     3.6758     3.5060     0.2146     0.3684    99.2189     8.2318     0.0216     2.3220
  110.5000   -28.1074     3.8900     3.9689     4.5063     0.1826     0.3590    96.7948     8.2162     0.0217     2.3604
  111.0000   -28.1056     4.2002     4.2263     5.0468     0.1744     0.3376    94.9953     8.2156     0.0218     2.3822
  111.5000   -28.4067     4.4725     4.4692     5.2893     0.1723     0.3195    94.0858     8.2150     0.0284     2.3852
  112.0000   -28.5569     4.7294     4.7608     5.3651     0.1690     0.3060    93.7769     8.2145     0.0536     2.3957
  112.5000   -28.8580     5.0011     5.0795     5.4043     0.1618     0.3078    93.4679     8.2289     0.0748     2.4048
  113.0000   -29.0075     5.2566     5.3965     5.4439     0.1590     0.3156    93.1590     8.2282     0.0824     2.4093
  113.5000   -29.3086     5.4769     5.5889     5.5219     0.1660     0.3283    91.8869     8.2428     0.0645     2.4026
  114.0000   -29.6097     5.6326     5.6687     5.6800     0.1690     0.3298    88.3348     8.2724     0.0463     2.3966
  114.5000   -29.7751     5.7927     5.8300     5.8076     0.1690     0.3198    87.4274     8.2869     0.0106     2.3966
  115.0000   -30.0606     5.8751     5.9133     5.9259     0.1681     0.3083    91.3205     8.3012    -0.0103     2.3974
  115.5000   -30.0588     5.9586     5.9564     6.0109     0.1669     0.2936    92.5153     8.3005    -0.0147     2.3997
  116.0000   -30.0573     6.0433     6.0055     6.0971     0.1657     0.2945    91.0030     8.2848     0.0140     2.4019
  116.5000   -30.0558     6.1292     6.0853     6.1417     0.1639     0.3182    90.6940     8.2843     0.0367     2.4057
  117.0000   -30.0544     6.1462     6.1294     6.2732     0.1598     0.3276    92.7854     8.2837     0.0533     2.4102
  117.5000   -30.3555     6.1771     6.0881     6.3631     0.1530     0.3092    95.4794     8.2831     0.0309     2.4163
  118.0000   -30.5073     6.2080     6.0061     6.4169     0.1506     0.2905    96.0736     8.2825     0.0235     2.4217
  118.5000   -30.5038     6.2204     5.9248     6.4571     0.1554     0.2942    94.8616     8.2818     0.0296     2.4223
  119.0000   -30.3507     6.0932     5.7639     6.4593     0.1569     0.3352    92.4224     8.2963     0.0418     2.4178
  119.5000   -30.0467     5.9685     5.5203     6.3722     0.1590     0.3541    88.8362     8.3109     0.0555     2.4164
  120.0000   -29.7426     5.8059     5.1603     6.2858     0.1705     0.3575    86.4251     8.3254     0.0661     2.4104
  120.5000   -29.5899     5.5209     4.8151     6.0316     0.1952     0.3541    87.6177     8.3398     0.0692     2.3894
  121.0000   -29.4371     5.1249     4.5243     5.5469     0.2055     0.3345    90.0115     8.3090     0.0678     2.3597
  121.5000   -29.2844     4.6827     4.2510     4.7387     0.2047     0.3015    88.2010     8.2782     0.0619     2.3338
  122.0000   -29.2829     4.3994     4.0785     3.8431     0.1699     0.2941    78.7988     8.2776     0.0590     2.3368
  122.5000   -29.2811     4.1621     4.0796     3.5859     0.1324     0.2965    68.9624     8.2770     0.0333     2.3955
  123.0000   -29.2796     4.1052     4.1122     5.9588     0.1403     0.3155    68.3553     8.3066     0.0232     2.4511
  123.5000   -29.2782     4.1929     4.2559     7.2921     0.1545     0.3396    74.9512     8.3361     0.0564     2.4488
  124.0000   -29.2767     4.3442     4.3468     6.6643     0.1653     0.3336    82.1497     8.3355     0.0670     2.4248
  124.5000   -29.1239     4.4970     4.4395     5.2950     0.1704     0.3234    85.7447     8.3348     0.0326     2.4076
  125.0000   -28.9712     4.5927     4.5659     4.8382     0.1729     0.3116    88.4366     8.3342     0.0071     2.3963
  125.5000   -28.8184     4.6905     4.6634     4.8117     0.1725     0.3062    89.3289     8.3337    -0.0123     2.3888
  126.0000   -28.5144     4.7242     4.6972     4.8138     0.1692     0.3083    89.0200     8.3331    -0.0137     2.3866
  126.5000   -28.5126     4.7582     4.7312     4.8828     0.1689     0.3179    89.9123     8.3325    -0.0105     2.3904
  127.0000   -28.5111     4.7924     4.7328     4.9185     0.1716     0.3336    93.5072     8.3319    -0.0164     2.3911
  127.5000   -28.5096     4.7933     4.7671     4.9545     0.1734     0.3408    94.6998     8.3464    -0.0118     2.3888
  128.0000   -28.5082     4.7943     4.7684     4.9907     0.1743     0.3095    91.9863     8.3457     0.0142     2.3867
  128.5000   -28.6584     4.7623     4.7697     4.9925     0.1740     0.2962    92.2780     8.3603     0.0230     2.3867
  129.0000   -28.8079     4.7300     4.7710     4.9945     0.1734     0.2959    94.3715     8.3899     0.0036     2.3867
  129.5000   -28.8064     4.6984     4.7722     5.0310     0.1728     0.3052    95.8665     8.3891    -0.0023     2.3868
  130.0000   -28.8048     4.6665     4.7735     5.0678     0.1758     0.3164    94.0539     8.4187     0.0023     2.3868
  130.5000   -28.8031     4.5396     4.6766     5.0339     0.1792     0.3194    91.6426     8.4482     0.0100     2.3830
  131.0000   -28.8016     4.3853     4.3942     5.0361     0.1810     0.3230    92.8333     8.4475     0.0163     2.3756
  131.5000   -28.6488     4.1430     3.7200     5.0377     0.1837     0.3345    94.0280     8.4469     0.0222     2.3711
  132.0000   -28.3448     3.3448     3.0629     5.0045     0.2012     0.3729    92.8160     8.4162     0.0269     2.3643
  132.5000   -28.0408     2.8707     2.5929     4.9375     0.2187     0.4065    90.4050     8.4307     0.0345     2.3411
