~VERSION INFORMATION
 VERS.                2.0:   CWLS LOG ASCII STANDARD - VERSION 2.0
 WRAP.                 NO:   ONE LINE PER DEPTH STEP
~WELL INFORMATION
#MNEM.UNIT      DATA TYPE    INFORMATION
#----------   ------------   ------------------------------
 STRT.F          250.0000:   START DEPTH
 STOP.F         1798.0000:   STOP DEPTH
 STEP.F            0.5000:   STEP LENGTH
 NULL.          -999.2500:   NO VALUE
 COMP. BROWN JOHN E&C INC:   COMPANY
 WELL. NPR 3 STX-10 #57-10:   WELL
 FLD .  TEAPOT DOME NPR 3:   FIELD
 LOC .      S10 T38N R78W:   LOCATION
 CNTY.            NATRONA:   COUNTY
 STAT.            WYOMING:   STATE
 CTRY. UNITED STATES OF AMERICA:   COUNTRY
 SRVC.           BIRDWELL:   SERVICE COMPANY
 DATE.        24-FEB-1979:   LOGDATE
 API .       490251096900:   API NUMBER
~CURVE INFORMATION
#MNEM.UNIT       API CODE    CURVE DESCRIPTION
#----------   ------------   ------------------------------
 DEPT.F                  :   
 GRD .GAPI   45 310 01 00:   GAMMA RAY FROM DENSITY LOG
 CALD.IN     45 280 60 00:   CALIPER
 RHOB.G/C3   45 350 01 00:   BULK DENSITY
 DPHI.DEC    45 890 12 00:   DENSITY POROSITY SANDSTONE
 CORR.G/C3   45 356 01 00:   DENSITY CORRECTION
~PARAMETER INFORMATION
#MNEM.UNIT          VALUE    DESCRIPTION
#----------   ------------   ------------------------------
 PD  .                 GL:   PERMANENT DATUM
 EPD .F              5201:   ELEVATION PERMANENT DATUM
 LMF .                 KB:   LOG MEASURED FROM
 DAPD.F                10:   FEET ABOVE PERMANENT DATUM
 DMF .                 KB:   DRILLING MEASURED FROM
 EKB .F              5211:   KELLING BUSHING
 EGL .F              5201:   GROUND LEVEL
 RUN .                  1:   RUN NUMBER
 DD  .F              1802:   DEPTH DRILLER
 DL  .F              1793:   DEPTH LOGGER
 BLI .F              1793:   BOTTOM LOG INTERVAL
 TLI .F               250:   TOP LOG INTERVAL
 CS  .IN            9.625:   CASING SIZE
 CBD .F               500:   CASING BOTTOM DRILLER
 CBL .F               490:   CASING BOTTOM LOGGER
 BS  .IN             8.75:   BIT SIZE
 BSD .F              1802:   BIT SIZE AT DEPTH
 DFT .                OIL:   DRILLING FLUID TYPE
 BHT .F                90:   BOTTOM HOLE TEMPERATURE
 TCS .HRS               4:   TIME CURCULATED STOPPED
 MRT .F                90:   MAXIMUM RECORDED TEMPERATURE
 LUN .               3029:   LOGGING UNIT NUMBER
 LUL .             CASPER:   LOGGING UNIT LOCATION
 ENGI.            ROLLINS:   RECORDING ENGINEER
 WITN.              AMEND:   WITNESSED BY
 CLNT.            A2DTECH:   CLIENT CODE
 ORIG.       2", 5" PRINT:   ORIGIN OF DATA
 UWI .       490251096900:   UNIQUE WELL ID
 DICO. A2D Technologies, Inc.:   DIGITIZING COMPANY
~OTHER INFORMATION
~A   DEPT       GRD        CALD       RHOB       DPHI      CORR  
# ...
 1409.0000   129.6367     9.0480     2.6773    -0.0601     0.4041
 1409.5000   128.2383     9.0485     2.6468    -0.0261     0.3186
 1410.0000   126.7405     9.0333     2.5983    -0.0316     0.3335
 1410.5000   125.2645     9.0180     2.6099    -0.0429     0.3666
 1411.0000   123.8417     9.0028     2.6198    -0.0274     0.3348
 1411.5000   124.6579     8.9875     2.5902    -0.0073     0.2917
 1412.0000   130.8878     8.9723     2.5665     0.0100     0.2871
 1412.5000   137.0942     8.9571     2.5434     0.0108     0.3540
 1413.0000   140.1213     8.9419     2.5292     0.0056     0.4277
 1413.5000   131.1208     8.9267     2.5735    -0.0433     0.4905
 1414.0000   123.3090     8.9115     2.6073    -0.0282     0.4870
 1414.5000   118.2256     8.8962     2.6327     0.0001     0.3826
 1415.0000   119.4841     8.8810     2.5342     0.0284     0.1977
 1415.5000   120.0393     8.8658     2.4734     0.0477     0.0624
 1416.0000   119.1286     8.8506     2.4987     0.0196     0.0469
 1416.5000   117.8984     8.8354     2.5164     0.0269     0.0554
 1417.0000   116.6691     8.8201     2.5045     0.0320     0.0722
 1417.5000   116.2194     8.8049     2.4873     0.0376     0.0704
 1418.0000   119.1146     8.7895     2.4701     0.0512     0.0689
 1418.5000   121.7986     8.7746     2.4483     0.0609     0.1060
 1419.0000   123.2450     8.8122     2.4622     0.0397     0.1163
 1419.5000   120.7867     8.8574     2.4836     0.0272     0.1103
 1420.0000   119.1647     8.9028     2.5053     0.0193     0.1046
 1420.5000   120.6744     8.9480     2.5277     0.0115     0.0987
 1421.0000   125.1449     8.9933     2.5415     0.0040     0.0934
 1421.5000   129.5558     9.0386     2.5517    -0.0046     0.1410
 1422.0000   133.9232     9.0836     2.5836    -0.0167     0.2127
 1422.5000   137.4829     9.1284     2.6363    -0.0285     0.2572
 1423.0000   132.7655     9.1481     2.6248    -0.0289     0.2386
 1423.5000   125.2691     9.1323     2.5881    -0.0091     0.2155
 1424.0000   117.7316     9.1166     2.5518     0.0068     0.1833
 1424.5000   114.6283     9.1010     2.5408    -0.0091     0.2212
 1425.0000   116.5306     9.0711     2.5822    -0.0288     0.3153
 1425.5000   119.3749     9.0325     2.6317    -0.0485     0.3972
 1426.0000   122.2267     8.9938     2.6612    -0.0565     0.3798
 1426.5000   123.2909     8.9551     2.6504    -0.0466     0.3267
 1427.0000   122.0991     8.9164     2.6360    -0.0364     0.2721
 1427.5000   121.2080     8.8777     2.6158    -0.0160     0.1811
 1428.0000   120.2858     8.8389     2.5701     0.0050     0.0852
 1428.5000   119.3984     8.8002     2.5233     0.0184     0.0606
 1429.0000   118.4434     8.7615     2.5292    -0.0004     0.0573
 1429.5000   121.4142     8.7228     2.5487     0.0024     0.0539
 1430.0000   127.0496     8.6839     2.5433     0.0076     0.0414
 1430.5000   126.7925     8.6453     2.5339     0.0127     0.0279
 1431.0000   125.1655     8.6184     2.5242     0.0178     0.0144
 1431.5000   123.5643     8.6694     2.5146     0.0223     0.0058
 1432.0000   121.9635     8.7211     2.5049     0.0268     0.0122
 1432.5000   120.3325     8.7726     2.4950     0.0309     0.0277
 1433.0000   118.7076     8.8240     2.4955     0.0313     0.0426
 1433.5000   122.1164     8.8755     2.5042     0.0343     0.0573
 1434.0000   126.1578     8.9270     2.4776     0.0435     0.0715
 1434.5000   127.4782     8.9734     2.4873     0.0481     0.1065
 1435.0000   126.2983     8.9825     2.5088     0.0200     0.1405
 1435.5000   124.7289     8.9919     2.5252     0.0177     0.1448
 1436.0000   123.1049     9.0015     2.5265     0.0155     0.1417
 1436.5000   122.3867     9.0111     2.5326     0.0055     0.1417
 1437.0000   121.9912     9.0207     2.5538    -0.0086     0.1761
 1437.5000   121.6377     9.0303     2.5744    -0.0248     0.2059
 1438.0000   121.0320     9.0399     2.6052    -0.0073     0.1863
 1438.5000   114.8125     9.0495     2.5796     0.0133     0.1406
 1439.0000   110.8462     9.0590     2.5199     0.0457     0.0946
 1439.5000   110.5376     9.0686     2.4754     0.0412     0.0757
 1440.0000   113.8560     9.0782     2.4908     0.0311     0.0766
 1440.5000   119.0442     9.0878     2.5097     0.0210     0.1006
 1441.0000   122.2334     9.0975     2.5369     0.0108     0.1246
 1441.5000   120.6337     9.1069     2.5673     0.0006     0.1363
 1442.0000   119.8221     9.1121     2.5614    -0.0096     0.1064
 1442.5000   126.2868     9.0964     2.5514    -0.0104     0.0836
 1443.0000   127.9479     9.0811     2.5412     0.0132     0.0801
 1443.5000   124.5353     9.0658     2.5306     0.0179     0.0872
 1444.0000   120.2955     9.0505     2.5183     0.0199     0.1541
 1444.5000   116.8556     9.0352     2.5626    -0.0081     0.3088
 1445.0000   116.5658     9.0199     2.6728    -0.0443     0.3822
 1445.5000   116.5731     9.0046     2.6554    -0.0530     0.3633
 1446.0000   120.6403     8.9893     2.6207    -0.0318     0.2813
 1446.5000   126.0208     8.9740     2.5831    -0.0096     0.1990
 1447.0000   131.5822     8.9587     2.5457     0.0126     0.1173
 1447.5000   133.3989     8.9435     2.5084     0.0347     0.0332
 1448.0000   125.1229     8.9282     2.4691     0.0497     0.0031
 1448.5000   113.4843     8.9129     2.4666     0.0392     0.0128
 1449.0000   114.8115     8.8976     2.5081     0.0192     0.0505
 1449.5000   115.7027     8.8823     2.5538    -0.0040     0.1003
 1450.0000   110.0343     8.8670     2.5877     0.0035     0.0907
 1450.5000   119.2581     8.8528     2.5717     0.0183     0.0728
 1451.0000   116.9491     8.8711     2.5165     0.0331     0.0554
 1451.5000   114.2139     8.8971     2.4764     0.0441     0.0528
 1452.0000   120.6864     8.9232     2.4753     0.0457     0.0682
 1452.5000   124.5145     8.9495     2.4756     0.0457     0.0834
 1453.0000   122.0984     8.9725     2.4789     0.0343     0.0982
 1453.5000   124.2240     8.9462     2.4972     0.0186     0.1085
 1454.0000   127.8944     8.9193     2.5223     0.0033     0.1102
 1454.5000   125.5364     8.8926     2.5479    -0.0048     0.1023
 1455.0000   125.4271     8.8659     2.5559     0.0110     0.0950
 1455.5000   126.2656     8.8391     2.5277     0.0228     0.0876
 1456.0000   126.9367     8.8141     2.4996     0.0233     0.0822
 1456.5000   123.1849     8.8326     2.5136     0.0132     0.1183
 1457.0000   119.2550     8.8528     2.5389    -0.0002     0.1677
 1457.5000   115.3211     8.8728     2.5620    -0.0004     0.2170
 1458.0000   111.3247     8.8928     2.5745    -0.0157     0.2671
 1458.5000   120.0970     8.9128     2.5873    -0.0265     0.2915
 1459.0000   118.1282     8.9331     2.5995    -0.0272     0.2558
 1459.5000   112.5824     8.9526     2.5994    -0.0230     0.2209
 1460.0000   126.7682     8.9279     2.5977    -0.0112     0.1857
 1460.5000   125.3255     8.9002     2.5626     0.0006     0.1507
 1461.0000   126.1711     8.8726     2.5410     0.0036     0.1157
 1461.5000   124.8509     8.8450     2.5532    -0.0054     0.0910
 1462.0000   123.6765     8.8175     2.5643    -0.0007     0.0728
 1462.5000   122.7614     8.7900     2.5516     0.0088     0.0573
 1463.0000   122.5623     8.7625     2.5186     0.0182     0.0597
 1463.5000   122.3400     8.7349     2.5001     0.0231     0.0688
 1464.0000   121.9237     8.7073     2.5142     0.0248     0.0778
 1464.5000   120.6539     8.6797     2.5160     0.0265     0.0868
 1465.0000   119.4066     8.6525     2.5077     0.0252     0.0959
 1465.5000   118.1355     8.6379     2.5006     0.0224     0.1050
 1466.0000   117.1722     8.6683     2.5065     0.0196     0.1143
 1466.5000   122.2299     8.6974     2.5167     0.0168     0.1167
 1467.0000   127.5578     8.7265     2.5269     0.0140     0.1059
 1467.5000   150.4421     8.7556     2.5375     0.0116     0.0952
 1468.0000   172.7099     8.7847     2.5373     0.0192     0.0841
 1468.5000   195.0535     8.8138     2.5259     0.0256     0.0846
 1469.0000   199.4970     8.8429     2.5134     0.0272     0.0937
 1469.5000   199.4970     8.8721     2.5008     0.0241     0.1034
