~VERSION INFORMATION
 VERS.                2.0:   CWLS LOG ASCII STANDARD - VERSION 2.0
 WRAP.                 NO:   ONE LINE PER DEPTH STEP
~WELL INFORMATION
#MNEM.UNIT      DATA TYPE    INFORMATION
#----------   ------------   ------------------------------
 STRT.F           33.0000:   START DEPTH
 STOP.F         1374.0000:   STOP DEPTH
 STEP.F            0.5000:   STEP LENGTH
 NULL.          -999.2500:   NO VALUE
 COMP. FENIX & SCISSON INC:   COMPANY
 WELL.   NPR-3 "S" #84-14:   WELL
 FLD .             TEAPOT:   FIELD
 LOC .      S14 T38N R78W:   LOCATION
 CNTY.            NATRONA:   COUNTY
 STAT.            WYOMING:   STATE
 CTRY. UNITED STATES OF AMERICA:   COUNTRY
 SRVC.            Unknown:   SERVICE COMPANY
 DATE.        18-MAR-1978:   LOGDATE
 API .       490251060400:   API NUMBER
~CURVE INFORMATION
#MNEM.UNIT       API CODE    CURVE DESCRIPTION
#----------   ------------   ------------------------------
 DEPT.F                  :   
 SPR .MV     05 010 01 00:   SPONTANEOUS POTENTIAL FROM RES.
 SN  .OHMM   05 040 16 00:   SHORT NORMAL 16"
 ILD .OHMM   05 120 46 00:   INDUCTION LOG DEEP
 CALD.IN     45 280 60 00:   CALIPER
 GRD .GAPI   45 310 01 00:   GAMMA RAY FROM DENSITY LOG
 CORR.G/C3   45 356 01 00:   DENSITY CORRECTION
 RHOB.G/C3   45 350 01 00:   BULK DENSITY
 DPHI.DEC    45 890 00 00:   DENSITY POROSITY
~PARAMETER INFORMATION
#MNEM.UNIT          VALUE    DESCRIPTION
#----------   ------------   ------------------------------
 PD  .                 GL:   PERMANENT DATUM
 EPD .F              5314:   ELEVATION PERMANENT DATUM
 LMF .                 KB:   LOG MEASURED FROM
 DMF .                 KB:   DRILLING MEASURED FROM
 EKB .F              5318:   KELLING BUSHING
 EGL .F              5314:   GROUND LEVEL
 DATE.          3-18-1978:   RUN DATE
 RUN .                  1:   RUN NUMBER
 DD  .F              1375:   DEPTH DRILLER
 DL  .F              1380:   DEPTH LOGGER
 BLI .F              1374:   BOTTOM LOG INTERVAL
 TLI .F                50:   TOP LOG INTERVAL
 CS  .IN            8.625:   CASING SIZE
 CBD .F                40:   CASING BOTTOM DRILLER
 CBL .F                50:   CASING BOTTOM LOGGER
 BS  .IN            7.875:   BIT SIZE
 BSD .F              1375:   BIT SIZE AT DEPTH
 DFT .                KCL:   DRILLING FLUID TYPE
 DFD .                8.1:   DRILLING FLUID DENSITY
 DFV .                 31:   DRILLING FLUID VISCOSITY
 DFPH.                 10:   DRILLING FLUID PH
 DFL .                8.4:   DRILLING FLUID LOSS
 MSS .           FLOWLINE:   MUD SAMPLE SOURCE
 RMS .OHMM            .28:   RESISTIVITY MUD SAMPLE
 MST .F                62:   MUD SAMPLE TEMPERATURE
 RMF .OHMM            .26:   RESISTIVITY MUD FILTRATE SAMPLE
 MFST.F                67:   MUD FILTRATE SAMPLE TEMPERATURE
 RMC .OHMM            .36:   RESISTIVITY MUD CAKE
 MCST.F                70:   MUD CAKE SAMPLE TEMPERATURE
 MFSS.               MEAS:   MUD FILTRATE SAMPLE SOURCE
 RMB .OHMM            .22:   RESISTIVITY MUD AT BHT
 BHT .F                80:   BOTTOM HOLE TEMPERATURE
 TCS .HRS               4:   TIME CURCULATED STOPPED
 MRT .F                80:   MAXIMUM RECORDED TEMPERATURE
 LUN .               2958:   LOGGING UNIT NUMBER
 LUL .               CASP:   LOGGING UNIT LOCATION
 ENGI.             MILLER:   RECORDING ENGINEER
 WITN.           MCGINLEY:   WITNESSED BY
 CLNT.            A2DTECH:   CLIENT CODE
 ORIG.      2" & 5" PRINT:   ORIGIN OF DATA
 UWI .       490251060400:   UNIQUE WELL ID
 DICO. A2D Technologies, Inc.:   DIGITIZING COMPANY
~OTHER INFORMATION
~A   DEPT      SPR         SN        ILD       CALD         GRD      CORR       RHOB       DPHI   
# ...
  640.5000   -53.2196     5.0798     4.5299     7.5249   104.3003     0.0032     2.4337     0.1153
  641.0000   -53.4166     5.0799     4.5155     7.5255   104.2609     0.0060     2.4416     0.1138
  641.5000   -53.6210     5.0804     4.4930     7.5260   104.2562     0.0066     2.4428     0.1130
  642.0000   -53.5847     5.0578     4.4517     7.5266   104.2127     0.0061     2.4456     0.1115
  642.5000   -53.4854     5.0152     4.4108     7.5271   105.6209     0.0055     2.4505     0.1098
  643.0000   -53.5322     4.9724     4.3703     7.5277   107.2377     0.0048     2.4498     0.1145
  643.5000   -53.6645     4.9300     4.3301     7.5283   108.2302     0.0038     2.4425     0.1194
  644.0000   -54.0891     4.8881     4.2903     7.5288   109.0519     0.0028     2.4384     0.1183
  644.5000   -54.5507     4.8506     4.2236     7.5294   109.5640     0.0018     2.4385     0.1210
  645.0000   -54.6183     4.8550     4.2084     7.5299   106.9480     0.0008     2.4377     0.1221
  645.5000   -54.5553     4.8612     4.1848     7.5305   104.2134    -0.0002     2.4324     0.1234
  646.0000   -54.4919     4.8675     4.2431     7.5310   102.4437    -0.0010     2.4270     0.1210
  646.5000   -54.5506     4.8737     4.3622     7.5316   102.5624     0.0015     2.4217     0.1205
  647.0000   -54.8779     4.8800     4.4847     7.5321   102.6601     0.0041     2.4216     0.1222
  647.5000   -55.1934     4.8862     4.5472     7.5327   101.9823     0.0067     2.4282     0.1185
  648.0000   -55.5115     4.8956     4.3122     7.5332    99.6341     0.0084     2.4333     0.1150
  648.5000   -55.8427     4.6374     3.8424     7.5338    97.0589     0.0039     2.4193     0.1206
  649.0000   -55.6621     4.1612     3.4237     7.5343    87.9140    -0.0008     2.4400     0.1371
  649.5000   -55.3921     3.7339     3.0719     7.5349    78.0153     0.0047     2.3743     0.1878
  650.0000   -55.3334     3.3504     2.9270     7.5354    70.8858     0.0112     2.3247     0.1970
  650.5000   -55.4874     3.0511     2.6907     7.5360    80.2369     0.0163     2.2889     0.2062
  651.0000   -55.6312     2.8401     2.4736     7.5366    94.0438     0.0105     2.2964     0.1883
  651.5000   -55.1088     2.7882     2.3971     7.5371   107.8913     0.0053     2.3188     0.1817
  652.0000   -54.5020     2.9412     2.3397     7.5377   110.0406     0.0103     2.3317     0.1729
  652.5000   -54.0498     3.1389     2.4850     7.5382   110.8344     0.0048     2.3538     0.1557
  653.0000   -54.0855     3.3405     2.6860     7.5388   114.0358    -0.0020     2.3762     0.1469
  653.5000   -54.1103     3.5129     2.9764     7.5393   115.7376    -0.0066     2.3966     0.1405
  654.0000   -54.1341     4.0128     3.2981     7.5399   112.8442    -0.0044     2.3965     0.1384
  654.5000   -54.1584     4.3737     3.6547     7.5404   107.6483    -0.0029     2.3997     0.1382
  655.0000   -54.1826     4.5371     4.0331     7.5410   103.7737    -0.0050     2.4043     0.1371
  655.5000   -54.2068     4.7067     4.3541     7.5415   104.4982    -0.0081     2.4084     0.1362
  656.0000   -54.2310     4.8826     4.6319     7.5421   105.8561    -0.0089     2.4035     0.1343
  656.5000   -54.2565     5.0356     4.6319     7.5426   106.6776    -0.0082     2.4099     0.1322
  657.0000   -54.1814     5.1524     4.6319     7.5431   106.5526    -0.0073     2.4197     0.1302
  657.5000   -54.0630     5.2720     4.7231     7.5431   104.0394    -0.0065     2.4222     0.1270
  658.0000   -53.9440     5.3943     4.8754     7.5431   101.5579    -0.0057     2.4197     0.1244
  658.5000   -53.8250     5.5196     5.0331     7.5431    99.3428    -0.0049     2.4270     0.1218
  659.0000   -53.7053     5.6045     5.0331     7.5431    99.8874    -0.0041     2.4344     0.1192
  659.5000   -53.6088     5.6909     5.0819     7.5431   100.5435    -0.0033     2.4363     0.1167
  660.0000   -53.5282     5.7785     5.3510     7.5431   101.1798    -0.0031     2.4397     0.1154
  660.5000   -53.5270     5.9426     5.4689     7.5431   101.0062    -0.0036     2.4441     0.1197
  661.0000   -53.8642     5.9251     5.4422     7.5431   100.4671    -0.0041     2.4357     0.1186
  661.5000   -54.1950     5.8780     5.4196     7.5431   100.8301    -0.0046     2.4388     0.1162
  662.0000   -54.5272     5.8313     5.3971     7.5431   102.4012    -0.0049     2.4391     0.1173
  662.5000   -54.6270     5.7850     5.3687     7.5431   104.1891    -0.0045     2.4385     0.1171
  663.0000   -54.5583     5.7390     5.3683     7.5431   105.9757    -0.0040     2.4393     0.1156
  663.5000   -54.4922     5.6613     5.3699     7.5431   107.7557    -0.0036     2.4402     0.1176
  664.0000   -54.7085     5.5414     5.2188     7.5431   108.3553    -0.0032     2.4366     0.1209
  664.5000   -55.2724     5.4240     5.1094     7.5431   105.1805    -0.0027     2.4305     0.1238
  665.0000   -55.2960     5.3092     5.0548     7.5431   101.5433    -0.0023     2.4277     0.1218
  665.5000   -55.3459     5.1967     4.9781     7.5431   100.4697    -0.0019     2.4349     0.1166
  666.0000   -55.3967     5.0867     4.8965     7.5431    99.7893    -0.0014     2.4410     0.1197
  666.5000   -55.4645     4.9327     4.6490     7.5431    99.2512    -0.0010     2.4306     0.1233
  667.0000   -56.0418     4.7398     4.3911     7.5431    99.9199    -0.0021     2.4289     0.1270
  667.5000   -56.6507     4.5545     4.1926     7.5431   101.2291    -0.0029     2.4181     0.1317
  668.0000   -57.0531     4.3764     3.9215     7.5431   103.7688     0.0002     2.4056     0.1399
  668.5000   -57.0575     4.2050     3.9235     7.5431   105.3415     0.0033     2.3938     0.1434
  669.0000   -56.6476     4.1357     3.9227     7.5431   106.6363     0.0065     2.3955     0.1411
  669.5000   -56.1219     4.0693     3.9228     7.5431   109.0280     0.0044     2.4003     0.1378
  670.0000   -55.5795     4.1776     3.9232     7.5431   109.8810    -0.0020     2.4100     0.1284
  670.5000   -55.4559     4.3342     3.9239     7.5431   107.3339    -0.0008     2.4333     0.1175
  671.0000   -55.4521     4.4962     3.9211     7.5431   104.3145     0.0019     2.4375     0.1090
  671.5000   -55.4530     4.6638     4.0880     7.5431   101.2351     0.0030     2.4536     0.1090
  672.0000   -55.4535     4.7619     4.2957     7.5431   100.0339     0.0017     2.4543     0.1090
  672.5000   -55.4534     4.7244     4.5054     7.5431    99.9313     0.0001     2.4526     0.1115
  673.0000   -55.4529     4.6884     4.5147     7.5431    99.8388    -0.0016     2.4523     0.1146
  673.5000   -55.4528     4.6748     4.5295     7.5431    99.7505    -0.0032     2.4466     0.1174
  674.0000   -55.4930     4.7147     4.5444     7.5431    99.6593    -0.0048     2.4406     0.1213
  674.5000   -55.8369     4.7619     4.5716     7.5431    99.5631    -0.0064     2.4349     0.1252
  675.0000   -56.1857     4.7369     4.6319     7.5431    99.5087    -0.0080     2.4251     0.1292
  675.5000   -56.5349     4.6752     4.5689     7.5431   100.4702    -0.0072     2.4147     0.1331
  676.0000   -56.8389     4.6143     4.4653     7.5431   101.4659    -0.0024     2.4105     0.1370
  676.5000   -56.6781     4.4777     4.3824     7.5431   102.2941     0.0023     2.4110     0.1374
  677.0000   -57.3395     4.2934     4.0731     7.5431   102.4870     0.0070     2.4082     0.1386
  677.5000   -58.2178     4.1438     3.7806     7.5431   102.3039     0.0037     2.4062     0.1468
  678.0000   -58.0034     3.9930     3.5090     7.5431   102.0350    -0.0004     2.3844     0.1657
  678.5000   -57.8707     3.7372     3.1773     7.5431   101.8676    -0.0031     2.3581     0.1846
  679.0000   -58.6714     3.4316     2.8401     7.5431   101.8703    -0.0005     2.3314     0.1928
  679.5000   -59.4141     3.1505     2.8401     7.5431   101.8698     0.0104     2.3036     0.1994
  680.0000   -58.6981     3.0296     2.8401     7.5431   101.8595     0.0221     2.3165     0.1816
  680.5000   -58.5028     3.0430     2.8401     7.5431   102.3238     0.0229     2.3522     0.1588
