~VERSION INFORMATION
 VERS.                2.0:   CWLS LOG ASCII STANDARD - VERSION 2.0
 WRAP.                 NO:   ONE LINE PER DEPTH STEP
~WELL INFORMATION
#MNEM.UNIT      DATA TYPE    INFORMATION
#----------   ------------   ------------------------------
 STRT.F           24.0000:   START DEPTH
 STOP.F          464.0000:   STOP DEPTH
 STEP.F            0.5000:   STEP LENGTH
 NULL.          -999.2500:   NO VALUE
 COMP.    FENIX & SCISSON:   COMPANY
 WELL.       NPR #62-S-10:   WELL
 FLD .             TEAPOT:   FIELD
 LOC .      S10 T38N R78W:   LOCATION
 CNTY.            NATRONA:   COUNTY
 STAT.            WYOMING:   STATE
 CTRY. UNITED STATES OF AMERICA:   COUNTRY
 SRVC.              Welex:   SERVICE COMPANY
 DATE.        12-APR-1977:   LOGDATE
 API .       490251033300:   API NUMBER
~CURVE INFORMATION
#MNEM.UNIT       API CODE    CURVE DESCRIPTION
#----------   ------------   ------------------------------
 DEPT.F                  :   
 SPR .MV     07 010 01 00:   SPONTANEOUS POTENTIAL
 ILD .OHMM   07 120 46 00:   INDUCTION LOG DEEP
 ILM .OHMM   07 120 44 00:   INDUCTION LOG MEDIUM
 SGRD.OHMM   07 221 05 00:   SHALLOW SHORT GUARD RESISTIVITY
 GRD .GAPI   45 310 01 00:   GAMMA RAY FROM DENSITY LOG
 CALD.IN     45 280 60 00:   CALIPER FROM DENSITY LOG
 CORR.G/C3   45 356 01 00:   DENSITY CORRECTION
 RHOB.G/C3   45 350 01 00:   BULK DENSITY
 DPHI.DEC    45 890 12 00:   DENSITY POROSITY SANDSTONE
~PARAMETER INFORMATION
#MNEM.UNIT          VALUE    DESCRIPTION
#----------   ------------   ------------------------------
 PD  .                 GL:   PERMANENT DATUM
 EPD .F              5155:   ELEVATION PERMANENT DATUM
 LMF .                 GL:   LOG MEASURED FROM
 DMF .                 GL:   DRILLING MEASURED FROM
 EGL .F              5155:   GROUND LEVEL
 DATE.        12-APR-1977:   RUN DATE
 RUN .                  1:   RUN NUMBER
 DD  .F               460:   DEPTH DRILLER
 DL  .F               464:   DEPTH LOGGER
 BLI .F               462:   BOTTOM LOG INTERVAL
 TLI .F                30:   TOP LOG INTERVAL
 CS  .IN            8.625:   CASING SIZE
 BS  .IN            7.875:   BIT SIZE
 BSD .F               460:   BIT SIZE AT DEPTH
 DFT .            KCL GEL:   DRILLING FLUID TYPE
 DFD .                8.8:   DRILLING FLUID DENSITY
 TCS .HRS            0100:   TIME CURCULATED STOPPED
 MRT .F                65:   MAXIMUM RECORDED TEMPERATURE
 ENGI.        E. CALLAHAN:   RECORDING ENGINEER
 WITN.            R. LYON:   WITNESSED BY
 CLNT.            A2DTECH:   CLIENT CODE
 ORIG.           5" PRINT:   ORIGIN OF DATA
 UWI .       490251033300:   UNIQUE WELL ID
 DICO. A2D Technologies, Inc.:   DIGITIZING COMPANY
~OTHER INFORMATION
~A   DEPT      SPR        ILD        ILM       SGRD        GRD       CALD       CORR       RHOB       DPHI   
# ...
  425.5000   -26.6882     7.8691     9.1250     9.8155   119.7857     8.0671     0.0437     2.5249     0.0786
  426.0000   -26.8194     7.9842     9.2015    12.4257   118.9835     8.0683     0.0377     2.5228     0.0798
  426.5000   -26.7940     8.1010     9.3991    12.8700   117.8036     8.0697     0.0317     2.5183     0.0822
  427.0000   -27.1124     8.2221     9.6009    13.2383   117.8233     8.0709     0.0272     2.5131     0.0852
  427.5000   -27.9552     8.3985     9.8752    13.5234   118.7173     8.0721     0.0258     2.5057     0.0875
  428.0000   -28.0660     8.6391    10.1582    13.9104   120.9618     8.0580     0.0228     2.5012     0.0920
  428.5000   -27.7423     8.8099    10.3785    13.7921   122.0068     8.0594     0.0229     2.5020     0.0932
  429.0000   -27.4207     9.1037    10.6772    13.8288   121.1028     8.0606     0.0231     2.5059     0.0893
  429.5000   -27.2472     9.3964    10.9088    13.8625   119.7490     8.0618     0.0277     2.5112     0.0844
  430.0000   -27.8201     9.4671    11.0685    13.8963   119.5958     8.0630     0.0335     2.5211     0.0802
  430.5000   -28.3929     9.4726    11.0763    14.0118   121.6903     8.0791     0.0396     2.5325     0.0760
  431.0000   -28.5241     9.6103    11.1610    14.2136   120.0356     8.0803     0.0457     2.5416     0.0714
  431.5000   -27.8969     9.6827    11.2463    14.6193   121.5304     8.0815     0.0487     2.5418     0.0669
  432.0000   -27.1264     9.6883    11.3323    15.1409   121.9768     8.0976     0.0503     2.5334     0.0687
  432.5000   -26.5052     9.6939    11.4189    16.6870   118.9739     8.0988     0.0473     2.5206     0.0771
  433.0000   -26.3379     9.6325    11.5062    15.7974   121.5171     8.0850     0.0458     2.5200     0.0816
  433.5000   -26.6122     9.5717    11.5942    14.4450   121.0629     8.0862     0.0429     2.5239     0.0785
  434.0000   -27.0298     9.5772    11.6023    14.0572   119.7091     8.0577     0.0414     2.5119     0.0863
  434.5000   -27.1609     9.5164    11.5283    13.9651   119.1049     8.0290     0.0430     2.5014     0.0899
  435.0000   -26.9815     9.5221    11.5384    13.9731   118.1709     8.0301     0.0445     2.5000     0.0920
  435.5000   -26.5095     9.5277    11.4648    14.0767   114.7481     8.0160     0.0476     2.5023     0.0929
  436.0000   -26.1869     9.5332    11.3937    14.6802   116.9986     8.0175     0.0506     2.5069     0.0889
  436.5000   -26.4612     9.4729    11.2469    14.6870   114.8882     8.0187     0.0492     2.5010     0.0919
  437.0000   -26.8848     9.4784    11.1000    14.3919   113.5355     8.0199     0.0447     2.4920     0.0943
  437.5000   -27.3383     9.4839    11.0293    14.0054   116.6784     8.0211     0.0447     2.4913     0.0964
  438.0000   -27.5888     9.4894    10.9608    13.7224   117.2748     8.0372     0.0463     2.4952     0.0958
  438.5000   -27.1055     9.4293    10.8177    13.8257   117.4203     8.0384     0.0480     2.4968     0.0942
  439.0000   -26.4915     9.4348    10.6783    13.7367   117.2648     8.0246     0.0509     2.4976     0.0954
  439.5000   -26.1730     9.3091    10.4662    13.5542   117.2604     8.0407     0.0479     2.4924     0.1011
  440.0000   -26.4474     9.0613    10.1876    13.1902   117.4058     8.0419     0.0465     2.4857     0.1065
  440.5000   -26.5731     8.8189     9.6457    12.4856   118.4509     8.0431     0.0450     2.4730     0.1134
  441.0000   -26.6985     8.4649     9.1326    11.5759   120.6953     8.0293     0.0435     2.4527     0.1191
  441.5000   -26.3749     7.8485     8.7342    10.9575   123.8393     8.0457     0.0436     2.4347     0.1272
  442.0000   -26.0522     7.3277     8.1691    10.4146   126.6834     8.0469     0.0451     2.4167     0.1374
  442.5000   -25.8788     6.6544     7.6253     9.9274   128.6280     8.0481     0.0512     2.3950     0.1515
  443.0000   -25.7054     5.7571     6.8785     9.3979   130.4227     8.0493     0.0663     2.3694     0.1684
  443.5000   -25.9797     5.3011     6.1669     8.8854   132.8171     8.0654     0.0708     2.3634     0.1790
  444.0000   -26.5526     4.8475     5.5683     8.2290   135.8231     8.0666     0.0634     2.3296     0.1918
  444.5000   -26.6837     4.3416     5.0665     7.2196   135.6206     8.0828     0.0514     2.2897     0.2071
  445.0000   -26.5042     3.7303     4.3790     5.9186   134.0530     8.0839     0.0289     2.2726     0.2241
  445.5000   -26.3308     3.3875     4.0609     4.8180   130.8600     8.0851     0.0229     2.2885     0.2265
  446.0000   -25.7096     3.1847     3.5141     3.6993   125.8972     8.0863     0.0290     2.3413     0.1958
  446.5000   -25.5362     3.0358     3.4205     3.2564   114.3485     8.0875     0.0410     2.4114     0.1528
  447.0000   -25.9598     3.0161     3.5928     3.5213    79.6598     8.0886     0.0531     2.4589     0.1161
  447.5000   -26.6819     3.0604     3.9611     4.5167  -999.2500     8.0749     0.0532     2.5011     0.0971
  448.0000   -26.9623     3.1482     4.9463     5.0451  -999.2500     8.0611     0.0532     2.4982     0.0932
  448.5000   -26.3403     3.3065     5.5293     9.9253  -999.2500     8.0623     0.0532     2.4990     0.0983
  449.0000   -25.8687     3.5703     5.9708    10.3663  -999.2500     8.0637     0.0533     2.5021     0.0952
  449.5000   -25.6955     4.0186     6.4923     9.9335  -999.2500     8.0649     0.0518     2.5067     0.0922
  450.0000   -25.8266     4.7480     7.0319     9.4179  -999.2500     8.0661     0.0519     2.5083     0.0910
  450.5000   -26.4179     5.1268     7.6759     9.9045  -999.2500     8.0672     0.0504     2.5031     0.0922
  451.0000   -26.2687     5.5743     8.0624    10.6257  -999.2500     8.0684     0.0490     2.4971     0.0954
  451.5000   -25.9701     6.1453     8.2372    11.3834  -999.2500     8.0696     0.0490     2.4904     0.0978
  452.0000   -25.8209     6.6817     8.4743    11.6123  -999.2500     8.0555     0.0476     2.4898     0.0981
  452.5000   -26.2687     6.9211     8.7181    11.6176  -999.2500     8.0417     0.0431     2.4883     0.0993
  453.0000   -26.8657     6.9732     8.9072    11.7100  -999.2500     8.0432     0.0371     2.4854     0.1014
  453.5000   -26.8657     6.9773     9.1003    11.7903  -999.2500     8.0444     0.0326     2.4840     0.1034
  454.0000   -26.8657     7.1270     9.3622    11.3946  -999.2500     8.0455     0.0297     2.4848     0.1040
  454.5000   -26.8657     7.3408     9.3687    11.4840  -999.2500     8.0467     0.0297     2.4871     0.1024
  455.0000   -26.8657     7.7179     9.3752    11.7298  -999.2500     8.0479     0.0343     2.4880     0.1009
  455.5000   -27.3134     8.2917     9.3154    11.8122  -999.2500     8.0491     0.0403     2.4865     0.1003
  456.0000   -27.9104     9.8297     9.1937    11.7361  -999.2500     8.0353     0.0434     2.4836     0.1057
  456.5000   -28.6567    13.8460     9.1366    11.7479  -999.2500     8.0218     0.0480     2.4746     0.1123
  457.0000   -29.7015    17.1503     9.1445    12.1633  -999.2500     8.0230     0.0525     2.4574     0.1177
  457.5000   -30.7463    18.7591     9.1508    12.0799  -999.2500     8.0241     0.0558     2.4537     0.1186
  458.0000   -30.4478    20.1112     9.1572    11.2018  -999.2500     8.0253     0.0622     2.4688     0.1125
  458.5000   -29.8507    22.2554     9.2271    11.6835  -999.2500     8.0265     0.0722     2.4666     0.1137
  459.0000   -29.4030    44.6109     9.6918    11.9327  -999.2500     8.0277     0.0798     2.4554     0.1194
  459.5000   -29.4030   159.6158    10.7593    11.9382  -999.2500     8.0438     0.0888     2.4427     0.1278
  460.0000   -30.0000   193.8542    13.3113    11.7795  -999.2500     8.0600     0.1009     2.4224     0.1428
  460.5000   -30.8955   128.9277  -999.2500    11.7037  -999.2500     8.0612     0.1115     2.4022     0.1566
  461.0000   -31.0448    30.9777  -999.2500    11.4685  -999.2500     8.0471     0.1251     2.3630     0.1596
  461.5000   -30.5970    30.1445  -999.2500    10.7811  -999.2500     8.0335     0.1311     2.3488     0.1602
