~VERSION INFORMATION
 VERS.                2.0:   CWLS LOG ASCII STANDARD - VERSION 2.0
 WRAP.                 NO:   ONE LINE PER DEPTH STEP
~WELL INFORMATION
#MNEM.UNIT      DATA TYPE    INFORMATION
#----------   ------------   ------------------------------
 STRT.F            0.0000:   START DEPTH
 STOP.F          978.0000:   STOP DEPTH
 STEP.F            0.5000:   STEP LENGTH
 NULL.          -999.2500:   NO VALUE
 COMP. FENIX & SCISSON INC:   COMPANY
 WELL. N.P.R #3 SX-14 #53:   WELL
 FLD .             TEAPOT:   FIELD
 LOC .      S14 T38N R78W:   LOCATION
 CNTY.            NATRONA:   COUNTY
 STAT.            WYOMING:   STATE
 CTRY. UNITED STATES OF AMERICA:   COUNTRY
 SRVC.              Welex:   SERVICE COMPANY
 DATE.        06-MAR-1977:   LOGDATE
 API .       490251029800:   API NUMBER
~CURVE INFORMATION
#MNEM.UNIT       API CODE    CURVE DESCRIPTION
#----------   ------------   ------------------------------
 DEPT.F                  :   
 SPR .MV     07 010 01 00:   SPONTANEOUS POTENTIAL
 SGRD.OHMM   07 220 05 00:   SHALLOW RESISTIVITY
 ILD .OHMM   07 120 46 00:   INDUCTION LOG DEEP
 ILM .OHMM   07 120 44 00:   INDUCTION LOG MEDIUM
 GRD .GAPI   45 310 01 00:   GAMMA RAY FROM DENSITY LOG
 CALD.IN     45 280 60 00:   CALIPER
 RHOB.G/C3   45 350 01 00:   BULK DENSITY
 DPHI.DEC    45 890 12 00:   DENSITY POROSITY SANDSTONE
 CORR.G/C3   45 356 01 00:   DENSITY CORRECTION
~PARAMETER INFORMATION
#MNEM.UNIT          VALUE    DESCRIPTION
#----------   ------------   ------------------------------
 PD  .                 GL:   PERMANENT DATUM
 EPD .F              5230:   ELEVATION PERMANENT DATUM
 LMF .                 GL:   LOG MEASURED FROM
 DMF .                 GL:   DRILLING MEASURED FROM
 EGL .F              5230:   GROUND LEVEL
 DATE.             3-6-77:   RUN DATE
 RUN .                  1:   RUN NUMBER
 DD  .F               989:   DEPTH DRILLER
 DL  .F               980:   DEPTH LOGGER
 BLI .F               978:   BOTTOM LOG INTERVAL
 TLI .F                50:   TOP LOG INTERVAL
 CS  .IN            8.625:   CASING SIZE
 CBD .F                42:   CASING BOTTOM DRILLER
 CBL .F                42:   CASING BOTTOM LOGGER
 BS  .IN            7.875:   BIT SIZE
 BSD .F               989:   BIT SIZE AT DEPTH
 DFT .            KCL MUD:   DRILLING FLUID TYPE
 DFD .                8.4:   DRILLING FLUID DENSITY
 DFV .                 30:   DRILLING FLUID VISCOSITY
 DFPH.                7.2:   DRILLING FLUID PH
 DFL .               14.4:   DRILLING FLUID LOSS
 MSS .            MUD PIT:   MUD SAMPLE SOURCE
 RMS .OHMM            .41:   RESISTIVITY MUD SAMPLE
 MST .F                48:   MUD SAMPLE TEMPERATURE
 RMF .OHMM            .39:   RESISTIVITY MUD FILTRATE SAMPLE
 MFST.F                48:   MUD FILTRATE SAMPLE TEMPERATURE
 RMC .OHMM            .55:   RESISTIVITY MUD CAKE
 MCST.F                48:   MUD CAKE SAMPLE TEMPERATURE
 MFSS.           FANN KIT:   MUD FILTRATE SAMPLE SOURCE
 MCSS.           FANN KIT:   MUD CAKE SAMPLE SOURCE
 RMB .OHMM            .34:   RESISTIVITY MUD AT BHT
 BHT .F                58:   BOTTOM HOLE TEMPERATURE
 TCS .HRS               2:   TIME CURCULATED STOPPED
 MRT .F                58:   MAXIMUM RECORDED TEMPERATURE
 LUN .               8611:   LOGGING UNIT NUMBER
 LUL .           GILLETTE:   LOGGING UNIT LOCATION
 ENGI.            C. DOAK:   RECORDING ENGINEER
 WITN.           S. BURKE:   WITNESSED BY
 CLNT.            A2DTECH:   CLIENT CODE
 ORIG.        2" 5" PRINT:   ORIGIN OF DATA
 UWI .       490251029800:   UNIQUE WELL ID
 DICO. A2D Technologies, Inc.:   DIGITIZING COMPANY
~OTHER INFORMATION
~A    DEPT     SPR       SGRD        ILD        ILM        GRD       CALD       RHOB       DPHI       CORR   
# ...
  401.5000   -43.0947     9.1429     6.5874     7.2004   116.7607     7.7829     2.4941     0.0940     0.0325
  402.0000   -43.1397     8.9633     6.5230     7.1511   118.6486     7.7829     2.4771     0.1030     0.0313
  402.5000   -43.1846     8.7872     6.5808     7.2014   116.3706     7.7829     2.4683     0.1069     0.0312
  403.0000   -43.2296     8.5142     6.6289     7.2634   113.7716     7.7833     2.4664     0.1088     0.0338
  403.5000   -43.2746     8.6388     6.6773     7.6092   105.8614     7.7838     2.4695     0.1074     0.0365
  404.0000   -43.3195     8.8261     6.7260     8.1169    95.5118     7.7843     2.4753     0.1037     0.0416
  404.5000   -43.3645    11.5016     6.7750     8.6584    98.1764     7.7848     2.4811     0.1000     0.0462
  405.0000   -43.4095    20.6946     6.8244     9.2551   105.1651     7.7853     2.4823     0.0992     0.0447
  405.5000   -43.4544    16.0242     6.8931     8.7613   111.5837     7.7857     2.4802     0.1008     0.0431
  406.0000   -43.4994     9.6867     6.8670     7.8346   112.8786     7.7862     2.4780     0.1024     0.0415
  406.5000   -43.5444     8.6720     6.8248     7.6240   114.9556     7.7867     2.4757     0.1041     0.0399
  407.0000   -43.5893     9.1179     6.7829     7.5717   119.4781     7.7872     2.4742     0.1044     0.0384
  407.5000   -43.6343     9.5937     6.7413     7.5221   120.5959     7.7877     2.4750     0.1040     0.0377
  408.0000   -43.6793     9.4304     6.6999     7.4727   117.8216     7.7882     2.4757     0.1033     0.0371
  408.5000   -43.7241     9.1632     6.6588     7.4233   112.5107     7.7887     2.4771     0.1025     0.0365
  409.0000   -43.7502     9.3052     6.6179     7.3743   111.2792     7.7892     2.4792     0.1017     0.0358
  409.5000   -43.7500     9.4926     6.5771     7.3256   111.8219     7.7897     2.4812     0.1010     0.0352
  410.0000   -43.7500     9.5920     6.5237     7.2773   111.4104     7.7902     2.4832     0.1002     0.0346
  410.5000   -43.7500     9.0826     6.5420     7.2292   110.7577     7.7907     2.4852     0.0994     0.0369
  411.0000   -43.7500     8.9964     6.5705     7.1815   111.6479     7.7912     2.4871     0.0966     0.0405
  411.5000   -43.7500     8.9964     6.5988     7.1341   112.8869     7.7916     2.4934     0.0929     0.0442
  412.0000   -43.7500     8.9964     6.6273     7.0857   110.1504     7.7922     2.5003     0.0892     0.0479
  412.5000   -43.7500     8.9943     6.6472     7.2050   107.8055     7.7926     2.5069     0.0855     0.0516
  413.0000   -43.7500     9.2279     6.6617     7.3297   109.8825     7.7931     2.5024     0.0874     0.0540
  413.5000   -43.7500     9.5221     6.6759     7.4566   114.6184     7.7936     2.4952     0.0914     0.0522
  414.0000   -43.7500     9.8267     6.6902     7.6258   118.2542     7.7941     2.4878     0.0953     0.0505
  414.5000   -43.7500    10.0445     6.7046     7.5820   121.1011     7.7946     2.4851     0.0970     0.0488
  415.0000   -43.7500     9.7103     6.7190     7.5191   123.2382     7.7951     2.4850     0.0981     0.0470
  415.5000   -43.7500     9.4617     6.7335     7.4567   122.1248     7.7956     2.4826     0.0992     0.0453
  416.0000   -43.7499     9.2182     6.7482     7.3948   118.9332     7.7961     2.4766     0.1000     0.0436
  416.5000   -43.7488     9.0464     6.7673     7.3335   115.3892     7.7966     2.4706     0.1054     0.0419
  417.0000   -43.7894     8.9667     6.7105     7.2727   111.9945     7.7971     2.4644     0.1087     0.0402
  417.5000   -43.8340     8.8876     6.6213     7.2170   113.2598     7.7976     2.4648     0.1083     0.0384
  418.0000   -43.8785     8.8406     6.5332     7.2996   114.7514     7.7980     2.4672     0.1079     0.0367
  418.5000   -43.9230     9.1639     6.4464     7.4186   115.7935     7.7985     2.4702     0.1069     0.0375
  419.0000   -43.9674     9.4271     6.3607     7.3646   116.1868     7.7990     2.4757     0.1037     0.0390
  419.5000   -44.0118     9.5937     6.2761     7.2672   116.4598     7.7995     2.4811     0.1006     0.0405
  420.0000   -44.0563     9.1564     6.1926     7.1711   118.3925     7.8000     2.4865     0.0974     0.0419
  420.5000   -44.1007     8.8034     6.1103     7.0763   120.3832     7.8005     2.4922     0.0931     0.0434
  421.0000   -44.1451     8.6156     6.0291     6.9827   120.5244     7.8010     2.4995     0.0879     0.0448
  421.5000   -44.1895     8.4591     5.9489     6.8904   118.9629     7.8015     2.5069     0.0826     0.0463
  422.0000   -44.2340     8.3046     5.8698     6.7992   117.3915     7.8020     2.5142     0.0777     0.0477
  422.5000   -44.2784     8.2061     5.7918     6.7059   117.4989     7.8024     2.5179     0.0793     0.0492
  423.0000   -44.3228     8.3594     5.7148     6.7059   117.8327     7.7998     2.5141     0.0809     0.0506
  423.5000   -44.3453     8.2538     5.6842     6.7998   116.4880     7.7914     2.5141     0.0801     0.0521
  424.0000   -44.3453     8.0534     5.8967     6.9201   115.1579     7.7830     2.5233     0.0732     0.0536
  424.5000   -44.3453     8.3740     6.0528     7.0425   114.2745     7.7746     2.5318     0.0695     0.0550
  425.0000   -44.3452     8.8927     6.2130     7.1670   114.8372     7.7662     2.5343     0.0681     0.0565
  425.5000   -44.3452     9.4390     6.3775     7.2938   115.0860     7.7578     2.5351     0.0665     0.0580
  426.0000   -44.3452    10.0445     6.5463     7.4228   113.7120     7.7494     2.5261     0.0712     0.0570
  426.5000   -44.3452     9.8400     6.7196     7.5576   111.8774     7.7410     2.5146     0.0798     0.0551
  427.0000   -44.3452     9.5781     6.8975     7.5542   111.1390     7.7326     2.5033     0.0884     0.0531
  427.5000   -44.3452     9.3330     7.0801     7.8694   110.4101     7.7240     2.4919     0.0947     0.0512
  428.0000   -44.3452     9.5908     7.2682     8.1017   109.3833     7.7287     2.4867     0.0970     0.0493
  428.5000   -44.3452     9.9390     7.4588     8.3413   103.4516     7.7352     2.4847     0.0978     0.0483
  429.0000   -44.3452    12.9049     7.5583     8.5855    97.7181     7.7417     2.4827     0.0987     0.0483
  429.5000   -44.3452    23.3305     7.5610     8.8327    94.3619     7.7483     2.4806     0.0995     0.0483
  430.0000   -44.3452    17.0130     7.5629     8.3708    97.9921     7.7547     2.4786     0.1004     0.0483
  430.5000   -44.3452    11.2565     7.3259     8.1017   106.0834     7.7613     2.4771     0.1012     0.0483
  431.0000   -44.3452     8.9964     7.1121     8.0256   110.6239     7.7678     2.4800     0.1003     0.0505
  431.5000   -44.3452     8.9015     6.9005     7.8755   114.1697     7.7743     2.4830     0.0992     0.0531
  432.0000   -44.3452     8.8522     6.6951     7.6401   113.3131     7.7808     2.4887     0.0942     0.0558
  432.5000   -44.3452     8.8032     6.4959     7.4118   112.2554     7.7873     2.4948     0.0887     0.0560
  433.0000   -44.3452     8.7520     6.3709     7.3508   113.3979     7.7938     2.5009     0.0851     0.0556
  433.5000   -44.3452     8.6961     6.2884     7.3622   115.4183     7.8003     2.5070     0.0827     0.0551
  434.0000   -44.3452     8.4843     6.3573     7.3773   116.7350     7.8068     2.5132     0.0804     0.0547
  434.5000   -44.3452     8.2828     6.4286     7.3925   116.6463     7.8133     2.5149     0.0797     0.0542
  435.0000   -44.3452     8.4363     6.5007     7.4075   115.0483     7.8198     2.5120     0.0801     0.0538
  435.5000   -44.3452     9.2257     6.5736     7.4194   113.4607     7.8227     2.5087     0.0829     0.0534
  436.0000   -44.3452    10.2593     6.6474     7.4186   111.8632     7.8227     2.5054     0.0861     0.0529
  436.5000   -44.3451    11.0105     6.7220     7.6681   111.8058     7.8227     2.5034     0.0860     0.0525
  437.0000   -44.3501    10.0465     6.7974     7.8389   113.1007     7.8227     2.5057     0.0842     0.0523
  437.5000   -44.3556     9.5060     6.8738     8.0135   114.3992     7.8227     2.5078     0.0840     0.0523
