~VERSION INFORMATION
 VERS.                2.0:   CWLS LOG ASCII STANDARD - VERSION 2.0
 WRAP.                 NO:   ONE LINE PER DEPTH STEP
~WELL INFORMATION
#MNEM.UNIT      DATA TYPE    INFORMATION
#----------   ------------   ------------------------------
 STRT.F            7.5000:   START DEPTH
 STOP.F         2886.0000:   STOP DEPTH
 STEP.F            0.5000:   STEP LENGTH
 NULL.          -999.2500:   NO VALUE
 COMP. LAWRENCE/ALLISON INC:   COMPANY
 WELL.     16-1 AX #21-21:   WELL
 FLD .             TEAPOT:   FIELD
 LOC .      S21 T39N R78W:   LOCATION
 CNTY.            NATRONA:   COUNTY
 STAT.            WYOMING:   STATE
 CTRY. UNITED STATES OF AMERICA:   COUNTRY
 SRVC.      Dresser Atlas:   SERVICE COMPANY
 DATE.        05-DEC-1986:   LOGDATE
 API .       490251111900:   API NUMBER
~CURVE INFORMATION
#MNEM.UNIT       API CODE    CURVE DESCRIPTION
#----------   ------------   ------------------------------
 DEPT.F                  :   
 GRR .GAPI   07 310 01 00:   GAMMA RAY FROM RES. LOG.
 SPR .MV     07 010 01 00:   SPONTANEOUS POTENTIAL
 RFOC.OHMM   07 220 04 00:   RESISTIVITY FOCUSED LOG
 RILM.OHMM   07 120 44 00:   INDUCTION LOG MEDIUM RESISTIVITY
 RILD.OHMM   07 120 46 00:   INDUCTION LOG DEEP RESISTIVITY
 CALD.IN     45 280 60 00:   CALIPER
 DEN .G/C3   45 350 01 00:   BULK DENSITY
 CORR.G/C3   45 356 01 00:   DENSITY CORRECTION
 CNC .DEC    42 890 03 00:   NEUTRON POROSITY SANDSTONE
 PORD.DEC    45 890 12 00:   DENSITY POROSITY SANDSTONE
~PARAMETER INFORMATION
#MNEM.UNIT          VALUE    DESCRIPTION
#----------   ------------   ------------------------------
 PD  .                 GL:   PERMANENT DATUM
 EPD .F              4992:   ELEVATION PERMANENT DATUM
 LMF .                 KB:   LOG MEASURED FROM
 DAPD.F                12:   FEET ABOVE PERMANENT DATUM
 DMF .                 KB:   DRILLING MEASURED FROM
 EKB .F              5004:   KELLING BUSHING
 EGL .F              4992:   GROUND LEVEL
 DATE.            12-5-86:   RUN DATE
 RUN .                  1:   RUN NUMBER
 DD  .F              2905:   DEPTH DRILLER
 DL  .F              2890:   DEPTH LOGGER
 BLI .F              2884:   BOTTOM LOG INTERVAL
 TLI .F              2200:   TOP LOG INTERVAL
 CS  .IN            8.625:   CASING SIZE
 CBD .F               300:   CASING BOTTOM DRILLER
 CBL .F               300:   CASING BOTTOM LOGGER
 BS  .IN            7.875:   BIT SIZE
 BSD .F              2905:   BIT SIZE AT DEPTH
 DFT .        KCL POLYMER:   DRILLING FLUID TYPE
 DFD .                  9:   DRILLING FLUID DENSITY
 DFV .                 36:   DRILLING FLUID VISCOSITY
 DFPH.                9.5:   DRILLING FLUID PH
 DFL .               11.8:   DRILLING FLUID LOSS
 MSS .            MUDTANK:   MUD SAMPLE SOURCE
 RMS .OHMM            .43:   RESISTIVITY MUD SAMPLE
 MST .F                63:   MUD SAMPLE TEMPERATURE
 RMF .OHMM           .348:   RESISTIVITY MUD FILTRATE SAMPLE
 MFST.F                63:   MUD FILTRATE SAMPLE TEMPERATURE
 RMC .OHMM           .538:   RESISTIVITY MUD CAKE
 MCST.F                63:   MUD CAKE SAMPLE TEMPERATURE
 MFSS.               MEAS:   MUD FILTRATE SAMPLE SOURCE
 MCSS.               CALC:   MUD CAKE SAMPLE SOURCE
 RMB .OHMM           .233:   RESISTIVITY MUD AT BHT
 BHT .F               116:   BOTTOM HOLE TEMPERATURE
 TCS .HRS             3.5:   TIME CURCULATED STOPPED
 MRT .F               116:   MAXIMUM RECORDED TEMPERATURE
 LUN .            HL-6274:   LOGGING UNIT NUMBER
 LUL .           GILLETTE:   LOGGING UNIT LOCATION
 ENGI.             RAUTIO:   RECORDING ENGINEER
 WITN.             STRONG:   WITNESSED BY
 CLNT.            A2DTECH:   CLIENT CODE
 ORIG.       2", 5" PRINT:   ORIGIN OF DATA
 UWI .       490251111900:   UNIQUE WELL ID
 DICO. A2D Technologies, Inc.:   DIGITIZING COMPANY
~OTHER INFORMATION
~A    DEPT     GRR        SPR       RFOC       RILM       RILD       CALD        DEN       CORR        CNC       PORD   
# ...
 1548.5000    97.8546   -56.1384     4.1305     3.4509     2.8580  -999.2500  -999.2500  -999.2500  -999.2500  -999.2500
 1549.0000   100.2207   -57.2008     5.9136     4.0601     3.0365  -999.2500  -999.2500  -999.2500  -999.2500  -999.2500
 1549.5000   101.4381   -58.2289     7.4579     4.6086     3.3892  -999.2500  -999.2500  -999.2500  -999.2500  -999.2500
 1550.0000   102.3673   -59.2836     7.7504     5.2946     4.4376  -999.2500  -999.2500  -999.2500  -999.2500  -999.2500
 1550.5000   103.7824   -59.3461     7.5557     5.8050     5.2390  -999.2500  -999.2500  -999.2500  -999.2500  -999.2500
 1551.0000   105.4335   -59.3392     7.3985     6.4290     6.2987  -999.2500  -999.2500  -999.2500  -999.2500  -999.2500
 1551.5000   107.0978   -59.3375     7.4391     6.7997     6.6933  -999.2500  -999.2500  -999.2500  -999.2500  -999.2500
 1552.0000   107.9574   -59.3388     7.4863     6.8938     6.8099  -999.2500  -999.2500  -999.2500  -999.2500  -999.2500
 1552.5000   108.2509   -59.2771     7.6089     6.9944     6.9214  -999.2500  -999.2500  -999.2500  -999.2500  -999.2500
 1553.0000   109.2323   -59.1988     7.7335     7.0964     7.0349  -999.2500  -999.2500  -999.2500  -999.2500  -999.2500
 1553.5000   110.1632   -59.1201     7.8602     7.2000     7.1317  -999.2500  -999.2500  -999.2500  -999.2500  -999.2500
 1554.0000   108.8579   -59.0419     7.9890     7.2921     7.1434  -999.2500  -999.2500  -999.2500  -999.2500  -999.2500
 1554.5000   109.0536   -58.9608     8.1205     7.3661     7.1559  -999.2500  -999.2500  -999.2500  -999.2500  -999.2500
 1555.0000   110.8171   -59.0435     8.1956     7.4676     7.1684  -999.2500  -999.2500  -999.2500  -999.2500  -999.2500
 1555.5000   111.3025   -59.2046     8.1952     7.4393     7.1808  -999.2500  -999.2500  -999.2500  -999.2500  -999.2500
 1556.0000   108.1921   -59.3680     8.1953     7.3956     7.1950  -999.2500  -999.2500  -999.2500  -999.2500  -999.2500
 1556.5000   109.4131   -59.5315     8.1772     7.3521     7.1416  -999.2500  -999.2500  -999.2500  -999.2500  -999.2500
 1557.0000   111.5730   -59.6997     8.1505     7.3060     7.0651  -999.2500  -999.2500  -999.2500  -999.2500  -999.2500
 1557.5000   112.7469   -59.7920     8.1240     7.2622     7.0805  -999.2500  -999.2500  -999.2500  -999.2500  -999.2500
 1558.0000   110.4602   -59.8658     8.0975     7.3003     7.1062  -999.2500  -999.2500  -999.2500  -999.2500  -999.2500
 1558.5000   107.1875   -59.9374     8.0707     7.3571     7.1451  -999.2500  -999.2500  -999.2500  -999.2500  -999.2500
 1559.0000   105.4880   -59.9405     8.0441     7.5519     7.2686  -999.2500  -999.2500  -999.2500  -999.2500  -999.2500
 1559.5000   104.8617   -59.9386     8.2168     7.6401     7.3942  -999.2500  -999.2500  -999.2500  -999.2500  -999.2500
 1560.0000   103.6102   -59.8634     8.4023     7.7306     7.5220  -999.2500  -999.2500  -999.2500  -999.2500  -999.2500
 1560.5000   101.9820   -59.6776     8.5920     7.8228     7.6787  -999.2500  -999.2500  -999.2500  -999.2500  -999.2500
 1561.0000   100.5811   -59.5609     8.7551     7.8228     7.6044  -999.2500  -999.2500  -999.2500  -999.2500  -999.2500
 1561.5000   101.3303   -59.6875     8.8011     7.7221     7.5130  -999.2500  -999.2500  -999.2500  -999.2500  -999.2500
 1562.0000   104.4891   -59.8090     8.8274     7.6235     7.4220  -999.2500  -999.2500  -999.2500  -999.2500  -999.2500
 1562.5000   107.6539   -59.9335     8.3461     7.5262     7.3322  -999.2500  -999.2500  -999.2500  -999.2500  -999.2500
 1563.0000   107.9515   -59.9410     8.0435     7.4301     7.2436  -999.2500  -999.2500  -999.2500  -999.2500  -999.2500
 1563.5000   106.5960   -59.9394     7.9632     7.3694     7.1561  -999.2500  -999.2500  -999.2500  -999.2500  -999.2500
 1564.0000   104.9160   -59.8896     7.8958     7.3300     7.1154  -999.2500  -999.2500  -999.2500  -999.2500  -999.2500
 1564.5000   103.7647   -59.7369     7.8958     7.2811     7.0963  -999.2500  -999.2500  -999.2500  -999.2500  -999.2500
 1565.0000   104.6244   -59.5858     7.8958     7.2365     7.0772  -999.2500  -999.2500  -999.2500  -999.2500  -999.2500
 1565.5000   106.0165   -59.4344     8.0214     7.1921     7.0582  -999.2500  -999.2500  -999.2500  -999.2500  -999.2500
 1566.0000   107.4086   -59.2826     8.1949     7.1482     7.0392  -999.2500  -999.2500  -999.2500  -999.2500  -999.2500
 1566.5000   105.8735   -59.1398     8.0956     7.1036     7.0203  -999.2500  -999.2500  -999.2500  -999.2500  -999.2500
 1567.0000   103.4224   -59.1353     7.9195     7.0592     7.0014  -999.2500  -999.2500  -999.2500  -999.2500  -999.2500
 1567.5000   103.6099   -59.1346     7.7473     7.0150     6.9025  -999.2500  -999.2500  -999.2500  -999.2500  -999.2500
 1568.0000   106.2715   -59.1470     7.6591     6.9216     6.7827  -999.2500  -999.2500  -999.2500  -999.2500  -999.2500
 1568.5000   105.3469   -59.3730     7.6264     6.7965     6.6650  -999.2500  -999.2500  -999.2500  -999.2500  -999.2500
 1569.0000   104.2559   -59.5968     7.5938     6.6736     6.5494  -999.2500  -999.2500  -999.2500  -999.2500  -999.2500
 1569.5000   108.5893   -59.8180     7.5613     6.5530     6.4358  -999.2500  -999.2500  -999.2500  -999.2500  -999.2500
 1570.0000   113.4028   -60.0416     7.4745     6.4346     6.3241  -999.2500  -999.2500  -999.2500  -999.2500  -999.2500
 1570.5000   117.5781   -60.0234     7.2346     6.3183     6.2144  -999.2500  -999.2500  -999.2500  -999.2500  -999.2500
 1571.0000   116.9014   -59.8159     7.0024     6.2146     6.1022  -999.2500  -999.2500  -999.2500  -999.2500  -999.2500
 1571.5000   115.2247   -59.6059     6.9325     6.1237     5.9913  -999.2500  -999.2500  -999.2500  -999.2500  -999.2500
 1572.0000   112.9608   -59.3956     7.2622     6.0342     5.8814  -999.2500  -999.2500  -999.2500  -999.2500  -999.2500
 1572.5000   110.6038   -59.1853     7.1910     5.9746     5.8109  -999.2500  -999.2500  -999.2500  -999.2500  -999.2500
 1573.0000   110.1742   -58.9734     6.7580     6.1257     5.9053  -999.2500  -999.2500  -999.2500  -999.2500  -999.2500
 1573.5000   112.7034   -58.7499     5.9680     6.2487     5.9788  -999.2500  -999.2500  -999.2500  -999.2500  -999.2500
 1574.0000   115.4962   -59.2285     6.3781     6.3861     6.0527  -999.2500  -999.2500  -999.2500  -999.2500  -999.2500
 1574.5000   114.7293   -59.4405     7.4157     6.5265     6.1276  -999.2500  -999.2500  -999.2500  -999.2500  -999.2500
 1575.0000   113.0810   -59.3522     7.9359     6.6701     6.3290  -999.2500  -999.2500  -999.2500  -999.2500  -999.2500
 1575.5000   110.1000   -59.3855     8.0042     6.8166     6.5721  -999.2500  -999.2500  -999.2500  -999.2500  -999.2500
 1576.0000   105.8417   -59.4166     8.0440     6.9444     6.6965  -999.2500  -999.2500  -999.2500  -999.2500  -999.2500
 1576.5000   101.6195   -59.4487     7.9546     6.9943     6.7944  -999.2500  -999.2500  -999.2500  -999.2500  -999.2500
 1577.0000   100.2353   -59.4808     7.8924     7.0626     6.8681  -999.2500  -999.2500  -999.2500  -999.2500  -999.2500
 1577.5000   100.7300   -59.5125     7.8228     7.0333     6.7926  -999.2500  -999.2500  -999.2500  -999.2500  -999.2500
 1578.0000   101.3548   -59.5292     7.9405     6.9892     6.7330  -999.2500  -999.2500  -999.2500  -999.2500  -999.2500
 1578.5000   100.4601   -59.4726     8.0777     6.9325     6.6795  -999.2500  -999.2500  -999.2500  -999.2500  -999.2500
 1579.0000    99.4949   -59.4173     8.1191     6.9856     6.7768  -999.2500  -999.2500  -999.2500  -999.2500  -999.2500
 1579.5000    98.5154   -59.3621     7.6161     7.0619     6.8668  -999.2500  -999.2500  -999.2500  -999.2500  -999.2500
 1580.0000    97.7954   -59.3070     7.3300     7.1392     6.9580  -999.2500  -999.2500  -999.2500  -999.2500  -999.2500
 1580.5000    95.5833   -59.2515     7.8228     7.2176     7.0504  -999.2500  -999.2500  -999.2500  -999.2500  -999.2500
 1581.0000    91.7794   -59.1948     8.4445     7.3297     7.1285  -999.2500  -999.2500  -999.2500  -999.2500  -999.2500
 1581.5000    91.6771   -59.1411     9.1617     7.3088     7.0851  -999.2500  -999.2500  -999.2500  -999.2500  -999.2500
