~VERSION INFORMATION
 VERS.                2.0:   CWLS LOG ASCII STANDARD - VERSION 2.0
 WRAP.                 NO:   ONE LINE PER DEPTH STEP
~WELL INFORMATION
#MNEM.UNIT      DATA TYPE    INFORMATION
#----------   ------------   ------------------------------
 STRT.F            4.0000:   START DEPTH
 STOP.F          510.0000:   STOP DEPTH
 STEP.F            0.5000:   STEP LENGTH
 NULL.          -999.2500:   NO VALUE
 COMP. LAWRENCE/ALLISON INC:   COMPANY
 WELL.     68-46 SX #68-3:   WELL
 FLD .             TEAPOT:   FIELD
 LOC .       S3 T38N R78W:   LOCATION
 CNTY.            NATRONA:   COUNTY
 STAT.            WYOMING:   STATE
 CTRY. UNITED STATES OF AMERICA:   COUNTRY
 SRVC.           Gearhart:   SERVICE COMPANY
 DATE.        15-SEP-1987:   LOGDATE
 API .       490251116400:   API NUMBER
~CURVE INFORMATION
#MNEM.UNIT       API CODE    CURVE DESCRIPTION
#----------   ------------   ------------------------------
 DEPT.F                  :   
 GRR .GAPI   07 310 01 00:   GAMMA RAY
 RILD.OHMM   07 120 46 00:   INDUCTION LOG DEEP RESISTIVITY
 RILM.OHMM   07 120 44 00:   INDUCTION LOG MEDIUM RESISTIVITY
 RLL .OHMM   07 220 00 00:   LATEROLOG RESISTIVITY
 SPR .MV     07 010 01 00:   SPONTANEOUS POTENTIAL
~PARAMETER INFORMATION
#MNEM.UNIT          VALUE    DESCRIPTION
#----------   ------------   ------------------------------
 ENGI.           JOHNSTON:   RECORDING ENGINEER
 WITN.         MR. STRONG:   WITNESSED BY
 PD  .                 GL:   PERMANENT DATUM
 EPD .F              5162:   ELEVATION PERMANENT DATUM
 LMF .                 KB:   LOG MEASURED FROM
 DAPD.F                 8:   FEET ABOVE PERMANENT DATUM
 DMF .                 KB:   DRILLING MEASURED FROM
 EKB .F              5170:   KELLING BUSHING
 EDF .F              5169:   DRILLING FLOOR
 EGL .F              5162:   GROUND LEVEL
 DATE.        15-SEP-1987:   RUN DATE
 RUN .                  1:   RUN NUMBER
 DD  .F               519:   DEPTH DRILLER
 DL  .F               512:   DEPTH LOGGER
 BLI .F               500:   BOTTOM LOG INTERVAL
 TLI .F                50:   TOP LOG INTERVAL
 CS  .IN            8.625:   CASING SIZE
 CBD .F                50:   CASING BOTTOM DRILLER
 CBL .F                50:   CASING BOTTOM LOGGER
 BS  .IN             7.87:   BIT SIZE
 BSD .F               519:   BIT SIZE AT DEPTH
 DFT .                MUD:   DRILLING FLUID TYPE
 RMS .OHMM           0.64:   RESISTIVITY MUD SAMPLE
 MST .F                71:   MUD SAMPLE TEMPERATURE
 RMF .OHMM           0.48:   RESISTIVITY MUD FILTRATE SAMPLE
 MFST.F                71:   MUD FILTRATE SAMPLE TEMPERATURE
 RMC .OHMM           0.76:   RESISTIVITY MUD CAKE
 MCST.F                71:   MUD CAKE SAMPLE TEMPERATURE
 MFSS.              CHART:   MUD FILTRATE SAMPLE SOURCE
 MCSS.              CHART:   MUD CAKE SAMPLE SOURCE
 TCS .HRS            1100:   TIME CURCULATED STOPPED
 TLAB.HRS            1638:   TIME LOGGER AT BOTTOM
 LUN .               7650:   LOGGING UNIT NUMBER
 LUL .           GILLETTE:   LOGGING UNIT LOCATION
 CLNT.            A2DTECH:   CLIENT CODE
 ORIG.           5" PRINT:   ORIGIN OF DATA
 UWI .       490251116400:   UNIQUE WELL ID
 DICO. A2D Technologies, Inc.:   DIGITIZING COMPANY
~OTHER INFORMATION
~A    DEPT       GRR     RILD       RILM        RLL        SPR   
# ...
  309.0000    86.7027    16.7306    12.3222    14.0516   -36.8902
  309.5000    87.0049    16.7249    12.0631    14.0392   -36.5854
  310.0000    87.9144    16.8370    12.0606    13.9492   -36.5854
  310.5000    89.4335    16.8313    12.0581    13.8499   -36.5854
  311.0000    90.6482    16.4746    12.3121    13.8480   -36.5854
  311.5000    91.2548    16.1255    12.3095    14.2398   -36.8902
  312.0000    90.6422    15.9995    11.7173    14.1384   -37.0427
  312.5000    90.0304    15.8894    11.0756    13.9396   -37.0427
  313.0000    85.9847    15.9948    10.7669    14.0363   -37.3476
  313.5000    83.3266    15.8773    10.6889    13.8385   -37.8049
  314.0000    80.8884    15.8719    10.9908    13.7399   -37.9573
  314.5000    79.3633    15.8665    11.6228    13.8347   -38.2622
  315.0000    78.1427    15.6397    11.8676    13.6402   -37.8049
  315.5000    79.3574    15.4162    11.8651    13.4480   -37.8049
  316.0000    81.7897    15.1959    11.6157    13.3523   -38.1098
  316.5000    83.6132    14.9788    11.4515    13.1646   -38.1098
  317.0000    85.7411    14.8618    11.1323    13.1628   -37.8049
  317.5000    87.2602    14.6390    10.9750    13.2536   -37.3476
  318.0000    87.5617    14.4456    10.9727    13.1592   -37.1951
  318.5000    87.2543    14.3396    10.9704    13.4375   -37.1951
  319.0000    86.9461    14.2343    10.9677    13.1556   -36.8902
  319.5000    86.9432    14.1298    10.9654    12.7901   -36.7378
  320.0000    86.9402    13.9279    11.0409    12.6044   -36.4329
  320.5000    87.2424    13.9231    11.0380    12.3462   -36.1280
  321.0000    88.1526    13.8209    11.1135    12.0873   -36.1280
  321.5000    90.2798    13.7195    11.1900    12.1710   -36.4329
  322.0000    92.4077    13.7148    11.3451    12.2550   -36.2541
  322.5000    93.0137    13.8227    11.6656    12.4258   -36.1280
  323.0000    91.1841    13.9961    12.0795    12.5995   -35.6707
  323.5000    90.5723    14.0911    12.4207    12.7757   -35.3659
  324.0000    91.8316    14.2856    12.5184    12.8638   -35.0610
  324.5000    93.0017    14.5837    12.5910    12.9525   -34.9085
  325.0000    90.5627    14.7850    12.6770    13.1335   -34.9085
  325.5000    87.8200    14.8854    12.6738    13.1317   -34.9085
  326.0000    85.3817    14.9841    12.6712    13.1295   -35.3821
  326.5000    82.6390    14.9788    12.6686    12.9449   -36.1280
  327.0000    80.8095    14.9666    12.6660    12.9432   -36.2805
  327.5000    80.5029    14.8461    12.4869    12.8510   -36.1280
  328.0000    85.3698    14.4456    11.4765    12.5819   -35.6707
  328.5000    89.3242    13.9422    10.3282    12.3184   -35.8232
  329.0000    90.2345    13.6468     9.9004    12.0604   -36.4329
  329.5000    89.8742    13.2641     9.7604    11.9745   -36.4599
  330.0000    87.4880    12.8018     9.7580    11.8892   -36.2805
  330.5000    87.1814    12.4428     9.7560    11.7221   -36.2871
  331.0000    91.4395    12.2650     9.8227    11.7205   -36.5854
  331.5000    94.7850    12.1750     9.9594    11.6367   -36.5854
  332.0000    95.0872    12.1707    10.0980    11.5538   -36.2805
  332.5000    92.9526    12.3677    10.1675    11.6335   -35.9756
  333.0000    90.5143    13.0465    10.3085    11.7965   -35.6707
  333.5000    90.4871    14.1893    10.6743    11.8778   -35.3659
  334.0000    91.7260    15.4321    11.0541    12.0435   -35.2134
  334.5000    91.7230    16.3187    11.8988    12.6761   -34.7561
  335.0000    90.5017    17.7480    14.5242    14.9620   -33.8313
  335.5000    86.2369    19.3025    17.3048    17.4543   -32.8831
  336.0000    82.2766    22.8397    18.8206    20.9407   -32.1646
  336.5000    78.9250    26.2763    19.9029    26.7594   -31.8598
  337.0000    76.7912    28.0213    20.9003    29.3083   -31.7073
  337.5000    75.5705    30.3264    21.6419    29.9280   -31.5549
  338.0000    74.0455    32.4051    22.5676    29.9229   -31.2500
  338.5000    74.0425    33.7887    22.8819    29.9188   -30.7927
  339.0000    74.0395    33.7771    22.2440    26.7410   -30.1829
  339.5000    74.6575    33.2944    20.1424    24.5804   -29.2683
  340.0000    76.2050    32.1342    18.3811    24.5769   -29.0955
  340.5000    77.6836    31.0144    17.6356    24.5728   -28.5061
  341.0000    77.3755    29.7240    17.0243    24.5695   -27.7439
  341.5000    75.2416    28.4873    15.8677    24.5661   -26.9817
  342.0000    73.7165    28.2781    15.6434    24.3912   -26.2195
  342.5000    73.1047    28.2351    16.6595    24.0483   -25.7622
  343.0000    75.5371    28.0586    17.9921    22.8937   -25.3049
  343.5000    78.2738    28.0490    18.8938    21.9479   -25.0000
  344.0000    79.7930    28.0394    19.0230    21.4882   -25.0000
  344.5000    78.5723    27.6387    19.0189    21.6364   -24.8476
  345.0000    78.2648    27.6292    19.0150    22.2695   -24.6951
  345.5000    78.5663    27.4264    18.1868    23.0648   -24.6951
  346.0000    79.4759    27.2250    16.6346    22.7144   -24.6951
  346.5000    80.6905    26.6481    14.3532    22.2387   -25.6098
  347.0000    81.2971    25.8886    13.0995    21.6208   -27.7439
  347.5000    81.9030    25.2926    13.0053    20.2962   -28.8110
  348.0000    79.1595    24.1250    13.1863    19.4577   -29.5732
  348.5000    75.5036    22.4806    15.0632    19.8685   -30.0310
  349.0000    74.2830    21.8501    16.4980    21.6090   -30.7927
  349.5000    75.4977    21.6897    16.9641    23.5020   -31.0976
  350.0000    77.3212    21.5305    16.4912    23.6641   -29.5732
  350.5000    77.6226    21.3724    16.0315    22.4985   -29.7256
  351.0000    77.6189    21.2156    16.1411    19.8542   -29.2683
  351.5000    79.4429    20.9124    16.0242    18.2500   -29.1159
  352.0000    81.6194    20.4919    15.7977    17.8515   -29.3008
  352.5000    82.4811    20.2046    15.3574    17.6101   -30.6402
  353.0000    83.0862    20.0618    14.8251    17.4844   -31.4024
  353.5000    84.3009    20.0604    14.3112    17.7267   -31.7073
  354.0000    84.9068    20.2005    14.3082    17.7230   -32.0122
  354.5000    84.5994    20.1991    14.6095    17.7194   -32.0122
  355.0000    81.8567    20.1977    15.1279    17.8413   -32.1646
  355.5000    80.3317    20.1717    15.4465    17.7122   -32.0122
  356.0000    82.1552    20.0532    15.4303    17.7085   -32.0122
  356.5000    84.5906    20.1936    15.1178    17.3365   -32.0122
  357.0000    85.5322    20.1918    14.9041    17.7013   -31.7073
  357.5000    85.7992    20.0491    14.5908    17.4504   -31.7073
  358.0000    84.2735    19.9074    14.2840    16.8460   -32.0122
  358.5000    83.0528    19.6283    14.3823    16.8425   -32.0122
  359.0000    82.1366    19.6269    14.3786    16.8391   -31.5549
  359.5000    82.1337    19.3482    14.0763    16.8356   -31.2500
  360.0000    83.0439    18.8142    13.9750    16.8322   -31.4024
  360.5000    85.4763    18.4203    13.8745    16.7112   -31.4024
  361.0000    88.2130    17.9086    13.8716    16.2428   -31.5549
  361.5000    88.5145    17.4112    13.8545    15.7801   -31.7073
  362.0000    88.5114    17.1671    13.5765    15.2456   -31.8598
  362.5000    88.2034    16.8079    13.1981    14.9253   -31.7073
  363.0000    87.8960    16.3410    12.8303    14.5096   -31.8598
  363.5000    86.9798    16.2255    12.3856    14.3047   -31.7073
  364.0000    85.4548    16.1108    12.0404    14.3018   -32.0122
  364.5000    84.2341    16.1097    12.3805    14.2989   -32.1646
  365.0000    84.5356    15.9955    12.5528    14.2959   -32.7744
  365.5000    84.2282    15.9944    12.7275    14.2930   -33.2434
  366.0000    84.2334    15.8814    12.7249    14.3906   -33.8415
  366.5000    82.0680    15.7691    12.7222    14.4889   -33.9939
  367.0000    80.5656    15.7680    12.7042    14.4851   -34.1463
  367.5000    79.9538    15.7670    12.3646    14.4822   -34.1463
  368.0000    82.3861    15.6555    12.0200    14.3781   -34.1463
  368.5000    86.0361    15.4360    12.0491    14.0760   -33.8415
  369.0000    89.9906    15.2196    11.9629    13.7803   -33.5366
  369.5000    90.2928    15.0951    12.0458    13.5857   -33.2317
