~VERSION INFORMATION
 VERS.                2.0:   CWLS LOG ASCII STANDARD - VERSION 2.0
 WRAP.                 NO:   ONE LINE PER DEPTH STEP
~WELL INFORMATION
#MNEM.UNIT      DATA TYPE    INFORMATION
#----------   ------------   ------------------------------
 STRT.F           85.5000:   START DEPTH
 STOP.F         1080.5000:   STOP DEPTH
 STEP.F            0.5000:   STEP LENGTH
 NULL.          -999.2500:   NO VALUE
 COMP.         U.S.  NAVY:   COMPANY
 WELL.  N.P.R. #3 #67-S-2:   WELL
 FLD .             TEAPOT:   FIELD
 LOC .       S2 T38N R78W:   LOCATION
 CNTY.            NATRONA:   COUNTY
 STAT.            WYOMING:   STATE
 CTRY. UNITED STATES OF AMERICA:   COUNTRY
 SRVC.       Schlumberger:   SERVICE COMPANY
 DATE.        20-JUL-1964:   LOGDATE
 API .       490250639700:   API NUMBER
~CURVE INFORMATION
#MNEM.UNIT       API CODE    CURVE DESCRIPTION
#----------   ------------   ------------------------------
 DEPT.F                  :   
 GR  .GAPI   30 310 01 00:   GAMMA RAY
 DT  .US/F   60 520 33 00:   INTERVAL TRANSIT TIME
 SPR .MV     06 010 01 00:   SPONTANEOUS POTENTIAL
 CILD.MMHO   06 110 46 00:   CONDUCTIVITY INDUCTION LOG DEEP
 ASN .OHMM   06 041 16 00:   AMPLIFIED SHORT NORMAL 16"
 ILD .OHMM   06 120 46 00:   INDUCTION LOG DEEP
~PARAMETER INFORMATION
#MNEM.UNIT          VALUE    DESCRIPTION
#----------   ------------   ------------------------------
 PD  .                 GL:   PERMANENT DATUM
 EPD .F              5207:   ELEVATION PERMANENT DATUM
 LMF .                 KB:   LOG MEASURED FROM
 DAPD.F                 5:   FEET ABOVE PERMANENT DATUM
 DMF .                 KB:   DRILLING MEASURED FROM
 EKB .F              5212:   KELLING BUSHING
 EGL .F              5207:   GROUND LEVEL
 DATE.          7-20-1964:   RUN DATE
 RUN .                  1:   RUN NUMBER
 DD  .F              1080:   DEPTH DRILLER
 DL  .F              1081:   DEPTH LOGGER
 BLI .F              1080:   BOTTOM LOG INTERVAL
 TLI .F                86:   TOP LOG INTERVAL
 CS  .IN            8.625:   CASING SIZE
 CBD .F                10:   CASING BOTTOM DRILLER
 BS  .IN             6.75:   BIT SIZE
 BSD .F              1080:   BIT SIZE AT DEPTH
 DFT .            GEL-OIL:   DRILLING FLUID TYPE
 DFD .                9.5:   DRILLING FLUID DENSITY
 DFV .                 43:   DRILLING FLUID VISCOSITY
 MSS .           FLOWLINE:   MUD SAMPLE SOURCE
 RMS .OHMM           1.85:   RESISTIVITY MUD SAMPLE
 MST .F                83:   MUD SAMPLE TEMPERATURE
 RMF .OHMM           1.29:   RESISTIVITY MUD FILTRATE SAMPLE
 MFST.F                83:   MUD FILTRATE SAMPLE TEMPERATURE
 RMC .OHMM           2.49:   RESISTIVITY MUD CAKE
 MCST.F                83:   MUD CAKE SAMPLE TEMPERATURE
 MFSS.                 FP:   MUD FILTRATE SAMPLE SOURCE
 MCSS.                 FP:   MUD CAKE SAMPLE SOURCE
 TCS .HRS               2:   TIME CURCULATED STOPPED
 LUN .               4507:   LOGGING UNIT NUMBER
 LUL .               CSPR:   LOGGING UNIT LOCATION
 ENGI.             DANNER:   RECORDING ENGINEER
 WITN.          JORGENSEN:   WITNESSED BY
 CLNT.            A2DTECH:   CLIENT CODE
 ORIG.           2" PRINT:   ORIGIN OF DATA
 UWI .       490250639700:   UNIQUE WELL ID
 DICO. A2D Technologies, Inc.:   DIGITIZING COMPANY
~OTHER INFORMATION
~A   DEPT       GR         DT        SPR       CILD        ASN        ILD   
# ...
  397.5000  -999.2500  -999.2500   -23.7048   185.3984     6.0148     5.2606
  398.0000  -999.2500  -999.2500   -23.6955   179.1355     6.1418     5.5183
  398.5000  -999.2500  -999.2500   -23.6859   173.4752     6.2692     5.8255
  399.0000  -999.2500  -999.2500   -23.6766   169.1699     6.4238     5.8579
  399.5000  -999.2500  -999.2500   -23.6671   164.8646     6.4090     5.9645
  400.0000  -999.2500  -999.2500   -23.6577   160.5592     6.3838     6.0737
  400.5000  -999.2500  -999.2500   -23.6482   156.2539     6.5643     6.1804
  401.0000  -999.2500  -999.2500   -23.6388   150.8964     6.8614     6.2896
  401.5000  -999.2500  -999.2500   -23.6294   151.8924     6.9226     6.4226
  402.0000  -999.2500  -999.2500   -23.6200   153.0695     7.0209     6.4237
  402.5000  -999.2500  -999.2500   -23.6106   157.6082     7.0217     6.4227
  403.0000  -999.2500  -999.2500   -23.6011   162.1469     7.0011     6.3578
  403.5000  -999.2500  -999.2500   -23.5918   166.6855     6.8632     6.1075
  404.0000  -999.2500  -999.2500   -23.5823   171.2242     6.6819     5.8265
  404.5000  -999.2500  -999.2500   -23.5730   176.7928     6.5016     5.6234
  405.0000  -999.2500  -999.2500   -23.5635   182.5360     6.3203     5.3616
  405.5000  -999.2500  -999.2500   -23.5542   189.9362     6.1398     5.0983
  406.0000  -999.2500  -999.2500   -23.5429   197.3698     5.9588     4.8364
  406.5000  -999.2500  -999.2500   -23.4578   207.4609     5.7781     4.5732
  407.0000  -999.2500  -999.2500   -23.3527   224.4540     5.5973     4.3112
  407.5000  -999.2500  -999.2500   -23.2477   241.4060     5.3880     4.0479
  408.0000  -999.2500  -999.2500   -23.1426   258.4013     5.1087     3.7859
  408.5000  -999.2500  -999.2500   -23.0376   286.3340     4.8291     3.5225
  409.0000  -999.2500  -999.2500   -22.9325   286.3575     4.5498     3.3672
  409.5000  -999.2500  -999.2500   -22.8275   285.5437     4.2701     3.4663
  410.0000  -999.2500  -999.2500   -22.7224   282.9059     4.0673     3.5669
  410.5000  -999.2500  -999.2500   -22.6173   280.2206     4.0431     3.6658
  411.0000  -999.2500  -999.2500   -22.5694   277.1768     4.0146     3.7927
  411.5000  -999.2500  -999.2500   -22.6237   268.0880     4.2315     3.9779
  412.0000  -999.2500  -999.2500   -22.6783   247.5724     4.5010     4.1650
  412.5000  -999.2500  -999.2500   -22.7325   227.0160     4.7704     4.3502
  413.0000  -999.2500  -999.2500   -22.7871   202.6892     5.0895     4.5374
  413.5000  -999.2500  -999.2500   -22.8414   192.7291     5.1465     4.7228
  414.0000  -999.2500  -999.2500   -22.8959   191.7331     5.2288     4.9099
  414.5000  -999.2500  -999.2500   -22.9502   193.7811     5.2562     5.1284
  415.0000  -999.2500  -999.2500   -23.0047   196.7132     5.2894     5.0235
  415.5000  -999.2500  -999.2500   -23.0591   197.1252     5.3283     4.8945
  416.0000  -999.2500  -999.2500   -23.1136   197.6245     5.3078     4.7667
  416.5000  -999.2500  -999.2500   -23.0984   198.1237     5.2826     4.6381
  417.0000  -999.2500  -999.2500   -22.9843   198.7052     5.2580     4.5100
  417.5000  -999.2500  -999.2500   -22.8704   210.6218     5.2285     4.3819
  418.0000  -999.2500  -999.2500   -22.7561   224.8862     5.0284     4.2327
  418.5000  -999.2500  -999.2500   -22.6423   239.1505     4.7881     3.8419
  419.0000  -999.2500  -999.2500   -22.5280   267.1599     4.5494     3.3753
  419.5000  -999.2500  -999.2500   -22.4143   321.3645     4.2725     2.9108
  420.0000  -999.2500  -999.2500   -22.2999   375.5692     3.9632     2.4435
  420.5000  -999.2500  -999.2500   -22.1863   437.7490     3.5963     2.1609
  421.0000  -999.2500  -999.2500   -22.0718   435.1942     3.1785     2.2086
  421.5000  -999.2500  -999.2500   -21.9542   432.1987     3.2184     2.2611
  422.0000  -999.2500  -999.2500   -22.0278   429.2032     3.2673     2.3081
  422.5000  -999.2500  -999.2500   -22.1051   425.7968     3.2537     2.3612
  423.0000  -999.2500  -999.2500   -22.1813   391.4913     3.1346     2.4075
  423.5000  -999.2500  -999.2500   -22.2586   351.7326     3.2216     2.6134
  424.0000  -999.2500  -999.2500   -22.3348   311.9739     3.6678     3.0754
  424.5000  -999.2500  -999.2500   -22.4121   272.2152     4.1133     3.5449
  425.0000  -999.2500  -999.2500   -22.4883   232.4565     4.4522     4.4299
  425.5000  -999.2500  -999.2500   -22.5656   207.6693     4.5624     4.4336
  426.0000  -999.2500  -999.2500   -22.6418   207.2311     4.5907     4.4550
  426.5000  -999.2500  -999.2500   -22.7190   206.6733     4.6194     4.4868
  427.0000  -999.2500  -999.2500   -22.7953   214.6066     4.6509     4.5121
  427.5000  -999.2500  -999.2500   -22.8725   224.6016     4.6600     4.5324
  428.0000  -999.2500  -999.2500   -22.9466   224.4046     4.6707     4.4302
  428.5000  -999.2500  -999.2500   -22.8648   224.1827     4.6508     4.3140
  429.0000  -999.2500  -999.2500   -22.7846   223.9608     4.5992     4.1792
  429.5000  -999.2500  -999.2500   -22.7051   223.7389     4.5482     4.0340
  430.0000  -999.2500  -999.2500   -22.6250   232.3705     4.4917     3.8983
  430.5000  -999.2500  -999.2500   -22.5455   254.3376     4.3098     3.5614
  431.0000  -999.2500  -999.2500   -22.4655   285.0986     4.1079     3.2231
  431.5000  -999.2500  -999.2500   -22.3859   328.8332     3.9056     2.8857
  432.0000  -999.2500  -999.2500   -22.3060   372.5677     3.7040     2.5478
  432.5000  -999.2500  -999.2500   -22.2262   416.3023     3.5014     2.2103
  433.0000  -999.2500  -999.2500   -22.1463   460.0369     3.3000     1.8438
  433.5000  -999.2500  -999.2500   -22.0665   484.1023     3.0971     1.8715
  434.0000  -999.2500  -999.2500   -21.9866   480.6076     2.8797     1.9377
  434.5000  -999.2500  -999.2500   -22.0525   469.3277     2.9277     2.0045
  435.0000  -999.2500  -999.2500   -22.2187   447.3606     2.9819     2.0705
  435.5000  -999.2500  -999.2500   -22.3851   425.3934     3.0340     2.1423
  436.0000  -999.2500  -999.2500   -22.5513   394.8606     3.0881     2.5384
  436.5000  -999.2500  -999.2500   -22.7176   352.9233     3.2915     2.9670
  437.0000  -999.2500  -999.2500   -22.8837   310.9861     3.6962     3.3937
  437.5000  -999.2500  -999.2500   -23.0502   269.0488     4.0989     3.8973
  438.0000  -999.2500  -999.2500   -23.2164   227.1116     4.5037     4.4948
  438.5000  -999.2500  -999.2500   -23.3830   182.7689     4.9294     4.9482
  439.0000  -999.2500  -999.2500   -23.5492   182.7689     5.0111     5.2274
  439.5000  -999.2500  -999.2500   -23.7156   188.9706     5.0956     5.1913
  440.0000  -999.2500  -999.2500   -23.8819   195.5322     5.1822     5.1497
  440.5000  -999.2500  -999.2500   -23.7753   202.0938     5.2191     5.1295
  441.0000  -999.2500  -999.2500   -23.5236   212.2485     5.2001     4.9287
  441.5000  -999.2500  -999.2500   -23.2709   226.7268     5.1082     4.4728
  442.0000  -999.2500  -999.2500   -23.0196   252.1030     4.9333     3.9921
  442.5000  -999.2500  -999.2500   -22.7666   290.3315     4.7504     3.5146
  443.0000  -999.2500  -999.2500   -22.5158   328.5601     4.3667     3.0340
  443.5000  -999.2500  -999.2500   -22.2622   368.0279     3.9669     2.5408
  444.0000  -999.2500  -999.2500   -22.0119   369.6841     3.5681     2.5396
  444.5000  -999.2500  -999.2500   -21.7579   371.3958     3.4018     2.5409
  445.0000  -999.2500  -999.2500   -21.5579   373.1076     3.4980     2.5398
  445.5000  -999.2500  -999.2500   -21.8976   370.9126     3.5958     2.5409
  446.0000  -999.2500  -999.2500   -22.1850   364.4223     3.4691     2.5401
  446.5000  -999.2500  -999.2500   -22.4677   343.8923     3.3370     2.8833
  447.0000  -999.2500  -999.2500   -22.5510   308.2314     3.7195     3.2319
  447.5000  -999.2500  -999.2500   -22.5485   272.5704     4.1137     3.5819
  448.0000  -999.2500  -999.2500   -22.5510   236.5538     4.2347     3.9340
  448.5000  -999.2500  -999.2500   -22.5485   227.9864     4.3575     4.0476
  449.0000  -999.2500  -999.2500   -22.5508   222.6096     4.4799     4.1609
