~VERSION INFORMATION
 VERS.                2.0:   CWLS LOG ASCII STANDARD - VERSION 2.0
 WRAP.                 NO:   ONE LINE PER DEPTH STEP
~WELL INFORMATION
#MNEM.UNIT      DATA TYPE    INFORMATION
#----------   ------------   ------------------------------
 STRT.F           66.0000:   START DEPTH
 STOP.F         1030.5000:   STOP DEPTH
 STEP.F            0.5000:   STEP LENGTH
 NULL.          -999.2500:   NO VALUE
 COMP. U S NAVY/INTEX OIL CO:   COMPANY
 WELL.      NRP-3 #68S-11:   WELL
 FLD .             TEAPOT:   FIELD
 LOC .      S11 T38N R78W:   LOCATION
 CNTY.            NATRONA:   COUNTY
 STAT.            WYOMING:   STATE
 CTRY. UNITED STATES OF AMERICA:   COUNTRY
 SRVC.       Schlumberger:   SERVICE COMPANY
 DATE.        07-JUL-1962:   LOGDATE
 API .       490250632700:   API NUMBER
~CURVE INFORMATION
#MNEM.UNIT       API CODE    CURVE DESCRIPTION
#----------   ------------   ------------------------------
 DEPT.F                  :   
 SPR .MV     05 010 01 00:   SPONTANEOUS POTENTIAL FROM RES.
 ASN .OHMM   05 041 16 00:   AMPLIFIED SHORT NORMAL 16"
 ILD .OHMM   05 120 46 00:   INDUCTION LOG DEEP
 CILD.MMHO   05 110 46 00:   CONDUCTIVITY INDUCTION LOG DEEP
 GRN .GAPI   35 310 30 00:   GAMMA RAY
 GR  .GAPI   81 310 01 00:   GAMMA RAY
~PARAMETER INFORMATION
#MNEM.UNIT          VALUE    DESCRIPTION
#----------   ------------   ------------------------------
 LMF .                 KB:   LOG MEASURED FROM
 DMF .                 KB:   DRILLING MEASURED FROM
 EKB .F              5226:   KELLING BUSHING
 EGL .F              5221:   GROUND LEVEL
 DATE.           7-7-1962:   RUN DATE
 RUN .                  1:   RUN NUMBER
 DD  .F              1030:   DEPTH DRILLER
 DL  .F              1031:   DEPTH LOGGER
 BLI .F              1030:   BOTTOM LOG INTERVAL
 TLI .F                90:   TOP LOG INTERVAL
 CBD .F                10:   CASING BOTTOM DRILLER
 BS  .IN             6.75:   BIT SIZE
 BSD .F              1030:   BIT SIZE AT DEPTH
 DFT .            GEL-OIL:   DRILLING FLUID TYPE
 DFD .               10.2:   DRILLING FLUID DENSITY
 DFV .                 50:   DRILLING FLUID VISCOSITY
 DFL .                3.6:   DRILLING FLUID LOSS
 RMS .OHMM           5.06:   RESISTIVITY MUD SAMPLE
 MST .F                71:   MUD SAMPLE TEMPERATURE
 RMF .OHMM           4.89:   RESISTIVITY MUD FILTRATE SAMPLE
 MFST.F                71:   MUD FILTRATE SAMPLE TEMPERATURE
 RMC .OHMM           4.85:   RESISTIVITY MUD CAKE
 MCST.F                71:   MUD CAKE SAMPLE TEMPERATURE
 MFSS.                  M:   MUD FILTRATE SAMPLE SOURCE
 MCSS.                  M:   MUD CAKE SAMPLE SOURCE
 RMB .OHMM           4.54:   RESISTIVITY MUD AT BHT
 BHT .F                82:   BOTTOM HOLE TEMPERATURE
 TCS .HRS               1:   TIME CURCULATED STOPPED
 MRT .F                82:   MAXIMUM RECORDED TEMPERATURE
 LUN .               2503:   LOGGING UNIT NUMBER
 LUL .              CSPR.:   LOGGING UNIT LOCATION
 ENGI.             KNOBEL:   RECORDING ENGINEER
 WITN.          JORGENSEN:   WITNESSED BY
 CLNT.            A2DTECH:   CLIENT CODE
 ORIG.      2" & 5" PRINT:   ORIGIN OF DATA
 UWI .       490250632700:   UNIQUE WELL ID
 DICO. A2D Technologies, Inc.:   DIGITIZING COMPANY
~OTHER INFORMATION
~A   DEPT      SPR        ASN        ILD       CILD        GRN          GR  
# ...
  378.0000   -41.6883     4.5567     4.8943   209.5741  -999.2500   111.1700
  378.5000   -41.7327     4.5850     4.8023   213.7721  -999.2500   112.0971
  379.0000   -41.7687     4.6134     4.7093   217.7544  -999.2500   112.1797
  379.5000   -41.6393     4.6423     4.6153   217.2011  -999.2500   109.9435
  380.0000   -41.4546     4.6304     4.5208   217.1995  -999.2500   107.2539
  380.5000   -41.2675     4.5756     4.4264   219.6344  -999.2500   106.7061
  381.0000   -41.0804     4.5094     4.3316   227.4495  -999.2500   109.2646
  381.5000   -40.8931     4.4432     4.2137   239.1261  -999.2500   111.8011
  382.0000   -40.7050     4.3766     3.9792   251.3255  -999.2500   111.2495
  382.5000   -40.5257     4.2793     3.7450   267.7939  -999.2500   110.2175
  383.0000   -40.5241     4.1259     3.5082   287.4418  -999.2500   109.3577
  383.5000   -40.6210     3.9727     3.3044   307.1069  -999.2500   110.5047
  384.0000   -40.6603     3.7328     3.1051   326.7017  -999.2500   111.6481
  384.5000   -40.7009     3.6228     2.9016   344.5409  -999.2500   112.7771
  385.0000   -40.7415     3.5489     2.8280   353.1526  -999.2500   113.7494
  385.5000   -40.7446     3.4733     2.7873   347.1917  -999.2500   112.5346
  386.0000   -40.5841     3.5042     2.8169   338.5451  -999.2500   108.9632
  386.5000   -40.4277     3.6138     2.9846   325.5043  -999.2500   106.3166
  387.0000   -40.2747     3.7077     3.1495   310.5918  -999.2500   108.7546
  387.5000   -40.2912     3.7408     3.3152   293.3559  -999.2500   115.1177
  388.0000   -40.5830     3.9829     3.5361   266.4464  -999.2500   119.6858
  388.5000   -40.8707     4.2518     4.0672   239.5368  -999.2500   119.2363
  389.0000   -41.1584     4.6432     4.5957   216.7545  -999.2500   116.8828
  389.5000   -41.4496     4.7706     5.0194   200.3661  -999.2500   112.8363
  390.0000   -41.4881     4.9074     5.2064   192.6718  -999.2500   108.8258
  390.5000   -41.3594     4.9729     5.4064   188.8827  -999.2500   104.8044
  391.0000   -41.2269     5.0380     5.3743   191.3418  -999.2500   100.7674
  391.5000   -41.1716     5.0398     5.2765   195.6887  -999.2500    96.7780
  392.0000   -41.1708     5.0236     5.1789   202.7685  -999.2500    96.7385
  392.5000   -41.1709     4.9922     4.8459   213.0254  -999.2500   100.1908
  393.0000   -41.1692     4.7908     4.4360   237.8650  -999.2500   103.4990
  393.5000   -41.0646     4.5429     4.0183   262.7047  -999.2500   102.9318
  394.0000   -40.7527     4.2944     3.6019   287.5443  -999.2500   100.8278
  394.5000   -40.4441     4.0479     3.1797   309.4453  -999.2500   101.3866
  395.0000   -40.1352     3.8161     3.0975   324.1814  -999.2500   103.1118
  395.5000   -39.8258     3.6276     3.0208   330.0503  -999.2500   104.7940
  396.0000   -39.5134     3.6481     2.9418   332.5343  -999.2500   104.6986
  396.5000   -39.2049     3.7184     2.8621   333.2681  -999.2500   103.7762
  397.0000   -39.4776     3.6768     2.7758   327.5844  -999.2500   102.8642
  397.5000   -39.7977     3.6219     2.9437   318.9727  -999.2500   101.9620
  398.0000   -40.1166     3.7416     3.1991   301.5356  -999.2500   104.7708
  398.5000   -40.4345     3.9943     3.4565   275.5416  -999.2500   108.0325
  399.0000   -40.7475     4.1130     3.7138   252.3891  -999.2500   109.0540
  399.5000   -40.9661     4.1957     3.9712   233.6836  -999.2500   111.2403
  400.0000   -40.9254     4.3167     4.2232   227.1994  -999.2500   115.8932
  400.5000   -40.8906     4.4790     4.3606   220.5888  -999.2500   122.7034
  401.0000   -40.8551     4.6254     4.4790   219.0925  -999.2500   129.2106
  401.5000   -40.8197     4.7170     4.5979   217.6665  -999.2500   132.0993
  402.0000   -40.7843     4.7260     4.7224   216.8352  -999.2500   136.2632
  402.5000   -40.6886     4.7337     4.7091   216.0039  -999.2500   141.6434
  403.0000   -40.5689     4.7347     4.6515   217.7886  -999.2500   145.4048
  403.5000   -40.4489     4.6699     4.5921   221.8297  -999.2500   146.3573
  404.0000   -40.3289     4.5776     4.4790   229.1056  -999.2500   139.1182
  404.5000   -40.2089     4.4495     4.2384   241.1596  -999.2500   131.3452
  405.0000   -40.0889     4.2767     3.9998   253.2135  -999.2500   123.5922
  405.5000   -39.9690     4.0916     3.7609   269.3243  -999.2500   118.7531
  406.0000   -39.8490     3.9608     3.5144   287.0085  -999.2500   113.4609
  406.5000   -39.7290     3.8283     3.4002   297.0458  -999.2500   105.5177
  407.0000   -39.6087     3.7632     3.3205   300.1631  -999.2500   100.4220
  407.5000   -39.4888     3.7153     3.2419   303.2805  -999.2500    95.9369
  408.0000   -39.3820     3.6681     3.1610   308.0801  -999.2500    92.8839
  408.5000   -39.3845     3.6207     3.0979   316.2744  -999.2500    92.7493
  409.0000   -39.3849     3.5037     3.0338   324.4658  -999.2500    93.9175
  409.5000   -39.3849     3.3274     2.9695   332.6557  -999.2500    93.6889
  410.0000   -39.3849     3.3371     2.9052   340.8351  -999.2500    93.3929
  410.5000   -39.3849     3.3508     2.8410   349.0392  -999.2500    93.2425
  411.0000   -39.3849     3.2840     2.7783   364.4130  -999.2500    97.9813
  411.5000   -39.3849     3.2172     2.5740   382.4574  -999.2500   107.5115
  412.0000   -39.3849     3.0977     2.3250   414.2120  -999.2500   116.9670
  412.5000   -39.3850     2.9610     2.0752   450.6616  -999.2500   124.6747
  413.0000   -39.3853     2.8231     1.8278   483.4734  -999.2500   120.4364
  413.5000   -39.3886     2.7300     1.6643   500.2787  -999.2500   108.9630
  414.0000   -39.2216     2.6693     1.7681   498.8537  -999.2500   102.4910
  414.5000   -39.0061     2.6645     1.8763   463.6615  -999.2500   100.0685
  415.0000   -38.7887     2.7265     1.9849   444.5464  -999.2500   100.2635
  415.5000   -38.5731     2.7878     2.0945   422.3992  -999.2500    97.3092
  416.0000   -38.4195     2.8494     2.2926   388.9694  -999.2500    92.9151
  416.5000   -38.6325     2.9399     2.6595   355.3607  -999.2500    90.0393
  417.0000   -38.8409     3.2201     3.0240   320.4978  -999.2500    94.8130
  417.5000   -39.0482     3.6837     3.3893   283.0891  -999.2500    99.9925
  418.0000   -39.2538     3.8565     3.7527   260.4115  -999.2500   101.7955
  418.5000   -39.4058     3.9725     4.0910   245.6305  -999.2500    97.5993
  419.0000   -39.4566     3.9669     4.0198   249.6792  -999.2500    94.5649
  419.5000   -39.5090     3.8844     3.7914   261.5813  -999.2500    93.7988
  420.0000   -39.5621     3.8029     3.5613   277.0126  -999.2500    95.9219
  420.5000   -39.5443     3.7213     3.3308   293.3901  -999.2500    99.8363
  421.0000   -39.4784     3.6382     3.1007   309.7524  -999.2500   100.7953
  421.5000   -39.4139     3.5297     2.8576   334.7050  -999.2500   100.2072
  422.0000   -39.1981     3.4192     2.5929   361.9128  -999.2500    99.5293
  422.5000   -38.8830     3.3086     2.3272   387.5175  -999.2500    97.6487
  423.0000   -38.5658     3.1981     2.0731   404.4208  -999.2500    95.7100
  423.5000   -38.2504     3.0884     2.1228   413.8828  -999.2500    97.0316
  424.0000   -38.0157     3.0214     2.1863   406.7999  -999.2500    99.9103
  424.5000   -38.1718     3.0944     2.2459   389.0332  -999.2500   105.3653
  425.0000   -38.3210     3.2848     2.4613   369.0818  -999.2500   103.2026
  425.5000   -38.4691     3.3594     2.7107   349.1305  -999.2500   100.8740
  426.0000   -38.6172     3.4340     2.9602   329.2589  -999.2500    98.5252
  426.5000   -38.7652     3.6956     3.2403   294.2047  -999.2500    99.1015
  427.0000   -38.9133     4.0893     3.6015   259.5686  -999.2500    96.7334
  427.5000   -39.0614     4.4688     4.0230   233.7121  -999.2500    94.0732
  428.0000   -39.2098     4.6305     4.4482   217.9396  -999.2500    94.3446
  428.5000   -39.3595     4.7827     4.8753   208.4627  -999.2500    94.4191
  429.0000   -39.4022     4.9310     5.0773   204.2544  -999.2500    92.1172
  429.5000   -39.4236     5.0092     5.2337   203.3475  -999.2500    92.3882
