~VERSION INFORMATION
 VERS.                2.0:   CWLS LOG ASCII STANDARD - VERSION 2.0
 WRAP.                 NO:   ONE LINE PER DEPTH STEP
~WELL INFORMATION
#MNEM.UNIT      DATA TYPE    INFORMATION
#----------   ------------   ------------------------------
 STRT.F            1.0000:   START DEPTH
 STOP.F          520.0000:   STOP DEPTH
 STEP.F            0.5000:   STEP LENGTH
 NULL.          -999.2500:   NO VALUE
 COMP. LAWRENCE/ALLISON INC:   COMPANY
 WELL.      77-13 SX #3-3:   WELL
 FLD .              NPR 3:   FIELD
 LOC .       S3 T38N R78W:   LOCATION
 CNTY.            NATRONA:   COUNTY
 STAT.            WYOMING:   STATE
 CTRY. UNITED STATES OF AMERICA:   COUNTRY
 SRVC.           Gearhart:   SERVICE COMPANY
 DATE.        22-JUN-1988:   LOGDATE
 API .       490251123700:   API NUMBER
~CURVE INFORMATION
#MNEM.UNIT       API CODE    CURVE DESCRIPTION
#----------   ------------   ------------------------------
 DEPT.F                  :   
 GRR .GAPI   07 310 01 00:   GAMMA RAY
 RILD.OHMM   07 120 46 00:   INDUCTION LOG DEEP RESISTIVITY
 RILM.OHMM   07 120 44 00:   INDUCTION LOG MEDIUM RESISTIVITY
~PARAMETER INFORMATION
#MNEM.UNIT          VALUE    DESCRIPTION
#----------   ------------   ------------------------------
 PD  .                 GL:   PERMANENT DATUM
 EPD .F              5166:   ELEVATION PERMANENT DATUM
 LMF .                 KB:   LOG MEASURED FROM
 DAPD.F                10:   FEET ABOVE PERMANENT DATUM
 DMF .                 KB:   DRILLING MEASURED FROM
 EKB .F              5176:   KELLING BUSHING
 EGL .F              5166:   GROUND LEVEL
 DATE.        22-JUN-1988:   RUN DATE
 RUN .                  1:   RUN NUMBER
 DD  .F               530:   DEPTH DRILLER
 DL  .F               528:   DEPTH LOGGER
 BLI .F               520:   BOTTOM LOG INTERVAL
 TLI .F                50:   TOP LOG INTERVAL
 CS  .IN            9.625:   CASING SIZE
 CBD .F                50:   CASING BOTTOM DRILLER
 CBL .F                50:   CASING BOTTOM LOGGER
 BS  .IN             8.75:   BIT SIZE
 BSD .F               530:   BIT SIZE AT DEPTH
 DFT .                AIR:   DRILLING FLUID TYPE
 TLAB.HRS            0908:   TIME LOGGER AT BOTTOM
 MRT .F                70:   MAXIMUM RECORDED TEMPERATURE
 LUN .               7597:   LOGGING UNIT NUMBER
 LUL .           GILLETTE:   LOGGING UNIT LOCATION
 ENGI.           JOHNSTON:   RECORDING ENGINEER
 WITN.             STRONG:   WITNESSED BY
 CLNT.            A2DTECH:   CLIENT CODE
 ORIG.           5" PRINT:   ORIGIN OF DATA
 UWI .       490251123700:   UNIQUE WELL ID
 DICO. A2D Technologies, Inc.:   DIGITIZING COMPANY
~OTHER INFORMATION
~A    DEPT       GRR     RILD       RILM   
# ...
   92.0000   141.8569     9.1709     9.2137
   92.5000   142.1613     9.4313     9.3949
   93.0000   142.4658     9.6316     9.4597
   93.5000   142.7702     9.8362     9.5914
   94.0000   143.0746     9.9058     9.7250
   94.5000   142.7702     9.9759     9.8600
   95.0000   141.2481     9.9766     9.8587
   95.5000   140.0304     9.9079     9.8573
   96.0000   139.4216     9.9086     9.8559
   96.5000   140.6393     9.8403     9.8546
   97.0000   141.8569     9.8410     9.9226
   97.5000   142.1613     9.7052     9.9907
   98.0000   141.2481     9.5712    10.0590
   98.5000   143.3790     9.4391    10.1284
   99.0000   145.8143     9.3089    10.1267
   99.5000   147.6408     9.1804    10.1253
  100.0000   148.8584     9.1172     9.7085
  100.5000   148.2496     9.2053     9.1797
  101.0000   146.1187     9.2866     9.0512
  101.5000   142.2171     9.3680     9.1772
  102.0000   142.8441     9.4412     9.3053
  102.5000   145.6019     9.5073     9.5672
  103.0000   147.1421     9.5739     9.7684
  103.5000   147.1832     9.6410     9.8751
  104.0000   145.0474     9.7766    10.0100
  104.5000   142.6302     9.9141    10.2169
  105.0000   140.1828    10.1240    10.4292
  105.5000   137.1231    10.4107    10.6459
  106.0000   134.4009    10.7056    10.8682
  106.5000   133.2657    10.8562    11.0929
  107.0000   133.9482    11.0860    11.4028
  107.5000   134.5196    11.4000    11.6399
  108.0000   131.1936    11.6414    11.9649
  108.5000   127.8632    11.8878    12.2135
  109.0000   125.7504    12.3102    12.4673
  109.5000   125.4595    12.5708    12.6376
  110.0000   127.3086    12.7476    12.9002
  110.5000   128.5444    12.9268    13.1683
  111.0000   129.1713    13.1086    13.3482
  111.5000   130.1027    13.2005    13.3425
  112.0000   131.6429    13.2930    13.3369
  112.5000   133.4874    13.3861    13.3313
  113.0000   133.2011    13.3861    13.3246
  113.5000   131.3927    13.3861    13.3190
  114.0000   129.2799    13.3861    13.3135
  114.5000   126.8627    13.2930    13.3080
  115.0000   124.1411    13.2005    13.3024
  115.5000   121.1150    13.0174    13.2042
  116.0000   121.4376    12.8369    13.1067
  116.5000   123.8910    12.7476    12.9193
  117.0000   125.7356    12.6589    12.7346
  117.5000   128.7978    12.6589    12.6406
  118.0000   130.9468    12.5708    12.6353
  118.5000   130.3347    12.5708    12.6301
  119.0000   127.9028    12.5708    12.6248
  119.5000   125.7675    12.7476    12.7094
  120.0000   123.9371    12.9268    12.7028
  120.5000   121.8020    12.9253    12.6975
  121.0000   117.9701    12.8369    12.6923
  121.5000   114.9441    12.7476    12.6870
  122.0000   116.7886    12.7476    12.5056
  122.5000   121.9818    12.6515    12.3267
  123.0000   125.6528    12.4833    12.1505
  123.5000   127.8018    12.3002    11.8932
  124.0000   128.4288    12.0550    11.8054
  124.5000   129.3601    11.8051    11.7183
  125.0000   129.9870    11.7093    11.5507
  125.5000   130.3050    11.5456    11.3856
  126.0000   128.8056    11.4000    11.3014
  126.5000   128.5147    11.2419    11.2102
  127.0000   130.6683    11.1637    10.9805
  127.5000   131.2952    11.0089    10.8993
  128.0000   128.5736    10.9323    10.8939
  128.5000   126.4608    10.8562    10.8893
  129.0000   125.5611    10.8562    10.7336
  129.5000   127.4102    10.7806    10.6544
  130.0000   129.8636    10.7806    10.5757
  130.5000   131.7082    10.7056    10.4977
  131.0000   133.5528    10.7056    10.4202
  131.5000   133.2664    10.6311    10.2712
  132.0000   131.1380    10.5572    10.1953
  132.5000   127.8082    10.4837    10.1911
  133.0000   127.5369    10.3383    10.1869
  133.5000   128.5064    10.3383    10.1117
  134.0000   130.0091    10.3383    10.0370
  134.5000   129.1178    10.3383    10.0328
  135.0000   127.0050    10.3383    10.0287
  135.5000   121.8481    10.2664    10.0245
  136.0000   121.5572    10.1949    10.0203
  136.5000   124.9284    10.0535    10.0161
  137.0000   126.7730     9.9836     9.9422
  137.5000   128.9220     9.9141     9.8000
  138.0000   130.7665     9.7766     9.5257
  138.5000   131.0845     9.7086     9.3241
  139.0000   131.4116     9.5739     8.9999
  139.5000   132.9518     9.2454     8.8094
  140.0000   135.1007     8.9282     8.6834
  140.5000   135.4187     8.8661     8.6193
  141.0000   130.8751     8.8044     8.5556
  141.5000   127.8491     8.7431     8.4924
  142.0000   127.5583     8.6823     8.4889
  142.5000   130.3206     8.6823     8.4853
  143.0000   133.6873     8.6823     8.4811
  143.5000   134.9230     8.6219     8.5370
  144.0000   134.3318     8.6219     8.5943
  144.5000   134.6548     8.6219     8.6510
  145.0000   134.6729     8.6823     8.6465
  145.5000   134.9964     8.6823     8.7035
  146.0000   135.6225     8.7431     8.7619
  146.5000   134.3998     8.8044     8.8816
  147.0000   132.8849     8.9282     9.0652
  147.5000   131.3698     9.1172     9.2535
  148.0000   129.8549     9.4412     9.3800
  148.5000   128.7113     9.8451     9.5081
  149.0000   129.9516     9.9141     9.5719
  149.5000   132.1006     9.9141     9.6350
  150.0000   133.4158     9.9836     9.6300
  150.5000   134.4323     9.9319     9.6946
  151.0000   135.4838     9.8803     9.7516
  151.5000   137.3193     9.8286     9.8796
  152.0000   137.9349     9.7793     9.8693
  152.5000   136.7263     9.7802     9.7924
  153.0000   136.4309     9.7808     9.7843
  153.5000   137.6599     9.7134     9.7761
  154.0000   139.1910     9.7141     9.7680
  154.5000   140.1133     9.7148     9.7599
  155.0000   140.4267     9.7155     9.7518
  155.5000   141.0446     9.7161     9.7437
  156.0000   140.1404     9.7168     9.8043
  156.5000   136.8008     9.7175     9.7958
  157.0000   134.3746     9.7181     9.7877
  157.5000   134.9924     9.7188     9.7795
  158.0000   136.5317     9.7195     9.7714
  158.5000   137.1414     9.7201     9.7633
  159.0000   136.8118     9.7208     9.6871
  159.5000   135.8944     9.7215     9.6789
  160.0000   134.4310     9.7222     9.6708
  160.5000   133.2224     9.7228     9.5954
  161.0000   132.9248     9.7235     9.5190
  161.5000   133.2405     9.6565     9.4448
  162.0000   133.2495     9.5153     9.3059
  162.5000   133.2585     9.3265     9.1690
  163.0000   134.1808     9.1338     8.9712
  163.5000   136.0163     8.8829     8.7776
  164.0000   137.5474     8.6994     8.6485
  164.5000   135.7300     8.5196     8.4619
  165.0000   132.0861     8.3436     8.3977
  165.5000   131.1796     8.1712     8.2148
  166.0000   133.0174     8.0023     7.9816
  166.5000   133.6330     7.7283     7.7009
  167.0000   132.4266     7.4117     7.3783
  167.5000   131.8265     7.1081     7.1688
  168.0000   133.3579     6.9611     7.0634
  168.5000   134.2802     7.1091     7.0575
  169.0000   133.3760     7.0600     7.1013
  169.5000   132.7762     6.9142     7.3477
  170.0000   132.7854     7.2105     7.6029
  170.5000   133.1324     7.5723     7.7576
  171.0000   134.0681     7.8419     7.9162
  171.5000   136.1632     7.9527     8.0795
  172.0000   138.9119     8.0681     8.2989
  172.5000   141.9651     8.2364     8.3502
  173.0000   142.8851     8.3614     8.2848
  173.5000   140.7655     8.5304     8.3363
  174.0000   136.2083     8.6509     8.3276
  174.5000   134.9975     8.3547     8.3207
  175.0000   137.4440     8.2392     8.2559
  175.5000   139.5840     8.2400     8.1915
  176.0000   140.8107     8.2405     8.1277
  176.5000   142.0374     8.1836     8.1558
  177.0000   142.0464     8.1272     8.0931
  177.5000   139.6201     8.0152     8.0304
  178.0000   135.6718     7.7407     7.8429
  178.5000   133.5477     7.2697     7.5733
  179.0000   133.2542     6.9304     7.1115
  179.5000   133.8724     6.4487     6.4487
  180.0000   134.1858     6.2270     5.8070
  180.5000   133.8904     6.1402     5.4912
  181.0000   133.2907     6.1398     5.3024
  181.5000   132.9953     6.1394     5.1560
  182.0000   133.0045     6.1820     5.3388
  182.5000   133.3181     6.2685     5.6847
