~VERSION INFORMATION
 VERS.                2.0:   CWLS LOG ASCII STANDARD - VERSION 2.0
 WRAP.                 NO:   ONE LINE PER DEPTH STEP
~WELL INFORMATION
#MNEM.UNIT      DATA TYPE    INFORMATION
#----------   ------------   ------------------------------
 STRT.F           32.5000:   START DEPTH
 STOP.F          433.0000:   STOP DEPTH
 STEP.F            0.5000:   STEP LENGTH
 NULL.          -999.2500:   NO VALUE
 COMP.    FENIX & SCISSON:   COMPANY
 WELL. NPR-3 65-S-10 #65-10:   WELL
 FLD .             TEAPOT:   FIELD
 LOC .      S10 T38N R78W:   LOCATION
 CNTY.            NATRONA:   COUNTY
 STAT.            WYOMING:   STATE
 CTRY. UNITED STATES OF AMERICA:   COUNTRY
 SRVC.           BIRDWELL:   SERVICE COMPANY
 DATE.        13-JUN-1978:   LOGDATE
 API .       490251063000:   API NUMBER
~CURVE INFORMATION
#MNEM.UNIT       API CODE    CURVE DESCRIPTION
#----------   ------------   ------------------------------
 DEPT.F                  :   
 CALD.IN     45 280 60 00:   CALIPER FROM DENSITY LOG
 CORR.G/C3   45 356 01 00:   DENSITY CORRECTION
 DEN .G/C3   45 350 01 00:   COMPENSATED BULK DENSITY
 GRD .GAPI   45 310 01 00:   GAMMA RAY FROM DENSITY LOG
 DPHI.DEC    45 890 12 00:   DENSITY POROSITY SANDSTONE
 IL  .OHMM   05 120 00 00:   INDUCTION LOG 40"
 SN  .OHMM   05 040 16 00:   SHORT NORMAL 16"
 SPR .MV     05 010 01 00:   SPONTANEOUS POTENTIAL FROM RES.
~PARAMETER INFORMATION
#MNEM.UNIT          VALUE    DESCRIPTION
#----------   ------------   ------------------------------
 PD  .                 GL:   PERMANENT DATUM
 EPD .F              5193:   ELEVATION PERMANENT DATUM
 LMF .                 KB:   LOG MEASURED FROM
 DMF .                 KB:   DRILLING MEASURED FROM
 EKB .F              5197:   KELLING BUSHING
 EGL .F              5193:   GROUND LEVEL
 DATE.          6-13-1978:   RUN DATE
 RUN .                  1:   RUN NUMBER
 DD  .F               430:   DEPTH DRILLER
 DL  .F               433:   DEPTH LOGGER
 BLI .F               427:   BOTTOM LOG INTERVAL
 TLI .F                50:   TOP LOG INTERVAL
 CS  .IN            8.625:   CASING SIZE
 CBD .F                40:   CASING BOTTOM DRILLER
 CBL .F                48:   CASING BOTTOM LOGGER
 BS  .IN            7.875:   BIT SIZE
 BSD .F               430:   BIT SIZE AT DEPTH
 DFT .                KCL:   DRILLING FLUID TYPE
 DFD .                8.7:   DRILLING FLUID DENSITY
 DFV .                 32:   DRILLING FLUID VISCOSITY
 DFPH.                9.5:   DRILLING FLUID PH
 DFL .                8.4:   DRILLING FLUID LOSS
 MSS .           FLOWLINE:   MUD SAMPLE SOURCE
 RMS .OHMM            .38:   RESISTIVITY MUD SAMPLE
 MST .F                86:   MUD SAMPLE TEMPERATURE
 RMF .OHMM            .36:   RESISTIVITY MUD FILTRATE SAMPLE
 MFST.F                82:   MUD FILTRATE SAMPLE TEMPERATURE
 MFSS.               MEAS:   MUD FILTRATE SAMPLE SOURCE
 MCSS.               MEAS:   MUD CAKE SAMPLE SOURCE
 TCS .HRS               3:   TIME CURCULATED STOPPED
 MRT .F                73:   MAXIMUM RECORDED TEMPERATURE
 LUN .               2958:   LOGGING UNIT NUMBER
 LUL .               CASP:   LOGGING UNIT LOCATION
 ENGI.           REYNOLDS:   RECORDING ENGINEER
 WITN.           MCGINLEY:   WITNESSED BY
 CLNT.            A2DTECH:   CLIENT CODE
 ORIG.           5" PRINT:   ORIGIN OF DATA
 UWI .       490251063000:   UNIQUE WELL ID
 DICO. A2D Technologies, Inc.:   DIGITIZING COMPANY
~OTHER INFORMATION
~A   DEPT     CALD       CORR        DEN        GRD       DPHI         IL         SN        SPR   
# ...
   73.0000     6.9633    -0.0066     2.4551   135.1651     0.1360   293.9893     7.7988   -70.7689
   73.5000     6.9184    -0.0006     2.4461   138.7561     0.1393   174.3912     7.8052   -47.8131
   74.0000     6.9182     0.0023     2.4394   139.0577     0.1399    21.9822     7.9185   -70.8608
   74.5000     6.9180     0.0053     2.4417   134.1294     0.1336     8.2786     8.0889   -71.7430
   75.0000     6.9329     0.0083     2.4215   124.2683     0.1312     7.6836     7.9302   -71.7253
   75.5000     6.9327     0.0119     2.4268   123.0760     0.1294     4.6851     7.8391   -71.4135
   76.0000     6.9474     0.0142     2.4350   122.0332     0.1276     2.7791     7.7238   -71.1012
   76.5000     6.9473     0.0172     2.4432   120.9904     0.1244     2.5788     7.6245   -70.9351
   77.0000     6.9919     0.0172     2.4508   120.5454     0.1217     2.4596     7.6297   -70.7721
   77.5000     7.1410     0.0172     2.4537   122.9415     0.1211     2.2673     7.6885   -71.0555
   78.0000     7.2901     0.0158     2.4552   128.0272     0.1193     1.9775     7.8540   -71.6369
   78.5000     7.4542     0.0159     2.4583   126.5359     0.1184     0.1099     7.9680   -72.6910
   79.0000     7.5287     0.0202     2.4605   124.8961     0.1205     0.0481     7.9184   -74.2832
   79.5000     7.5584     0.0232     2.4628   124.7493     0.1262     0.0026     7.9239   -74.5701
   80.0000     7.5582     0.0262     2.4628   125.0517     0.1267     0.0026     7.9302   -74.5524
   80.5000     7.5730     0.0232     2.4461   122.4900     0.1246     0.0026     7.8797   -74.2406
   81.0000     7.5878     0.0173     2.4419   123.4163     0.1246     0.0026     7.8862   -73.3333
   81.5000     7.5577     0.0144     2.4441   124.3167     0.1240     0.0026     7.8372   -73.0181
   82.0000     7.5576     0.0144     2.4494   122.9749     0.1210     0.0026     7.7886   -73.1527
   82.5000     7.5575     0.0129     2.4576   121.9321     0.1204     0.0026     7.8480   -73.5885
   83.0000     7.5274     0.0115     2.4606   121.7861     0.1156     0.0026     7.9082   -73.7231
   83.5000     7.4975     0.0130     2.4614   121.7905     0.1091     0.0026     7.9134   -73.8542
   84.0000     7.4675     0.0145     2.4614   121.9435     0.1073     0.0026     7.9185   -73.8364
   84.5000     7.4374     0.0160     2.4614   119.4059     0.1186     0.0026     7.9239   -73.8223
   85.0000     7.4373     0.0204     2.4644   116.5702     0.1231     0.0026     7.9302   -73.5104
   85.5000     7.4372     0.0234     2.4659   115.2285     0.1210     0.0026     7.9354   -72.0081
   86.0000     7.4669     0.0264     2.4689   114.3342     0.1192     0.0027     7.9406   -71.2499
   86.5000     7.5115     0.0264     2.4719   118.8229     0.1186     0.5626     7.9458   -71.5563
   87.0000     7.5263     0.0264     2.4742   121.9664     0.1137     1.3874     8.0613   -71.9620
   87.5000     7.5261     0.0234     2.4750   115.5424     0.1078     2.9408     8.1795   -71.9478
   88.0000     7.5111     0.0220     2.4742   114.9480     0.1043     7.2526     8.1849   -71.7848
   88.5000     7.5557     0.0205     2.4750   115.1010     0.1066     8.3327     8.0770   -71.6218
   89.0000     7.5704     0.0205     2.4758   116.0022     0.1122     8.4559     8.0281   -71.9221
   89.5000     7.6166     0.0191     2.4757   118.2479     0.1180     8.4637     8.0891   -72.4862
   90.0000     7.6448     0.0176     2.4735   129.0137     0.1192     8.4714     8.2077   -72.3214
   90.5000     7.5252     0.0176     2.4691   130.0636     0.1186     8.3632     8.2125   -72.5975
   91.0000     7.4206     0.0176     2.4601   126.3311     0.1195     8.2564     8.2185   -72.5706
   91.5000     7.3159     0.0147     2.4482   122.4482     0.1210     8.2659     8.1115   -72.7033
   92.0000     7.1665     0.0147     2.4482   121.4054     0.1240     8.2148     8.1730   -72.3788
   92.5000     7.0470     0.0137     2.4534   120.9605     0.1264     8.2242     8.2360   -71.7620
   93.0000     6.9563     0.0147     2.4512   115.2847     0.1281     8.2319     8.1849   -71.2941
   93.5000     7.0168     0.0147     2.4475   113.6431     0.1246     8.1828     8.1328   -70.9673
   94.0000     7.1063     0.0148     2.4453   120.6729     0.1260     8.1360     8.0835   -70.7993
   94.5000     7.0763     0.0163     2.4460   120.3775     0.1300     8.0857     7.9237   -70.9319
   95.0000     7.0761     0.0222     2.4460   119.7840     0.1320     8.0950     7.8219   -70.9050
   95.5000     7.1058     0.0296     2.4468   119.4877     0.1302     8.1026     7.8270   -70.8835
   96.0000     7.1654     0.0340     2.4468   120.2395     0.1260     8.1677     7.9406   -70.7132
   96.5000     7.2550     0.0401     2.4483   123.6809     0.1205     8.2885     8.1675   -70.6917
   97.0000     7.3143     0.0444     2.4528   129.2160     0.1165     8.4692     8.4010   -70.6696
   97.5000     7.3291     0.0385     2.4603   130.2658     0.1126     8.5945     8.5830   -70.3457
   98.0000     7.3140     0.0208     2.4708   128.3262     0.0982     8.8445     8.7677   -69.7289
   98.5000     7.2392     0.0105     2.4790   120.1084     0.1054     9.0373     8.8950   -69.4098
   99.0000     7.2242     0.0090     2.4873   116.2264     0.1239     9.2344     9.0864   -69.2395
   99.5000     7.3434     0.0075     2.4910   114.7343     0.1253     9.5008     9.2821   -69.3676
  100.0000     7.1343     0.0061     2.4738   114.7387     0.1179     9.7750     9.4182   -69.3452
  100.5000     7.2237     0.0061     2.4559   114.4432     0.1191     9.9219     9.5549   -69.3219
  101.0000     7.2833     0.0076     2.4619   114.1478     0.1194    10.1382     9.6936   -69.3004
  101.5000     7.3130     0.0091     2.4634   114.1522     0.1197    10.3592     9.9022   -69.1295
  102.0000     7.3278     0.0092     2.4634   114.3052     0.1159    10.5124    10.1155   -69.1032
  102.5000     7.3426     0.0121     2.4620   115.6540     0.1054    10.6717    10.4060   -69.2359
  103.0000     7.3424     0.0121     2.4627   116.7048     0.1030    10.9783    10.6284   -69.2090
  103.5000     7.3422     0.0121     2.4769   113.5693     0.1012    11.1407    10.8332   -69.1875
  104.0000     7.3421     0.0121     2.4874   106.9958     0.1044    11.3055    11.0114   -69.1659
  104.5000     7.3718     0.0121     2.4897   106.9619     0.1080    11.3158    11.1706   -69.1443
  105.0000     7.4015     0.0151     2.4904   109.0964     0.1091    11.4047    11.4890   -69.1220
  105.5000     7.4909     0.0210     2.4873   107.0072     0.1121    11.4964    11.6550   -69.0960
  106.0000     7.3749     0.0181     2.4778   105.5151     0.1166    11.4280    11.8234   -69.2287
  106.5000     7.3154     0.0122     2.4710   106.8648     0.1202    11.3600    11.9236   -69.2018
  107.0000     7.2558     0.0092     2.4651   109.2608     0.1226    11.3704    12.0032   -69.0315
  107.5000     7.2560     0.0092     2.4614   107.5635     0.1246    11.2140    12.0103   -69.0100
  108.0000     7.2561     0.0122     2.4651   104.2750     0.1276    10.9328    12.0174   -68.8393
  108.5000     7.2563     0.0137     2.4591   105.1719     0.1300    10.7932    11.8600   -68.6639
  109.0000     7.2863     0.0152     2.4524   109.9751     0.1315    10.6529    11.5451   -68.6424
  109.5000     7.3909     0.0182     2.4517   109.3572     0.1308    10.1380    11.3177   -68.1745
  110.0000     7.5254     0.0241     2.4525   105.3214     0.1300    10.0744    11.1680   -67.8553
  110.5000     7.7196     0.0331     2.4487   106.3677     0.1296    10.0844    11.0980   -67.8338
  111.0000     7.8242     0.0389     2.4458   111.7489     0.1257    10.0923    11.1062   -67.8123
  111.5000     7.8542     0.0375     2.4469   113.0942     0.1168    10.1022    11.1128   -67.8128
  112.0000     7.7946     0.0360     2.4492   110.8520     0.1126    10.1102    10.9674   -67.7950
  112.5000     7.7351     0.0360     2.4574   108.3109     0.1176    10.1182    10.8256   -67.7808
  113.0000     7.6457     0.0360     2.4641   107.1151     0.1254    10.1261    10.6092   -67.9529
