~VERSION INFORMATION
 VERS.                2.0:   CWLS LOG ASCII STANDARD - VERSION 2.0
 WRAP.                 NO:   ONE LINE PER DEPTH STEP
~WELL INFORMATION
#MNEM.UNIT      DATA TYPE    INFORMATION
#----------   ------------   ------------------------------
 STRT.F           50.0000:   START DEPTH
 STOP.F         1561.5000:   STOP DEPTH
 STEP.F            0.5000:   STEP LENGTH
 NULL.          -999.2500:   NO VALUE
 COMP. FENIX & SCISSON INC:   COMPANY
 WELL.  72 SH 3 STX #72-3:   WELL
 FLD .             TEAPOT:   FIELD
 LOC .       S3 T38N R78W:   LOCATION
 CNTY.            NATRONA:   COUNTY
 STAT.            WYOMING:   STATE
 CTRY. UNITED STATES OF AMERICA:   COUNTRY
 SRVC.           BIRDWELL:   SERVICE COMPANY
 DATE.        31-JUL-1979:   LOGDATE
 API .       490251078600:   API NUMBER
~CURVE INFORMATION
#MNEM.UNIT       API CODE    CURVE DESCRIPTION
#----------   ------------   ------------------------------
 DEPT.F                  :   
 CALD.IN     45 280 60 00:   CALIPER FROM DENSITY LOG
 GRD .GAPI   45 310 01 00:   GAMMA RAY FROM DENSITY LOG
 RHOB.G/C3   45 350 01 00:   BULK DENSITY
 CORR.G/C3   45 356 01 00:   DENSITY CORRECTION
 DPHI.DEC    45 890 12 00:   DENSITY POROSITY SANDSTONE
 GR  .GAPI   81 310 01 00:   GAMMA RAY
~PARAMETER INFORMATION
#MNEM.UNIT          VALUE    DESCRIPTION
#----------   ------------   ------------------------------
 PD  .                 GL:   PERMANENT DATUM
 EPD .F              5165:   ELEVATION PERMANENT DATUM
 LMF .                 KB:   LOG MEASURED FROM
 DAPD.F                10:   FEET ABOVE PERMANENT DATUM
 DMF .                 KB:   DRILLING MEASURED FROM
 EKB .F              5175:   KELLING BUSHING
 EGL .F              5165:   GROUND LEVEL
 DATE.            7-31-79:   RUN DATE
 RUN .                  1:   RUN NUMBER
 DD  .F              1564:   DEPTH DRILLER
 DL  .F              1560:   DEPTH LOGGER
 BLI .F              1560:   BOTTOM LOG INTERVAL
 TLI .F               700:   TOP LOG INTERVAL
 CS  .IN            9.625:   CASING SIZE
 CBD .F               691:   CASING BOTTOM DRILLER
 CBL .F               680:   CASING BOTTOM LOGGER
 BS  .IN            7.875:   BIT SIZE
 BSD .F              1564:   BIT SIZE AT DEPTH
 DFT .                OIL:   DRILLING FLUID TYPE
 BHT .F                92:   BOTTOM HOLE TEMPERATURE
 TCS .HRS               2:   TIME CURCULATED STOPPED
 MRT .F                92:   MAXIMUM RECORDED TEMPERATURE
 LUN .               3029:   LOGGING UNIT NUMBER
 LUL .                CPR:   LOGGING UNIT LOCATION
 ENGI.             MILLER:   RECORDING ENGINEER
 WITN.           DINSMORE:   WITNESSED BY
 CLNT.            A2DTECH:   CLIENT CODE
 ORIG.       2", 5" PRINT:   ORIGIN OF DATA
 UWI .       490251078600:   UNIQUE WELL ID
 DICO. A2D Technologies, Inc.:   DIGITIZING COMPANY
~OTHER INFORMATION
~A   DEPT     CALD        GRD       RHOB       CORR       DPHI          GR  
# ...
 1194.0000     9.1153   103.5835     2.5436     0.0056    -0.0014    99.7697
 1194.5000     9.1137   106.0803     2.5534     0.0126    -0.0071   102.4412
 1195.0000     9.1119   108.6042     2.5607     0.0189    -0.0094   104.1240
 1195.5000     9.1103   111.1073     2.5560     0.0181    -0.0051   101.6235
 1196.0000     9.1086   112.7993     2.5496     0.0142    -0.0011    98.1997
 1196.5000     9.1069   104.2699     2.5432     0.0104     0.0029    94.7657
 1197.0000     9.1052   102.0744     2.5367     0.0067     0.0069    92.3257
 1197.5000     9.1035   103.2286     2.5302     0.0029     0.0110    93.7696
 1198.0000     9.1018   105.0975     2.5237    -0.0009     0.0134    95.1215
 1198.5000     9.1000   102.7315     2.5203    -0.0046     0.0109    96.2037
 1199.0000     9.0984   100.1393     2.5295    -0.0044     0.0078    93.7160
 1199.5000     9.0996   102.2986     2.5384    -0.0016     0.0050    90.9118
 1200.0000     9.1011   106.0121     2.5361     0.0010     0.0061    94.5599
 1200.5000     9.1026   105.8688     2.5310     0.0035     0.0084    98.9344
 1201.0000     9.1041   105.6137     2.5320     0.0062     0.0082    98.6487
 1201.5000     9.1056   105.9380     2.5370     0.0088     0.0027    96.1167
 1202.0000     9.1072   107.7461     2.5408     0.0059     0.0031    96.2193
 1202.5000     9.1087   111.2101     2.5338     0.0024     0.0083    99.2720
 1203.0000     9.1102   116.4050     2.5264    -0.0010     0.0134   102.2156
 1203.5000     9.1117   117.8155     2.5224    -0.0045     0.0130   103.8518
 1204.0000     9.1132   112.1685     2.5273    -0.0073     0.0101   103.0550
 1204.5000     9.1147   107.1413     2.5327    -0.0006     0.0074    98.5942
 1205.0000     9.1163   102.9523     2.5382     0.0058     0.0041    95.2728
 1205.5000     9.1178   102.6889     2.5435     0.0124     0.0014    95.3213
 1206.0000     9.1193   108.0293     2.5454     0.0048     0.0036    97.6265
 1206.5000     9.1208   112.0444     2.5356    -0.0071     0.0055   103.2961
 1207.0000     9.1223   114.0119     2.5323    -0.0060     0.0052   103.3452
 1207.5000     9.1238   110.0458     2.5426     0.0046     0.0023    99.0990
 1208.0000     9.1254   106.2682     2.5509     0.0152    -0.0007    99.0329
 1208.5000     9.1269   107.2956     2.5586     0.0246    -0.0036   100.1945
 1209.0000     9.1284   104.2109     2.5569     0.0179    -0.0039   101.3478
 1209.5000     9.1299   105.5338     2.5425     0.0110     0.0026   101.4313
 1210.0000     9.1314   107.4924     2.5282     0.0042     0.0163   101.3627
 1210.5000     9.1330   105.0402     2.5140    -0.0025     0.0242   101.6898
 1211.0000     9.1345   102.7853     2.5033    -0.0093     0.0225   103.4971
 1211.5000     9.1360   102.7822     2.5065    -0.0109     0.0208   105.2440
 1212.0000     9.1375   106.1954     2.5206    -0.0060     0.0154   106.9343
 1212.5000     9.1375   110.6812     2.5334    -0.0012     0.0082   106.6415
 1213.0000     9.1358   114.2959     2.5298     0.0036     0.0114   105.6564
 1213.5000     9.1341   114.5210     2.5258     0.0084     0.0142   104.6067
 1214.0000     9.1325   111.8759     2.5314     0.0108     0.0078   101.2745
 1214.5000     9.1308   110.0755     2.5371     0.0063     0.0033    94.8772
 1215.0000     9.1292   110.7151     2.5402     0.0017     0.0026    91.1402
 1215.5000     9.1275   109.7304     2.5335     0.0003     0.0109    93.1501
 1216.0000     9.1259   105.8957     2.5283    -0.0008     0.0121    98.3508
 1216.5000     9.1242   102.9985     2.5266    -0.0018     0.0106   103.1904
 1217.0000     9.1225   103.6527     2.5269    -0.0029     0.0106   102.9780
 1217.5000     9.1209   104.3767     2.5278    -0.0040     0.0106   101.6662
 1218.0000     9.1192   102.8424     2.5286    -0.0050     0.0106   100.3605
 1218.5000     9.1176   100.9354     2.5296    -0.0020     0.0091   100.4856
 1219.0000     9.1159   102.2124     2.5331     0.0026     0.0074   101.3684
 1219.5000     9.1143   102.9117     2.5366     0.0073     0.0056   101.8346
 1220.0000     9.1126   101.9403     2.5401     0.0111     0.0050    99.6845
 1220.5000     9.1110   104.0683     2.5433     0.0093     0.0061    96.7815
 1221.0000     9.1093   106.5785     2.5401     0.0052     0.0072    95.5622
 1221.5000     9.1076   107.2315     2.5366     0.0010     0.0082    97.1104
 1222.0000     9.1060   106.0191     2.5332    -0.0029     0.0089    98.6837
 1222.5000     9.1043   104.8100     2.5299    -0.0024     0.0097    96.1597
 1223.0000     9.1027   103.5967     2.5311    -0.0008     0.0092    93.6574
 1223.5000     9.1010   102.3539     2.5350     0.0008     0.0072    94.5092
 1224.0000     9.0994   103.1436     2.5357    -0.0004     0.0082    95.5219
 1224.5000     9.0986   104.2303     2.5315    -0.0021     0.0092    96.2766
 1225.0000     9.1002   101.4361     2.5279    -0.0039     0.0093    93.1235
 1225.5000     9.1018    98.3395     2.5353    -0.0056     0.0081    88.9058
 1226.0000     9.1033    96.5642     2.5432    -0.0073     0.0068    88.2115
 1226.5000     9.1049    94.9622     2.5484    -0.0019     0.0056    94.6232
 1227.0000     9.1064    93.6104     2.5410    -0.0002     0.0043    97.9797
 1227.5000     9.1080    94.6946     2.5346     0.0019     0.0098    99.1809
 1228.0000     9.1095    98.7566     2.5285     0.0040     0.0105    95.1475
 1228.5000     9.1111   103.4832     2.5234     0.0061     0.0106    90.0757
 1229.0000     9.1126   106.9867     2.5246     0.0082     0.0100    89.9197
 1229.5000     9.1142   106.4335     2.5306     0.0092     0.0069    91.8484
 1230.0000     9.1158   103.3307     2.5392     0.0098     0.0037    93.8575
 1230.5000     9.1173   101.1499     2.5479     0.0103     0.0005    95.7939
 1231.0000     9.1189    99.2243     2.5568     0.0109    -0.0026    97.4497
 1231.5000     9.1204    97.9607     2.5554     0.0102    -0.0046    96.0509
 1232.0000     9.1220    96.6836     2.5501     0.0092    -0.0024    95.7849
 1232.5000     9.1235    95.3981     2.5448     0.0082     0.0004    95.4128
 1233.0000     9.1251    94.1486     2.5411     0.0072     0.0032    93.4775
 1233.5000     9.1266    95.4319     2.5372     0.0062     0.0059    91.5112
 1234.0000     9.1282    97.0294     2.5308     0.0052     0.0104    88.6816
 1234.5000     9.1297    98.6227     2.5245     0.0043     0.0154    85.7794
 1235.0000     9.1313    99.4182     2.5182     0.0033     0.0175    83.2555
 1235.5000     9.1328    96.6409     2.5118     0.0011     0.0196    82.1691
 1236.0000     9.1344    91.1777     2.5069     0.0010     0.0210    83.2984
 1236.5000     9.1360    90.5861     2.5105     0.0029     0.0179    86.2233
 1237.0000     9.1375    91.0201     2.5155     0.0054     0.0142    87.3902
 1237.5000     9.1378    91.8886     2.5286     0.0079     0.0097    87.2542
 1238.0000     9.1368    92.7632     2.5418     0.0104     0.0037    87.1325
 1238.5000     9.1358    93.1013     2.5549     0.0129    -0.0026    88.3373
 1239.0000     9.1348    92.7337     2.5521     0.0151    -0.0014    89.6275
 1239.5000     9.1338    92.2069     2.5482     0.0146    -0.0001    88.9512
 1240.0000     9.1328    91.6773     2.5444     0.0115     0.0011    88.1436
 1240.5000     9.1318    91.1497     2.5427     0.0085     0.0017    88.3856
 1241.0000     9.1308    90.6220     2.5415     0.0054     0.0023    88.6995
 1241.5000     9.1298    90.0927     2.5391     0.0024     0.0053    88.9567
 1242.0000     9.1288    89.5649     2.5282    -0.0007     0.0104    89.8093
 1242.5000     9.1279    89.2001     2.5173    -0.0038     0.0156    93.7407
 1243.0000     9.1269    89.9562     2.5060    -0.0069     0.0199    94.5000
 1243.5000     9.1259    92.6570     2.5036    -0.0056     0.0226    95.1840
 1244.0000     9.1249    93.2220     2.5069    -0.0037     0.0213    93.2333
 1244.5000     9.1239    91.5648     2.5147    -0.0017     0.0176    89.5553
 1245.0000     9.1229    89.8693     2.5225     0.0002     0.0138    90.8344
 1245.5000     9.1219    88.1815     2.5301     0.0021     0.0100    92.0999
