~VERSION INFORMATION
 VERS.                2.0:   CWLS LOG ASCII STANDARD - VERSION 2.0
 WRAP.                 NO:   ONE LINE PER DEPTH STEP
~WELL INFORMATION
#MNEM.UNIT      DATA TYPE    INFORMATION
#----------   ------------   ------------------------------
 STRT.F           30.0000:   START DEPTH
 STOP.F          602.0000:   STOP DEPTH
 STEP.F            0.5000:   STEP LENGTH
 NULL.          -999.2500:   NO VALUE
 COMP. FENIX & SCISSON U.S NAVY:   COMPANY
 WELL.   S-3 NPR #3 #51-3:   WELL
 FLD .             TEAPOT:   FIELD
 LOC .       S3 T38N R78W:   LOCATION
 CNTY.            NATRONA:   COUNTY
 STAT.            WYOMING:   STATE
 CTRY. UNITED STATES OF AMERICA:   COUNTRY
 SRVC.              Welex:   SERVICE COMPANY
 DATE.        08-MAR-1977:   LOGDATE
 API .       490251030800:   API NUMBER
~CURVE INFORMATION
#MNEM.UNIT       API CODE    CURVE DESCRIPTION
#----------   ------------   ------------------------------
 DEPT.F                  :   
 SPR .MV     07 010 01 00:   SPONTANEOUS POTENTIAL
 ILD .OHMM   07 120 46 00:   INDUCTION LOG DEEP
 ILM .OHMM   07 120 44 00:   INDUCTION LOG MEDIUM
 SGRD.OHMM   07 221 05 00:   SHALLOW SHORT GUARD RESISTIVITY
 CALD.IN     45 280 60 00:   CALIPER FROM DENSITY LOG
 CORR.G/C3   45 356 01 00:   DENSITY CORRECTION
 RHOB.G/C3   45 350 01 00:   BULK DENSITY
 DPHI.DEC    45 890 12 00:   DENSITY POROSITY SANDSTONE
 GRD .GAPI   45 310 01 00:   GAMMA RAY FROM DENSITY LOG
~PARAMETER INFORMATION
#MNEM.UNIT          VALUE    DESCRIPTION
#----------   ------------   ------------------------------
 PD  .                 GL:   PERMANENT DATUM
 EPD .F              5140:   ELEVATION PERMANENT DATUM
 LMF .                 GL:   LOG MEASURED FROM
 DAPD.F                  :   FEET ABOVE PERMANENT DATUM
 DMF .                 GL:   DRILLING MEASURED FROM
 EKB .F                  :   KELLING BUSHING
 EDF .F                  :   DRILLING FLOOR
 EGL .F              5140:   GROUND LEVEL
 DATE.             3-8-77:   RUN DATE
 RUN .                  1:   RUN NUMBER
 DD  .F               611:   DEPTH DRILLER
 DL  .F               555:   DEPTH LOGGER
 BLI .F               553:   BOTTOM LOG INTERVAL
 TLI .F                40:   TOP LOG INTERVAL
 CS  .IN            8.625:   CASING SIZE
 CBD .F                40:   CASING BOTTOM DRILLER
 CBL .F                40:   CASING BOTTOM LOGGER
 BS  .IN            7.875:   BIT SIZE
 BSD .F               611:   BIT SIZE AT DEPTH
 DFT .           CHEM GEL:   DRILLING FLUID TYPE
 DFD .                8.6:   DRILLING FLUID DENSITY
 DFV .                 42:   DRILLING FLUID VISCOSITY
 DFPH.                  8:   DRILLING FLUID PH
 DFL .                3.2:   DRILLING FLUID LOSS
 MSS .           FLOWLINE:   MUD SAMPLE SOURCE
 RMS .OHMM           1.49:   RESISTIVITY MUD SAMPLE
 MST .F                48:   MUD SAMPLE TEMPERATURE
 RMF .OHMM           1.07:   RESISTIVITY MUD FILTRATE SAMPLE
 MFST.F                48:   MUD FILTRATE SAMPLE TEMPERATURE
 RMC .OHMM           2.34:   RESISTIVITY MUD CAKE
 MCST.F                48:   MUD CAKE SAMPLE TEMPERATURE
 MFSS.           MEASURED:   MUD FILTRATE SAMPLE SOURCE
 MCSS.           MEASURED:   MUD CAKE SAMPLE SOURCE
 RMB .OHMM           1.19:   RESISTIVITY MUD AT BHT
 BHT .F                60:   BOTTOM HOLE TEMPERATURE
 TCS .HRS               2:   TIME CURCULATED STOPPED
 TLAB.HRS                :   TIME LOGGER AT BOTTOM
 MRT .F                60:   MAXIMUM RECORDED TEMPERATURE
 LUN .               0716:   LOGGING UNIT NUMBER
 LUL .             VERNAL:   LOGGING UNIT LOCATION
 ENGI.           CALLAHAN:   RECORDING ENGINEER
 WITN.         STUEBINGER:   WITNESSED BY
 CLNT.            A2DTECH:   CLIENT CODE
 ORIG.       2", 5" PRINT:   ORIGIN OF DATA
 UWI .       490251030800:   UNIQUE WELL ID
 DICO. A2D Technologies, Inc.:   DIGITIZING COMPANY
 OS  .                   :   OTHER SERVICES
 PWI .                   :   PRIMARY WELL IDENTIFIER
 R1  .                   :   REMARKS 1
 R2  .                   :   REMARKS 2
 LSRV.                   :   LOG MNEMONIC
~OTHER INFORMATION
~A   DEPT      SPR        ILD        ILM       SGRD       CALD       CORR       RHOB       DPHI        GRD   
# ...
  504.5000   -45.4587    17.8082    23.9010    26.8237     7.8359     0.0355     2.3754     0.1676    85.3579
  505.0000   -45.6210    17.7982    24.2388    26.8117     7.8353     0.0399     2.3859     0.1646    85.2103
  505.5000   -45.6331    17.6655    23.8708    26.6147     7.8347     0.0383     2.3896     0.1589    86.1110
  506.0000   -45.6456    17.6556    22.5726    24.3125     7.8340     0.0232     2.3819     0.1601    87.4636
  506.5000   -45.6604    17.5239    22.0964    25.1577     7.8335     0.0020     2.3526     0.1676    88.6655
  507.0000   -45.5224    17.3878    23.3410    25.5031     7.8329    -0.0011     2.3420     0.1796    89.1144
  507.5000   -44.9339    17.1440    23.1671    24.7750     7.8323     0.0117     2.3495     0.1857    89.2622
  508.0000   -45.0962    17.1324    22.6784    25.4715     7.8317     0.0259     2.3772     0.1710    88.9574
  508.5000   -46.3096    17.1228    22.6657    26.5402     7.8310     0.0213     2.3824     0.1623    88.3521
  509.0000   -46.6220    17.1132    22.4967    27.0882     7.8155     0.0032     2.3719     0.1674    87.5962
  509.5000   -46.4840    16.7520    21.7191    23.9002     7.8149     0.0091     2.3958     0.1601    86.6897
  510.0000   -46.3460    16.5123    21.1117    23.2368     7.8144     0.0211     2.4018     0.1530    86.0642
  510.5000   -46.3612    16.1638    20.6664    22.7488     7.8288    -0.0018     2.3837     0.1662    85.6290
  511.0000   -46.9739    16.1547    20.3709    21.6627     7.8280    -0.0122     2.3572     0.1764    85.4763
  511.5000   -46.9861    15.9233    19.9412    20.6259     7.8275    -0.0032     2.3755     0.1689    86.0751
  512.0000   -46.5447    15.6936    19.5205    20.9453     7.8269     0.0208     2.3910     0.1539    86.9758
  512.5000   -46.7101    15.3623    19.3750    23.1822     7.8263     0.0298     2.4143     0.1434    87.5878
  513.0000   -46.7222    15.2478    19.0980    23.1718     7.8257     0.0267     2.4157     0.1428    88.3248
  513.5000   -46.7343    15.1340    18.5662    21.7619     7.8250     0.0205     2.4066     0.1507    88.7744
  514.0000   -46.7467    14.8146    17.7873    19.3356     7.8245     0.0205     2.4156     0.1435    89.2226
  514.5000   -47.0620    14.6026    17.4232    18.9296     7.8239     0.0204     2.4306     0.1351    89.3705
  515.0000   -47.0741    14.2944    17.7787    19.0547     7.8233     0.0188     2.4305     0.1330    89.3675
  515.5000   -46.7829    13.9924    18.0163    19.0440     7.8228     0.0233     2.4327     0.1323    89.9663
  516.0000   -46.4947    13.9828    17.7588    18.9041     7.8220     0.0322     2.4402     0.1262    91.1683
  516.5000   -46.9604    13.9750    17.3841    18.7652     7.8215     0.0397     2.4567     0.1171    92.8220
  517.0000   -47.1227    13.9672    17.1356    18.6274     7.8209     0.0456     2.4626     0.1159    92.5179
  517.5000   -47.1348    13.8630    16.8906    18.4903     7.8203     0.0471     2.4565     0.1180    91.7620
  518.0000   -47.1471    13.8553    16.8811    18.4801     7.8198     0.0440     2.4429     0.1250    91.3066
  518.5000   -47.1621    13.8475    16.7550    18.6023     7.8192     0.0273     2.4278     0.1412    91.6057
  519.0000   -47.1743    13.7443    16.7436    18.7232     7.8185     0.0393     2.4285     0.1340    92.3551
  519.5000   -47.1864    13.6416    16.8527    18.8448     7.8029     0.0498     2.4322     0.1316    93.4064
  520.0000   -47.1985    13.5249    16.8409    18.7043     7.8024     0.0572     2.4390     0.1268    94.3072
  520.5000   -47.2107    13.5093    16.9507    18.4387     7.7718     0.0677     2.4471     0.1280    94.7561
  521.0000   -47.6733    13.4906    16.8220    18.3033     7.7545     0.0917     2.4569     0.1228    94.1501
  521.5000   -47.9857    13.4719    16.6966    18.2951     7.6957     0.0901     2.4523     0.1193    93.6961
  522.0000   -47.9980    13.3593    16.5722    18.2866     7.6353     0.0810     2.4380     0.1238    95.3492
  522.5000   -47.8599    13.1579    16.3353    18.1505     7.6047     0.0855     2.4507     0.1193    97.3041
  523.0000   -48.0252    13.1402    16.0891    18.1423     7.5742     0.0959     2.4802     0.1112    98.5281
  523.5000   -48.6379    13.0318    15.8693    17.8848     7.5437     0.0989     2.5047     0.1058    99.1049
  524.0000   -49.1005    13.0138    15.7510    17.8768     7.5430     0.0988     2.5024     0.0954    99.2533
  524.5000   -49.7133    13.0871    15.6358    17.8687     7.5424     0.0656     2.4730     0.1068    99.4011
  525.0000   -49.8755    13.2471    16.0634    17.8607     7.5720     0.0279     2.4421     0.1242    99.2469
  525.5000   -50.0378    13.7900    16.3911    18.1018     7.6311     0.0007     2.4360     0.1293    99.0898
  526.0000   -50.3504    14.6563    16.7279    18.3543     7.6762     0.0262     2.4645     0.1230    98.6380
  526.5000   -50.3629    15.0474    16.7162    18.8506     7.7496     0.0065     2.4592     0.1221    98.3339
  527.0000   -50.5247    15.0270    16.2507    18.8422     7.7641     0.0004     2.4456     0.1218    98.1804
  527.5000   -50.3867    15.1118    16.2665    18.3192     7.7935     0.0019     2.4711     0.1212    98.3282
  528.0000   -50.1016    15.1957    16.6881    17.6878     7.7928     0.0048     2.4523     0.1195    99.2289
  528.5000   -49.6633    15.3863    16.7945    17.1969     7.7922     0.0062     2.4515     0.1135   100.7313
  529.0000   -48.7745    15.5934    16.7827    16.8357     7.8066     0.0122     2.4687     0.1114   101.4815
  529.5000   -47.7356    17.4951    16.8922    17.1814     7.8059     0.0227     2.4784     0.1092   101.9304
  530.0000   -46.8468    20.9154    16.6483    17.9023     7.8053     0.0226     2.4866     0.1057   101.9275
  530.5000   -41.3621    27.7393    15.9623    18.1439     7.8048     0.0180     2.4926     0.1039   101.9246
  531.0000   -39.8141    41.6696    15.5178    17.5166     7.8042     0.0194     2.4955     0.1027   101.3193
  531.5000   -39.6791    45.8466    15.6168    16.7961     7.8035     0.0254     2.4970     0.1006   100.5628
  532.0000   -39.2408    37.9821    15.9354    17.0227     7.8029     0.0238     2.4969     0.0898   100.1081
  532.5000   -38.5022     8.1625    15.9243    17.8602     7.8023     0.0192     2.4946     0.0905   100.1052
  533.0000   -37.9107     6.2235    15.6966    19.3991     7.8018     0.0116     2.4915     0.0931   100.5542
  533.5000   -36.4244     6.5718    14.5380    20.3558     7.8012     0.0010     2.4877     0.0958   101.1631
  534.0000   -32.8329     6.8856    11.5634    18.7221     7.8006     0.0024     2.4824     0.0983   101.9031
  534.5000   -20.2334     6.7327    14.6225    15.4151     7.7849     0.0084     2.4733     0.0996   102.5026
  535.0000   -12.2876     6.5855    46.4148    16.3045     7.7844     0.0098     2.4717     0.1124   103.2527
  535.5000    -4.0294     6.3971   470.9023    16.7359     7.7838     0.0233     2.4822     0.1031   104.1535
  536.0000    -1.0110     6.3028  1366.9126    16.7266     7.7832     0.0202     2.4919     0.0995   104.9056
  536.5000    -0.3120     6.3380  1960.4666    16.7191     7.7976     0.0111     2.4731     0.1115   106.1049
  537.0000    -0.4774     6.2836  1960.4666    16.7116     7.7969    -0.0011     2.4525     0.1203   106.7044
  537.5000    -0.7898     6.0200  1960.4666    16.7041     7.7963    -0.0056     2.4361     0.1251   106.7015
  538.0000    -0.8019     5.7276  1960.4666    16.8129     7.7958     0.0108     2.4616     0.1148   106.2468
  538.5000    -0.6609     5.4105  1960.4666    17.0394     7.7952     0.0228     2.4706     0.1107   105.0391
  539.0000    -0.3754     5.1217  1960.4666    17.0318     7.7946     0.0273     2.4780     0.1095   105.7079
  539.5000  -999.2500  -999.2500  -999.2500  -999.2500     7.7939     0.0287     2.4787     0.1092   107.2917
  540.0000  -999.2500  -999.2500  -999.2500  -999.2500     7.7933     0.0211     2.4619     0.1131   107.8920
  540.5000  -999.2500  -999.2500  -999.2500  -999.2500     7.7928     0.0042     2.4440     0.1225   108.6414
