~VERSION INFORMATION
 VERS.                2.0:   CWLS LOG ASCII STANDARD - VERSION 2.0
 WRAP.                 NO:   ONE LINE PER DEPTH STEP
~WELL INFORMATION
#MNEM.UNIT      DATA TYPE    INFORMATION
#----------   ------------   ------------------------------
 STRT.F            0.0000:   START DEPTH
 STOP.F          844.0000:   STOP DEPTH
 STEP.F            0.5000:   STEP LENGTH
 NULL.          -999.2500:   NO VALUE
 COMP. BROWN JOHN E&C INC:   COMPANY
 WELL. NAVAL PETROLEUM RESERVE 3 SX-1 #42-1-14:   WELL
 FLD .             TEAPOT:   FIELD
 LOC .      S14 T38N R78W:   LOCATION
 CNTY.            NATRONA:   COUNTY
 STAT.            WYOMING:   STATE
 CTRY. UNITED STATES OF AMERICA:   COUNTRY
 SRVC.     Atlas Wireline:   SERVICE COMPANY
 DATE.        11-JAN-1992:   LOGDATE
 API .       490252247700:   API NUMBER
~CURVE INFORMATION
#MNEM.UNIT       API CODE    CURVE DESCRIPTION
#----------   ------------   ------------------------------
 DEPT.F                  :   
 GRR .GAPI   07 310 01 00:   GAMMA RAY
 RFOC.OHMM   07 220 04 00:   RESISTIVITY FOCUSED LOG
 RILD.OHMM   07 120 46 00:   INDUCTION LOG DEEP RESISTIVITY
 RILM.OHMM   07 120 44 00:   INDUCTION LOG MEDIUM RESISTIVITY
 SPR .MV     07 010 01 00:   SPONTANEOUS POTENTIAL
~PARAMETER INFORMATION
#MNEM.UNIT          VALUE    DESCRIPTION
#----------   ------------   ------------------------------
 PD  .                 GL:   PERMANENT DATUM
 EPD .F              5201:   ELEVATION PERMANENT DATUM
 LMF .                 KB:   LOG MEASURED FROM
 DAPD.F                10:   FEET ABOVE PERMANENT DATUM
 DMF .                 KB:   DRILLING MEASURED FROM
 EKB .F              5211:   KELLING BUSHING
 EGL .F              5201:   GROUND LEVEL
 DATE.        11-JAN-1992:   RUN DATE
 RUN .                  1:   RUN NUMBER
 DD  .F               848:   DEPTH DRILLER
 DL  .F               847:   DEPTH LOGGER
 BLI .F               845:   BOTTOM LOG INTERVAL
 CS  .IN            10.75:   CASING SIZE
 CBD .F               101:   CASING BOTTOM DRILLER
 CBL .F               101:   CASING BOTTOM LOGGER
 BS  .IN             8.75:   BIT SIZE
 BSD .F               848:   BIT SIZE AT DEPTH
 DFT .               CHEM:   DRILLING FLUID TYPE
 DFD .                9.0:   DRILLING FLUID DENSITY
 DFV .                 40:   DRILLING FLUID VISCOSITY
 DFPH.                9.0:   DRILLING FLUID PH
 DFL .                8.4:   DRILLING FLUID LOSS
 MSS .           FLOWLINE:   MUD SAMPLE SOURCE
 RMS .OHMM           0.22:   RESISTIVITY MUD SAMPLE
 MST .F                78:   MUD SAMPLE TEMPERATURE
 RMF .OHMM           0.17:   RESISTIVITY MUD FILTRATE SAMPLE
 MFST.F                78:   MUD FILTRATE SAMPLE TEMPERATURE
 RMC .OHMM           0.28:   RESISTIVITY MUD CAKE
 MCST.F                78:   MUD CAKE SAMPLE TEMPERATURE
 MFSS.               MEAS:   MUD FILTRATE SAMPLE SOURCE
 MCSS.               CALC:   MUD CAKE SAMPLE SOURCE
 RMB .OHMM           0.14:   RESISTIVITY MUD AT BHT
 BHT .F               126:   BOTTOM HOLE TEMPERATURE
 TCS .HRS               3:   TIME CURCULATED STOPPED
 MRT .F               126:   MAXIMUM RECORDED TEMPERATURE
 LUN .            HL-6274:   LOGGING UNIT NUMBER
 LUL .         CASPER, WY:   LOGGING UNIT LOCATION
 ENGI.             ZIEGER:   RECORDING ENGINEER
 WITN.         MR. STRONG:   WITNESSED BY
 CLNT.            A2DTECH:   CLIENT CODE
 ORIG.           5" PRINT:   ORIGIN OF DATA
 UWI .       490252247700:   UNIQUE WELL ID
 DICO. A2D Technologies, Inc.:   DIGITIZING COMPANY
~OTHER INFORMATION
~A    DEPT      GRR      RFOC       RILD       RILM        SPR   
# ...
  549.0000    96.5982     3.3975     2.1296     2.0420   -12.1774
  549.5000    93.6483     2.8542     2.1296     2.0565   -11.8781
  550.0000    91.8444     2.7569     2.1296     2.1148   -11.5789
  550.5000    90.6425     2.8689     2.1940     2.1921   -11.8982
  551.0000    92.3524     3.3068     2.3156     2.2680   -12.1746
  551.5000    95.0639     3.6215     2.5003     2.3817   -12.1710
  552.0000    97.8852     3.8487     2.8748     2.5540   -11.8674
  552.5000   108.1182     4.1655     3.3752     3.2011   -11.8645
  553.0000   109.8032     4.5620     3.8794     4.1629   -11.8616
  553.5000   107.9798     5.1784     4.5950     4.7204   -11.8586
  554.0000   107.6665     5.6662     5.0323     5.1330   -11.8556
  554.5000   110.3476     5.6673     5.3223     5.3902   -11.8521
  555.0000   111.5315     5.6685     5.5124     5.5432   -12.0003
  555.5000   112.4151     5.6696     5.5521     5.5436   -12.0760
  556.0000   112.9984     5.7505     5.5532     5.5439   -12.1985
  556.5000   112.0759     5.8733     5.3642     5.2801   -12.4421
  557.0000   113.2598     6.0010     5.0387     4.9246   -12.4391
  557.5000   114.1477     6.0423     4.7995     4.6251   -12.1128
  558.0000   112.3243     5.6756     4.7007     4.4358   -11.5303
  558.5000   112.0024     4.9374     4.5725     4.3442   -11.5274
  559.0000   113.1863     4.5101     4.4476     4.3143   -11.8260
  559.5000   117.3732     4.5426     4.3868     4.3146   -12.1238
  560.0000   118.5614     4.6721     4.3879     4.3452   -12.5714
  560.5000   114.3356     4.8054     4.3581     4.4065   -12.7188
  561.0000   111.9159     4.8741     4.5139     4.5633   -12.8663
  561.5000   110.0961     5.1191     4.7079     4.6927   -12.8626
  562.0000   111.2764     5.5286     4.9101     4.8259   -12.8597
  562.5000   113.3612     5.5297     5.1211     5.0326   -13.0079
  563.0000   114.8497     5.4163     5.4218     5.2525   -12.8177
  563.5000   115.4330     5.6885     5.7286     5.6672   -12.7007
  564.0000   115.1111     6.1101     6.0165     5.9930   -12.6977
  564.5000   114.4889     6.5434     6.3190     6.2934   -12.5444
  565.0000   114.1713     6.8245     6.5904     6.5629   -12.3905
  565.5000   111.7516     6.9703     6.7783     6.7963   -12.3876
  566.0000   109.6322     7.0205     6.9231     6.9406   -12.0839
  566.5000   115.0203     7.0298     6.8767     6.9410   -11.9306
  567.0000   118.9069     7.0234     6.8303     6.9416   -11.7774
  567.5000   122.2423     7.0183     6.7838     6.7983   -11.4737
  568.0000   122.1713     6.8810     6.7709     6.7045   -11.4707
  568.5000   121.2531     6.7398     6.6925     6.5661   -11.4672
  569.0000   120.6352     6.6474     6.6014     6.4754   -11.4643
  569.5000   120.0173     6.5114     6.4210     6.2977   -11.4614
  570.0000   118.7988     6.3777     6.2896     6.1648   -11.7592
  570.5000   118.1766     6.2901     6.2037     6.0403   -11.9067
  571.0000   117.8590     6.2047     6.0761     5.8744   -12.0541
  571.5000   118.4423     6.1200     5.9104     5.7132   -12.4010
  572.0000   120.8274     6.0787     5.6692     5.5564   -12.9506
  572.5000   123.2125     6.0376     5.2514     5.3662   -12.4958
  573.0000   120.4925     6.0391     4.9273     4.9701   -12.0418
  573.5000   113.5640     5.9984     4.6988     4.6983   -11.7382
  574.0000   112.6501     5.6692     4.6024     4.5398   -11.7353
  574.5000   119.8357     4.9706     4.5711     4.5085   -11.7323
  575.0000   124.0226     4.5723     4.6042     4.5722   -11.9048
  575.5000   129.4107     4.5096     4.7026     4.7348   -12.3273
  576.0000   131.4955     4.7366     4.8030     4.9722   -12.6259
  576.5000   129.1751     5.5235     4.9437     5.2580   -12.9237
  577.0000   122.1473     6.2640     5.1525     5.5631   -12.9201
  577.5000   118.5264     6.5819     5.3739     5.7984   -12.6165
  578.0000   117.0076     6.6730     5.6047     6.0467   -12.3128
  578.5000   116.6900     6.6743     5.8865     6.2618   -12.3098
  579.0000   117.5736     6.6757     6.2257     6.4395   -12.4574
  579.5000   122.6571     6.6770     6.4931     6.6126   -12.6048
  580.0000   125.9431     6.7251     6.6845     6.7627   -12.6012
  580.5000   125.0249     6.7736     6.8212     6.8105   -12.7489
  581.0000   121.4040     6.7750     6.8326     6.8588   -12.8962
  581.5000   120.7861     6.7767     6.8718     6.8593   -12.8932
  582.0000   121.6697     6.7780     6.8250     6.8597   -12.8902
  582.5000   121.6016     6.7794     6.8267     6.8602   -12.8867
  583.0000   120.4296     6.7807     6.8281     6.8606   -12.8842
  583.5000   118.0098     6.7821     6.8296     6.9091   -12.8812
  584.0000   115.2898     6.7835     6.8312     6.8616   -12.8782
  584.5000   117.3747     6.7849     6.8324     6.9102   -12.8751
  585.0000   120.3604     6.7863     6.8339     6.9106   -12.8722
  585.5000   119.4378     6.7878     6.8354     6.9111   -12.8692
  586.0000   118.2193     6.7892     6.8367     6.9116   -12.8662
  586.5000   119.4032     6.7907     6.8382     6.9120   -12.8628
  587.0000   126.8934     6.7920     6.8396     6.8644   -12.8599
  587.5000   128.6823     6.7935     6.7935     6.8649   -12.8571
  588.0000   122.9550     6.7949     6.7951     6.8176   -12.8541
  588.5000   115.4258     6.7965     6.7889     6.7708   -12.8511
  589.0000   115.1082     6.7979     6.7502     6.7713   -12.8475
  589.5000   116.2921     6.7993     6.7519     6.7717   -12.8330
  590.0000   119.2778     6.8007     6.7533     6.7250   -12.6917
  590.5000   124.0653     6.8020     6.6614     6.6323   -12.6887
  591.0000   125.2493     6.8034     6.6627     6.4954   -12.6855
  591.5000   122.9789     6.8048     6.3908     6.2296   -12.6827
  592.0000   118.9040     6.8065     6.0451     5.9330   -12.6797
  592.5000   116.1840     6.8079     5.7581     5.6506   -12.5263
  593.0000   115.5661     6.8092     5.5618     5.4193   -12.5233
  593.5000   116.7500     6.2636     5.4063     5.3820   -12.5199
  594.0000   121.2372     5.2989     5.3732     5.3823   -12.7485
  594.5000   123.6223     5.2265     5.3370     5.3453   -12.8156
  595.0000   123.9053     5.6844     5.3383     5.3084   -12.8120
  595.5000   121.7816     6.1391     5.1924     5.1628   -12.8090
  596.0000   121.4683     6.5841     5.0503     5.0916   -12.6550
  596.5000   125.0503     6.7247     4.9815     4.9864   -12.6526
  597.0000   127.1351     6.6793     4.9135     4.9177   -12.6496
  597.5000   124.5645     6.0589     4.7795     4.7494   -12.4960
  598.0000   117.7869     4.8032     4.7139     4.5868   -12.4931
  598.5000   118.9708     4.6173     4.8825     4.7171   -12.4899
  599.0000   119.5541     5.2001     5.1280     4.9882   -12.6376
  599.5000   118.9362     5.8972     5.3857     5.2382   -12.3879
  600.0000   118.6186     6.5951     5.6565     5.4626   -12.5379
  600.5000   118.2953     6.7831     5.9056     5.6965   -12.6871
  601.0000   120.3686     6.7373     6.1533     5.8991   -12.6858
  601.5000   120.9519     6.6453     6.3730     6.1131   -12.6842
  602.0000   120.3225     6.5093     6.4639     6.2387   -12.6828
  602.5000   118.7979     6.4650     6.4202     6.1527   -12.6813
  603.0000   116.6548     6.7401     6.2885     5.9008   -12.6795
  603.5000   112.7401     6.7412     5.5048     5.5808   -12.5272
  604.0000   112.4167     6.7893     4.9282     5.0618   -12.5255
  604.5000   112.6997     6.7430     4.7602     4.5274   -12.5242
  605.0000   113.5776     6.4225     4.6951     4.2819   -12.5227
  605.5000   115.6509     5.2466     4.6307     4.2873   -12.3701
  606.0000   128.2885     4.0252     4.5997     4.3731   -12.2175
  606.5000   130.0192     4.0334     4.6006     4.4659   -12.0647
  607.0000   129.0895     5.0337     4.6065     4.5927   -12.0634
  607.5000   129.6671     5.9522     4.8331     4.7560   -11.9107
  608.0000   131.7461     5.8705     5.1116     5.0646   -11.9092
  608.5000   132.3243     5.7899     5.4440     5.3557   -11.9078
  609.0000   130.1261     5.7907     5.8795     5.7534   -11.9063
  609.5000   123.8634     6.1240     6.1750     6.1587   -11.5846
