~VERSION INFORMATION
 VERS.                2.0:   CWLS LOG ASCII STANDARD - VERSION 2.0
 WRAP.                 NO:   ONE LINE PER DEPTH STEP
~WELL INFORMATION
#MNEM.UNIT      DATA TYPE    INFORMATION
#----------   ------------   ------------------------------
 STRT.F           31.0000:   START DEPTH
 STOP.F          590.0000:   STOP DEPTH
 STEP.F            0.1000:   STEP LENGTH
 NULL.          -999.2500:   NO VALUE
 COMP. LAWRENCE/ALLISON INC:   COMPANY
 WELL. NPR 3 73-61 SX #3-3:   WELL
 FLD .             TEAPOT:   FIELD
 LOC .       S3 T38N R78W:   LOCATION
 CNTY.            NATRONA:   COUNTY
 STAT.            WYOMING:   STATE
 CTRY. UNITED STATES OF AMERICA:   COUNTRY
 SRVC.           Gearhart:   SERVICE COMPANY
 DATE.        14-AUG-1988:   LOGDATE
 API .       490251124200:   API NUMBER
~CURVE INFORMATION
#MNEM.UNIT       API CODE    CURVE DESCRIPTION
#----------   ------------   ------------------------------
 DEPT.F                  :   
 GRR .GAPI   07 310 01 00:   GAMMA RAY
 RILD.OHMM   07 120 46 00:   INDUCTION LOG DEEP RESISTIVITY
 RILM.OHMM   07 120 44 00:   INDUCTION LOG MEDIUM RESISTIVITY
~PARAMETER INFORMATION
#MNEM.UNIT          VALUE    DESCRIPTION
#----------   ------------   ------------------------------
 PD  .                 GL:   PERMANENT DATUM
 EPD .F              5136:   ELEVATION PERMANENT DATUM
 LMF .                 KB:   LOG MEASURED FROM
 DAPD.F                10:   FEET ABOVE PERMANENT DATUM
 DMF .                 KB:   DRILLING MEASURED FROM
 EKB .F              5146:   KELLING BUSHING
 EDF .F              5144:   DRILLING FLOOR
 EGL .F              5136:   GROUND LEVEL
 DATE.        14-AUG-1988:   RUN DATE
 RUN .                  1:   RUN NUMBER
 DD  .F               597:   DEPTH DRILLER
 DL  .F               598:   DEPTH LOGGER
 BLI .F               590:   BOTTOM LOG INTERVAL
 TLI .F                50:   TOP LOG INTERVAL
 CS  .IN            9.625:   CASING SIZE
 CBD .F                50:   CASING BOTTOM DRILLER
 CBL .F                50:   CASING BOTTOM LOGGER
 BS  .IN             8.75:   BIT SIZE
 BSD .F               597:   BIT SIZE AT DEPTH
 DFT .                AIR:   DRILLING FLUID TYPE
 TCS .HRS            1930:   TIME CURCULATED STOPPED
 TLAB.HRS            2030:   TIME LOGGER AT BOTTOM
 MRT .F                70:   MAXIMUM RECORDED TEMPERATURE
 LUN .               7597:   LOGGING UNIT NUMBER
 LUL .           GILLETTE:   LOGGING UNIT LOCATION
 ENGI.         WEATHERMON:   RECORDING ENGINEER
 WITN.             STRONG:   WITNESSED BY
 CLNT.            A2DTECH:   CLIENT CODE
 ORIG.           5" PRINT:   ORIGIN OF DATA
 UWI .       490251124200:   UNIQUE WELL ID
 DICO. A2D Technologies, Inc.:   DIGITIZING COMPANY
~OTHER INFORMATION
~A   DEPT       GRR      RILD       RILM   
# ...
  267.6000   114.8762     8.9794     8.8160
  267.7000   115.6283     8.9785     8.8152
  267.8000   116.4897     8.9777     8.8145
  267.9000   117.4352     8.9768     8.8137
  268.0000   118.1911     8.9759     8.8130
  268.1000   119.3880     8.9750     8.8123
  268.2000   119.7931     8.9742     8.8116
  268.3000   120.2956     8.9733     8.8109
  268.4000   120.7025     8.9104     8.7854
  268.5000   120.9556     8.9095     8.7485
  268.6000   121.2183     8.9087     8.7478
  268.7000   120.2607     8.9078     8.7469
  268.8000   119.4536     8.9070     8.7037
  268.9000   118.7085     8.9061     8.6851
  269.0000   117.9637     8.9051     8.6632
  269.1000   117.2489     8.9044     8.6130
  269.2000   116.7085     8.9035     8.5633
  269.3000   116.2578     8.9026     8.5137
  269.4000   115.9368     8.8901     8.4645
  269.5000   115.6908     8.8394     8.4433
  269.6000   115.4449     8.8383     8.4250
  269.7000   115.1990     8.8376     8.3762
  269.8000   114.9177     8.8368     8.3249
  269.9000   114.7071     8.8360     8.2796
  270.0000   114.4612     8.8269     8.2660
  270.1000   114.2154     8.7731     8.2411
  270.2000   113.9695     8.7723     8.2075
  270.3000   113.7234     8.7715     8.2068
  270.4000   113.4291     8.7706     8.2060
  270.5000   113.0311     8.7544     8.2054
  270.6000   112.6835     8.7083     8.2048
  270.7000   112.4376     8.7074     8.2041
  270.8000   112.1491     8.7066     8.2034
  270.9000   111.6340     8.6727     8.2027
  271.0000   111.1580     8.6447     8.2019
  271.1000   110.8497     8.6439     8.2014
  271.2000   110.4694     8.6418     8.2007
  271.3000   109.9740     8.5824     8.2000
  271.4000   109.5077     8.5817     8.1993
  271.5000   109.2390     8.5515     8.1986
  271.6000   109.2423     8.5207     8.1980
  271.7000   109.5937     8.5116     8.1972
  271.8000   109.9750     8.4601     8.1965
  271.9000   110.2967     8.4593     8.1806
  272.0000   110.7833     8.4227     8.1385
  272.1000   111.0736     8.3739     8.1378
  272.2000   111.5029     8.3404     8.1372
  272.3000   111.8452     8.3347     8.1365
  272.4000   112.0984     8.2811     8.1138
  272.5000   112.3515     8.2804     8.0789
  272.6000   112.6073     8.2476     8.0760
  272.7000   113.2104     8.1998     8.0217
  272.8000   113.4131     8.1639     8.0211
  272.9000   113.6662     8.1614     8.0205
  273.0000   113.9194     8.1058     8.0198
  273.1000   114.1727     8.0672     8.0099
  273.2000   114.4364     8.0483     7.9630
  273.3000   114.6789     8.0294     7.9623
  273.4000   114.9322     7.9829     7.9617
  273.5000   115.1853     7.9351     7.9355
  273.6000   115.5198     7.8906     7.9054
  273.7000   115.9939     7.8787     7.8985
  273.8000   116.2710     7.8537     7.8494
  273.9000   116.5000     7.8082     7.8074
  274.0000   116.9266     7.7629     7.7309
  274.1000   117.3087     7.7134     7.6640
  274.2000   117.4937     7.6340     7.6197
  274.3000   117.4818     7.5173     7.5725
  274.4000   117.1993     7.4085     7.4736
  274.5000   116.5649     7.3235     7.4000
  274.6000   115.8200     7.2414     7.3423
  274.7000   115.1823     7.1924     7.2817
  274.8000   114.6318     7.1239     7.1983
  274.9000   113.8892     7.0671     7.1157
  275.0000   113.3939     7.0423     7.0343
  275.1000   112.8985     7.0340     6.9538
  275.2000   112.5495     6.9923     6.8970
  275.3000   112.1154     6.9527     6.8426
  275.4000   111.4535     6.9426     6.7642
  275.5000   111.1965     6.9202     6.6826
  275.6000   110.9615     6.8933     6.6459
  275.7000   110.7157     6.8926     6.5799
  275.8000   111.0029     6.8919     6.5239
  275.9000   111.7554     6.8556     6.4747
  276.0000   112.5075     6.8430     6.4040
  276.1000   113.3333     6.8424     6.3627
  276.2000   113.5618     6.8417     6.3302
  276.3000   113.8149     6.8410     6.2936
  276.4000   113.9480     6.8402     6.2571
  276.5000   113.8843     6.8396     6.2209
  276.6000   113.6530     6.8390     6.1861
  276.7000   113.6573     6.8546     6.1855
  276.8000   113.4486     6.8853     6.1561
  276.9000   113.3619     6.8846     6.1632
  277.0000   113.1521     6.8839     6.1980
  277.1000   112.7108     6.8833     6.2330
  277.2000   112.4647     6.8826     6.2693
  277.3000   112.2189     6.8956     6.3037
  277.4000   111.7744     6.9292     6.3394
  277.5000   111.2789     6.9284     6.3752
  277.6000   110.6897     6.9278     6.4112
  277.7000   110.0268     6.9552     6.4475
  277.8000   109.7694     6.9747     6.4873
  277.9000   109.5351     6.9851     6.5206
  278.0000   109.4743     7.0219     6.5575
  278.1000   109.4779     7.0211     6.5946
  278.2000   109.4014     7.0205     6.6318
  278.3000   109.1827     7.0455     6.6714
  278.4000   109.1871     7.0680     6.7595
  278.5000   109.1904     7.0758     6.7918
  278.6000   109.1939     7.1158     6.8302
  278.7000   109.0782     7.1558     6.8688
  278.8000   108.8991     7.1639     6.9076
  278.9000   108.9170     7.1866     6.9469
  279.0000   109.2090     7.2271     6.9859
  279.1000   109.2121     7.2620     7.0254
  279.2000   109.5330     7.2611     7.0652
  279.3000   109.9296     7.2991     7.1051
  279.4000   110.1829     7.3403     7.1452
  279.5000   110.4370     7.3604     7.1884
  279.6000   110.9396     7.3719     7.2263
  279.7000   111.2445     7.4134     7.2671
  279.8000   111.6432     7.4610     7.3082
  279.9000   112.1458     7.4604     7.3495
  280.0000   112.6082     7.4873     7.3876
  280.1000   112.8739     7.5295     7.3868
  280.2000   113.1146     7.5719     7.4231
  280.3000   113.3677     7.6142     7.4651
  280.4000   113.3568     7.6135     7.4882
  280.5000   113.1904     7.6473     7.4975
  280.6000   113.1940     7.6905     7.5391
  280.7000   113.1980     7.7338     7.5383
  280.8000   112.5966     7.7707     7.5726
  280.9000   112.6010     7.7697     7.5897
  281.0000   112.6042     7.8108     7.6056
  281.1000   112.6078     7.8549     7.6413
  281.2000   112.6115     7.8760     7.6406
  281.3000   112.5532     7.8887     7.6819
  281.4000   112.2982     7.9332     7.6925
  281.5000   111.7166     7.9836     7.6919
  281.6000   111.3071     7.9830     7.7052
  281.7000   110.6579     8.0123     7.7441
  281.8000   109.9132     8.0369     7.7434
  281.9000   109.1684     8.0467     7.7428
  282.0000   108.4109     8.0913     7.7422
  282.1000   107.9236     8.0904     7.7415
  282.2000   107.6209     8.0897     7.7408
  282.3000   107.2346     8.1162     7.7420
  282.4000   106.8270     8.1444     7.7933
  282.5000   106.6158     8.1437     7.7928
  282.6000   106.6202     8.1428     7.7921
  282.7000   106.3913     8.1421     7.7915
  282.8000   106.3251     8.1413     7.7824
  282.9000   106.3287     8.1405     7.7363
  283.0000   106.3323     8.1397     7.7357
  283.1000   106.3359     8.1389     7.7351
  283.2000   106.3400     8.1380     7.7344
  283.3000   106.3432     8.1373     7.7338
  283.4000   106.3468     8.1366     7.7331
  283.5000   106.4643     8.1357     7.7324
  283.6000   106.6562     8.1238     7.7319
  283.7000   106.6598     8.0780     7.7312
  283.8000   106.6641     8.0770     7.7306
  283.9000   106.6671     8.0764     7.7299
  284.0000   106.8238     8.0481     7.7293
  284.1000   107.0770     8.0190     7.7285
  284.2000   107.2822     8.0183     7.7280
  284.3000   107.2859     8.0174     7.6992
  284.4000   107.5344     7.9730     7.6733
  284.5000   107.7875     7.9605     7.6727
  284.6000   108.0407     7.9357     7.6720
  284.7000   108.3813     7.9039     7.6713
  284.8000   108.8839     7.8985     7.6707
  284.9000   109.4226     7.8477     7.6449
  285.0000   110.1206     7.8072     7.6165
  285.1000   111.0521     7.7920     7.6158
  285.2000   112.0541     7.7707     7.6151
  285.3000   113.0558     7.7367     7.5738
  285.4000   114.0152     7.7343     7.5613
  285.5000   114.5805     7.6816     7.5386
  285.6000   115.2385     7.6450     7.5078
  285.7000   115.9910     7.6271     7.5071
