~VERSION INFORMATION
 VERS.                2.0:   CWLS LOG ASCII STANDARD - VERSION 2.0
 WRAP.                 NO:   ONE LINE PER DEPTH STEP
~WELL INFORMATION
#MNEM.UNIT      DATA TYPE    INFORMATION
#----------   ------------   ------------------------------
 STRT.F            0.0000:   START DEPTH
 STOP.F         1002.0000:   STOP DEPTH
 STEP.F            0.5000:   STEP LENGTH
 NULL.          -999.2500:   NO VALUE
 COMP. U S NAVY-INTEX OIL:   COMPANY
 WELL.     NPR ##3 28-S-2:   WELL
 FLD .             TEAPOT:   FIELD
 LOC .       S2 T38N R78W:   LOCATION
 CNTY.            NATRONA:   COUNTY
 STAT.            WYOMING:   STATE
 CTRY. UNITED STATES OF AMERICA:   COUNTRY
 SRVC.      NL McCullough:   SERVICE COMPANY
 DATE.        13-JUN-1963:   LOGDATE
 API .       490250639400:   API NUMBER
~CURVE INFORMATION
#MNEM.UNIT       API CODE    CURVE DESCRIPTION
#----------   ------------   ------------------------------
 DEPT.F                  :   
 ASN .OHMM   05 041 16 00:   AMPLIFIED SHORT NORMAL 16"
 ILD .OHMM   05 120 46 00:   INDUCTION LOG DEEP
 CILD.MMHO   05 110 46 00:   CONDUCTIVITY INDUCTION LOG DEEP
 SPR .MV     05 010 01 00:   SPONTANEOUS POTENTIAL FROM RES.
 GR  .GAPI   30 310 01 00:   GAMMA RAY
~PARAMETER INFORMATION
#MNEM.UNIT          VALUE    DESCRIPTION
#----------   ------------   ------------------------------
 PD  .                 GL:   PERMANENT DATUM
 EPD .F              5147:   ELEVATION PERMANENT DATUM
 LMF .                 KB:   LOG MEASURED FROM
 DAPD.F                 5:   FEET ABOVE PERMANENT DATUM
 DMF .                 KB:   DRILLING MEASURED FROM
 EKB .F              5152:   KELLING BUSHING
 EGL .F              5147:   GROUND LEVEL
 DATE.        13-SEP-1963:   RUN DATE
 RUN .                  1:   RUN NUMBER
 BLI .F               600:   BOTTOM LOG INTERVAL
 CS  .IN                7:   CASING SIZE
 DFT .                OIL:   DRILLING FLUID TYPE
 ENGI.            JACKSON:   RECORDING ENGINEER
 WITN.             HUDSON:   WITNESSED BY
 CLNT.            A2DTECH:   CLIENT CODE
 ORIG.           5" PRINT:   ORIGIN OF DATA
 UWI .       490250639400:   UNIQUE WELL ID
 DICO. A2D Technologies, Inc.:   DIGITIZING COMPANY
~OTHER INFORMATION
~A    DEPT     ASN        ILD       CILD        SPR          GR  
# ...
  427.0000     9.6643     8.1932   119.8496   -32.6786   142.6770
  427.5000     9.7392     8.1923   119.1343   -32.6831   138.0744
  428.0000     9.7842     8.0419   119.1269   -32.6876   135.4062
  428.5000     9.7694     7.8166   121.3751   -32.6921   135.4167
  429.0000     9.6904     7.5913   125.1271   -32.8469   133.3438
  429.5000     9.5006     7.5157   128.1272   -32.8513   130.2266
  430.0000     9.3214     7.3653   132.6311   -33.0052   129.0492
  430.5000     8.9329     7.1400   136.3831   -33.1591   126.5273
  431.0000     8.6789     7.0629   137.8794   -33.1636   129.2189
  431.5000     8.3502     6.9841   139.3760   -33.0174   133.3960
  432.0000     8.1859     6.9052   140.8721   -32.8735   134.4481
  432.5000     8.4851     6.6767   144.6487   -32.8779   131.9288
  433.0000     8.5301     6.3127   152.3002   -32.7317   135.0616
  433.5000     8.4704     5.8629   163.2397   -32.7373   130.1639
  434.0000     8.2165     5.1885   180.9723   -32.5911   130.3232
  434.5000     7.6037     4.8883   184.4441   -32.5967   133.6075
  435.0000     6.8864     4.8128   179.9235   -32.3021   130.7905
  435.5000     7.0809     4.8869   177.6605   -32.1570   129.9055
  436.0000     7.2604     4.9610   176.9012   -32.0119   130.8088
  436.5000     7.0050     5.2596   176.1419   -31.8670   120.4052
  437.0000     7.1303     5.5583   171.6232   -32.0209   112.0823
  437.5000     8.0306     6.0815   161.8413   -32.1749   110.4532
  438.0000     8.6661     6.6796   147.5482   -32.1793   116.1210
  438.5000     8.8157     7.2028   134.7588   -32.3607   118.6612
  439.0000     8.9205     7.7260   124.9770   -32.6376   134.4455
  439.5000     9.0253     8.1744   118.2027   -32.6420   141.3012
  440.0000     9.1002     8.3235   119.6990   -32.6465   143.0947
  440.5000     9.1302     7.7986   125.7066   -32.5014   138.4921
  441.0000     9.0706     7.1242   136.9774   -32.5059   145.8995
  441.5000     8.9661     6.4498   149.1369   -32.3597   148.9296
  442.0000     8.5776     6.0000   163.4185   -32.3652   144.8566
  442.5000     7.7257     5.7734   168.7594   -32.2191   142.5517
  443.0000     7.3821     5.4746   173.7880   -32.2246   140.1434
  443.5000     7.3523     5.2415   177.5400   -32.0785   133.7351
  444.0000     7.0685     5.0240   180.5401   -31.9334   133.2080
  444.5000     6.9640     5.0232   182.0383   -31.9390   133.1369
  445.0000     7.4902     5.1722   178.2696   -32.0929   128.8839
  445.5000     8.0163     5.4707   167.7359   -32.0973   129.0727
  446.0000     8.2722     5.7693   151.1871   -32.1017   126.0239
  446.5000     8.8181     6.4422   142.1572   -32.2556   121.7499
  447.0000     9.1172     6.9655   133.8791   -32.2601   119.4314
  447.5000     9.3117     7.4138   127.8566   -32.4141   117.1352
  448.0000     9.4763     7.7873   124.0898   -32.4384   114.2381
  448.5000     9.6259     7.9363   121.8268   -32.5999   114.2544
  449.0000     9.7755     8.0853   119.5637   -32.8768   111.1280
  449.5000     9.9251     8.1595   118.8044   -33.1802   112.6478
  450.0000     9.9178     8.2515   117.2932   -33.4981   112.5000
  450.5000     9.8611     8.3594   115.8543   -33.6884   115.3361
  451.0000     9.8060     8.4770   114.2384   -33.8788   111.3256
  451.5000     9.8944     8.7049   110.4564   -33.9267   107.9104
  452.0000     9.9558     8.8579   105.1705   -33.9252   109.4060
  452.5000    10.0307     9.0108   102.1403   -33.9237   110.6020
  453.0000    10.1056     9.0888    99.8620   -33.9222   113.5875
  453.5000    10.1057     9.0918   100.5912   -33.9207   114.7854
  454.0000    10.0311     9.0191   103.5760   -33.9192   117.1738
  454.5000     9.9565     8.9471   106.5608   -33.9177   115.6913
  455.0000     9.8819     9.0258   107.2957   -33.7668   118.5280
  455.5000     9.8821     9.1038   105.7636   -33.6158   124.3390
  456.0000    10.0317     9.2567   104.2371   -33.4648   124.6440
  456.5000    10.2561     9.5596   102.7107   -33.4633   128.6693
  457.0000    10.4804     9.8625    99.6805   -33.4618   132.8434
  457.5000    10.7048     9.9404    96.6503   -33.4603   129.7258
  458.0000    10.8544     9.7186    95.8757   -33.4588   127.5011
  458.5000    10.7036     9.0469   104.1237   -33.6072   131.5264
  459.0000    10.4003     7.7006   120.6423   -33.6053   134.3594
  459.5000     9.8282     6.6541   143.1760   -33.6038   128.4163
  460.0000     9.1061     5.9075   164.9635   -33.4528   118.3047
  460.5000     8.0749     5.9105   160.1631   -33.4513   117.1216
  461.0000     8.0152     6.1384   156.6466   -33.4498   117.2760
  461.5000     7.9855     6.2164   159.0756   -33.4483   112.2258
  462.0000     8.0652     5.9945   161.8653   -33.4468   112.3820
  462.5000     8.6261     5.9218   161.0275   -33.5948   112.9829
  463.0000     9.9141     6.3753   153.1401   -33.8922   110.7581
  463.5000    10.7825     7.1280   128.6040   -33.8907   115.2317
  464.0000    11.1570     8.2554   109.0509   -33.8892   111.5189
  464.5000    11.4567    10.0575    91.8270   -33.8877   103.9371
  465.0000    11.6069    11.1850    85.0374   -33.8862   100.6688
  465.5000    11.6824    11.4878    85.7666   -33.8847    97.5531
  466.0000    11.7579    11.4908    88.7514   -34.0331    87.8879
  466.5000    11.8334    11.1940    90.2331   -34.1807    82.9847
  467.0000    11.9836    10.8222    91.7136   -34.3291    72.1290
  467.5000    12.0591    10.7495    91.6909   -34.4770    65.7376
  468.0000    12.2093    10.9165    90.1644   -34.7741    58.8998
  468.5000    12.4343    11.2184    87.1342   -35.0719    47.0025
  469.0000    12.6593    11.6702    82.6003   -35.5185    43.4385
  469.5000    13.1832    12.3688    78.0663   -36.1149    47.6126
  470.0000    14.2303    13.1933    73.5323   -36.5618    45.2391
  470.5000    15.9500    14.0179    69.7502   -37.0088    41.5263
  471.0000    17.5950    15.0835    65.2163   -37.7546    38.8551
  471.5000    19.0905    16.9415    57.6748   -38.5005    40.6483
  472.0000    20.5113    18.7825    50.8852   -38.9475    42.4414
  472.5000    22.1563    21.1495    47.1031   -39.0958    42.5977
  473.0000    23.5024    22.4928    44.0729   -39.2438    42.7539
  473.5000    24.4747    23.6102    42.5464   -39.2419    42.3149
  474.0000    25.4471    24.3649    41.0200   -39.2404    41.5765
  474.5000    26.1952    25.1865    38.7417   -39.3884    42.3298
  475.0000    26.5696    26.1619    37.9671   -39.9848    43.3789
  475.5000    26.9441    27.2894    37.1925   -41.1791    46.0649
  476.0000    27.5427    28.0420    36.4180   -42.2240    50.8343
  476.5000    28.6646    28.1979    36.3953   -44.0162    55.6036
  477.0000    29.8611    27.7482    35.6207   -47.3032    57.9920
  477.5000    30.1608    27.6711    35.5980   -48.9459    58.5947
  478.0000    30.4605    28.3544    34.8291   -49.8413    53.6914
  478.5000    30.8180    29.1070    35.5583   -49.3913    51.0202
  479.0000    31.7584    29.4848    35.5299   -48.4930    51.0277
  479.5000    32.2678    29.3379    35.5073   -47.7441    48.5053
  480.0000    31.7586    28.5907    35.4846   -47.4439    47.0247
  480.5000    30.8378    27.8439    35.4619   -47.9188    47.9250
  481.0000    31.9058    28.1729    34.6873   -48.8121    49.8669
  481.5000    32.4835    28.8607    34.6692   -49.0838    50.4677
  482.0000    31.8864    29.5992    34.6466   -48.7832    47.7985
  482.5000    32.2633    30.0500    33.8722   -48.8016    45.5738
  483.0000    32.6363    30.7346    33.0027   -49.3782    40.9681
  483.5000    33.2339    31.6342    31.5714   -49.3767    42.7612
  484.0000    34.1315    32.6086    29.9848   -49.3752    45.1496
  484.5000    34.2888    33.3523    28.5188   -49.2242    42.7743
  485.0000    34.1230    33.8781    27.7444   -49.2327    45.1645
  485.5000    34.8064    34.5538    26.9699   -49.6777    55.5886
  486.0000    35.7041    35.5352    26.1954   -50.1226    56.0406
  486.5000    35.7889    36.7315    25.4208   -50.7211    56.3475
  487.0000    35.3319    37.3283    25.3982   -51.6104    58.2895
  487.5000    34.8094    37.0315    26.1278   -51.9058    60.5290
