~VERSION INFORMATION
 VERS.                2.0:   CWLS LOG ASCII STANDARD - VERSION 2.0
 WRAP.                 NO:   ONE LINE PER DEPTH STEP
~WELL INFORMATION
#MNEM.UNIT      DATA TYPE    INFORMATION
#----------   ------------   ------------------------------
 STRT.F            2.5000:   START DEPTH
 STOP.F          548.0000:   STOP DEPTH
 STEP.F            0.5000:   STEP LENGTH
 NULL.          -999.2500:   NO VALUE
 COMP. LAWRENCE/ALLISON INC:   COMPANY
 WELL.    55-61 SX #10-10:   WELL
 FLD .           N.P.R #3:   FIELD
 LOC .      S10 T38N R78W:   LOCATION
 CNTY.            NATRONA:   COUNTY
 STAT.            WYOMING:   STATE
 CTRY. UNITED STATES OF AMERICA:   COUNTRY
 SRVC.            Unknown:   SERVICE COMPANY
 DATE.        05-SEP-1984:   LOGDATE
 API .       490251098100:   API NUMBER
~CURVE INFORMATION
#MNEM.UNIT       API CODE    CURVE DESCRIPTION
#----------   ------------   ------------------------------
 DEPT.F                  :   
 GRR .GAPI   07 310 01 00:   GAMMA RAY FROM RES
 SPR .MV     07 010 01 00:   SPONTANEOUS POTENTIAL
 RFOC.OHMM   07 220 04 00:   RESISTIVITY FOCUSED LOG
 RILD.OHMM   07 120 46 00:   INDUCTION LOG DEEP RESISTIVITY
 RILM.OHMM   07 120 44 00:   INDUCTION LOG MEDIUM RESISTIVITY
 CALD.IN     45 280 60 00:   CALIPER FROM DENSITY LOG
 DEN .G/C3   45 350 01 00:   COMPENSATED BULK DENSTIY
 CNC .DEC    42 890 03 00:   NEUTRON POROSITY SANDSTONE
 PORD.DEC    45 890 12 00:   POROSITY DENSITY SANDSTONE
 CORR.G/C3   45 356 01 00:   DENSITY CORRECTION
 AC  .US/F   60 520 00 00:   ACCOUSTIC SONIC
~PARAMETER INFORMATION
#MNEM.UNIT          VALUE    DESCRIPTION
#----------   ------------   ------------------------------
 PD  .                 GL:   PERMANENT DATUM
 EPD .F              5191:   ELEVATION PERMANENT DATUM
 LMF .                 KB:   LOG MEASURED FROM
 DAPD.F                12:   FEET ABOVE PERMANENT DATUM
 DMF .                 KB:   DRILLING MEASURED FROM
 EKB .F              5203:   KELLING BUSHING
 EGL .F              5191:   GROUND LEVEL
 DATE.         5-SEP-1984:   RUN DATE
 RUN .                  1:   RUN NUMBER
 DD  .F               540:   DEPTH DRILLER
 DL  .F               550:   DEPTH LOGGER
 BLI .F               548:   BOTTOM LOG INTERVAL
 CS  .IN            8.625:   CASING SIZE
 CBD .F                42:   CASING BOTTOM DRILLER
 CBL .F                54:   CASING BOTTOM LOGGER
 BS  .IN            7.875:   BIT SIZE
 BSD .F               540:   BIT SIZE AT DEPTH
 DFT .        KCL POLYMER:   DRILLING FLUID TYPE
 MSS .           FLOWLINE:   MUD SAMPLE SOURCE
 RMS .OHMM            .79:   RESISTIVITY MUD SAMPLE
 MST .F                74:   MUD SAMPLE TEMPERATURE
 RMF .OHMM            .59:   RESISTIVITY MUD FILTRATE SAMPLE
 MFST.F                74:   MUD FILTRATE SAMPLE TEMPERATURE
 RMC .OHMM            .99:   RESISTIVITY MUD CAKE
 MCST.F                74:   MUD CAKE SAMPLE TEMPERATURE
 MFSS.               CALC:   MUD FILTRATE SAMPLE SOURCE
 MCSS.               CALC:   MUD CAKE SAMPLE SOURCE
 RMB .OHMM            .65:   RESISTIVITY MUD AT BHT
 BHT .F                90:   BOTTOM HOLE TEMPERATURE
 TCS .HRS               3:   TIME CURCULATED STOPPED
 MRT .F                90:   MAXIMUM RECORDED TEMPERATURE
 LUN .               6274:   LOGGING UNIT NUMBER
 LUL .               GLTE:   LOGGING UNIT LOCATION
 ENGI.             RAUTIO:   RECORDING ENGINEER
 WITN.            JOHNSON:   WITNESSED BY
 CLNT.            A2DTECH:   CLIENT CODE
 ORIG. 2", 2.5", 5" PRINT:   ORIGIN OF DATA
 UWI .       490251098100:   UNIQUE WELL ID
 DICO. A2D Technologies, Inc.:   DIGITIZING COMPANY
~OTHER INFORMATION
~A    DEPT      GRR       SPR       RFOC       RILD       RILM       CALD        DEN        CNC       PORD       CORR         AC   
# ...
  338.0000    73.8710   -42.5920    22.1260    27.5210    22.4770     7.9860     2.3560     0.2710     0.1930     0.0290    97.4022
  338.5000    71.0040   -43.2690    23.2380    26.9480    22.4150     7.9860     2.3590     0.2730     0.1920     0.0280    97.8939
  339.0000    68.1190   -43.9440    24.4770    26.1030    22.3530     7.9860     2.3610     0.2780     0.1900     0.0260    97.6559
  339.5000    66.7180   -44.6210    23.9510    26.1690    22.2910     7.9860     2.3590     0.2810     0.1920     0.0180    97.2280
  340.0000    67.0400   -44.6550    23.0660    26.2580    22.2290     7.9860     2.3520     0.2810     0.1950     0.0090    97.1186
  340.5000    69.2220   -44.6560    22.1260    26.3480    22.1670     7.9860     2.3490     0.2810     0.1970     0.0090   117.3404
  341.0000    70.7500   -44.6570    22.3700    26.4370    22.1260     7.9860     2.3500     0.2830     0.1970     0.0060   197.5399
  341.5000    69.4440   -44.6560    22.6310    26.5270    22.2730     7.9860     2.3490     0.2910     0.1970     0.0020   239.9491
  342.0000    68.4590   -45.0400    22.8910    26.5860    22.3830     7.9860     2.3410     0.2980     0.2000    -0.0020   239.9476
  342.5000    70.2050   -45.6260    23.1520    26.4620    22.4930     7.9860     2.3350     0.2920     0.2060    -0.0060   239.9460
  343.0000    72.2880   -46.2160    23.3790    26.3520    22.6030     7.9860     2.3370     0.2820     0.2070    -0.0060   239.9445
  343.5000    72.5400   -46.5120    23.1270    26.2430    22.7440     7.9860     2.3420     0.2840     0.2040    -0.0040   215.4272
  344.0000    72.9200   -46.8060    22.8190    26.1330    22.5750     7.9850     2.3420     0.2880     0.2010     0.0050   167.0598
  344.5000    73.7710   -47.0990    22.5120    25.8410    22.2530     7.9770     2.3380     0.2830     0.2030     0.0180    90.1710
  345.0000    72.7240   -47.3940    22.2050    25.4800    21.9320     7.9700     2.3350     0.2720     0.2050     0.0200    94.1757
  345.5000    70.0360   -47.6880    21.8970    25.1340    21.6100     7.9630     2.3350     0.2740     0.2060     0.0090    96.8039
  346.0000    69.9260   -47.9820    21.5900    24.8990    21.2890     7.9560     2.3410     0.2790     0.2030    -0.0020    97.2543
  346.5000    73.3450   -48.2760    21.1330    24.6650    20.9400     7.9480     2.3470     0.2830     0.1980     0.0040    96.5901
  347.0000    74.4810   -48.5700    21.2100    24.4310    20.5590     7.9410     2.3510     0.2740     0.1950    -0.0020    95.8233
  347.5000    72.5990   -48.8650    21.3600    24.1970    20.5590     7.9340     2.3500     0.2680     0.1960    -0.0100    95.3492
  348.0000    71.1800   -49.0020    21.5250    23.9630    20.5590     7.9270     2.3490     0.2660     0.1970    -0.0190    94.7519
  348.5000    73.1780   -48.8820    21.2330    23.7290    20.5590     7.9190     2.3670     0.2600     0.1910    -0.0130    94.1289
  349.0000    76.2470   -48.7670    20.9120    23.3790    20.5590     7.9120     2.3870     0.2520     0.1780     0.0060    93.4648
  349.5000    76.7620   -48.6520    20.5590    23.5460    20.5590     7.9080     2.4030     0.2430     0.1670     0.0260    92.8829
  350.0000    75.6280   -48.5360    19.8900    23.8770    21.2490     7.9100     2.4090     0.2310     0.1620     0.0460    91.4130
  350.5000    74.5170   -48.4220    19.1480    24.2080    21.8760     7.9130     2.4230     0.2140     0.1560     0.0470    90.1850
  351.0000    74.2040   -48.3070    18.7550    24.5390    22.5020     7.9150     2.4660     0.1990     0.1450     0.0410    86.4570
  351.5000    71.8120   -48.1930    20.3030    24.7030    23.1280     7.9180     2.5150     0.1830     0.1140     0.0350    81.1000
  352.0000    67.2680   -48.0720    22.2550    24.7030    23.8120     7.9210     2.5380     0.1830     0.0840     0.0280    74.7610
  352.5000    63.1900   -48.2900    24.2070    24.2340    22.4140     7.9230     2.5220     0.1970     0.0890     0.0190    73.1670
  353.0000    62.2530   -48.4710    25.1610    23.7170    20.8740     7.9260     2.4890     0.2160     0.1120     0.0090    77.9610
  353.5000    63.9980   -48.6550    22.3490    23.2010    19.5850     7.9250     2.4260     0.2430     0.1420    -0.0010    82.6610
  354.0000    66.1220   -48.8420    19.8190    22.6470    19.1410     7.9200     2.3970     0.2670     0.1650     0.0030    87.3610
  354.5000    69.4880   -49.0300    17.5870    21.8150    18.6970     7.9140     2.3830     0.2640     0.1760     0.0110    91.8920
  355.0000    71.4920   -49.2180    17.7050    20.9820    18.2520     7.9080     2.3770     0.2570     0.1790     0.0200    92.8880
  355.5000    71.5580   -49.4070    17.8680    20.1490    17.8080     7.9080     2.3770     0.2480     0.1800     0.0280    93.0290
  356.0000    71.1690   -49.5920    17.9130    19.3170    17.3640     7.9090     2.3840     0.2420     0.1770     0.0330    92.9080
  356.5000    71.4150   -49.4690    17.7310    18.7550    16.9190     7.9100     2.3930     0.2400     0.1720     0.0170    92.6310
  357.0000    70.9410   -49.3270    17.5340    18.6730    16.7150     7.9110     2.3950     0.2440     0.1700     0.0010    92.3530
  357.5000    70.2410   -49.1860    17.3380    18.5170    16.5580     7.9120     2.3920     0.2500     0.1710    -0.0010    92.0920
  358.0000    69.4930   -49.0440    17.1410    18.3430    16.4010     7.9130     2.3910     0.2500     0.1720     0.0070    91.9740
  358.5000    67.8580   -48.9020    16.9440    18.1280    16.2440     7.9140     2.3910     0.2440     0.1730     0.0080    91.8630
  359.0000    67.1420   -48.8050    16.7470    17.9140    16.0870     7.9150     2.3910     0.2470     0.1730     0.0110    91.7520
  359.5000    67.1340   -49.0170    16.5500    17.7000    15.9300     7.9170     2.3960     0.2520     0.1700     0.0210    91.6250
  360.0000    67.6190   -49.2770    16.3420    17.4860    15.7730     7.9180     2.4020     0.2470     0.1670     0.0310    91.4830
  360.5000    68.2740   -49.5380    16.1390    17.2720    15.6150     7.9190     2.4070     0.2410     0.1640     0.0380    91.3400
  361.0000    67.8530   -49.7940    15.9240    17.0570    15.4580     7.9200     2.4100     0.2440     0.1620     0.0310    91.0140
  361.5000    67.5640   -49.7280    15.7090    16.8430    15.3000     7.9210     2.4130     0.2470     0.1590     0.0200    90.6050
  362.0000    69.1930   -49.6350    15.4940    16.6290    15.1310     7.9220     2.4240     0.2460     0.1540     0.0090    90.1960
  362.5000    73.0950   -49.5420    15.2790    16.4150    14.9630     7.9230     2.4340     0.2440     0.1470     0.0110    89.7870
  363.0000    76.1340   -49.4490    15.0640    16.2010    14.7940     7.9240     2.4340     0.2480     0.1460     0.0160    89.5020
  363.5000    75.6420   -49.3570    14.8490    15.9860    14.6260     7.9250     2.4310     0.2540     0.1480     0.0210    89.5020
  364.0000    75.0240   -49.2630    14.6340    15.7720    14.4580     7.9260     2.4290     0.2540     0.1500     0.0170    89.3980
  364.5000    75.0390   -49.2030    14.4190    15.5580    14.2890     7.9270     2.4300     0.2500     0.1500     0.0090    89.0650
  365.0000    76.6680   -49.3620    14.2290    15.3440    14.1210     7.9270     2.4310     0.2460     0.1490     0.0120    88.7320
  365.5000    77.9850   -49.5420    14.1690    15.1300    13.8520     7.9270     2.4300     0.2410     0.1490     0.0110    88.3980
  366.0000    78.1450   -49.7170    14.1080    14.9080    13.9030     7.9270     2.4280     0.2400     0.1500     0.0070    88.3430
  366.5000    75.5160   -50.0030    14.0470    14.8950    13.9570     7.9270     2.4280     0.2430     0.1510     0.0100    88.3930
  367.0000    74.2410   -49.9490    13.9870    14.8810    14.0110     7.9270     2.4280     0.2470     0.1500     0.0140    88.4430
  367.5000    75.2890   -49.9020    13.9260    14.8680    14.0640     7.9270     2.4270     0.2500     0.1520     0.0170    88.4930
  368.0000    78.0760   -49.8510    13.7250    14.8550    14.1090     7.9270     2.4230     0.2470     0.1530     0.0100    88.4530
