~VERSION INFORMATION
 VERS.                2.0:   CWLS LOG ASCII STANDARD - VERSION 2.0
 WRAP.                 NO:   ONE LINE PER DEPTH STEP
~WELL INFORMATION
#MNEM.UNIT      DATA TYPE    INFORMATION
#----------   ------------   ------------------------------
 STRT.F           30.0000:   START DEPTH
 STOP.F          634.0000:   STOP DEPTH
 STEP.F            0.5000:   STEP LENGTH
 NULL.          -999.2500:   NO VALUE
 COMP. FENIX & SCISSON INC:   COMPANY
 WELL.     26-S-11 #26-11:   WELL
 FLD .             TEAPOT:   FIELD
 LOC .      S11 T38N R78W:   LOCATION
 CNTY.            NATRONA:   COUNTY
 STAT.            WYOMING:   STATE
 CTRY. UNITED STATES OF AMERICA:   COUNTRY
 SRVC.              Welex:   SERVICE COMPANY
 DATE.        26-APR-1977:   LOGDATE
 API .       490251034300:   API NUMBER
~CURVE INFORMATION
#MNEM.UNIT       API CODE    CURVE DESCRIPTION
#----------   ------------   ------------------------------
 DEPT.F                  :   
 SPR .MV     07 010 01 00:   SPONTANEOUS POTENTIAL
 ILD .OHMM   07 120 46 00:   INDUCTION LOG DEEP
 ILM .OHMM   07 120 44 00:   INDUCTION LOG MEDIUM
 SGRD.OHMM   07 221 05 00:   SHALLOW SHORT GUARD RESISTIVITY
 CALD.IN     45 280 60 00:   CALIPER FROM DENSITY LOG
 GRD .GAPI   45 310 01 00:   GAMMA RAY FROM DENSITY LOG
 CORR.G/C3   45 356 01 00:   DENSITY CORRECTION
 DPHI.DEC    45 890 12 00:   DENSITY POROSITY SANDSTONE
 RHOB.G/C3   45 350 01 00:   BULK DENSITY
~PARAMETER INFORMATION
#MNEM.UNIT          VALUE    DESCRIPTION
#----------   ------------   ------------------------------
 PD  .                 GL:   PERMANENT DATUM
 EPD .F              5179:   ELEVATION PERMANENT DATUM
 LMF .                 GL:   LOG MEASURED FROM
 DMF .                 GL:   DRILLING MEASURED FROM
 EGL .F              5179:   GROUND LEVEL
 DATE.          4-24-1977:   RUN DATE
 RUN .                  1:   RUN NUMBER
 DD  .F               645:   DEPTH DRILLER
 DL  .F               634:   DEPTH LOGGER
 BLI .F               632:   BOTTOM LOG INTERVAL
 TLI .F                40:   TOP LOG INTERVAL
 CS  .IN            8.625:   CASING SIZE
 CBD .F                40:   CASING BOTTOM DRILLER
 CBL .F                42:   CASING BOTTOM LOGGER
 BS  .IN            7.875:   BIT SIZE
 BSD .F               645:   BIT SIZE AT DEPTH
 DFT .            KCL MUD:   DRILLING FLUID TYPE
 DFD .                8.8:   DRILLING FLUID DENSITY
 DFV .                 33:   DRILLING FLUID VISCOSITY
 DFPH.                7.5:   DRILLING FLUID PH
 DFL .                 96:   DRILLING FLUID LOSS
 MSS .           FLOWLINE:   MUD SAMPLE SOURCE
 RMS .OHMM            .17:   RESISTIVITY MUD SAMPLE
 MST .F                81:   MUD SAMPLE TEMPERATURE
 RMF .OHMM            .16:   RESISTIVITY MUD FILTRATE SAMPLE
 MFST.F                81:   MUD FILTRATE SAMPLE TEMPERATURE
 RMC .OHMM            .21:   RESISTIVITY MUD CAKE
 MCST.F                81:   MUD CAKE SAMPLE TEMPERATURE
 MFSS.           FANN KIT:   MUD FILTRATE SAMPLE SOURCE
 MCSS.           FANN KIT:   MUD CAKE SAMPLE SOURCE
 RMB .OHMM            .19:   RESISTIVITY MUD AT BHT
 BHT .F                72:   BOTTOM HOLE TEMPERATURE
 TCS .HRS             1.5:   TIME CURCULATED STOPPED
 MRT .F                72:   MAXIMUM RECORDED TEMPERATURE
 LUN .                861:   LOGGING UNIT NUMBER
 LUL .           GILLETTE:   LOGGING UNIT LOCATION
 ENGI.             JOYNER:   RECORDING ENGINEER
 WITN.           ROB LYON:   WITNESSED BY
 CLNT.            A2DTECH:   CLIENT CODE
 ORIG.         2.5" PRINT:   ORIGIN OF DATA
 UWI .       490251034300:   UNIQUE WELL ID
 DICO. A2D Technologies, Inc.:   DIGITIZING COMPANY
~OTHER INFORMATION
~A   DEPT      SPR        ILD        ILM       SGRD       CALD        GRD       CORR       DPHI       RHOB   
# ...
  249.0000   -25.9761     9.7159    10.4019    14.1409     7.9408   106.8974     0.0120     0.0923     2.4924
  249.5000   -25.9791     9.8531    10.5510    14.3327     7.9401   106.8490     0.0089     0.0982     2.4905
  250.0000   -25.9821     9.8531    10.8286    14.9277     7.9394   105.9629     0.0059     0.1077     2.4825
  250.5000   -25.9851     9.9922    10.9809    14.5251     7.9387   104.6266     0.0059     0.1119     2.4708
  251.0000   -25.9881    10.1332    11.1353    14.1333     7.9380   102.3754     0.0058     0.1119     2.4609
  251.5000   -25.9911    10.1332    11.1686    14.1314     7.9374   100.0762     0.0058     0.1113     2.4676
  252.0000   -25.9941     9.9922    11.3286    14.1294     7.9367    97.7263     0.0058     0.1095     2.4777
  252.5000   -25.9971     9.9922    11.4491    14.1275     7.9360    99.4208     0.0064     0.1107     2.4720
  253.0000   -26.0001     9.8531    11.4473    14.1256     7.9353   102.4594     0.0086     0.1143     2.4604
  253.5000   -26.0031     9.7159    11.4457    13.9329     7.9347   104.8162     0.0086     0.1184     2.4541
  254.0000   -26.0062     9.5807    11.6069    13.9310     7.9340   106.8684     0.0085     0.1215     2.4443
  254.5000   -26.0092     9.4473    11.4424    13.9291     7.9333   103.7732     0.0085     0.1250     2.4369
  255.0000   -26.0122     9.3158    11.4408    13.9272     7.9325   104.9316     0.0085     0.1256     2.4317
  255.5000   -26.0152     9.1861    11.4392    13.7371     7.9325   105.6867     0.0084     0.1250     2.4454
  256.0000   -26.3203     9.1861    11.4376    13.3666     7.9326   103.4506     0.0084     0.1220     2.4390
  256.5000   -26.6254     9.1861    11.4360    13.1842     7.9326   103.0411     0.0083     0.1191     2.4421
  257.0000   -26.6284     9.1861    11.4344    13.0043     7.9327   103.4282     0.0083     0.1137     2.4577
  257.5000   -26.6340     9.1861    11.4328    13.1806     7.9327   104.3084     0.0092     0.1084     2.4708
  258.0000   -26.9365     9.1861    11.4311    13.3593     7.9328   104.9990     0.0112     0.1102     2.4773
  258.5000   -26.9395     9.1861    11.4295    13.3575     7.9328   106.1760     0.0111     0.1126     2.4720
  259.0000   -26.9426     9.1861    11.4279    12.9972     7.9328   107.0596     0.0111     0.1155     2.4646
  259.5000   -26.9456     9.0582    11.4263    12.9955     7.9329   108.0094     0.0099     0.1191     2.4541
  260.0000   -26.9486     9.0582    11.5870    12.9937     7.9329   106.3636     0.0080     0.1215     2.4476
  260.5000   -26.9516     9.0582    11.5853    13.3503     7.9330   106.8469     0.0050     0.1215     2.4432
  261.0000   -26.9546     9.0582    11.4912    13.5313     7.9330   109.1280     0.0050     0.1215     2.4446
  261.5000   -26.9578     9.0582    11.4199    13.7195     7.9331   107.9838     0.0049     0.1215     2.4466
  262.0000   -26.9608     8.9321    11.1003    13.7068     7.9331   104.4381     0.0049     0.1215     2.4481
  262.5000   -26.9638     8.9217    10.9433    13.3355     7.9332   100.7086     0.0048     0.1197     2.4495
  263.0000   -26.9668     8.8078    10.6375    12.7990     7.9332   101.3637     0.0048     0.1191     2.4539
  263.5000   -26.9698     8.6852    10.4870    12.4427     7.9332   102.6960     0.0047     0.1173     2.4525
  264.0000   -26.9728     8.6690    10.3387    11.9621     7.9333   104.1662     0.0047     0.1182     2.4415
  264.5000   -27.2780     8.5642    10.3373    11.9728     7.9333   106.5219     0.0046     0.1240     2.4340
  265.0000   -27.2810     8.5444    10.1910    12.1366     7.9334   109.1691     0.0076     0.1263     2.4293
  265.5000   -27.3429     8.4450    10.1896    12.4555     7.9334   110.3196     0.0075     0.1238     2.4344
  266.0000   -27.5891     8.3275    10.0455    12.4537     7.9335   109.5484     0.0091     0.1208     2.4424
  266.5000   -27.8942     8.3275     9.9034    12.2657     7.9335   107.6442     0.0104     0.1204     2.4520
  267.0000   -27.9668     8.2115     9.6266    11.9524     7.9336   106.6266     0.0104     0.1222     2.4436
  267.5000   -28.2025     8.2115     9.4905    11.9306     7.9336   106.0337     0.0103     0.1214     2.4398
  268.0000   -28.5076     8.0972     9.2252    11.7877     7.9336   105.0968     0.0103     0.1184     2.4411
  268.5000   -28.5106     8.0972     9.0947    11.7861     7.9337   104.3192     0.0132     0.1168     2.4478
  269.0000   -28.8993     7.9845     8.9661    11.7845     7.9337   107.0727     0.0131     0.1182     2.4493
  269.5000   -29.1208     7.9493     8.8393    11.7829     7.9338   108.2429     0.0131     0.1202     2.4397
  270.0000   -29.2145     7.8733     8.7143    11.7547     7.9338   109.1197     0.0101     0.1250     2.4308
  270.5000   -29.4290     7.9123     8.5910    11.4635     7.9339   110.2898     0.0100     0.1289     2.4255
  271.0000   -29.4320     7.9845     8.4695    11.3071     7.9339   110.8734     0.0100     0.1278     2.4264
  271.5000   -29.7372     7.9845     8.3497    11.3055     7.9340   109.9907     0.0099     0.1244     2.4353
  272.0000   -29.7402     8.0972     8.3486    11.3040     7.9340   107.0553     0.0099     0.1268     2.4385
  272.5000   -29.7432     8.0972     8.2305    11.3024     7.9340   105.9922     0.0099     0.1288     2.4279
  273.0000   -29.7463     8.0972     8.2293    11.3009     7.9341   109.1022     0.0128     0.1249     2.4337
  273.5000   -29.7493     8.0972     8.2249    11.2993     7.9341   106.7533     0.0127     0.1221     2.4396
  274.0000   -29.7523     8.0972     8.1118    11.1100     7.9342   104.9908     0.0157     0.1211     2.4455
  274.5000   -29.7553     7.9845     8.1106    10.9930     7.9342   105.5744     0.0156     0.1227     2.4466
  275.0000   -30.0604     7.8733     8.1000    10.8432     7.9343   107.3310     0.0156     0.1269     2.4359
  275.5000   -30.1928     7.7079     7.9948    11.1800     7.9343   109.6741     0.0155     0.1310     2.4255
  276.0000   -30.3686     7.5428     7.9937    11.2919     7.9344   109.3780     0.0125     0.1352     2.4201
  276.5000   -30.5080     7.3870     7.8806    11.2481     7.9344   103.8032     0.0095     0.1371     2.4185
  277.0000   -30.6767     7.1811     7.8795    11.0935     7.9344   101.1610     0.0095     0.1334     2.4215
  277.5000   -30.9819     6.9809     7.7680    10.7930     7.9345    99.9851     0.0094     0.1316     2.4244
  278.0000   -31.2870     6.8435     7.7669    10.3587     7.9345   102.3282     0.0094     0.1320     2.4199
  278.5000   -31.4406     6.6543     7.7658    10.0366     7.9346   104.0848     0.0093     0.1347     2.4155
  279.0000   -31.5952     6.4703     7.7647     9.5016     7.9346   105.5482     0.0093     0.1403     2.4125
  279.5000   -31.5982     6.3802     7.7636     9.0344     7.9347   107.8913     0.0092     0.1395     2.4125
  280.0000   -31.6012     6.2914     7.7625     9.1990     7.9347   108.3773     0.0092     0.1366     2.4139
  280.5000   -31.6042     6.2914     7.7614     9.8486     7.9348   106.6056     0.0092     0.1405     2.4139
  281.0000   -31.6072     6.2914     7.8708    10.2111     7.9348   110.2286     0.0091     0.1413     2.4124
  281.5000   -31.6103     6.2914     7.8695    10.3913     7.9348   112.5717     0.0091     0.1351     2.4138
  282.0000   -31.6133     6.2914     7.9064    10.0607     7.9349   112.2755     0.0090     0.1298     2.4212
  282.5000   -31.6163     6.2914     7.9792     9.9727     7.9349   110.2198     0.0090     0.1258     2.4345
  283.0000   -31.6199     6.3802     8.0206     9.9714     7.9350   108.4574     0.0119     0.1208     2.4448
  283.5000   -31.6229     6.3802     8.0903    10.1608     7.9350   106.9882     0.0148     0.1137     2.4536
  284.0000   -31.6259     6.4703     8.1364    10.5839     7.9351   106.3988     0.0148     0.1100     2.4654
  284.5000   -31.6289     6.5616     8.2027    10.6100     7.9351   105.5161     0.0207     0.1085     2.4669
  285.0000   -31.6319     6.6543     8.2015    10.5233     7.9352   104.6334     0.0266     0.1079     2.4713
