~VERSION INFORMATION
 VERS.                2.0:   CWLS LOG ASCII STANDARD - VERSION 2.0
 WRAP.                 NO:   ONE LINE PER DEPTH STEP
~WELL INFORMATION
#MNEM.UNIT      DATA TYPE    INFORMATION
#----------   ------------   ------------------------------
 STRT.F            0.0000:   START DEPTH
 STOP.F         2720.0000:   STOP DEPTH
 STEP.F            0.5000:   STEP LENGTH
 NULL.          -999.2500:   NO VALUE
 COMP. DEPARTMENT OF ENERGY:   COMPANY
 WELL.       NPR-3 #410-A:   WELL
 FLD . TEAPOT NAVAL RESERVE:   FIELD
 LOC .      S20 T39N R78W:   LOCATION
 CNTY.            NATRONA:   COUNTY
 STAT.            WYOMING:   STATE
 CTRY. UNITED STATES OF AMERICA:   COUNTRY
 SRVC.      NL McCullough:   SERVICE COMPANY
 DATE.        26-JUL-1965:   LOGDATE
 API .       490251144500:   API NUMBER
~CURVE INFORMATION
#MNEM.UNIT       API CODE    CURVE DESCRIPTION
#----------   ------------   ------------------------------
 DEPT.F                  :   
 GR  .GAPI   30 310 01 00:   GAMMA RAY
 CALI.IN     30 280 01 00:   CALIPER
~PARAMETER INFORMATION
#MNEM.UNIT          VALUE    DESCRIPTION
#----------   ------------   ------------------------------
 PD  .                 GL:   PERMANENT DATUM
 LMF .                 GL:   LOG MEASURED FROM
 DATE.            7-16-65:   RUN DATE
 RUN .                  1:   RUN NUMBER
 DD  .F              2720:   DEPTH DRILLER
 TLI .F              2100:   TOP LOG INTERVAL
 CS  .IN            6.875:   CASING SIZE
 DFT .              WATER:   DRILLING FLUID TYPE
 ENGI. FITZSIMMONE/COWLTHORPE:   RECORDING ENGINEER
 WITN.             HUDSON:   WITNESSED BY
 CLNT.            A2DTECH:   CLIENT CODE
 ORIG.           5" PRINT:   ORIGIN OF DATA
 UWI .       490251144500:   UNIQUE WELL ID
 DICO. A2D Technologies, Inc.:   DIGITIZING COMPANY
~OTHER INFORMATION
~A    DEPT      GR         CALI 
# ...
 2187.0000    50.5428     5.9118
 2187.5000    53.1483     5.9100
 2188.0000    53.2899     5.9113
 2188.5000    49.6167     5.9125
 2189.0000    50.4394     5.9137
 2189.5000    51.5585     5.9149
 2190.0000    51.8680     5.9162
 2190.5000    51.2949     5.9174
 2191.0000    51.4686     5.9186
 2191.5000    52.0634     5.9198
 2192.0000    50.3489     5.9211
 2192.5000    52.5302     5.9223
 2193.0000    54.7098     5.9235
 2193.5000    53.3072     5.9247
 2194.0000    51.2142     5.9259
 2194.5000    49.0731     5.9272
 2195.0000    48.0431     5.9284
 2195.5000    51.6303     5.9297
 2196.0000    56.2478     5.9297
 2196.5000    57.7797     5.9297
 2197.0000    54.5390     5.9297
 2197.5000    53.8277     5.9297
 2198.0000    57.3315     5.9297
 2198.5000    60.2865     5.9297
 2199.0000    57.0000     5.9297
 2199.5000    54.2638     5.9297
 2200.0000    51.5507     5.9297
 2200.5000    49.4388     5.9297
 2201.0000    50.6065     5.9297
 2201.5000    52.2201     5.9297
 2202.0000    53.5882     5.9297
 2202.5000    51.7906     5.9297
 2203.0000    50.0000     5.9297
 2203.5000    48.9067     5.9285
 2204.0000    49.6543     5.9258
 2204.5000    51.4563     5.9231
 2205.0000    51.8613     5.9204
 2205.5000    48.7443     5.9177
 2206.0000    48.2916     5.9150
 2206.5000    47.7748     5.9123
 2207.0000    49.2304     5.9097
 2207.5000    49.5836     5.9109
 2208.0000    50.4763     5.9123
 2208.5000    50.4785     5.9135
 2209.0000    50.0832     5.9148
 2209.5000    50.5981     5.9161
 2210.0000    51.5521     5.9174
 2210.5000    53.2758     5.9187
 2211.0000    55.5329     5.9200
 2211.5000    55.4659     5.9213
 2212.0000    56.3606     5.9226
 2212.5000    53.9993     5.9238
 2213.0000    52.2862     5.9251
 2213.5000    53.2781     5.9264
 2214.0000    58.7077     5.9277
 2214.5000    57.0137     5.9290
 2215.0000    56.4342     5.9297
 2215.5000    56.1809     5.9297
 2216.0000    54.7973     5.9297
 2216.5000    56.3071     5.9298
 2217.0000    58.8404     5.9294
 2217.5000    61.4493     5.9225
 2218.0000    62.4407     5.9156
 2218.5000    55.8466     5.9088
 2219.0000    55.1806     5.9019
 2219.5000    52.9067     5.8951
 2220.0000    51.9505     5.8931
 2220.5000    55.3707     5.9170
 2221.0000    53.8119     5.9405
 2221.5000    51.5961     5.9648
 2222.0000    50.3074     5.9591
 2222.5000    48.3924     5.9401
 2223.0000    46.5119     5.9292
 2223.5000    46.5775     5.9211
 2224.0000    46.6671     5.9122
 2224.5000    46.7478     5.9640
 2225.0000    46.8288     5.9932
 2225.5000    46.9045     5.9579
 2226.0000    47.1228     5.9289
 2226.5000    47.5344     5.9384
 2227.0000    49.5170     5.9492
 2227.5000    51.4191     5.9371
 2228.0000    53.3805     5.9227
 2228.5000    56.1309     5.9102
 2229.0000    57.4623     5.9202
 2229.5000    53.7518     5.9304
 2230.0000    56.0195     5.9405
 2230.5000    58.3802     5.9497
 2231.0000    64.5976     5.9499
 2231.5000    67.8054     5.9498
 2232.0000    68.6784     5.9498
 2232.5000    62.2889     5.9498
 2233.0000    63.2495     5.9523
 2233.5000    64.1775     5.9574
 2234.0000    63.1779     5.9624
 2234.5000    63.8596     5.9674
 2235.0000    62.0305     5.9640
 2235.5000    59.6069     5.9528
 2236.0000    58.0360     5.9415
 2236.5000    58.3258     5.9301
 2237.0000    60.7490     5.9187
 2237.5000    61.6856     5.9097
 2238.0000    62.7672     5.9201
 2238.5000    65.1770     5.9307
 2239.0000    66.8539     5.9413
 2239.5000    66.4257     5.9519
 2240.0000    66.4176     5.9625
 2240.5000    64.3502     5.9731
 2241.0000    60.0615     5.9837
 2241.5000    59.0431     5.9894
 2242.0000    57.6097     5.9695
 2242.5000    56.4567     5.9490
 2243.0000    56.0126     5.9287
 2243.5000    54.6212     5.9083
 2244.0000    53.1189     5.8897
 2244.5000    51.6050     5.8905
 2245.0000    50.0841     5.8994
 2245.5000    50.4957     5.9085
 2246.0000    53.3110     5.9088
 2246.5000    54.8580     5.8900
 2247.0000    53.0161     5.8714
 2247.5000    50.8769     5.8531
 2248.0000    49.9320     5.8338
 2248.5000    49.8997     5.8333
 2249.0000    48.2524     5.8387
 2249.5000    46.7958     5.8442
 2250.0000    49.0451     5.8505
 2250.5000    51.7476     5.8746
 2251.0000    51.0644     5.8979
 2251.5000    53.8107     5.9215
 2252.0000    56.2274     5.9043
 2252.5000    52.5467     5.8715
 2253.0000    56.0052     5.9068
 2253.5000    55.9450     5.9429
 2254.0000    54.3642     5.9505
 2254.5000    54.8724     5.9541
 2255.0000    58.5877     5.9574
 2255.5000    63.1049     5.9609
 2256.0000    65.3723     5.9644
 2256.5000    67.1612     5.9677
 2257.0000    68.4603     5.9584
 2257.5000    67.0936     5.9305
 2258.0000    66.7164     5.9027
 2258.5000    70.1563     5.9067
 2259.0000    67.9061     5.9387
 2259.5000    68.1212     5.9689
 2260.0000    63.6880     5.9635
 2260.5000    62.0375     5.9567
 2261.0000    59.8229     5.9502
 2261.5000    56.2866     5.9437
 2262.0000    53.6910     5.9371
 2262.5000    53.1109     5.9297
 2263.0000    51.6861     5.9593
 2263.5000    51.3309     5.9943
 2264.0000    54.5150     6.0290
 2264.5000    57.5345     6.0130
 2265.0000    56.9047     5.9830
 2265.5000    56.4857     5.9525
 2266.0000    51.0443     5.9741
 2266.5000    48.0440     6.0025
 2267.0000    47.9111     6.0281
 2267.5000    47.1077     5.9834
 2268.0000    47.0470     5.9357
 2268.5000    45.2855     5.9250
 2269.0000    46.2131     5.9187
 2269.5000    50.2267     5.9122
 2270.0000    50.0806     5.9097
 2270.5000    53.7731     5.9096
 2271.0000    54.4607     5.9096
 2271.5000    55.3081     5.9096
 2272.0000    53.8997     5.9096
 2272.5000    57.3126     5.9096
 2273.0000    56.4990     5.9096
 2273.5000    56.9382     5.9097
 2274.0000    57.4044     5.9191
 2274.5000    59.4002     5.9505
 2275.0000    56.2814     5.9697
 2275.5000    52.1835     5.9579
 2276.0000    50.5127     5.9459
 2276.5000    51.6966     5.9338
 2277.0000    54.9837     5.9217
 2277.5000    56.5357     5.9097
 2278.0000    58.7840     5.9193
 2278.5000    59.6679     5.9316
 2279.0000    59.4749     5.9439
 2279.5000    59.6711     5.9575
 2280.0000    59.3760     5.9725
 2280.5000    56.5107     5.9878
 2281.0000    56.0753     5.9822
 2281.5000    58.2030     5.9727
 2282.0000    61.6248     5.9632
 2282.5000    61.6808     5.9537
 2283.0000    58.8466     5.9442
 2283.5000    59.8627     5.9348
 2284.0000    60.9072     5.9319
 2284.5000    59.8570     5.9418
 2285.0000    57.7893     5.9513
 2285.5000    53.7004     5.9607
 2286.0000    50.9082     5.9702
 2286.5000    48.9300     5.9798
 2287.0000    50.4197     5.9895
 2287.5000    50.6390     5.9851
 2288.0000    49.3700     5.9795
 2288.5000    49.5324     5.9745
 2289.0000    48.3608     5.9673
 2289.5000    43.2606     5.9046
 2290.0000    43.5961     5.8931
 2290.5000    47.6783     5.8979
 2291.0000    47.7975     5.9030
 2291.5000    49.3422     5.9082
 2292.0000    48.6357     5.8955
 2292.5000    47.6278     5.8749
 2293.0000    46.5299     5.8535
 2293.5000    46.0676     5.8516
 2294.0000    43.8607     5.8544
 2294.5000    44.8120     5.8573
 2295.0000    44.9210     5.8602
 2295.5000    42.4088     5.8630
 2296.0000    44.1264     5.8659
 2296.5000    47.3523     5.8688
 2297.0000    45.2983     5.8716
 2297.5000    43.6409     5.8745
 2298.0000    41.2755     5.8773
 2298.5000    38.4200     5.8802
 2299.0000    31.3063     5.8830
 2299.5000    21.6731     5.8859
 2300.0000    14.0242     5.8888
 2300.5000     8.2667     5.8910
 2301.0000     7.2501     5.8930
 2301.5000     7.7092     5.8950
 2302.0000    10.2003     5.8970
 2302.5000    12.6394     5.8990
 2303.0000    14.3465     5.9010
 2303.5000    15.7479     5.9030
 2304.0000    18.7441     5.9050
 2304.5000    18.7955     5.9070
 2305.0000    18.4387     5.9090
 2305.5000    14.4112     5.9116
 2306.0000    10.9548     5.9143
 2306.5000    11.4255     5.9172
 2307.0000    12.1347     5.9200
 2307.5000    13.8109     5.9228
 2308.0000    13.8362     5.9256
