~VERSION INFORMATION
 VERS.                2.0:   CWLS LOG ASCII STANDARD - VERSION 2.0
 WRAP.                 NO:   ONE LINE PER DEPTH STEP
~WELL INFORMATION
#MNEM.UNIT      DATA TYPE    INFORMATION
#----------   ------------   ------------------------------
 STRT.F           90.0000:   START DEPTH
 STOP.F          799.0000:   STOP DEPTH
 STEP.F            0.5000:   STEP LENGTH
 NULL.          -999.2500:   NO VALUE
 COMP. U S NAVY-INTEX OIL:   COMPANY
 WELL. RES 3 TEAPOT DOM #83S-34:   WELL
 FLD .             TEAPOT:   FIELD
 LOC .      S34 T39N R78W:   LOCATION
 CNTY.            NATRONA:   COUNTY
 STAT.            WYOMING:   STATE
 CTRY. UNITED STATES OF AMERICA:   COUNTRY
 SRVC.       Schlumberger:   SERVICE COMPANY
 DATE.        15-FEB-1961:   LOGDATE
 API .       490250655100:   API NUMBER
~CURVE INFORMATION
#MNEM.UNIT       API CODE    CURVE DESCRIPTION
#----------   ------------   ------------------------------
 DEPT.F                  :   
 ASN .OHMM   05 041 16 00:   AMPLIFIED SHORT NORMAL 16"
 ILD .OHMM   05 120 46 00:   INDUCTION LOG DEEP RESISTIVITY.
 CILD.MMHO   05 110 46 00:   CONDUCTIVITY INDUCTION LOG DEEP
 SPR .MV     05 010 01 00:   SPONTANEOUS POTENTIAL FROM RES.
 GR  .GAPI   30 310 01 00:   GAMMA RAY
~PARAMETER INFORMATION
#MNEM.UNIT          VALUE    DESCRIPTION
#----------   ------------   ------------------------------
 PD  .                 GL:   PERMANENT DATUM
 EPD .F              5090:   ELEVATION PERMANENT DATUM
 LMF .                 KB:   LOG MEASURED FROM
 DAPD.F                 4:   FEET ABOVE PERMANENT DATUM
 DMF .                 KB:   DRILLING MEASURED FROM
 EKB .F              5094:   KELLING BUSHING
 EGL .F              5090:   GROUND LEVEL
 DATE.        15-FEB-1961:   RUN DATE
 RUN .                  1:   RUN NUMBER
 DD  .F               800:   DEPTH DRILLER
 DL  .F               800:   DEPTH LOGGER
 BLI .F               799:   BOTTOM LOG INTERVAL
 TLI .F               100:   TOP LOG INTERVAL
 CBD .F                12:   CASING BOTTOM DRILLER
 BS  .IN            7.875:   BIT SIZE
 BSD .F               800:   BIT SIZE AT DEPTH
 DFT .       OIL EMULSION:   DRILLING FLUID TYPE
 DFD .                9.5:   DRILLING FLUID DENSITY
 DFV .                 50:   DRILLING FLUID VISCOSITY
 RMS .OHMM           1.25:   RESISTIVITY MUD SAMPLE
 MST .F                57:   MUD SAMPLE TEMPERATURE
 RMB .OHMM           0.98:   RESISTIVITY MUD AT BHT
 BHT .F                73:   BOTTOM HOLE TEMPERATURE
 TCS .HRS               1:   TIME CURCULATED STOPPED
 LUN .               2572:   LOGGING UNIT NUMBER
 LUL .                 NC:   LOGGING UNIT LOCATION
 ENGI.            EARNEST:   RECORDING ENGINEER
 WITN.          JORGENSEN:   WITNESSED BY
 CLNT.            A2DTECH:   CLIENT CODE
 ORIG.       2" ,5" PRINT:   ORIGIN OF DATA
 UWI .       490250655100:   UNIQUE WELL ID
 DICO. A2D Technologies, Inc.:   DIGITIZING COMPANY
~OTHER INFORMATION
~A   DEPT        ASN        ILD      CILD       SPR         GR   
# ...
  639.0000     8.1985     5.8817   174.6827   -30.2596    72.4398
  639.5000     8.6362     6.2532   165.6494   -30.2504    66.4157
  640.0000     8.9834     6.4816   153.6086   -30.2413    59.9398
  640.5000     9.2854     6.7101   144.5564   -30.2321    53.4247
  641.0000     9.5145     6.7882   141.5543   -30.2230    55.8876
  641.5000     9.6782     6.7911   139.2879   -30.2138    54.2169
  642.0000     9.7991     6.7940   140.0317   -30.2046    51.3554
  642.5000     9.8598     6.7118   139.2664   -30.1955    53.6145
  643.0000     9.8751     6.6494   138.5037   -30.1863    56.6265
  643.5000     9.8905     6.8034   138.4903   -30.1802    54.2169
  644.0000     9.9059     6.9567   137.7276   -30.0300    59.3373
  644.5000     9.9528     7.0348   136.2131   -30.0300    60.2410
  645.0000    10.0120     6.8872   136.2023   -30.0300    57.9819
  645.5000     9.7147     6.8902   135.4397   -30.0300    54.5181
  646.0000     9.7919     6.8932   134.6767   -30.0300    58.4337
  646.5000     9.7934     6.9719   133.9117   -30.0300    55.3221
  647.0000     9.7194     7.0500   133.1491   -30.0300    54.5181
  647.5000     9.5700     7.0529   132.3864   -30.1802    58.5843
  648.0000     9.6473     7.0558   131.6238   -30.1802    60.2410
  648.5000     9.7241     7.1339   130.6306   -30.3303    58.1325
  649.0000     9.8010     7.2120   129.1291   -30.3303    57.6727
  649.5000     9.7916     7.2156   127.6276   -30.3303    60.2056
  650.0000    10.0305     7.2185   126.1261   -30.3303    63.5546
  650.5000    10.3343     7.0707   132.1321   -30.1850    65.0602
  651.0000    10.2605     6.9915   137.4526   -30.0300    61.1446
  651.5000    10.0370     6.5509   144.1441   -30.0300    64.9096
  652.0000     9.7380     5.9515   151.6517   -30.0300    68.2229
  652.5000    10.0325     5.8792   157.6577   -30.0300    64.6084
  653.0000     9.2637     5.8827   162.9129   -30.0300    60.6928
  653.5000     8.6854     5.8863   165.1652   -29.8799    57.8313
  654.0000     7.6055     5.8133   165.1652   -29.7297    56.9277
  654.5000     7.6813     5.7409   165.1652   -29.7297    59.9398
  655.0000     7.9985     5.9701   162.1622   -29.7297    59.4880
  655.5000     8.5721     6.2767   157.6577   -29.8799    56.4759
  656.0000     9.8547     7.2547   146.3964   -30.0300    50.4518
  656.5000    10.6018     7.8590   136.6366   -30.1802    52.2590
  657.0000    11.4197     8.3882   127.6276   -30.1862    59.9398
  657.5000    11.7989     8.8422   115.6156   -30.3303    60.6928
  658.0000    12.0273     9.0707   105.8358   -30.3303    60.9940
  658.5000    12.1049     9.0742   108.8589   -30.3303    63.5542
  659.0000    12.1825     9.0770   111.8619   -30.3303    59.6386
  659.5000    12.3360     9.2303   111.1111   -30.3303    53.0120
  660.0000    12.6398     9.3083   108.8589   -30.3303    53.3133
  660.5000    13.0190     9.5479   104.2969   -30.3303    51.9578
  661.0000    13.4736    10.2170    99.0991   -30.3303    53.9157
  661.5000    14.1550    10.8965    94.5946   -30.3011    47.7410
  662.0000    15.3638    11.5009    88.5886   -30.1802    44.5783
  662.5000    16.5726    12.0301    81.8318   -30.1802    35.8434
  663.0000    18.0831    12.8607    73.3838   -30.0300    35.6928
  663.5000    19.6699    13.6906    65.3153   -30.0300    33.7349
  664.0000    20.8783    14.8213    63.0631   -29.8799    35.5422
  664.5000    21.2575    16.0272    63.8138   -29.5796    32.5301
  665.0000    21.4104    16.5614    63.8138   -29.2593    26.8072
  665.5000    21.3371    16.5592    60.8108   -28.9790    28.4639
  666.0000    21.1885    16.2613    58.5586   -28.7898    27.4096
  666.5000    21.1152    16.1138    57.8078   -28.5285    25.9036
  667.0000    20.9666    16.2677    57.8078   -28.3784    27.1084
  667.5000    20.8184    16.3659    58.5586   -28.2282    31.9277
  668.0000    20.6697    16.8757    60.0601   -28.2282    31.6265
  668.5000    20.6719    17.0289    60.8108   -27.9279    26.7722
  669.0000    20.6746    17.1069    60.8108   -27.9279    28.0120
  669.5000    20.6767    17.1098    60.0601   -27.9279    28.7651
  670.0000    20.6035    16.9623    59.2592   -27.9279    27.4096
  670.5000    20.4548    16.8899    58.5586   -27.9279    24.0964
  671.0000    20.2077    16.8176    58.5586   -28.0781    31.2204
  671.5000    19.8563    16.6701    60.0601   -28.2282    37.9518
  672.0000    19.7071    16.3689    61.5616   -28.0781    33.1325
  672.5000    19.4830    15.9998    61.5616   -27.9279    36.5964
  673.0000    19.1840    15.7771    63.0631   -27.7778    43.6747
  673.5000    18.8096    15.7048    63.0631   -27.6276    40.3614
  674.0000    18.6604    15.7835    63.8138   -27.6276    42.4397
  674.5000    18.8139    16.0211    63.0631   -27.6276    43.2229
  675.0000    19.1177    16.3915    63.0631   -27.4775    41.1145
  675.5000    19.4248    16.4695    63.0631   -27.4775    38.5542
  676.0000    19.8013    16.4724    62.3123   -27.4775    44.2771
  676.5000    19.9543    16.4752    62.3123   -27.6276    42.1687
  677.0000    20.0318    16.4788    62.3123   -27.6276    45.0301
  677.5000    20.0340    16.4816    63.0631   -27.7778    43.8253
  678.0000    19.9607    16.4086    63.0631   -27.9279    44.7289
  678.5000    19.8121    16.4122    63.0631   -28.0781    47.2892
  679.0000    19.3623    16.3368    63.8138   -28.2282    43.0723
  679.5000    18.6103    15.9675    63.8138   -28.3784    35.0832
  680.0000    18.2353    15.6696    63.8138   -28.3784    31.1747
  680.5000    18.1621    15.3717    63.0631   -28.2282    31.6265
  681.0000    18.3156    15.1489    63.0631   -28.2282    29.8193
  681.5000    18.5440    15.1519    64.5646   -27.9279    29.2169
  682.0000    18.6970    15.2306    64.6448   -27.7778    32.3397
  682.5000    18.7745    15.2334    66.0661   -27.6276    39.9096
  683.0000    18.5510    15.0859    66.0661   -28.2422    36.1446
  683.5000    18.2515    14.9383    66.0661   -28.8288    38.4036
  684.0000    18.0268    14.7909    66.0661   -28.9790    35.6928
  684.5000    17.8033    14.9448    66.0661   -28.8288    36.4458
  685.0000    17.6546    14.9477    66.0661   -28.8288    35.3916
  685.5000    17.5813    14.7249    67.5676   -28.8288    36.5964
  686.0000    17.5081    14.7298    69.0691   -28.9790    39.6084
  686.5000    17.5107    14.9569    69.8198   -29.4294    45.0301
  687.0000    17.5883    14.9598    69.8198   -29.5796    46.8373
  687.5000    17.6659    14.8116    70.5706   -29.7297    51.3177
  688.0000    17.6686    14.6647    70.5706   -30.0300    56.0241
  688.5000    17.7461    14.6677    69.8198   -30.0300    56.7771
  689.0000    17.7483    14.6712    69.7847   -29.7297    53.7651
  689.5000    17.7504    14.6740    69.0691   -29.7297    51.5060
  690.0000    17.7526    14.6769    69.0691   -29.5796    54.2169
  690.5000    17.8307    14.6797    67.5676   -29.5796    50.9036
  691.0000    17.9082    14.6074    67.5676   -29.7297    46.6867
  691.5000    17.7596    14.5351    66.8168   -29.7297    44.2771
  692.0000    17.7617    14.5386    65.3153   -30.0300    49.6988
  692.5000    17.6130    14.4656    64.5646   -30.0300    51.5060
  693.0000    17.4643    14.4692    64.5646   -30.1802    50.7530
  693.5000    17.3157    14.3216    64.5646   -30.1802    52.1084
  694.0000    17.1670    14.1748    64.6746   -30.1802    50.1506
  694.5000    17.0943    14.1018    66.0661   -30.0300    45.9337
  695.0000    17.0210    14.0301    67.5676   -30.0300    41.8675
  695.5000    16.9477    14.0331    69.0691   -30.0300    44.8897
  696.0000    16.8745    14.0366    69.8198   -29.8618    44.4277
  696.5000    16.7263    13.9635    70.5706   -29.7297    39.9096
  697.0000    16.6531    13.8912    70.5706   -29.7297    36.7470
  697.5000    16.5798    13.8195    70.5706   -29.7297    34.4880
  698.0000    16.5825    13.7473    70.5706   -29.7297    32.5001
  698.5000    16.5846    13.6749    70.5706   -29.7297    40.2356
  699.0000    16.5868    13.5281    72.0721   -29.7297    42.9217
  699.5000    16.5890    13.5310    72.0721   -29.7297    41.8675
