~VERSION INFORMATION
 VERS.                2.0:   CWLS LOG ASCII STANDARD - VERSION 2.0
 WRAP.                 NO:   ONE LINE PER DEPTH STEP
~WELL INFORMATION
#MNEM.UNIT      DATA TYPE    INFORMATION
#----------   ------------   ------------------------------
 STRT.F           38.0000:   START DEPTH
 STOP.F          890.0000:   STOP DEPTH
 STEP.F            0.5000:   STEP LENGTH
 NULL.          -999.2500:   NO VALUE
 COMP. FENIX & SCISSON INC:   COMPANY
 WELL.       43 SX #14-14:   WELL
 FLD .             TEAPOT:   FIELD
 LOC .      S14 T38N R78W:   LOCATION
 CNTY.            NATRONA:   COUNTY
 STAT.            WYOMING:   STATE
 CTRY. UNITED STATES OF AMERICA:   COUNTRY
 SRVC.            Unknown:   SERVICE COMPANY
 DATE.        28-APR-1978:   LOGDATE
 API .       490251063600:   API NUMBER
~CURVE INFORMATION
#MNEM.UNIT       API CODE    CURVE DESCRIPTION
#----------   ------------   ------------------------------
 DEPT.F                  :   
 SPR .MV     05 010 01 00:   SPONTANEOUS POTENTIAL FROM RES.
 SN  .OHMM   05 040 16 00:   SHORT NORMAL 16"
 ILD .OHMM   05 120 46 00:   INDUCTION LOG DEEP
 CILD.MMHO   05 110 46 00:   CONDUCTIVITY INDUCTION LOG DEEP
 CALD.IN     45 280 60 00:   CALIPER FROM DENSITY LOG
 GRD .GAPI   45 310 01 00:   GAMMA RAY FROM DENSITY LOG
 CORR.G/C3   45 356 01 00:   DENSITY CORRECTION
 DPHI.DEC    45 890 12 00:   DENSITY POROSITY SANDSTONE
 DEN .G/C3   45 350 01 00:   COMPENSATED BULK DENSTIY
~PARAMETER INFORMATION
#MNEM.UNIT          VALUE    DESCRIPTION
#----------   ------------   ------------------------------
 PD  .                 GL:   PERMANENT DATUM
 EPD .F              5217:   ELEVATION PERMANENT DATUM
 LMF .                 KB:   LOG MEASURED FROM
 DMF .                 KB:   DRILLING MEASURED FROM
 EKB .F              5221:   KELLING BUSHING
 EGL .F              5217:   GROUND LEVEL
 DATE.        28-APR-1978:   RUN DATE
 RUN .                  1:   RUN NUMBER
 DD  .F               890:   DEPTH DRILLER
 DL  .F               890:   DEPTH LOGGER
 BLI .F               884:   BOTTOM LOG INTERVAL
 TLI .F                40:   TOP LOG INTERVAL
 CS  .IN            8.625:   CASING SIZE
 CBD .F                40:   CASING BOTTOM DRILLER
 CBL .F                40:   CASING BOTTOM LOGGER
 BS  .IN            7.875:   BIT SIZE
 BSD .F               890:   BIT SIZE AT DEPTH
 DFT .                KCL:   DRILLING FLUID TYPE
 DFD .                8.7:   DRILLING FLUID DENSITY
 DFV .                 34:   DRILLING FLUID VISCOSITY
 DFL .                4.8:   DRILLING FLUID LOSS
 MSS .            MUD PIT:   MUD SAMPLE SOURCE
 RMS .OHMM             .4:   RESISTIVITY MUD SAMPLE
 MST .F                56:   MUD SAMPLE TEMPERATURE
 RMF .OHMM            .38:   RESISTIVITY MUD FILTRATE SAMPLE
 MFST.F                64:   MUD FILTRATE SAMPLE TEMPERATURE
 RMC .OHMM              1:   RESISTIVITY MUD CAKE
 MCST.F                66:   MUD CAKE SAMPLE TEMPERATURE
 MFSS.               MEAS:   MUD FILTRATE SAMPLE SOURCE
 RMB .OHMM             .3:   RESISTIVITY MUD AT BHT
 BHT .F                74:   BOTTOM HOLE TEMPERATURE
 TCS .HRS            0100:   TIME CURCULATED STOPPED
 MRT .F                74:   MAXIMUM RECORDED TEMPERATURE
 LUN .               2958:   LOGGING UNIT NUMBER
 LUL .               CASP:   LOGGING UNIT LOCATION
 ENGI.             MILLER:   RECORDING ENGINEER
 WITN.           MCGINLEY:   WITNESSED BY
 CLNT.            A2DTECH:   CLIENT CODE
 ORIG.           5" PRINT:   ORIGIN OF DATA
 UWI .       490251063600:   UNIQUE WELL ID
 DICO. A2D Technologies, Inc.:   DIGITIZING COMPANY
~OTHER INFORMATION
~A   DEPT      SPR         SN        ILD       CILD       CALD        GRD       CORR       DPHI        DEN   
# ...
  804.5000   -31.4147    10.2857    10.1816    86.1392     8.2837    64.5020     0.0405     0.0955     2.4833
  805.0000   -31.4092    10.2193    10.1861    85.3286     8.2397    65.1105     0.0394     0.1021     2.4811
  805.5000   -31.4047    10.1531    10.1911    85.9956     8.1657    64.8253     0.0381     0.1054     2.4729
  806.0000   -31.4003    10.0875    10.1960    86.6626     8.1214    65.7365     0.0382     0.1039     2.4677
  806.5000   -31.3958    10.0224    10.2009    87.3296     8.0774    68.7467     0.0383     0.0987     2.4610
  807.0000   -31.3914     9.9576    10.2059    87.9967     8.0486    70.2778     0.0384     0.0954     2.4696
  807.5000   -31.3869     9.8253    10.1394    88.6637     8.0195    70.5697     0.0385     0.0945     2.4747
  808.0000   -31.3825     9.8294    10.1455    89.3307     8.0204    70.5839     0.0387     0.1001     2.4778
  808.5000   -31.3780     9.8335    10.1504    89.2281     8.0213    70.5956     0.0388     0.1142     2.4703
  809.0000   -31.3736     9.8375    10.1553    89.9156     8.0691    71.2070     0.0404     0.1154     2.4651
  809.5000   -31.3691     9.8416    10.0892    89.8130     8.1430    71.8184     0.0405     0.0965     2.4675
  810.0000   -31.6614     9.8457    10.0259    89.7310     8.1888    72.2798     0.0407     0.0916     2.4735
  810.5000   -31.9548     9.8497    10.0307    88.8999     8.2046    72.4415     0.0392     0.0988     2.4849
  811.0000   -31.9493     9.8611     9.9666    88.8178     8.1606    72.4532     0.0319     0.1054     2.4834
  811.5000   -31.9448     9.9261     9.9714    88.7358     8.1014    72.4649     0.0305     0.1039     2.4760
  812.0000   -31.9404     9.9302     9.9762    88.6537     8.1174    72.3266     0.0321     0.0987     2.4670
  812.5000   -31.9359    10.0030     9.9811    88.5717     8.1333    72.0385     0.0382     0.0927     2.4603
  813.0000   -31.9315    10.0072     9.9160    89.2387     8.1641    72.0531     0.0429     0.0873     2.4719
  813.5000   -31.7787     9.9423     9.9220    89.1498     8.1954    72.2147     0.0445     0.0848     2.4793
  814.0000   -31.9226     9.9474     9.8574    89.8236     8.2108    72.2264     0.0446     0.0854     2.4921
  814.5000   -31.9181     9.8821     9.8634    89.7416     8.1969    74.1872     0.0447     0.0905     2.4974
  815.0000   -32.3599     9.8872     9.8669    89.6595     8.1528    74.0460     0.0448     0.0911     2.4832
  815.5000   -32.6522     9.8223     9.8208    90.3296     8.1088    73.7579     0.0450     0.0880     2.4825
  816.0000   -32.9445     9.8274     9.7806    90.9935     8.1247    73.6222     0.0451     0.0853     2.4864
  816.5000   -33.0884     9.7639     9.7403    90.9115     8.1405    73.6343     0.0392     0.0877     2.4910
  817.0000   -33.0828     9.6998     9.7001    91.5805     8.1563    73.6462     0.0333     0.0937     2.4925
  817.5000   -33.0784     9.6371     9.6598    92.2472     8.1423    73.6582     0.0319     0.0933     2.4918
  818.0000   -33.0739     9.6421     9.6196    92.1634     8.1282    74.5719     0.0336     0.0900     2.4776
  818.5000   -33.0695     9.5140     9.5793    92.8304     8.0991    74.4336     0.0337     0.0867     2.4860
  819.0000   -33.0651     9.4515     9.5391    92.7484     8.0531    72.1965     0.0338     0.0830     2.4853
  819.5000   -33.0606     9.3905     9.4989    93.4157     7.9813    70.8588     0.0354     0.0803     2.4959
  820.0000   -33.0562     9.3953     9.4586    94.0824     7.9223    70.1209     0.0355     0.0818     2.4997
  820.5000   -33.0517     9.3336     9.4184    94.7494     7.9080    69.6828     0.0354     0.0812     2.5058
  821.0000   -33.0473     9.3384     9.3781    94.6667     7.9241    69.3947     0.0313     0.0826     2.5021
  821.5000   -33.0428     9.2771     9.3326    94.5843     7.9399    69.2564     0.0284     0.0898     2.4984
  822.0000   -33.0384     9.2819     9.3371    94.5019     7.9707    69.5682     0.0225     0.0973     2.4962
  822.5000   -33.0339     9.2857     9.3416    94.4195     7.9866    69.6052     0.0196     0.1000     2.4850
  823.0000   -32.8811     9.2895     9.3461    94.3391     8.0473    69.8942     0.0273     0.0994     2.4655
  823.5000   -32.8767     9.2934     9.3507    95.0061     8.0781    70.5056     0.0349     0.0945     2.4648
  824.0000   -32.8718     9.2972     9.3552    94.9213     8.0940    70.6672     0.0380     0.0903     2.4724
  824.5000   -32.7194     9.3010     9.3597    95.5911     8.1699    71.8783     0.0351     0.0929     2.4875
  825.0000   -32.7146     9.3049     9.3642    96.2581     8.2307    72.6397     0.0352     0.0985     2.4868
  825.5000   -32.8589     9.3087     9.3044    96.9251     8.2316    73.2511     0.0353     0.1001     2.4756
  826.0000   -32.8544     9.1850     9.3089    96.8225     8.2324    73.8625     0.0400     0.0944     2.4704
  826.5000   -32.8500     9.1256     9.2482    98.2591     8.2333    74.1740     0.0401     0.0890     2.4713
  827.0000   -32.9941     9.0658     9.1259    99.6752     8.1893    74.3358     0.0372     0.0877     2.4819
  827.5000   -32.9894     9.0072     9.0052   100.3422     8.1452    72.7986     0.0358     0.0883     2.4872
  828.0000   -32.9850     8.9490     8.9476   101.7378     8.1012    72.8627     0.0344     0.0892     2.4880
  828.5000   -32.9806     8.8919     8.8904   102.4253     8.0721    75.2732     0.0346     0.0900     2.4850
  829.0000   -33.1246     8.7136     8.8335   103.8209     8.0581    76.4843     0.0347     0.0903     2.4851
  829.5000   -33.4169     8.7172     8.7167   105.2574     8.0591    76.9458     0.0348     0.0897     2.4852
  830.0000   -33.5608     8.6013     8.6610   105.9244     8.0600    76.6576     0.0349     0.0872     2.4853
  830.5000   -33.8530     8.4871     8.5475   107.3405     8.0609    75.9197     0.0351     0.0854     2.4831
  831.0000   -34.1454     8.4906     8.4344   108.7361     8.0767    74.8820     0.0352     0.0875     2.4919
  831.5000   -34.4375     8.2631     8.2656   110.9012     8.0776    74.2940     0.0353     0.0893     2.4900
  832.0000   -34.7300     8.0973     8.0445   111.5682     8.0785    73.3963     0.0339     0.0911     2.4840
  832.5000   -35.0223     7.9348     7.7221   113.0048     8.0644    72.9680     0.0341     0.0940     2.4856
  833.0000   -35.3145     7.7756     7.5155   114.4209     8.0653    72.9827     0.0342     0.0976     2.4767
  833.5000   -35.3100     7.4632     7.1647   119.5618     8.0512    72.9944     0.0358     0.0970     2.4744
  834.0000   -35.3055     7.2123     6.7832   127.7194     8.0371    73.0061     0.0359     0.0952     2.4768
  834.5000   -35.3011     6.9677     6.2473   142.6186     8.0080    73.7674     0.0375     0.1023     2.4798
  835.0000   -35.2966     6.6343     5.5586   159.0160     7.9792    82.6247     0.0376     0.1143     2.4641
  835.5000   -35.2922     5.6186     5.2263   176.9114     7.9499    84.1356     0.0378     0.1171     2.4582
  836.0000   -35.2877     5.1151     5.1565   188.0858     7.9510    88.0454     0.0379     0.1185     2.4492
  836.5000   -35.1349     5.0508     5.1596   187.2342     7.9668    92.4049     0.0380     0.0902     2.4558
  837.0000   -34.9821     5.0931     5.2339   184.6308     7.9977    88.4688     0.0381     0.0743     2.4778
  837.5000   -34.8293     5.2444     5.3459   182.5426     8.0135    86.6567     0.0367     0.0649     2.5036
  838.0000   -34.6765     5.5529     5.5745   180.2465     8.0294    82.6978     0.0384     0.0640     2.5119
  838.5000   -34.5237     6.4849     5.8937   176.4191     8.0457    74.9105     0.0385     0.0721     2.5345
  839.0000   -34.3708     7.1752     6.4945   168.0973     8.0610    74.7752     0.0386     0.0721     2.5211
  839.5000   -34.2180     7.7240     7.4077   144.0453     8.0470    74.7869     0.0372     0.0714     2.5196
  840.0000   -34.0652     8.0950     8.2194   119.2441     8.0480    74.7986     0.0373     0.0693     2.5197
  840.5000   -34.0608     8.3824     8.3953   108.6751     8.0489    75.2601     0.0375     0.0657     2.5243
