~VERSION INFORMATION
 VERS.                2.0:   CWLS LOG ASCII STANDARD - VERSION 2.0
 WRAP.                 NO:   ONE LINE PER DEPTH STEP
~WELL INFORMATION
#MNEM.UNIT      DATA TYPE    INFORMATION
#----------   ------------   ------------------------------
 STRT.F            8.0000:   START DEPTH
 STOP.F          508.0000:   STOP DEPTH
 STEP.F            0.1000:   STEP LENGTH
 NULL.          -999.2500:   NO VALUE
 COMP. LAWRENCE/ALLISON INC:   COMPANY
 WELL. NPR 3 47-12 SX #3-3:   WELL
 FLD .             TEAPOT:   FIELD
 LOC .       S3 T38N R78W:   LOCATION
 CNTY.            NATRONA:   COUNTY
 STAT.            WYOMING:   STATE
 CTRY. UNITED STATES OF AMERICA:   COUNTRY
 SRVC.           Gearhart:   SERVICE COMPANY
 DATE.        12-AUG-1988:   LOGDATE
 API .       490251124100:   API NUMBER
~CURVE INFORMATION
#MNEM.UNIT       API CODE    CURVE DESCRIPTION
#----------   ------------   ------------------------------
 DEPT.F                  :   
 GRR .GAPI   07 310 01 00:   GAMMA RAY
 RILD.OHMM   07 120 46 00:   INDUCTION LOG DEEP RESISTIVITY
 RILM.OHMM   07 120 44 00:   INDUCTION LOG MEDIUM RESISTIVITY
~PARAMETER INFORMATION
#MNEM.UNIT          VALUE    DESCRIPTION
#----------   ------------   ------------------------------
 PD  .                 GL:   PERMANENT DATUM
 EPD .F              5208:   ELEVATION PERMANENT DATUM
 LMF .                 KB:   LOG MEASURED FROM
 DAPD.F                10:   FEET ABOVE PERMANENT DATUM
 DMF .                 KB:   DRILLING MEASURED FROM
 EKB .F              5218:   KELLING BUSHING
 EDF .F              5216:   DRILLING FLOOR
 EGL .F              5208:   GROUND LEVEL
 DATE.        12-AUG-1988:   RUN DATE
 RUN .                  1:   RUN NUMBER
 DD  .F               515:   DEPTH DRILLER
 DL  .F               516:   DEPTH LOGGER
 BLI .F               508:   BOTTOM LOG INTERVAL
 TLI .F                50:   TOP LOG INTERVAL
 CS  .IN            9.625:   CASING SIZE
 CBD .F                50:   CASING BOTTOM DRILLER
 CBL .F                50:   CASING BOTTOM LOGGER
 BS  .IN             8.75:   BIT SIZE
 BSD .F               515:   BIT SIZE AT DEPTH
 DFT .                AIR:   DRILLING FLUID TYPE
 TCS .HRS            1500:   TIME CURCULATED STOPPED
 TLAB.HRS            1640:   TIME LOGGER AT BOTTOM
 MRT .F                70:   MAXIMUM RECORDED TEMPERATURE
 LUN .               7597:   LOGGING UNIT NUMBER
 LUL .           GILLETTE:   LOGGING UNIT LOCATION
 ENGI.         WEATHERMON:   RECORDING ENGINEER
 WITN.             STRONG:   WITNESSED BY
 CLNT.            A2DTECH:   CLIENT CODE
 ORIG.       2", 5" PRINT:   ORIGIN OF DATA
 UWI .       490251124100:   UNIQUE WELL ID
 DICO. A2D Technologies, Inc.:   DIGITIZING COMPANY
~OTHER INFORMATION
~A    DEPT      GRR      RILD       RILM   
# ...
  135.4000   116.3635    13.7050    12.9412
  135.5000   115.8740    13.7046    12.9407
  135.6000   115.5825    13.7042    12.9402
  135.7000   115.3733    13.7039    12.9720
  135.8000   114.6523    13.7035    13.0466
  135.9000   113.6508    13.7031    13.1197
  136.0000   112.7542    13.7027    13.1190
  136.1000   112.2540    13.7023    13.1186
  136.2000   112.0036    13.7019    13.1180
  136.3000   111.9516    13.7016    13.1175
  136.4000   111.8056    13.6668    13.1170
  136.5000   111.6490    13.6060    13.1164
  136.6000   111.6075    13.6056    13.1158
  136.7000   111.3464    13.6052    13.1153
  136.8000   111.1068    13.6049    13.1147
  136.9000   110.8564    13.6044    13.0832
  137.0000   110.6061    13.5714    13.0228
  137.1000   110.3559    13.5095    13.0223
  137.2000   110.0751    13.5084    13.0216
  137.3000   109.5310    13.4152    12.9608
  137.4000   108.6160    13.4149    12.9304
  137.5000   107.7914    13.3681    12.9299
  137.6000   106.9161    13.2909    12.9294
  137.7000   105.9144    13.2140    12.9288
  137.8000   104.9529    13.1368    13.0031
  137.9000   104.3873    13.1365    12.9583
  138.0000   103.9515    13.0767    12.9272
  138.1000   103.6165    13.0011    12.9267
  138.2000   103.4796    12.9541    12.9262
  138.3000   103.5407    12.9278    12.9256
  138.4000   103.7910    12.7747    12.9251
  138.5000   104.0847    12.7744    12.9245
  138.6000   104.7056    12.7177    12.9240
  138.7000   105.4565    12.6441    12.9235
  138.8000   106.4125    12.5451    12.9229
  138.9000   107.6646    12.4229    12.9224
  139.0000   108.9259    12.4226    12.9218
  139.1000   109.9189    12.3543    12.8635
  139.2000   110.9207    12.2829    12.8313
  139.3000   111.9220    12.1739    12.8032
  139.4000   112.7399    12.0809    12.7288
  139.5000   113.3191    12.0617    12.6525
  139.6000   114.3722    11.9135    12.6520
  139.7000   114.6096    11.8493    12.5956
  139.8000   115.0452    11.7809    12.5633
  139.9000   115.4128    11.7482    12.5366
  140.0000   115.5825    11.7262    12.4637
  140.1000   115.5825    11.6584    12.3883
  140.2000   115.5825    11.5851    12.3878
  140.3000   115.5825    11.5848    12.3332
  140.4000   115.5825    11.4902    12.2616
  140.5000   115.5825    11.4244    12.2152
  140.6000   115.5825    11.4043    12.2041
  140.7000   115.5825    11.3383    12.1296
  140.8000   115.5825    11.2658    12.0628
  140.9000   115.7981    11.2655    12.0446
  141.0000   116.0484    11.2205    12.0062
  141.1000   116.4098    11.1869    11.9365
  141.2000   116.7927    11.1685    11.8768
  141.3000   116.8062    11.1089    11.8763
  141.4000   117.3979    11.1085    11.8115
  141.5000   117.6027    11.0524    11.7429
  141.6000   117.8529    11.0311    11.7108
  141.7000   118.0030    11.0012    11.6878
  141.8000   118.0030    10.9376    11.6199
  141.9000   118.0030    10.8780    11.5477
  142.0000   117.7570    10.8776    11.5472
  142.1000   117.5066    10.8239    11.5468
  142.2000   117.2562    10.8018    11.5113
  142.3000   117.0059    10.8015    11.4658
  142.4000   116.7927    10.8011    11.4653
  142.5000   116.7927    10.8009    11.4648
  142.6000   116.7927    10.8005    11.4036
  142.7000   116.6098    10.7484    11.3845
  142.8000   116.4902    10.7252    11.3502
  142.9000   116.4902    10.7249    11.3047
  143.0000   116.4902    10.7246    11.3042
  143.1000   116.4902    10.7243    11.3037
  143.2000   116.4902    10.7240    11.2440
  143.3000   116.6622    10.6734    11.2245
  143.4000   116.7927    10.6492    11.2240
  143.5000   116.7927    10.6489    11.2236
  143.6000   116.8080    10.6486    11.2165
  143.7000   117.0953    10.6483    11.1449
  143.8000   117.3088    10.6480    11.1445
  143.9000   117.3979    10.5989    11.1440
  144.0000   117.3979    10.5737    11.1116
  144.1000   117.2846    10.5734    11.0659
  144.2000   116.7882    10.5618    11.0654
  144.3000   116.4902    10.4996    11.0649
  144.4000   115.8828    10.4994    11.0645
  144.5000   115.2819    10.4990    11.0640
  144.6000   114.6830    10.4640    11.0325
  144.7000   113.9780    10.4258    10.9865
  144.8000   113.4644    10.4155    10.9860
  144.9000   112.9765    10.3531    10.9855
  145.0000   112.4759    10.3528    10.9851
  145.1000   112.1148    10.3525    10.9846
  145.2000   111.9516    10.3522    10.9842
  145.3000   111.9168    10.3309    10.9837
  145.4000   111.6490    10.2800    10.9833
  145.5000   111.4160    10.2797    10.9827
  145.6000   111.3464    10.2794    10.9823
  145.7000   111.3464    10.2354    10.9819
  145.8000   111.4227    10.2077    10.9814
  145.9000   111.6730    10.2074    10.9810
  146.0000   111.9516    10.2072    10.9805
  146.1000   112.1736    10.2068    10.9800
  146.2000   112.4240    10.2066    10.9796
  146.3000   112.6743    10.2063    11.0212
  146.4000   112.8593    10.2060    11.0553
  146.5000   112.8723    10.2057    11.0548
  146.6000   113.1619    10.2055    11.0544
  146.7000   113.1619    10.2051    11.0538
  146.8000   113.1619    10.2049    11.0534
  146.9000   113.2686    10.2046    11.0530
  147.0000   113.3826    10.2043    11.0525
  147.1000   113.2650    10.2040    11.0520
  147.2000   113.4644    10.2037    11.0516
  147.3000   113.4644    10.2034    11.0510
  147.4000   113.7134    10.2032    11.0506
  147.5000   113.7670    10.2029    11.0502
  147.6000   113.7670    10.2026    11.0497
  147.7000   113.7670    10.2023    11.0493
  147.8000   113.6869    10.2020    11.0488
  147.9000   113.1619    10.2017    11.0483
  148.0000   112.9239    10.2015    11.0479
  148.1000   112.3022    10.2012    11.0474
  148.2000   111.8181    10.2009    11.0470
  148.3000   111.4863    10.2006    11.0465
  148.4000   111.0149    10.2003    11.0461
  148.5000   110.7413    10.2000    11.0455
  148.6000   110.2869    10.1997    11.0451
  148.7000   109.7863    10.1994    11.0446
  148.8000   109.5310    10.1992    11.0442
  148.9000   109.4607    10.1989    11.0437
  149.0000   109.1923    10.1986    11.0443
  149.1000   108.6233    10.1983    11.1198
  149.2000   108.4070    10.1980    11.1194
  149.3000   108.3207    10.1977    11.1189
  149.4000   108.2089    10.1975    11.1184
  149.5000   107.9586    10.2100    11.1180
  149.6000   107.7156    10.2680    11.1175
  149.7000   107.7156    10.2677    11.1170
  149.8000   107.7156    10.2674    11.1166
  149.9000   107.7156    10.2671    11.1161
  150.0000   107.7919    10.2885    11.1128
  150.1000   107.9812    10.3421    11.1051
  150.2000   108.1706    10.3957    11.0974
  150.3000   108.3225    10.4493    11.0896
  150.4000   108.3232    10.4813    11.0819
  150.5000   108.5749    10.4808    11.0742
  150.6000   109.0280    10.4804    11.0665
  150.7000   109.3826    10.4800    11.0588
  150.8000   109.7343    10.4796    11.0510
  150.9000   110.2388    10.4791    11.0433
  151.0000   110.7474    10.4786    11.0356
  151.1000   111.4978    10.4782    11.0352
  151.2000   112.2541    10.4778    11.0350
  151.3000   112.8619    10.4774    11.0347
  151.4000   113.2683    10.4769    11.0344
  151.5000   113.5209    10.4764    11.0340
  151.6000   113.7767    10.4760    11.0338
  151.7000   113.7773    10.4756    11.0335
  151.8000   113.7779    10.4752    11.0331
  151.9000   113.6311    10.4746    11.0329
  152.0000   113.3798    10.4743    11.0071
  152.1000   112.9902    10.4739    10.9558
  152.2000   111.9649    10.4493    10.9555
  152.3000   110.9759    10.4005    10.9552
  152.4000   109.9688    10.4001    10.9043
  152.5000   109.3999    10.3996    10.8787
  152.6000   109.0527    10.3992    10.8533
  152.7000   108.5945    10.3627    10.7903
  152.8000   108.3377    10.3263    10.7276
  152.9000   108.3383    10.3140    10.5792
  153.0000   108.3389    10.2540    10.5789
  153.1000   108.3395    10.2535    10.5420
  153.2000   108.4346    10.2058    10.4567
  153.3000   108.7310    10.1818    10.3478
  153.4000   109.2490    10.1578    10.2877
  153.5000   109.7399    10.0987    10.1690
