~VERSION INFORMATION
 VERS.                2.0:   CWLS LOG ASCII STANDARD - VERSION 2.0
 WRAP.                 NO:   ONE LINE PER DEPTH STEP
~WELL INFORMATION
#MNEM.UNIT      DATA TYPE    INFORMATION
#----------   ------------   ------------------------------
 STRT.F            0.0000:   START DEPTH
 STOP.F          752.0000:   STOP DEPTH
 STEP.F            0.1000:   STEP LENGTH
 NULL.          -999.2500:   NO VALUE
 COMP. BROWN JOHN E&C INC:   COMPANY
 WELL. N P R 3 STX-34 #53-1-34:   WELL
 FLD .             TEAPOT:   FIELD
 LOC .      S34 T39N R78W:   LOCATION
 CNTY.            NATRONA:   COUNTY
 STAT.            WYOMING:   STATE
 CTRY. UNITED STATES OF AMERICA:   COUNTRY
 SRVC.     Atlas Wireline:   SERVICE COMPANY
 DATE.        29-OCT-1991:   LOGDATE
 API .       490252248700:   API NUMBER
~CURVE INFORMATION
#MNEM.UNIT       API CODE    CURVE DESCRIPTION
#----------   ------------   ------------------------------
 DEPT.F                  :   
 GRR .GAPI   07 310 01 00:   GAMMA RAY
 RILD.OHMM   07 120 46 00:   INDUCTION LOG DEEP RESISTIVITY
 RILM.OHMM   07 120 44 00:   RESITIVITY LONG MEDIUM
~PARAMETER INFORMATION
#MNEM.UNIT          VALUE    DESCRIPTION
#----------   ------------   ------------------------------
 PD  .                 GL:   PERMANENT DATUM
 EPD .F              5067:   ELEVATION PERMANENT DATUM
 LMF .                 KB:   LOG MEASURED FROM
 DAPD.F                10:   FEET ABOVE PERMANENT DATUM
 DMF .                 KB:   DRILLING MEASURED FROM
 EKB .F              5077:   KELLING BUSHING
 EGL .F              5067:   GROUND LEVEL
 DATE.        29-OCT-1991:   RUN DATE
 RUN .                  1:   RUN NUMBER
 DD  .F               760:   DEPTH DRILLER
 DL  .F               760:   DEPTH LOGGER
 BLI .F               758:   BOTTOM LOG INTERVAL
 TLI .F                 0:   TOP LOG INTERVAL
 CS  .IN            9.625:   CASING SIZE
 CBD .F                52:   CASING BOTTOM DRILLER
 CBL .F                52:   CASING BOTTOM LOGGER
 BS  .IN             8.75:   BIT SIZE
 BSD .F               760:   BIT SIZE AT DEPTH
 DFT .        AIR DRILLED:   DRILLING FLUID TYPE
 MRT .F               154:   MAXIMUM RECORDED TEMPERATURE
 LUN .            HL 6307:   LOGGING UNIT NUMBER
 LUL .             CASPER:   LOGGING UNIT LOCATION
 ENGI.          RASMUSSEN:   RECORDING ENGINEER
 WITN.        GARY STRONG:   WITNESSED BY
 CLNT.            A2DTECH:   CLIENT CODE
 ORIG.           5" PRINT:   ORIGIN OF DATA
 UWI .       490252248700:   UNIQUE WELL ID
 DICO. A2D Technologies, Inc.:   DIGITIZING COMPANY
~OTHER INFORMATION
~A    DEPT      GRR      RILD       RILM   
# ...
  418.6000   136.8213     5.1963     5.0848
  418.7000   137.6345     5.1365     5.0113
  418.8000   138.5246     5.0774     4.9807
  418.9000   139.3553     5.0189     4.9140
  419.0000   139.8568     4.9572     4.8899
  419.1000   140.3933     4.8658     4.8257
  419.2000   141.0928     4.7880     4.7541
  419.3000   141.8450     4.7253     4.6990
  419.4000   142.3382     4.6848     4.6451
  419.5000   142.6666     4.6578     4.6131
  419.6000   143.1423     4.6282     4.5911
  419.7000   143.4191     4.5694     4.5643
  419.8000   143.6438     4.5694     4.5377
  419.9000   144.0674     4.5513     4.5166
  420.0000   144.3268     4.5251     4.5163
  420.1000   144.3268     4.5062     4.5160
  420.2000   144.3268     4.5062     4.5158
  420.3000   144.3268     4.5063     4.5155
  420.4000   144.3268     4.5064     4.5153
  420.5000   144.1624     4.5064     4.5150
  420.6000   144.0242     4.5182     4.5148
  420.7000   143.9635     4.5446     4.5145
  420.8000   143.7216     4.5701     4.5549
  420.9000   143.7216     4.5702     4.6078
  421.0000   143.5139     4.6144     4.6811
  421.1000   143.2632     4.6514     4.7860
  421.2000   142.9084     4.6785     4.8736
  421.3000   142.4069     4.7115     4.9548
  421.4000   141.9054     4.7663     5.0196
  421.5000   141.4039     4.7664     5.0779
  421.6000   140.9024     4.7885     5.1367
  421.7000   140.2535     4.8000     5.1963
  421.8000   139.5014     4.7895     5.2609
  421.9000   138.7929     4.7667     5.3176
  422.0000   138.2753     4.7667     5.3793
  422.1000   137.7900     4.7668     5.4418
  422.2000   137.2886     4.7669     5.4948
  422.3000   136.7871     4.7978     5.5264
  422.4000   136.2856     4.8736     5.5613
  422.5000   135.8548     4.9836     5.6197
  422.6000   135.8548     5.0768     5.6849
  422.7000   135.8548     5.1602     5.7343
  422.8000   135.8548     5.2286     5.7673
  422.9000   135.9852     5.2897     5.8034
  423.0000   136.1573     5.3514     5.8788
  423.1000   136.1306     5.4172     5.9389
  423.2000   135.8548     5.5217     5.9843
  423.3000   135.8548     5.6091     6.0187
  423.4000   135.6809     5.6846     6.0627
  423.5000   135.5522     5.7674     6.1308
  423.6000   135.5522     5.8685     6.1712
  423.7000   135.5706     5.9688     6.2017
  423.8000   135.8548     6.0478     6.2610
  423.9000   135.8548     6.1090     6.3009
  424.0000   135.8548     6.1803     6.3094
  424.1000   135.8548     6.2196     6.3457
  424.2000   135.8548     6.2375     6.3884
  424.3000   135.8647     6.3074     6.4190
  424.4000   136.1573     6.3075     6.4559
  424.5000   136.1573     6.3689     6.4772
  424.6000   136.3143     6.3965     6.4850
  424.7000   136.6701     6.4122     6.5223
  424.8000   137.1183     6.4495     6.5671
  424.9000   137.3676     6.4871     6.5976
  425.0000   137.1155     6.5249     6.6356
  425.1000   137.0650     6.5629     6.6584
  425.2000   136.9166     6.6012     6.6655
  425.3000   136.6659     6.6396     6.7043
  425.4000   136.4151     6.6713     6.7425
  425.5000   136.1573     6.6714     6.7506
  425.6000   136.1573     6.7472     6.7729
  425.7000   136.1573     6.7656     6.7971
  425.8000   136.1573     6.8098     6.8034
  425.9000   136.1573     6.8611     6.8439
  426.0000   136.1937     6.8670     6.8436
  426.1000   136.4599     6.9094     6.8432
  426.2000   136.9303     6.9472     6.8871
  426.3000   137.0650     6.9581     6.9387
  426.4000   137.1966     7.0008     6.9383
  426.5000   137.4473     7.0563     6.9379
  426.6000   137.6702     7.0564     6.9375
  426.7000   137.6702     7.0565     6.9371
  426.8000   137.4435     7.0566     6.9581
  426.9000   137.3676     7.0567     6.9849
  427.0000   137.3676     7.0568     6.9845
  427.1000   137.2965     7.0569     6.9841
  427.2000   137.0457     7.0570     6.9838
  427.3000   136.7625     7.0571     7.0123
  427.4000   136.5442     7.0572     7.0319
  427.5000   136.2935     7.0573     7.0315
  427.6000   136.0427     7.0761     7.0311
  427.7000   135.8548     7.1070     7.0307
  427.8000   135.8330     7.1089     7.0668
  427.9000   135.2496     7.1571     7.1075
  428.0000   135.2496     7.1572     7.1284
  428.1000   135.0917     7.1573     7.1280
  428.2000   134.9471     7.1574     7.1306
  428.3000   134.8928     7.1665     7.1771
  428.4000   134.6445     7.2082     7.1768
  428.5000   134.6445     7.2585     7.2040
  428.6000   134.6445     7.2586     7.2263
  428.7000   134.7939     7.2587     7.2259
  428.8000   134.9471     7.2753     7.2254
  428.9000   134.9471     7.3176     7.2250
  429.0000   134.9471     7.3613     7.2601
  429.1000   135.1917     7.3614     7.3019
  429.2000   135.2496     7.3615     7.3254
  429.3000   135.2496     7.3616     7.3250
  429.4000   135.3388     7.3769     7.3246
  429.5000   135.5895     7.4199     7.3241
  429.6000   135.8548     7.4656     7.3238
  429.7000   135.8548     7.4657     7.3496
  429.8000   136.2235     7.4977     7.3743
  429.9000   137.6529     7.5183     7.3739
  430.0000   139.5866     7.5184     7.3735
  430.1000   140.8113     7.5185     7.3730
  430.2000   141.9062     7.5186     7.4067
  430.3000   143.0447     7.5187     7.4239
  430.4000   143.9467     7.5188     7.4235
  430.5000   144.6989     7.5189     7.4231
  430.6000   145.3067     7.5190     7.4226
  430.7000   145.5371     7.5191     7.4222
  430.8000   145.5371     7.5192     7.4384
  430.9000   145.0986     7.5193     7.4596
  431.0000   144.7645     7.5194     7.4730
  431.1000   144.1671     7.5397     7.4794
  431.2000   143.2277     7.5724     7.5245
  431.3000   142.4515     7.5725     7.5241
  431.4000   140.9985     7.5727     7.5237
  431.5000   139.9444     7.5727     7.5232
  431.6000   138.6908     7.5728     7.5228
  431.7000   137.2231     7.6107     7.5282
  431.8000   135.4678     7.6797     7.5747
  431.9000   133.7264     7.6798     7.5743
  432.0000   132.8290     7.6800     7.5738
  432.1000   132.8290     7.6801     7.5734
  432.2000   132.8290     7.6802     7.5730
  432.3000   132.9277     7.6978     7.5726
  432.4000   133.1784     7.7343     7.5721
  432.5000   133.4342     7.7344     7.6115
  432.6000   134.1711     7.7786     7.6244
  432.7000   134.7295     7.7889     7.6239
  432.8000   135.3730     7.7890     7.6235
  432.9000   136.0351     7.7891     7.6231
  433.0000   136.5366     7.7892     7.6226
  433.1000   137.0650     7.7893     7.6222
  433.2000   137.5396     7.7894     7.6517
  433.3000   138.2264     7.7895     7.6748
  433.4000   139.1121     7.7896     7.6744
  433.5000   140.5237     7.7898     7.6766
  433.6000   142.6907     7.7899     7.7272
  433.7000   144.3268     7.7900     7.7268
  433.8000   145.4706     7.7901     7.7264
  433.9000   146.3703     7.7902     7.7260
  434.0000   146.7473     7.7903     7.7255
  434.1000   146.8206     7.7904     7.7251
  434.2000   147.0499     7.7905     7.7246
  434.3000   146.7473     7.7906     7.7243
  434.4000   146.3069     7.7907     7.7238
  434.5000   146.1422     7.7908     7.7234
  434.6000   145.9091     7.7909     7.7230
  434.7000   145.4077     7.7911     7.7225
  434.8000   144.9190     7.7912     7.7220
  434.9000   144.6293     7.7913     7.7217
  435.0000   144.4175     7.7914     7.7212
  435.1000   144.0068     7.7915     7.7208
  435.2000   143.5053     7.7916     7.7204
  435.3000   143.0039     7.7917     7.7199
  435.4000   142.4980     7.7918     7.7195
  435.5000   141.6036     7.7920     7.7191
  435.6000   141.1970     7.7920     7.7186
  435.7000   140.5440     7.7921     7.7182
  435.8000   139.8914     7.7923     7.7178
  435.9000   139.3900     7.7924     7.7173
  436.0000   138.8805     7.7925     7.7169
  436.1000   138.8805     7.7926     7.7165
  436.2000   139.2701     7.7927     7.7161
  436.3000   140.3435     7.7928     7.7156
  436.4000   141.9391     7.7929     7.7152
  436.5000   143.4977     7.7930     7.7147
  436.6000   144.0242     7.7931     7.7143
  436.7000   143.7860     7.7932     7.7139
