~VERSION INFORMATION
 VERS.                2.0:   CWLS LOG ASCII STANDARD - VERSION 2.0
 WRAP.                 NO:   ONE LINE PER DEPTH STEP
~WELL INFORMATION
#MNEM.UNIT      DATA TYPE    INFORMATION
#----------   ------------   ------------------------------
 STRT.F           80.0000:   START DEPTH
 STOP.F          808.0000:   STOP DEPTH
 STEP.F            0.5000:   STEP LENGTH
 NULL.          -999.2500:   NO VALUE
 COMP.           U S NAVY:   COMPANY
 WELL.     NRP #3 #38-S-2:   WELL
 FLD .             TEAPOT:   FIELD
 LOC .       S2 T38N R78W:   LOCATION
 CNTY.            NATRONA:   COUNTY
 STAT.            WYOMING:   STATE
 CTRY. UNITED STATES OF AMERICA:   COUNTRY
 SRVC.       Schlumberger:   SERVICE COMPANY
 DATE.        18-JUN-1962:   LOGDATE
 API .       490250639100:   API NUMBER
~CURVE INFORMATION
#MNEM.UNIT       API CODE    CURVE DESCRIPTION
#----------   ------------   ------------------------------
 DEPT.F                  :   
 GR  .GAPI   30 310 01 00:   GAMMA RAY
 SPR .MV     05 010 01 00:   SPONTANEOUS POTENTIAL FROM RES.
 ASN .OHMM   05 041 16 00:   AMPLIFIED SHORT NORMAL 16"
 ILD .OHMM   05 120 46 00:   INDUCTION LOG DEEP
 CILD.MMHO   05 110 46 00:   CONDUCTIVITY INDUCTION LOG DEEP
 CALM.IN     15 280 01 00:   CALIPER FROM MICRO LOG
~PARAMETER INFORMATION
#MNEM.UNIT          VALUE    DESCRIPTION
#----------   ------------   ------------------------------
 PD  .                 GL:   PERMANENT DATUM
 EPD .F              5146:   ELEVATION PERMANENT DATUM
 LMF .                 KB:   LOG MEASURED FROM
 DAPD.F                 5:   FEET ABOVE PERMANENT DATUM
 DMF .                 KB:   DRILLING MEASURED FROM
 EKB .F              5151:   KELLING BUSHING
 EGL .F              5146:   GROUND LEVEL
 DATE.          6-18-1962:   RUN DATE
 RUN .                  1:   RUN NUMBER
 DD  .F              1000:   DEPTH DRILLER
 DL  .F               808:   DEPTH LOGGER
 BLI .F               807:   BOTTOM LOG INTERVAL
 TLI .F                80:   TOP LOG INTERVAL
 BS  .IN             8.75:   BIT SIZE
 BSD .F              1000:   BIT SIZE AT DEPTH
 DFT .       OIL EMULSION:   DRILLING FLUID TYPE
 DFD .                8.7:   DRILLING FLUID DENSITY
 DFV .                 58:   DRILLING FLUID VISCOSITY
 DFL .                  4:   DRILLING FLUID LOSS
 RMS .OHMM           3.77:   RESISTIVITY MUD SAMPLE
 MST .F                79:   MUD SAMPLE TEMPERATURE
 RMF .OHMM           2.47:   RESISTIVITY MUD FILTRATE SAMPLE
 MFST.F                79:   MUD FILTRATE SAMPLE TEMPERATURE
 RMC .OHMM           3.29:   RESISTIVITY MUD CAKE
 MCST.F                79:   MUD CAKE SAMPLE TEMPERATURE
 TCS .HRS               1:   TIME CURCULATED STOPPED
 LUN .               2503:   LOGGING UNIT NUMBER
 LUL .               CSPR:   LOGGING UNIT LOCATION
 ENGI.             DANNER:   RECORDING ENGINEER
 WITN.          JORGENSEN:   WITNESSED BY
 CLNT.            A2DTECH:   CLIENT CODE
 ORIG.   1", 2", 5" PRINT:   ORIGIN OF DATA
 UWI .       490250639100:   UNIQUE WELL ID
 DICO. A2D Technologies, Inc.:   DIGITIZING COMPANY
~OTHER INFORMATION
~A   DEPT       GR        SPR          ASN        ILD      CILD      CALM   
   80.0000  -999.2500   -71.5010     2.3996     3.2598   218.8129  -999.2500
   80.5000  -999.2500   -71.5256     2.3996     3.2598   218.8129  -999.2500
   81.0000  -999.2500   -71.5757     2.3996     3.2598   218.8129  -999.2500
   81.5000  -999.2500   -71.6257     2.3996     3.2598   218.8129  -999.2500
   82.0000  -999.2500   -71.6622     2.4030     3.2597   218.8129  -999.2500
   82.5000  -999.2500   -71.6899     2.3661     3.2599   220.0476  -999.2500
   83.0000  -999.2500   -71.6020     3.2034     3.2601   222.1602  -999.2500
   83.5000  -999.2500   -71.5158     4.6515     3.2932   224.2729  -999.2500
   84.0000  -999.2500   -71.4301     4.6091     3.3571   226.3856  -999.2500
   84.5000  -999.2500   -71.3442     4.5769     3.4193   228.4983  -999.2500
   85.0000  -999.2500   -71.2583     4.4727     3.2999   230.6109  -999.2500
   85.5000  -999.2500   -71.1725     4.2618     2.8747   246.8939  -999.2500
   86.0000  -999.2500   -71.0866     3.6056     2.4538   261.9845  -999.2500
   86.5000  -999.2500   -71.0008     2.8884     2.0330   289.7988  -999.2500
   87.0000  -999.2500   -70.9149     2.0104     1.6118   352.1060  -999.2500
   87.5000  -999.2500   -70.8291     2.2169     1.1747   408.5160  -999.2500
   88.0000  -999.2500   -70.7432     2.5650     1.0558   440.4762  -999.2500
   88.5000  -999.2500   -70.6571     2.8913     1.0517   472.7532  -999.2500
   89.0000  -999.2500   -70.5702     2.9820     1.0525   498.4909  -999.2500
   89.5000  -999.2500   -70.4916     2.9861     1.0527   498.4909  -999.2500
   90.0000  -999.2500   -70.5912     2.9917     1.0533   498.4909  -999.2500
   90.5000  -999.2500   -70.6969     2.9983     1.0546   486.0832  -999.2500
   91.0000  -999.2500   -70.8016     3.0204     1.2229   458.2495  -999.2500
   91.5000  -999.2500   -70.9062     3.2188     1.6102   417.4013  -999.2500
   92.0000  -999.2500   -71.0107     3.6651     1.9958   373.1011  -999.2500
   92.5000  -999.2500   -71.1152     3.9997     2.3818   328.8009  -999.2500
   93.0000  -999.2500   -71.2197     4.0730     2.7683   284.5008  -999.2500
   93.5000  -999.2500   -71.3242     4.0913     3.1657   247.9373  -999.2500
   94.0000  -999.2500   -71.4289     4.1106     3.2167   236.2782  -999.2500
   94.5000  -999.2500   -71.5334     4.1298     3.1631   239.2269  -999.2500
   95.0000  -999.2500   -71.6371     4.1491     3.1054   242.1516  -999.2500
   95.5000  -999.2500   -71.6844     4.1686     3.0481   245.0268  -999.2500
   96.0000  -999.2500   -71.6254     4.1883     2.9913   247.8672  -999.2500
   96.5000  -999.2500   -71.5682     4.2047     2.9346   250.7076  -999.2500
   97.0000  -999.2500   -71.5109     4.1448     2.8779   253.5479  -999.2500
   97.5000  -999.2500   -71.4535     4.0825     2.8217   256.3883  -999.2500
   98.0000  -999.2500   -71.3962     4.0204     2.7633   260.7847  -999.2500
   98.5000  -999.2500   -71.3388     3.9587     2.5621   267.3692  -999.2500
   99.0000  -999.2500   -71.2815     3.9002     2.3424   273.9537  -999.2500
   99.5000  -999.2500   -71.2242     3.7729     2.1226   303.6484  -999.2500
  100.0000  -999.2500   -71.1669     3.6365     1.9031   338.9053  -999.2500
  100.5000  -999.2500   -71.1095     3.4990     1.6836   374.1282  -999.2500
  101.0000  -999.2500   -71.0521     3.3617     1.4638   409.3262  -999.2500
  101.5000  -999.2500   -70.9944     3.2244     1.2436   444.3996  -999.2500
  102.0000  -999.2500   -70.9379     3.0866     1.0258   479.5267  -999.2500
  102.5000  -999.2500   -70.9099     2.9507     0.8568   497.4849  -999.2500
  103.0000  -999.2500   -71.0073     2.8530     0.9127   486.8461  -999.2500
  103.5000  -999.2500   -71.1023     2.9370     0.9625   467.2374  -999.2500
  104.0000  -999.2500   -71.1969     3.0165     1.0113   445.6700  -999.2500
  104.5000  -999.2500   -71.2917     3.1088     1.0717   419.9899  -999.2500
  105.0000  -999.2500   -71.3865     3.3106     1.2536   376.0563  -999.2500
  105.5000  -999.2500   -71.4811     3.7943     1.8334   332.1227  -999.2500
  106.0000  -999.2500   -71.5758     4.2607     2.4141   288.1891  -999.2500
  106.5000  -999.2500   -71.6750     4.5092     2.9933   244.2555  -999.2500
  107.0000  -999.2500   -71.6769     4.6352     3.5721   209.5674  -999.2500
  107.5000  -999.2500   -71.6378     4.7136     4.1598   205.2623  -999.2500
  108.0000  -999.2500   -71.5973     4.7885     4.2085   210.7924  -999.2500
  108.5000  -999.2500   -71.5569     4.8635     3.9732   216.3226  -999.2500
  109.0000  -999.2500   -71.5162     4.9186     3.7343   221.8526  -999.2500
  109.5000  -999.2500   -71.5142     4.8281     3.4951   227.3828  -999.2500
  110.0000  -999.2500   -71.5351     4.7358     3.2545   232.9129  -999.2500
  110.5000  -999.2500   -71.5563     4.6438     3.1847   237.9276  -999.2500
  111.0000  -999.2500   -71.5776     4.5512     3.2229   237.4910  -999.2500
  111.5000  -999.2500   -71.5987     4.4723     3.2620   237.0916  -999.2500
  112.0000  -999.2500   -71.6199     4.5624     3.3038   236.3481  -999.2500
  112.5000  -999.2500   -71.6412     4.6515     3.3446   235.3496  -999.2500
  113.0000  -999.2500   -71.6625     4.7828     3.6271   226.9995  -999.2500
  113.5000  -999.2500   -71.6843     4.9210     4.0927   212.8542  -999.2500
  114.0000  -999.2500   -71.7008     5.3245     4.5604   198.7089  -999.2500
  114.5000  -999.2500   -71.6175     5.7261     5.0304   184.5636  -999.2500
  115.0000  -999.2500   -71.5328     6.1265     5.5002   170.4183  -999.2500
  115.5000  -999.2500   -71.4488     6.5100     5.9684   156.2731  -999.2500
  116.0000  -999.2500   -71.3649     6.6124     6.4370   146.3179  -999.2500
  116.5000  -999.2500   -71.2811     6.6568     6.6694   140.3421  -999.2500
  117.0000  -999.2500   -71.1972     6.6564     6.6656   140.3542  -999.2500
  117.5000  -999.2500   -71.1133     6.6563     6.5029   140.3434  -999.2500
  118.0000  -999.2500   -71.0294     6.6014     6.3293   143.1186  -999.2500
  118.5000  -999.2500   -70.9455     6.4880     6.1559   145.9295  -999.2500
  119.0000  -999.2500   -70.8615     6.3763     5.5699   163.2897  -999.2500
  119.5000  -999.2500   -70.7769     6.2493     4.5094   198.6922  -999.2500
  120.0000  -999.2500   -70.6928     5.7192     3.4546   256.0362  -999.2500
  120.5000  -999.2500   -70.7055     5.1559     2.5551   315.9457  -999.2500
  121.0000  -999.2500   -70.7236     4.5928     1.8599   370.7495  -999.2500
  121.5000  -999.2500   -70.7413     4.0261     1.3593   419.0099  -999.2500
  122.0000  -999.2500   -70.7588     3.4443     1.1300   467.2703  -999.2500
  122.5000  -999.2500   -70.7763     3.2522     0.8974   495.4728  -999.2500
  123.0000  -999.2500   -70.7938     3.0690     0.6624   556.8411  -999.2500
  123.5000  -999.2500   -70.8113     3.0598     0.7776   556.8411  -999.2500
  124.0000  -999.2500   -70.8288     3.0622     0.9218   528.0081  -999.2500
  124.5000  -999.2500   -70.8461     3.1689     1.0656   500.7160  -999.2500
  125.0000  -999.2500   -70.8636     3.3875     1.3005   431.9919  -999.2500
  125.5000  -999.2500   -70.8820     3.7776     1.7010   357.7042  -999.2500
  126.0000  -999.2500   -70.9636     4.1701     2.1039   289.7183  -999.2500
  126.5000  -999.2500   -71.1669     5.4485     2.8620   232.8043  -999.2500
  127.0000  -999.2500   -71.3677     6.8733     4.3290   175.8903  -999.2500
  127.5000  -999.2500   -71.5680     8.2962     5.7834   126.3330  -999.2500
  128.0000  -999.2500   -71.7732     9.7184     7.2388    91.0530  -999.2500
  128.5000  -999.2500   -72.0517    12.0425     8.6951    81.2865  -999.2500
  129.0000  -999.2500   -72.5598    14.2902    10.1565    76.7933  -999.2500
  129.5000  -999.2500   -73.0509    16.5417    11.6185    80.2884  -999.2500
  130.0000  -999.2500   -73.5442    19.2598    11.7275    90.4792  -999.2500
  130.5000  -999.2500   -74.0576    19.2913     9.7755   111.9014  -999.2500
  131.0000  -999.2500   -73.6700    18.8484     8.2203   133.3236  -999.2500
  131.5000  -999.2500   -73.0876    14.1258     6.5658   154.7457  -999.2500
