~VERSION INFORMATION
 VERS.                2.0:   CWLS LOG ASCII STANDARD - VERSION 2.0
 WRAP.                 NO:   ONE LINE PER DEPTH STEP
~WELL INFORMATION
#MNEM.UNIT      DATA TYPE    INFORMATION
#----------   ------------   ------------------------------
 STRT.F           35.0000:   START DEPTH
 STOP.F          484.0000:   STOP DEPTH
 STEP.F            0.5000:   STEP LENGTH
 NULL.          -999.2500:   NO VALUE
 COMP. LAWRENCE/ALLISON INC:   COMPANY
 WELL.     73-1 STX #1-10:   WELL
 FLD .              NPR-3:   FIELD
 LOC .      S10 T38N R78W:   LOCATION
 CNTY.            NATRONA:   COUNTY
 STAT.            WYOMING:   STATE
 CTRY. UNITED STATES OF AMERICA:   COUNTRY
 SRVC.              Welex:   SERVICE COMPANY
 DATE.        04-APR-1977:   LOGDATE
 API .       490251032400:   API NUMBER
~CURVE INFORMATION
#MNEM.UNIT       API CODE    CURVE DESCRIPTION
#----------   ------------   ------------------------------
 DEPT.F                  :   
 CALD.IN     45 280 60 00:   CALIPER
 GRD .GAPI   45 310 01 00:   GAMMA RAY FROM DENSITY LOG
 RHOB.G/C3   45 350 01 00:   BULK DENSITY
 DPHI.DEC    45 890 12 00:   DENSITY POROSITY SANDSTONE
 CORR.G/C3   45 356 01 00:   DENSITY CORRECTION
 SPR .MV     07 010 01 00:   SPONTANEOUS POTENTIAL
 SGRD.OHMM   07 220 05 00:   SHALLOW RESISTIVITY
 ILD .OHMM   07 120 46 00:   INDUCTION LOG DEEP
 ILM .OHMM   07 120 44 00:   INDUCTION LOG MEDIUM
~PARAMETER INFORMATION
#MNEM.UNIT          VALUE    DESCRIPTION
#----------   ------------   ------------------------------
 PD  .                 GL:   PERMANENT DATUM
 EPD .F              5170:   ELEVATION PERMANENT DATUM
 LMF .                 GL:   LOG MEASURED FROM
 DMF .                 GL:   DRILLING MEASURED FROM
 EGL .F              5170:   GROUND LEVEL
 DATE.             4-4-77:   RUN DATE
 RUN .                  1:   RUN NUMBER
 DD  .F               490:   DEPTH DRILLER
 DL  .F               487:   DEPTH LOGGER
 BLI .F               485:   BOTTOM LOG INTERVAL
 TLI .F                35:   TOP LOG INTERVAL
 CS  .IN            8.625:   CASING SIZE
 CBD .F                42:   CASING BOTTOM DRILLER
 CBL .F                42:   CASING BOTTOM LOGGER
 BS  .IN            7.875:   BIT SIZE
 BSD .F               490:   BIT SIZE AT DEPTH
 DFT .            KCL MUD:   DRILLING FLUID TYPE
 DFD .                8.4:   DRILLING FLUID DENSITY
 DFV .                 32:   DRILLING FLUID VISCOSITY
 DFPH.                8.5:   DRILLING FLUID PH
 DFL .                 17:   DRILLING FLUID LOSS
 RMS .OHMM            .48:   RESISTIVITY MUD SAMPLE
 MST .F                48:   MUD SAMPLE TEMPERATURE
 RMF .OHMM            .44:   RESISTIVITY MUD FILTRATE SAMPLE
 MFST.F                48:   MUD FILTRATE SAMPLE TEMPERATURE
 RMC .OHMM            .62:   RESISTIVITY MUD CAKE
 MCST.F                48:   MUD CAKE SAMPLE TEMPERATURE
 MFSS.          FANN TEST:   MUD FILTRATE SAMPLE SOURCE
 MCSS.          FANN TEST:   MUD CAKE SAMPLE SOURCE
 BHT .F                58:   BOTTOM HOLE TEMPERATURE
 TCS .HRS               2:   TIME CURCULATED STOPPED
 MRT .F                58:   MAXIMUM RECORDED TEMPERATURE
 LUN .               8611:   LOGGING UNIT NUMBER
 LUL .           GILLETTE:   LOGGING UNIT LOCATION
 ENGI.               DOAK:   RECORDING ENGINEER
 WITN.      B. HARRINGTON:   WITNESSED BY
 CLNT.            A2DTECH:   CLIENT CODE
 ORIG.        2" 5" PRINT:   ORIGIN OF DATA
 UWI .       490251032400:   UNIQUE WELL ID
 DICO. A2D Technologies, Inc.:   DIGITIZING COMPANY
~OTHER INFORMATION
~A   DEPT     CALD        GRD       RHOB       DPHI       CORR        SPR       SGRD        ILD        ILM   
# ...
  400.0000     8.2795  -999.2500     2.4922     0.0948     0.0000   -40.2427    22.5351    18.3593    25.0473
  400.5000     8.2806  -999.2500     2.4644     0.1086    -0.0147   -40.1845    22.6703    17.9093    24.2631
  401.0000     8.2817  -999.2500     2.4435     0.1223    -0.0269   -40.0513    22.8587    16.9638    24.5471
  401.5000     8.2828  -999.2500     2.4351     0.1307    -0.0344   -39.9216    23.1550    15.9693    24.8085
  402.0000     8.2839  -999.2500     2.4285     0.1341    -0.0377   -39.7921    23.8471    15.0331    26.5440
  402.5000     8.2850  -999.2500     2.4262     0.1369    -0.0408   -39.6624    24.4874    14.2291    30.5384
  403.0000     8.2861  -999.2500     2.4237     0.1375    -0.0439   -39.5328    23.0413    13.5615    27.4323
  403.5000     8.2872  -999.2500     2.4199     0.1381    -0.0471   -39.4031    21.0941    12.9768    22.0289
  404.0000     8.2883  -999.2500     2.4079     0.1431    -0.0465   -39.2734    19.4555    12.4172    17.6891
  404.5000     8.2894  -999.2500     2.3963     0.1555    -0.0428   -39.1438    18.1597    11.8818    13.8872
  405.0000     8.2905  -999.2500     2.3894     0.1507    -0.0363   -39.0141    16.4860    11.4097    14.1783
  405.5000     8.2916  -999.2500     2.4196     0.1419    -0.0221   -38.8848    16.8765    11.1826    14.5761
  406.0000     8.2927  -999.2500     2.4432     0.1332    -0.0083   -38.7548    17.7598    10.9763    14.0762
  406.5000     8.2938  -999.2500     2.4658     0.1244     0.0055   -38.6218    18.2419    10.7739    13.4738
  407.0000     8.2949  -999.2500     2.4663     0.1128     0.0186   -38.4961    18.0488    10.5752    12.8953
  407.5000     8.2960  -999.2500     2.4463     0.1164     0.0311   -38.2030    17.8988    10.3802    12.1706
  408.0000     8.2962  -999.2500     2.4261     0.1219     0.0316   -38.2225    17.7500    10.1888    12.4206
  408.5000  -999.2500  -999.2500     2.4060     0.1274     0.0315   -38.2504    17.6024    10.0009    12.6250
  409.0000  -999.2500  -999.2500     2.3884     0.1329     0.0315   -38.3719    17.2850     9.9214    10.8967
  409.5000  -999.2500  -999.2500     2.3882     0.1383     0.0315   -38.4926    16.3349     9.8841    11.2286
  410.0000  -999.2500  -999.2500     2.3883     0.1438     0.0315   -38.6130    16.4506     9.8469    11.9805
  410.5000  -999.2500  -999.2500  -999.2500  -999.2500  -999.2500   -38.7336    16.7921     9.8100    12.7828
  411.0000  -999.2500  -999.2500  -999.2500  -999.2500  -999.2500   -38.8540    16.6716     9.7732    13.5893
  411.5000  -999.2500  -999.2500  -999.2500  -999.2500  -999.2500   -38.9745    16.4897     9.7365    13.3098
  412.0000  -999.2500  -999.2500  -999.2500  -999.2500  -999.2500   -39.0950    16.3099     9.6999    13.0505
  412.5000  -999.2500  -999.2500  -999.2500  -999.2500  -999.2500   -39.2155    16.1321     9.6635    12.6084
  413.0000  -999.2500  -999.2500  -999.2500  -999.2500  -999.2500   -39.3360    15.9562     9.6272    11.5152
  413.5000  -999.2500  -999.2500  -999.2500  -999.2500  -999.2500   -39.4565    15.7822     9.5910    11.5580
  414.0000  -999.2500  -999.2500  -999.2500  -999.2500  -999.2500   -39.5770    15.6101     9.5550    11.6216
  414.5000  -999.2500  -999.2500  -999.2500  -999.2500  -999.2500   -39.6974    15.4399     9.5191    10.6980
  415.0000  -999.2500  -999.2500  -999.2500  -999.2500  -999.2500   -39.8179    15.2715     9.4919    11.4097
  415.5000  -999.2500  -999.2500  -999.2500  -999.2500  -999.2500   -39.9384    15.1050     9.4050    11.0990
  416.0000  -999.2500  -999.2500  -999.2500  -999.2500  -999.2500   -40.0589    14.9403     9.1782    11.1949
  416.5000  -999.2500  -999.2500  -999.2500  -999.2500  -999.2500   -40.1794    14.7773     8.9648    11.4097
  417.0000  -999.2500  -999.2500  -999.2500  -999.2500  -999.2500   -40.3000    14.6162     8.7565     9.8478
  417.5000  -999.2500  -999.2500  -999.2500  -999.2500  -999.2500   -40.4204    14.3876     8.5529    10.3292
  418.0000  -999.2500  -999.2500  -999.2500  -999.2500  -999.2500   -40.5406    13.9375     8.3542    10.7969
  418.5000  -999.2500  -999.2500  -999.2500  -999.2500  -999.2500   -40.6385    13.5014     8.1600     9.9210
  419.0000  -999.2500  -999.2500  -999.2500  -999.2500  -999.2500   -40.6915    13.3415     7.9703     9.6067
  419.5000  -999.2500  -999.2500  -999.2500  -999.2500  -999.2500   -40.7452    13.1631     7.7851     9.5092
  420.0000  -999.2500  -999.2500  -999.2500  -999.2500  -999.2500   -40.7990    12.8817     7.3934     9.0263
  420.5000  -999.2500  -999.2500  -999.2500  -999.2500  -999.2500   -40.8527    12.6064     6.9788     8.4997
  421.0000  -999.2500  -999.2500  -999.2500  -999.2500  -999.2500   -40.9065    12.2925     6.5873     8.2034
  421.5000  -999.2500  -999.2500  -999.2500  -999.2500  -999.2500   -40.9609    11.8311     6.2179     7.9487
  422.0000  -999.2500  -999.2500  -999.2500  -999.2500  -999.2500   -41.0155    11.3870     5.8692     7.3865
  422.5000  -999.2500  -999.2500  -999.2500  -999.2500  -999.2500   -40.9869    10.4283     5.5400     6.7985
  423.0000  -999.2500  -999.2500  -999.2500  -999.2500  -999.2500   -40.9522     8.6728     5.1715     6.2575
  423.5000  -999.2500  -999.2500  -999.2500  -999.2500  -999.2500   -40.9178     6.8308     5.2101     5.7618
  424.0000  -999.2500  -999.2500  -999.2500  -999.2500  -999.2500   -40.8835     5.0683     5.2743     5.6180
  424.5000  -999.2500  -999.2500  -999.2500  -999.2500  -999.2500   -40.8492     6.8440     5.3393     6.1363
  425.0000  -999.2500  -999.2500  -999.2500  -999.2500  -999.2500   -40.8149    11.9347     5.5563     6.6824
  425.5000  -999.2500  -999.2500  -999.2500  -999.2500  -999.2500   -40.7807    13.6561     5.8890     7.2772
  426.0000  -999.2500  -999.2500  -999.2500  -999.2500  -999.2500   -40.7464    13.2221     6.2417     7.9423
  426.5000  -999.2500  -999.2500  -999.2500  -999.2500  -999.2500   -40.7121    13.3098     6.6154     8.6729
  427.0000  -999.2500  -999.2500  -999.2500  -999.2500  -999.2500   -40.6778    13.4183     7.0116     9.2563
  427.5000  -999.2500  -999.2500  -999.2500  -999.2500  -999.2500   -40.6436    13.5315     7.4314     9.5354
  428.0000  -999.2500  -999.2500  -999.2500  -999.2500  -999.2500   -40.6140    13.6449     7.7815     9.8230
  428.5000  -999.2500  -999.2500  -999.2500  -999.2500  -999.2500   -40.5978    13.7593     8.0794    10.1234
  429.0000  -999.2500  -999.2500  -999.2500  -999.2500  -999.2500   -40.5813    13.8746     8.2996     9.9388
  429.5000  -999.2500  -999.2500  -999.2500  -999.2500  -999.2500   -40.5649    13.9989     8.3817    10.1782
  430.0000  -999.2500  -999.2500  -999.2500  -999.2500  -999.2500   -40.5485    14.1605     8.4645    10.6980
  430.5000  -999.2500  -999.2500  -999.2500  -999.2500  -999.2500   -40.5321    14.3240     8.5739    10.0307
  431.0000  -999.2500  -999.2500  -999.2500  -999.2500  -999.2500   -40.5156    14.4894     8.7730    10.4651
  431.5000  -999.2500  -999.2500  -999.2500  -999.2500  -999.2500   -40.4992    14.7606     8.9767    11.6091
  432.0000  -999.2500  -999.2500  -999.2500  -999.2500  -999.2500   -40.4828    15.5949     9.1852    11.0930
  432.5000  -999.2500  -999.2500  -999.2500  -999.2500  -999.2500   -40.4663    15.5184     9.3985    10.4223
  433.0000  -999.2500  -999.2500  -999.2500  -999.2500  -999.2500   -40.4499    15.4612     9.6167    12.8594
  433.5000  -999.2500  -999.2500  -999.2500  -999.2500  -999.2500   -40.4335    16.0696     9.7407    12.3133
  434.0000  -999.2500  -999.2500  -999.2500  -999.2500  -999.2500   -40.4170    16.6352     9.8351    11.8143
  434.5000  -999.2500  -999.2500  -999.2500  -999.2500  -999.2500   -40.4006    16.6929     9.9304    12.9783
  435.0000  -999.2500  -999.2500  -999.2500  -999.2500  -999.2500   -40.3842    16.7542    10.0268    11.9469
  435.5000  -999.2500  -999.2500  -999.2500  -999.2500  -999.2500   -40.3678    16.9632    10.1242    12.1323
  436.0000  -999.2500  -999.2500  -999.2500  -999.2500  -999.2500   -40.3513    17.4493    10.2225    12.4712
