~VERSION INFORMATION
 VERS.                2.0:   CWLS LOG ASCII STANDARD - VERSION 2.0
 WRAP.                 NO:   ONE LINE PER DEPTH STEP
~WELL INFORMATION
#MNEM.UNIT      DATA TYPE    INFORMATION
#----------   ------------   ------------------------------
 STRT.F          100.0000:   START DEPTH
 STOP.F          812.0000:   STOP DEPTH
 STEP.F            0.5000:   STEP LENGTH
 NULL.          -999.2500:   NO VALUE
 COMP.               NAVY:   COMPANY
 WELL. RES 3 TEAPOT DOM #42S-11:   WELL
 FLD .             TEAPOT:   FIELD
 LOC .      S11 T38N R78W:   LOCATION
 CNTY.            NATRONA:   COUNTY
 STAT.            WYOMING:   STATE
 CTRY. UNITED STATES OF AMERICA:   COUNTRY
 SRVC.       Schlumberger:   SERVICE COMPANY
 DATE.        02-AUG-1961:   LOGDATE
 API .       490250636700:   API NUMBER
~CURVE INFORMATION
#MNEM.UNIT       API CODE    CURVE DESCRIPTION
#----------   ------------   ------------------------------
 DEPT.F                  :   
 SPR .MV     05 010 01 00:   SPONTANEOUS POTENTIAL FROM RES.
 ILD .OHMM   05 120 46 00:   INDUCTION LOG DEEP
 ASN .OHMM   05 041 16 00:   AMPLIFIED SHORT NORMAL 16"
 CILD.MMHO   05 110 46 00:   CONDUCTIVITY INDUCTION LOG DEEP
 GR  .GAPI   30 310 01 00:   GAMMA RAY
~PARAMETER INFORMATION
#MNEM.UNIT          VALUE    DESCRIPTION
#----------   ------------   ------------------------------
 PD  .                 GL:   PERMANENT DATUM
 EPD .F              5172:   ELEVATION PERMANENT DATUM
 LMF .                 KB:   LOG MEASURED FROM
 DAPD.F                 5:   FEET ABOVE PERMANENT DATUM
 DMF .                 KB:   DRILLING MEASURED FROM
 EKB .F              5177:   KELLING BUSHING
 EGL .F              5172:   GROUND LEVEL
 DATE.             8-2-61:   RUN DATE
 RUN .                  1:   RUN NUMBER
 DD  .F               810:   DEPTH DRILLER
 DL  .F               813:   DEPTH LOGGER
 BLI .F               812:   BOTTOM LOG INTERVAL
 TLI .F               100:   TOP LOG INTERVAL
 BS  .IN             6.75:   BIT SIZE
 BSD .F               810:   BIT SIZE AT DEPTH
 DFT .       OIL EMULSION:   DRILLING FLUID TYPE
 DFD .                9.2:   DRILLING FLUID DENSITY
 DFV .                 56:   DRILLING FLUID VISCOSITY
 MFSS.                  M:   MUD FILTRATE SAMPLE SOURCE
 MCSS.                  M:   MUD CAKE SAMPLE SOURCE
 RMB .OHMM            .70:   RESISTIVITY MUD AT BHT
 BHT .F                80:   BOTTOM HOLE TEMPERATURE
 TCS .HRS               1:   TIME CURCULATED STOPPED
 MRT .F                80:   MAXIMUM RECORDED TEMPERATURE
 LUN .               2552:   LOGGING UNIT NUMBER
 LUL .                RIV:   LOGGING UNIT LOCATION
 ENGI.             RANDLE:   RECORDING ENGINEER
 WITN.          VORGENSON:   WITNESSED BY
 CLNT.            A2DTECH:   CLIENT CODE
 ORIG.       2", 5" PRINT:   ORIGIN OF DATA
 UWI .       490250636700:   UNIQUE WELL ID
 DICO. A2D Technologies, Inc.:   DIGITIZING COMPANY
~OTHER INFORMATION
~A   DEPT      SPR        ILD        ASN        CILD        GR   
# ...
  771.0000   -22.0382    12.7502    15.6933    78.5662  -999.2500
  771.5000   -23.1692    12.4378    15.5876    80.2613  -999.2500
  772.0000   -24.0141    12.1586    15.2933    81.9565  -999.2500
  772.5000   -23.7964    12.0538    15.3460    82.9146  -999.2500
  773.0000   -24.4443    12.1101    15.6158    82.9146  -999.2500
  773.5000   -25.7449    12.1386    15.1799    82.9146  -999.2500
  774.0000   -26.6591    12.1798    14.4795    82.9146  -999.2500
  774.5000   -26.8121    12.2141    14.0851    82.9146  -999.2500
  775.0000   -26.8846    12.2512    14.5668    82.9146  -999.2500
  775.5000   -27.1825    12.2653    14.9894    82.9146  -999.2500
  776.0000   -27.5828    12.2470    15.2594    82.9146  -999.2500
  776.5000   -27.1796    12.2120    14.7666    82.9146  -999.2500
  777.0000   -26.9390    12.1789    14.3209    82.9146  -999.2500
  777.5000   -27.0460    12.0977    14.0814    84.2099  -999.2500
  778.0000   -26.3460    11.9612    14.2046    85.3400  -999.2500
  778.5000   -24.8050    11.8303    14.6382    86.4701  -999.2500
  779.0000   -24.7845    11.6686    14.3490    87.6002  -999.2500
  779.5000   -24.7511    11.4889    13.9911    88.7303  -999.2500
  780.0000   -24.2195    11.3300    14.1384    89.8604  -999.2500
  780.5000   -23.6360    11.1442    14.3883    90.9548  -999.2500
  781.0000   -23.0266    11.0536    13.5188    91.6543  -999.2500
  781.5000   -22.4907    11.0508    12.3578    92.3323  -999.2500
  782.0000   -23.2957    10.9932    12.4496    93.0104  -999.2500
  782.5000   -24.7033    10.9392    13.1039    93.6884  -999.2500
  783.0000   -24.9415    10.7822    13.8753    94.3665  -999.2500
  783.5000   -24.6963    10.6876    13.6588    95.0446  -999.2500
  784.0000   -24.3941    10.5804    13.2289    95.7226  -999.2500
  784.5000   -24.2418    10.5534    12.8576    96.4007  -999.2500
  785.0000   -24.1975    10.5874    12.5189    96.9849  -999.2500
  785.5000   -24.1498    10.6320    12.2049    96.5613  -999.2500
  786.0000   -24.0704    10.6726    12.8301    96.1892  -999.2500
  786.5000   -24.0778    10.7146    13.4897    95.8171  -999.2500
  787.0000   -23.6838    10.7560    13.2361    95.4450  -999.2500
  787.5000   -23.1094    10.7976    12.8828    95.0729  -999.2500
  788.0000   -22.6149    10.8393    12.6647    94.7008  -999.2500
  788.5000   -22.2606    10.8803    12.9996    94.3287  -999.2500
  789.0000   -22.5012    10.9231    13.2724    93.9698  -999.2500
  789.5000   -22.9264    10.9558    13.2956    93.4134  -999.2500
  790.0000   -23.0564    10.9281    13.1160    93.9487  -999.2500
  790.5000   -22.6951    10.8951    12.9832    94.4840  -999.2500
  791.0000   -22.3323    10.8630    12.9633    94.9749  -999.2500
  791.5000   -22.4203    10.8306    12.9925    94.7270  -999.2500
  792.0000   -22.8380    10.7985    13.0081    93.8794  -999.2500
  792.5000   -22.9007    10.7659    13.0316    92.9648  -999.2500
  793.0000   -22.7089    10.7341    13.0481    94.1790  -999.2500
  793.5000   -22.4649    10.7008    13.0720    95.4975  -999.2500
  794.0000   -22.2293    10.6623    12.9949    96.8159  -999.2500
  794.5000   -21.9826    10.5475    12.7989    98.1344  -999.2500
  795.0000   -21.7829    10.3871    12.5875    99.4528  -999.2500
  795.5000   -21.8033    10.2370    12.5405   100.1144  -999.2500
  796.0000   -21.5427    10.0765    12.5198   100.3100  -999.2500
  796.5000   -20.6794     9.9619    12.5017   100.5056  -999.2500
  797.0000   -20.4762     9.9658    12.4644   100.7012  -999.2500
  797.5000   -21.3755    10.0190    12.5478   100.8968  -999.2500
  798.0000   -22.1509    10.0683    12.6686   100.7887  -999.2500
  798.5000   -21.8494    10.1180    12.7430   100.3044  -999.2500
  799.0000   -21.7002    10.1668    12.8228    99.8201  -999.2500
  799.5000   -22.7371    10.2183    12.9178    99.3357  -999.2500
  800.0000   -24.0294    10.2591    12.9237    98.9950  -999.2500
  800.5000   -24.7900    10.2610    12.8051    98.9950  -999.2500
  801.0000   -24.5760    10.2253    12.7028    98.9950  -999.2500
  801.5000   -24.7685    10.1889    12.5925    98.9950  -999.2500
  802.0000   -25.1761    10.0998    12.4773    98.9950  -999.2500
  802.5000   -25.4339     9.9304    12.4595    99.4975  -999.2500
  803.0000   -25.3522     9.7371    12.4639   102.6862  -999.2500
  803.5000   -25.0086     9.0088    12.4615   109.2097  -999.2500
  804.0000   -24.6398     8.6002    12.4639   114.0704  -999.2500
  804.5000   -24.2756     8.5606    12.4610   114.0704  -999.2500
  805.0000   -23.9187     8.4502    12.4675   115.0754  -999.2500
  805.5000   -23.5953     8.3707    12.4228   116.0804  -999.2500
  806.0000   -23.8768     8.2840    12.2953   117.6753  -999.2500
  806.5000   -23.4585     8.1964    12.1637   118.7896  -999.2500
  807.0000   -22.2070     8.0918    12.0315   119.9039  -999.2500
  807.5000   -22.0791     8.0050    11.8836   121.0181  -999.2500
  808.0000   -22.6550     7.9063    11.7609   122.1105  -999.2500
  808.5000   -19.9169     7.8475    11.5780   122.1105  -999.2500
  809.0000   -22.2873     7.8923    11.4620   121.1055  -999.2500
  809.5000   -18.6933     7.9261    11.3661   120.1005  -999.2500
  810.0000   -20.1963     7.8517    11.2440  -999.2500  -999.2500
  810.5000   -23.5741  -999.2500  -999.2500  -999.2500  -999.2500
  811.0000   -22.0617  -999.2500  -999.2500  -999.2500  -999.2500
  811.5000   -22.3855  -999.2500  -999.2500  -999.2500  -999.2500
  812.0000   -22.6773  -999.2500  -999.2500  -999.2500  -999.2500
