~VERSION INFORMATION
 VERS.                2.0:   CWLS LOG ASCII STANDARD - VERSION 2.0
 WRAP.                 NO:   ONE LINE PER DEPTH STEP
~WELL INFORMATION
#MNEM.UNIT      DATA TYPE    INFORMATION
#----------   ------------   ------------------------------
 STRT.F           34.0000:   START DEPTH
 STOP.F         1014.5000:   STOP DEPTH
 STEP.F            0.5000:   STEP LENGTH
 NULL.          -999.2500:   NO VALUE
 COMP. FENIX & SCISSON INC:   COMPANY
 WELL.       NPR-3 #54-14:   WELL
 FLD .             TEAPOT:   FIELD
 LOC .      S14 T38N R78W:   LOCATION
 CNTY.            NATRONA:   COUNTY
 STAT.            WYOMING:   STATE
 CTRY. UNITED STATES OF AMERICA:   COUNTRY
 SRVC.            Unknown:   SERVICE COMPANY
 DATE.        20-APR-1978:   LOGDATE
 API .       490251062100:   API NUMBER
~CURVE INFORMATION
#MNEM.UNIT       API CODE    CURVE DESCRIPTION
#----------   ------------   ------------------------------
 DEPT.F                  :   
 SPR .MV     05 010 01 00:   SPONTANEOUS POTENTIAL FROM RES.
 SN  .OHMM   05 040 16 00:   SHORT NORMAL 16"
 ILD .OHMM   05 120 46 00:   INDUCTION LOG DEEP
 CALD.IN     45 280 60 00:   CALIPER
 GRD .GAPI   45 310 01 00:   GAMMA RAY FROM DENSITY LOG
 RHOB.G/C3   45 350 01 00:   BULK DENSITY
 DPOR.DEC    45 890 12 00:   DENSITY POROSITY SANDSTONE
 CORR.G/C3   45 356 01 00:   DENSITY CORRECTION
~PARAMETER INFORMATION
#MNEM.UNIT          VALUE    DESCRIPTION
#----------   ------------   ------------------------------
 PD  .                 GL:   PERMANENT DATUM
 EPD .F              5268:   ELEVATION PERMANENT DATUM
 LMF .                 KB:   LOG MEASURED FROM
 DAPD.F                 4:   FEET ABOVE PERMANENT DATUM
 DMF .                 KB:   DRILLING MEASURED FROM
 EKB .F              5272:   KELLING BUSHING
 EGL .F              5268:   GROUND LEVEL
 DATE.          4-20-1978:   RUN DATE
 RUN .                  1:   RUN NUMBER
 DD  .F              1030:   DEPTH DRILLER
 DL  .F              1021:   DEPTH LOGGER
 BLI .F              1014:   BOTTOM LOG INTERVAL
 TLI .F                50:   TOP LOG INTERVAL
 CS  .IN            8.625:   CASING SIZE
 CBD .F                40:   CASING BOTTOM DRILLER
 BS  .IN            7.875:   BIT SIZE
 BSD .F              1030:   BIT SIZE AT DEPTH
 DFT .                KCL:   DRILLING FLUID TYPE
 DFD .                8.6:   DRILLING FLUID DENSITY
 DFV .                 33:   DRILLING FLUID VISCOSITY
 DFPH.                 10:   DRILLING FLUID PH
 DFL .                  8:   DRILLING FLUID LOSS
 MSS .          FLOW LINE:   MUD SAMPLE SOURCE
 RMS .OHMM            .34:   RESISTIVITY MUD SAMPLE
 MST .F                64:   MUD SAMPLE TEMPERATURE
 RMF .OHMM            .36:   RESISTIVITY MUD FILTRATE SAMPLE
 MFST.F                60:   MUD FILTRATE SAMPLE TEMPERATURE
 RMC .OHMM            .48:   RESISTIVITY MUD CAKE
 MCST.F                68:   MUD CAKE SAMPLE TEMPERATURE
 MFSS.               MEAS:   MUD FILTRATE SAMPLE SOURCE
 MCSS.               MEAS:   MUD CAKE SAMPLE SOURCE
 RMB .OHMM            .29:   RESISTIVITY MUD AT BHT
 BHT .F                74:   BOTTOM HOLE TEMPERATURE
 TCS .HRS               6:   TIME CURCULATED STOPPED
 MRT .F                74:   MAXIMUM RECORDED TEMPERATURE
 LUN .               2958:   LOGGING UNIT NUMBER
 LUL .               CASP:   LOGGING UNIT LOCATION
 ENGI.             MILLER:   RECORDING ENGINEER
 WITN.           MCGINELY:   WITNESSED BY
 CLNT.            A2DTECH:   CLIENT CODE
 ORIG.       2", 5" PRINT:   ORIGIN OF DATA
 UWI .       490251062100:   UNIQUE WELL ID
 DICO. A2D Technologies, Inc.:   DIGITIZING COMPANY
~OTHER INFORMATION
~A   DEPT      SPR         SN        ILD       CALD         GRD      RHOB       DPOR       CORR   
# ...
  884.5000   -25.1723    10.7920    10.0890     7.9451    89.3809     2.4483     0.1398     0.0413
  885.0000   -25.1798    10.7891    10.0609     7.9228    92.4856     2.4415     0.1384     0.0415
  885.5000   -25.1873    10.7861    10.0329     7.9005    92.1316     2.4506     0.1352     0.0415
  886.0000   -25.1960    10.7832    10.0049     7.8781    90.5963     2.4515     0.1332     0.0415
  886.5000   -25.2654    10.7803     9.9768     7.8558    89.5224     2.4536     0.1288     0.0415
  887.0000   -25.4172    10.7774     9.9564     7.8334    88.5640     2.4637     0.1291     0.0410
  887.5000   -25.5680    10.7745     9.9378     7.8113    87.6180     2.4623     0.1295     0.0379
  888.0000   -25.7196    10.7715     9.9196     7.7979    87.0154     2.4598     0.1284     0.0336
  888.5000   -25.8706    10.7686     9.9014     7.7954    86.9349     2.4676     0.1231     0.0238
  889.0000   -26.0034    10.7657     9.8831     7.7913    86.8397     2.4798     0.1208     0.0143
  889.5000   -26.0258    10.7628     9.8649     7.7872    87.6614     2.4770     0.1267     0.0056
  890.0000   -26.0506    10.7599     9.8468     7.7831    89.4297     2.4658     0.1314     0.0062
  890.5000   -26.0758    10.7570     9.8287     7.7790    90.6265     2.4553     0.1362     0.0069
  891.0000   -26.1010    10.7540     9.8106     7.7749    89.2868     2.4449     0.1412     0.0076
  891.5000   -26.1262    10.7511     9.7925     7.7708    87.7074     2.4370     0.1428     0.0082
  892.0000   -26.1514    10.7482     9.7745     7.7667    86.1243     2.4343     0.1445     0.0089
  892.5000   -26.1765    10.7453     9.7565     7.7626    84.8542     2.4324     0.1452     0.0096
  893.0000   -26.2017    10.7424     9.7386     7.7585    88.0898     2.4348     0.1414     0.0102
  893.5000   -26.2269    10.7395     9.7206     7.7544    91.8702     2.4374     0.1376     0.0109
  894.0000   -26.2521    10.7366     9.7028     7.7503    95.3484     2.4477     0.1362     0.0116
  894.5000   -26.2773    10.7337     9.6849     7.7463    94.9200     2.4496     0.1372     0.0122
  895.0000   -26.3024    10.7307     9.6671     7.7423    91.5929     2.4467     0.1372     0.0129
  895.5000   -26.3277    10.7278     9.6493     7.7285    88.9101     2.4440     0.1363     0.0133
  896.0000   -26.3531    10.7248     9.6316     7.6453    87.2512     2.4499     0.1335     0.0113
  896.5000   -26.3772    10.7225     9.6139     7.5620    87.5833     2.4563     0.1308     0.0094
  897.0000   -26.3412    10.7518     9.5987     7.5620    86.3217     2.4629     0.1296     0.0075
  897.5000   -26.1807    10.7843     9.6144     7.6828    84.0488     2.4617     0.1301     0.0055
  898.0000   -26.0223    10.8169     9.6287     7.8114    82.8579     2.4588     0.1307     0.0036
  898.5000   -25.8636    10.8497     9.6430     7.8570    84.4646     2.4577     0.1313     0.0017
  899.0000   -25.7050    10.8826     9.6573     7.8578    86.7706     2.4590     0.1320    -0.0002
  899.5000   -25.5464    10.9155     9.6716     7.8577    89.0877     2.4567     0.1344    -0.0011
  900.0000   -25.3880    10.9484     9.6874     7.8576    90.0681     2.4420     0.1419    -0.0019
  900.5000   -25.2295    10.9815     9.7955     7.8576    86.7850     2.4311     0.1455    -0.0025
  901.0000   -25.0717    11.0149     9.9165     7.8576    83.6021     2.4336     0.1454    -0.0025
  901.5000   -24.7924    11.1915    10.0392     7.8576    83.2646     2.4258     0.1473    -0.0025
  902.0000   -24.4174    11.4200    10.1617     7.8576    84.1793     2.4253     0.1493    -0.0025
  902.5000   -24.0431    11.6530    10.4252     7.8576    85.4224     2.4219     0.1523    -0.0024
  903.0000   -23.6776    11.8907    10.9046     7.8576    86.8009     2.4092     0.1593     0.0003
  903.5000   -23.0646    12.1353    11.4061     7.8580    88.1356     2.3965     0.1663     0.0029
  904.0000   -22.4104    12.4143    11.9306     7.8405    84.5215     2.3837     0.1733     0.0107
  904.5000   -22.1241    12.8085    12.4792     7.8132    80.4481     2.3707     0.1766     0.0191
  905.0000   -22.0076    13.2101    13.0531     7.7098    76.3472     2.3721     0.1751     0.0191
  905.5000   -22.0112    13.6254    13.6535     7.4976    74.1762     2.3762     0.1751     0.0154
  906.0000   -22.0119    14.0536    14.2800     7.6617    75.7120     2.3738     0.1755     0.0117
  906.5000   -22.0119    14.4928    14.9543     7.7592    77.3529     2.3621     0.1860     0.0094
  907.0000   -22.0118    14.9557    15.2227     7.7582    78.1638     2.3530     0.1875     0.0099
  907.5000   -22.0107    15.2266    15.3668     7.7586    77.7830     2.3520     0.1863     0.0112
  908.0000   -22.0577    15.3582    15.5385     7.7575    77.4669     2.3569     0.1810     0.0203
  908.5000   -22.1127    15.5180    15.6578     7.7390    77.2754     2.3800     0.1703     0.0276
  909.0000   -22.1679    15.5092    15.7780     7.7175    77.0998     2.4023     0.1596     0.0275
  909.5000   -22.2229    15.5092    15.8991     7.5918    76.8598     2.4231     0.1489     0.0275
  910.0000   -22.2779    15.5092    16.0211     7.4629    73.8802     2.4345     0.1382     0.0260
  910.5000   -22.3329    15.5092    16.1442     7.4289    70.6646     2.4626     0.1275     0.0164
  911.0000   -22.3880    15.4148    16.2685     7.5445    68.0337     2.4788     0.1192     0.0069
  911.5000   -22.4430    15.1662    16.3935     7.7140    69.7629     2.4679     0.1303     0.0079
  912.0000   -22.4980    14.9215    16.3922     7.8849    72.5786     2.4432     0.1411     0.0109
  912.5000   -22.5530    14.6809    16.2416     7.9851    75.3693     2.4155     0.1519     0.0135
  913.0000   -22.6080    14.4441    16.3922     8.0159    77.7658     2.4037     0.1616     0.0102
  913.5000   -22.6631    14.2112    15.7639     7.9030    79.0611     2.3923     0.1703     0.0064
  914.0000   -22.7181    13.9819    15.1055     7.6109    79.9419     2.3772     0.1790     0.0027
  914.5000   -22.7731    13.7564    14.4747     8.4417    80.5682     2.3615     0.1877    -0.0011
  915.0000   -22.8281    13.5346    13.8689     7.6375    80.5602     2.3456     0.1923    -0.0016
  915.5000   -22.8832    13.3163    13.3765     7.9586    79.8315     2.3431     0.1914     0.0003
  916.0000   -22.9382    13.1015    13.2524     7.7226    78.8956     2.3497     0.1845     0.0041
  916.5000   -22.9932    12.8955    13.2545     7.7359    77.9360     2.3705     0.1775     0.0075
  917.0000   -23.0482    12.8216    13.2575     7.8421    76.9659     2.3740     0.1763     0.0088
  917.5000   -23.1033    12.7330    13.2575     7.9330    78.2900     2.3721     0.1763     0.0100
  918.0000   -23.1583    12.6450    13.2575     7.9731    81.9522     2.3757     0.1740     0.0113
  918.5000   -23.2133    12.5576    13.3804     7.8932    85.6172     2.3832     0.1715     0.0125
  919.0000   -23.2683    12.4709    13.1468     7.9085    87.1995     2.3860     0.1691     0.0137
  919.5000   -23.3234    12.3846    12.9709     7.9479    86.6381     2.3866     0.1670     0.0149
  920.0000   -23.3784    12.2889    12.7973     7.9918    86.1334     2.4001     0.1610     0.0161
  920.5000   -23.4334    12.1473    12.6261     7.9803    88.6871     2.4112     0.1561     0.0174
  921.0000   -23.4884    12.0072    12.4571     7.9637    92.8930     2.4147     0.1538     0.0156
  921.5000   -23.5434    11.8688    12.2904     7.9478    96.0783     2.4197     0.1514     0.0134
  922.0000   -23.5985    11.7320    12.1259     7.9443    94.6887     2.4205     0.1519     0.0113
  922.5000   -23.6535    11.5968    11.9636     7.9668    91.4451     2.4146     0.1564     0.0101
  923.0000   -23.7085    11.4631    11.8035     7.9887    88.8161     2.4121     0.1609     0.0142
  923.5000   -23.7635    11.3309    11.6456     8.0107    87.9429     2.3966     0.1643     0.0181
  924.0000   -23.8186    11.2003    11.4897     8.0327    87.7655     2.3935     0.1576     0.0221
  924.5000   -23.8736    11.0712    11.3360     8.0548    88.0493     2.4127     0.1521     0.0260
