~VERSION INFORMATION
 VERS.                2.0:   CWLS LOG ASCII STANDARD - VERSION 2.0
 WRAP.                 NO:   ONE LINE PER DEPTH STEP
~WELL INFORMATION
#MNEM.UNIT      DATA TYPE    INFORMATION
#----------   ------------   ------------------------------
 STRT.F           33.0000:   START DEPTH
 STOP.F         1374.0000:   STOP DEPTH
 STEP.F            0.5000:   STEP LENGTH
 NULL.          -999.2500:   NO VALUE
 COMP. FENIX & SCISSON INC:   COMPANY
 WELL.   NPR-3 "S" #84-14:   WELL
 FLD .             TEAPOT:   FIELD
 LOC .      S14 T38N R78W:   LOCATION
 CNTY.            NATRONA:   COUNTY
 STAT.            WYOMING:   STATE
 CTRY. UNITED STATES OF AMERICA:   COUNTRY
 SRVC.            Unknown:   SERVICE COMPANY
 DATE.        18-MAR-1978:   LOGDATE
 API .       490251060400:   API NUMBER
~CURVE INFORMATION
#MNEM.UNIT       API CODE    CURVE DESCRIPTION
#----------   ------------   ------------------------------
 DEPT.F                  :   
 SPR .MV     05 010 01 00:   SPONTANEOUS POTENTIAL FROM RES.
 SN  .OHMM   05 040 16 00:   SHORT NORMAL 16"
 ILD .OHMM   05 120 46 00:   INDUCTION LOG DEEP
 CALD.IN     45 280 60 00:   CALIPER
 GRD .GAPI   45 310 01 00:   GAMMA RAY FROM DENSITY LOG
 CORR.G/C3   45 356 01 00:   DENSITY CORRECTION
 RHOB.G/C3   45 350 01 00:   BULK DENSITY
 DPHI.DEC    45 890 00 00:   DENSITY POROSITY
~PARAMETER INFORMATION
#MNEM.UNIT          VALUE    DESCRIPTION
#----------   ------------   ------------------------------
 PD  .                 GL:   PERMANENT DATUM
 EPD .F              5314:   ELEVATION PERMANENT DATUM
 LMF .                 KB:   LOG MEASURED FROM
 DMF .                 KB:   DRILLING MEASURED FROM
 EKB .F              5318:   KELLING BUSHING
 EGL .F              5314:   GROUND LEVEL
 DATE.          3-18-1978:   RUN DATE
 RUN .                  1:   RUN NUMBER
 DD  .F              1375:   DEPTH DRILLER
 DL  .F              1380:   DEPTH LOGGER
 BLI .F              1374:   BOTTOM LOG INTERVAL
 TLI .F                50:   TOP LOG INTERVAL
 CS  .IN            8.625:   CASING SIZE
 CBD .F                40:   CASING BOTTOM DRILLER
 CBL .F                50:   CASING BOTTOM LOGGER
 BS  .IN            7.875:   BIT SIZE
 BSD .F              1375:   BIT SIZE AT DEPTH
 DFT .                KCL:   DRILLING FLUID TYPE
 DFD .                8.1:   DRILLING FLUID DENSITY
 DFV .                 31:   DRILLING FLUID VISCOSITY
 DFPH.                 10:   DRILLING FLUID PH
 DFL .                8.4:   DRILLING FLUID LOSS
 MSS .           FLOWLINE:   MUD SAMPLE SOURCE
 RMS .OHMM            .28:   RESISTIVITY MUD SAMPLE
 MST .F                62:   MUD SAMPLE TEMPERATURE
 RMF .OHMM            .26:   RESISTIVITY MUD FILTRATE SAMPLE
 MFST.F                67:   MUD FILTRATE SAMPLE TEMPERATURE
 RMC .OHMM            .36:   RESISTIVITY MUD CAKE
 MCST.F                70:   MUD CAKE SAMPLE TEMPERATURE
 MFSS.               MEAS:   MUD FILTRATE SAMPLE SOURCE
 RMB .OHMM            .22:   RESISTIVITY MUD AT BHT
 BHT .F                80:   BOTTOM HOLE TEMPERATURE
 TCS .HRS               4:   TIME CURCULATED STOPPED
 MRT .F                80:   MAXIMUM RECORDED TEMPERATURE
 LUN .               2958:   LOGGING UNIT NUMBER
 LUL .               CASP:   LOGGING UNIT LOCATION
 ENGI.             MILLER:   RECORDING ENGINEER
 WITN.           MCGINLEY:   WITNESSED BY
 CLNT.            A2DTECH:   CLIENT CODE
 ORIG.      2" & 5" PRINT:   ORIGIN OF DATA
 UWI .       490251060400:   UNIQUE WELL ID
 DICO. A2D Technologies, Inc.:   DIGITIZING COMPANY
~OTHER INFORMATION
~A   DEPT      SPR         SN        ILD       CALD         GRD      CORR       RHOB       DPHI   
# ...
  559.5000   -51.0297     5.4903     4.9748     7.5322    96.8883    -0.0029     2.4335     0.1188
  560.0000   -50.9615     5.4694     4.9359     7.5318    96.0842    -0.0010     2.4326     0.1213
  560.5000   -50.8904     5.4485     4.9272     7.5313    95.9736     0.0011     2.4355     0.1235
  561.0000   -51.0781     5.4187     4.9185     7.5308    96.0749    -0.0001     2.4302     0.1238
  561.5000   -51.4250     5.4434     4.9099     7.5304    95.8250    -0.0016     2.4320     0.1226
  562.0000   -51.7704     5.5120     4.9012     7.5299    95.4584    -0.0030     2.4354     0.1244
  562.5000   -52.0804     5.5708     4.8956     7.5294    95.0875    -0.0016     2.4307     0.1243
  563.0000   -52.0687     5.5708     4.9407     7.5290    94.7154     0.0004     2.4263     0.1234
  563.5000   -51.9998     5.5709     4.9887     7.5285    94.3426     0.0025     2.4306     0.1200
  564.0000   -51.5111     5.5709     5.0371     7.5280    94.5638     0.0047     2.4420     0.1125
  564.5000   -51.3918     5.5709     5.0859     7.5276    94.9466     0.0032     2.4533     0.1050
  565.0000   -51.6680     5.6502     5.1353     7.5271    95.2941     0.0010     2.4641     0.1054
  565.5000   -50.7682     5.7373     5.1847     7.5266    93.9910    -0.0012     2.4614     0.1075
  566.0000   -50.3466     5.8339     5.2341     7.5262    92.4462    -0.0022     2.4549     0.1090
  566.5000   -50.5840     5.7869     5.3215     7.5257    91.9334     0.0028     2.4561     0.1120
  567.0000   -50.8146     5.7209     5.3050     7.5252    92.3081     0.0036     2.4504     0.1151
  567.5000   -51.0488     5.6746     5.2791     7.5248    92.6928    -0.0003     2.4451     0.1182
  568.0000   -50.9207     5.6746     5.2523     7.5243    93.0745    -0.0041     2.4357     0.1213
  568.5000   -50.7039     5.6293     5.2256     7.5238    93.3171    -0.0080     2.4267     0.1246
  569.0000   -50.7633     5.5362     5.1497     7.5234    93.3756    -0.0120     2.4264     0.1241
  569.5000   -50.9488     5.4555     5.0682     7.5229    93.4356    -0.0131     2.4271     0.1256
  570.0000   -51.1328     5.4057     4.9880     7.5224    93.5033    -0.0099     2.4220     0.1292
  570.5000   -51.2758     5.3689     4.9091     7.5220    93.2513    -0.0054     2.4111     0.1328
  571.0000   -51.3372     5.3934     4.8506     7.5215    93.3453    -0.0010     2.4061     0.1344
  571.5000   -51.4128     5.4130     4.8565     7.5210    94.0085     0.0034     2.4166     0.1336
  572.0000   -51.4861     5.4326     4.8635     7.5206    94.2687     0.0079     2.4150     0.1330
  572.5000   -51.5454     5.4523     4.8705     7.5201    94.1580     0.0125     2.4176     0.1277
  573.0000   -51.6054     5.4721     4.8775     7.5197    94.5829     0.0095     2.4318     0.1242
  573.5000   -51.6654     5.4919     4.8845     7.5192    95.4705     0.0055     2.4285     0.1261
  574.0000   -51.7256     5.5119     4.8915     7.5187    95.5600     0.0014     2.4228     0.1278
  574.5000   -51.7858     5.5479     4.8956     7.5183    94.2896    -0.0008     2.4313     0.1270
  575.0000   -51.8453     5.6178     4.9770     7.5178    92.6250    -0.0001     2.4267     0.1238
  575.5000   -51.8296     5.6885     5.0592     7.5173    90.9452     0.0007     2.4360     0.1192
  576.0000   -51.6127     5.7601     5.1427     7.5169    89.2134     0.0004     2.4426     0.1147
  576.5000   -51.3972     5.8339     5.2277     7.5164    88.3149    -0.0030     2.4426     0.1118
  577.0000   -51.1825     5.8339     5.3141     7.5159    87.6873    -0.0009     2.4484     0.1186
  577.5000   -50.9664     5.8339     5.3691     7.5155    87.0780     0.0020     2.4353     0.1178
  578.0000   -50.8676     5.8339     5.3691     7.5150    86.7131     0.0053     2.4421     0.1179
  578.5000   -50.8217     5.8339     5.3690     7.5146    88.2799     0.0064     2.4380     0.1195
  579.0000   -50.7764     5.8339     5.3690     7.5141    90.6298     0.0057     2.4370     0.1206
  579.5000   -50.7314     5.8339     5.3689     7.5136    93.0041     0.0049     2.4415     0.1179
  580.0000   -50.6825     5.8340     5.3690     7.5132    95.2204     0.0041     2.4366     0.1149
  580.5000   -50.7838     5.8338     5.3690     7.5127    94.4694     0.0034     2.4378     0.1183
  581.0000   -50.9292     5.8343     5.3689     7.5122    93.6270     0.0013     2.4367     0.1216
  581.5000   -51.0761     5.8057     5.3689     7.5118    93.1120    -0.0022     2.4295     0.1250
  582.0000   -51.2229     5.7528     5.3302     7.5113    93.0967    -0.0058     2.4225     0.1284
  582.5000   -51.3693     5.7003     5.2563     7.5108    93.5747    -0.0087     2.4157     0.1317
  583.0000   -51.4905     5.6483     5.1834     7.5104    94.1723    -0.0046     2.4147     0.1316
  583.5000   -51.5520     5.5967     5.1115     7.5099    93.9872    -0.0015     2.4202     0.1294
  584.0000   -51.6128     5.5196     5.0331     7.5094    93.4574     0.0015     2.4256     0.1251
  584.5000   -51.6710     5.5274     5.0346     7.5090    93.1047     0.0045     2.4243     0.1201
  585.0000   -51.9885     5.5433     5.0377     7.5085    93.2939     0.0035     2.4353     0.1165
  585.5000   -52.3604     5.5592     5.0408     7.5080    94.2874     0.0018     2.4418     0.1182
  586.0000   -52.4224     5.5708     5.0440     7.5076    96.9304     0.0000     2.4361     0.1174
  586.5000   -52.2513     5.6280     5.0471     7.5071    98.6639    -0.0019     2.4403     0.1142
  587.0000   -52.0798     5.6820     5.0502     7.5066    97.6778    -0.0034     2.4444     0.1159
  587.5000   -51.9089     5.7366     5.0533     7.5062    96.7407    -0.0045     2.4423     0.1184
  588.0000   -51.7387     5.7917     5.0565     7.5057    96.8476    -0.0056     2.4383     0.1212
  588.5000   -51.5690     5.8339     5.0596     7.5052    95.8269    -0.0067     2.4344     0.1239
  589.0000   -51.4109     5.8339     5.0627     7.5048    94.8380    -0.0078     2.4304     0.1266
  589.5000   -51.2688     5.8339     5.0659     7.5043    94.5140    -0.0089     2.4265     0.1278
  590.0000   -51.1269     5.8339     5.0691     7.5038    94.3993    -0.0072     2.4225     0.1257
  590.5000   -50.9857     5.8335     5.0722     7.5034    94.8332    -0.0052     2.4208     0.1215
  591.0000   -50.8441     5.8344     5.0753     7.5035    95.6284    -0.0032     2.4307     0.1170
  591.5000   -50.7012     5.8328     5.0785     7.5037    96.1197    -0.0013     2.4411     0.1121
  592.0000   -50.6750     5.9500     5.1964     7.5039    96.4657    -0.0025     2.4515     0.1072
  592.5000   -50.6744     6.0992     5.3971     7.5041    99.3476    -0.0058     2.4620     0.1023
  593.0000   -50.6748     6.2232     5.6055     7.5043    97.8083    -0.0091     2.4625     0.0974
  593.5000   -50.6747     6.4861     5.8220     7.5045    94.8150    -0.0126     2.4684     0.0947
  594.0000   -50.6709     6.7646     6.0533     7.5047    91.8030    -0.0078     2.4815     0.0926
  594.5000   -50.8025     6.9510     6.1009     7.5049    88.8008    -0.0015     2.4809     0.0976
  595.0000   -50.9663     6.9890     6.1854     7.5051    86.9446    -0.0010     2.4830     0.1026
  595.5000   -51.1316     7.0183     6.2711     7.5054    88.3989    -0.0051     2.4704     0.1076
  596.0000   -51.2967     6.8422     6.3970     7.5055    92.8252    -0.0032     2.4559     0.1125
  596.5000   -51.4617     6.6148     6.3110     7.5058    98.6090    -0.0014     2.4511     0.1141
  597.0000   -51.6269     6.3960     6.1565     7.5060   100.5660    -0.0010     2.4474     0.1090
  597.5000   -51.7925     6.3072     6.0056     7.5062   101.7056    -0.0010     2.4495     0.1135
  598.0000   -51.9184     6.2640     5.8578     7.5064   100.7200     0.0002     2.4475     0.1166
  598.5000   -52.0145     6.2210     5.7147     7.5066   101.1211     0.0023     2.4448     0.1164
  599.0000   -51.5568     6.1784     5.6746     7.5068   100.4687     0.0045     2.4433     0.1160
  599.5000   -50.8561     6.1661     5.7102     7.5070    97.0936     0.0066     2.4429     0.1157
