~VERSION INFORMATION
 VERS.                2.0:   CWLS LOG ASCII STANDARD - VERSION 2.0
 WRAP.                 NO:   ONE LINE PER DEPTH STEP
~WELL INFORMATION
#MNEM.UNIT      DATA TYPE    INFORMATION
#----------   ------------   ------------------------------
 STRT.F           20.5000:   START DEPTH
 STOP.F          544.0000:   STOP DEPTH
 STEP.F            0.5000:   STEP LENGTH
 NULL.          -999.2500:   NO VALUE
 COMP. LAWRENCE/ALLISON INC:   COMPANY
 WELL.    45-65 SX #10-10:   WELL
 FLD .             TEAPOT:   FIELD
 LOC .      S10 T38N R78W:   LOCATION
 CNTY.            NATRONA:   COUNTY
 STAT.            WYOMING:   STATE
 CTRY. UNITED STATES OF AMERICA:   COUNTRY
 SRVC.            Unknown:   SERVICE COMPANY
 DATE.        01-SEP-1984:   LOGDATE
 API .       490251098400:   API NUMBER
~CURVE INFORMATION
#MNEM.UNIT       API CODE    CURVE DESCRIPTION
#----------   ------------   ------------------------------
 DEPT.F                  :   
 GRD .GAPI   45 310 01 00:   GAMMA RAY FROM DENSITY LOG
 CALD.IN     45 280 60 00:   CALIPER
 DEN .G/C3   45 350 01 00:   COMPENSATED BULK DENSTIY
 CORR.G/C3   45 356 01 00:   DENSITY CORRECTION
 CNC .DEC    42 890 03 00:   NEUTRON POROSITY SANDSTONE
 PORD.DEC    45 890 12 00:   POROSITY DENSITY SANDSTONE
 AC  .US/F   60 520 00 00:   ACOUSTIC SONIC
 SPR .MV     07 010 01 00:   SPONTANEOUS POTENTIAL
 RILD.OHMM   07 120 46 00:   INDUCTION LOG DEEP RESISTIVITY
 RILM.OHMM   07 120 44 00:   INDUCTION LOG MEDIUM RESISTIVITY
 RFOC.OHMM   07 220 04 00:   RESISTIVITY FOCUSED LOG
~PARAMETER INFORMATION
#MNEM.UNIT          VALUE    DESCRIPTION
#----------   ------------   ------------------------------
 PD  .                 GL:   PERMANENT DATUM
 EPD .F              5208:   ELEVATION PERMANENT DATUM
 LMF .                 KB:   LOG MEASURED FROM
 DAPD.F                12:   FEET ABOVE PERMANENT DATUM
 DMF .                 KB:   DRILLING MEASURED FROM
 EKB .F              5220:   KELLING BUSHING
 EGL .F              5208:   GROUND LEVEL
 DATE.        1-SEPT-1984:   RUN DATE
 RUN .                  1:   RUN NUMBER
 DD  .F               550:   DEPTH DRILLER
 DL  .F               544:   DEPTH LOGGER
 BLI .F               544:   BOTTOM LOG INTERVAL
 TLI .F                30:   TOP LOG INTERVAL
 CBL .F                44:   CASING BOTTOM LOGGER
 BS  .IN            7.875:   BIT SIZE
 BSD .F               550:   BIT SIZE AT DEPTH
 DFT .          KCL WATER:   DRILLING FLUID TYPE
 MSS .               TANK:   MUD SAMPLE SOURCE
 RMS .OHMM           .236:   RESISTIVITY MUD SAMPLE
 MST .F                75:   MUD SAMPLE TEMPERATURE
 TCS .HRS               3:   TIME CURCULATED STOPPED
 MRT .F               100:   MAXIMUM RECORDED TEMPERATURE
 LUN .               4082:   LOGGING UNIT NUMBER
 LUL .               ROOS:   LOGGING UNIT LOCATION
 ENGI.             MILLER:   RECORDING ENGINEER
 WITN.            JOHNSON:   WITNESSED BY
 CLNT.            A2DTECH:   CLIENT CODE
 ORIG.       2", 5" PRINT:   ORIGIN OF DATA
 UWI .       490251098400:   UNIQUE WELL ID
 DICO. A2D Technologies, Inc.:   DIGITIZING COMPANY
~OTHER INFORMATION
~A   DEPT      GRD       CALD        DEN       CORR          CNC     PORD         AC        SPR       RILD       RILM       RFOC   
# ...
  173.0000   152.8540     8.3516     2.4121    -0.0138     0.1559  -999.2500    99.7444  -999.2500     8.8055     9.1141  -999.2500
  173.5000   153.1036     8.3486     2.4165    -0.0314     0.1464  -999.2500    99.7902  -999.2500     8.8307     9.1141  -999.2500
  174.0000   151.1916     8.3456     2.4318    -0.0340     0.1381  -999.2500   100.4064  -999.2500     8.8560     9.1141  -999.2500
  174.5000   149.0243     8.3426     2.4510    -0.0181     0.1351  -999.2500   100.9549  -999.2500     8.8662     9.1142  -999.2500
  175.0000   146.8148     8.3396     2.4538     0.0057     0.1357  -999.2500   100.8665  -999.2500     8.7827     9.1135  -999.2500
  175.5000   146.8887     8.3364     2.4423     0.0316     0.1437  -999.2500   100.7131  -999.2500     8.7001     9.1160  -999.2500
  176.0000   149.7868     8.3390     2.4348     0.0253     0.1489  -999.2500   100.6357  -195.6656     8.6184     9.1141  -999.2500
  176.5000   151.0780     8.3427     2.4277     0.0068     0.1571  -999.2500   100.8906  -183.2110     8.5374     8.8838  -999.2500
  177.0000   151.1507     8.3464     2.4205    -0.0060     0.1559  -999.2500   101.5172  -173.5948     8.4571     8.7387  -999.2500
  177.5000   150.8297     8.3502     2.4181    -0.0023     0.1573  -999.2500   102.1459  -160.7953     8.3794     8.5960  -999.2500
  178.0000   150.8200     8.3539     2.4170    -0.0002     0.1601  -999.2500   102.6873  -148.3522     8.3107     8.4556  -999.2500
  178.5000   151.4260     8.3577     2.4100    -0.0044     0.1611  -999.2500   102.6873  -135.5980     8.0823     8.3175  -999.2500
  179.0000   154.5023     8.3614     2.4059    -0.0077     0.1601  -999.2500   102.7496  -116.8538     7.8851     8.1817  -999.2500
  179.5000   158.9589     8.3652     2.4092    -0.0004     0.1583  -999.2500   102.8998   -99.5050     7.6946     8.0481  -999.2500
  180.0000   166.8024     8.3689     2.4129     0.0067     0.1573  -999.2500   103.3367   -67.5743     7.5086     7.8618  -999.2500
  180.5000   172.8249     8.3727     2.4156     0.0137     0.1567  -999.2500   104.1708   -44.6450     7.3272     7.4443  -999.2500
  181.0000   160.3589     8.3755     2.4148     0.0214     0.1609  -999.2500   105.0050   -29.7592     7.1501     7.4479  -999.2500
  181.5000   146.4636     8.3730     2.3993     0.0060     0.1687  -999.2500   105.8392   -25.4644     6.4861     7.0896  -999.2500
  182.0000   135.5026     8.3707     2.3826    -0.0159     0.1755  -999.2500   106.7113   -23.4327     5.7615     6.4252  -999.2500
  182.5000   129.4389     8.3684     2.3628    -0.0378     0.1996  -999.2500   107.7123   -23.2629     5.1168     5.4600    50.7727
  183.0000   123.7993     8.3661     2.3437    -0.0328     0.1966  -999.2500   108.7133   -24.1947     4.5445     4.6423    20.8883
  183.5000   119.5078     8.3638     2.3212    -0.0041     0.2052  -999.2500   110.0937   -25.3829     4.0363     3.9466    11.5309
  184.0000   116.8345     8.3615     2.2870     0.0150     0.2178  -999.2500   111.6783   -26.5867     3.5847     3.3537    10.6573
  184.5000   115.3189     8.3592     2.2543     0.0249     0.2384  -999.2500   115.5198   -27.2918     3.1831     2.8318     9.6969
  185.0000   113.2731     8.3568     2.2382     0.0349     0.2630  -999.2500   119.2280   -27.8673     2.8280     2.8386     8.8231
  185.5000   108.2285     8.3583     2.2606     0.0449     0.2639  -999.2500   122.9363   -29.0860     2.6594     2.6594     7.3025
  186.0000   103.2076     8.3627     2.3153     0.0547     0.2118  -999.2500   126.6445   -30.2766     2.6109     2.6658     5.8090
  186.5000   104.2847     8.3671     2.3712     0.0619     0.1800  -999.2500   128.1618   -30.9492     2.6102     2.7068     5.8090
  187.0000   106.0136     8.3714     2.3725     0.0613     0.1908  -999.2500   126.2107   -30.6741     2.6113     2.7485     6.7798
  187.5000   107.8158     8.3758     2.3591     0.0498     0.1816  -999.2500   122.0702   -30.4141     2.5858     2.9054     7.6285
  188.0000   107.1397     8.3802     2.3587     0.0359     0.2148     0.1709   118.2158   -30.1525     2.8551     3.1890     8.2376
  188.5000   105.2494     8.3846     2.4031     0.0117     0.2437     0.1519   115.5853   -29.8913     3.2569     3.5710     8.0861
  189.0000   103.5384     8.3890     2.4186    -0.0005     0.2421     0.1523   114.6915   -29.6302     3.7151     3.9988     8.0135
  189.5000   105.4761     8.3933     2.4256    -0.0021     0.2433     0.1527   114.0245   -29.3711     4.2378     4.4778     8.6526
  190.0000   106.7879     8.3977     2.4324    -0.0037     0.2405     0.1488   112.1526   -29.1963     4.7973     5.0142     9.5933
  190.5000   107.1564     8.4021     2.4321    -0.0055     0.2597     0.1495   109.2724   -29.1733     5.1834     5.6149    10.2748
  191.0000   108.7072     8.4065     2.4295    -0.0088     0.2493     0.1471   107.0623   -29.1476     5.6005     6.0049    10.2863
  191.5000   110.7314     8.4108     2.4276    -0.0124     0.2605     0.1507   106.5796   -29.1224     6.0823     6.1725    10.2978
  192.0000   112.7710     8.4153     2.4499     0.0119     0.2535     0.1367   107.3577   -29.0971     6.1346     6.3447    10.3093
  192.5000   112.3285     8.4184     2.4736     0.0366     0.2485     0.1146   108.0819   -29.0719     6.1911     6.5217    10.3209
  193.0000   110.3732     8.4214     2.4865     0.0375     0.2585     0.1250   108.1347   -29.0465     6.2523     6.6068    10.3324
  193.5000   108.2053     8.4245     2.4715     0.0386     0.2689     0.1150   107.9635   -29.0219     6.0392     6.3443    10.3436
  194.0000   106.2615     8.4275     2.4432     0.0406     0.2663     0.1389   107.7133   -28.9037     5.8177     6.0831    10.3554
  194.5000   106.6235     8.4306     2.4138     0.0529     0.2639     0.1625   107.4630   -28.7117     5.6042     5.8326    10.3652
  195.0000   107.6748     8.4336     2.4068     0.0652     0.2643     0.1509   107.8032   -28.5193     5.3987     5.5925     9.9282
  195.5000   108.7443     8.4367     2.4271     0.0677     0.2637     0.1618   108.7168   -28.3268     5.2006     5.3622     8.9310
  196.0000   108.6592     8.4397     2.4475     0.0588     0.2597     0.1424   111.5573   -28.1344     5.0442     5.2267     7.7866
  196.5000   108.1750     8.4428     2.4476     0.0509     0.2661     0.1359   114.0097   -27.9419     4.9898     5.1278     7.8052
  197.0000   108.9411     8.4458     2.4474     0.0438     0.2644     0.1381   114.9942   -27.7497     4.9394     5.0609     7.8664
  197.5000   109.8270     8.4489     2.4621     0.0461     0.2709     0.1395   114.9431   -27.5583     4.8764     5.0854     7.7147
  198.0000   109.0757     8.4519     2.4769     0.0482     0.2621     0.1246   114.0839   -27.3356     5.0146     5.3134     7.4454
  198.5000   108.1618     8.4551     2.4738     0.0402     0.2533     0.1210   113.0829   -27.0471     5.1849     5.5517     7.6206
  199.0000   109.4234     8.4577     2.4708     0.0319     0.2555     0.1226   112.1938   -26.7590     5.4355     5.8007     8.0135
  199.5000   110.8406     8.4604     2.4765     0.0287     0.2541     0.1243   111.3179   -26.4718     5.6984     6.0608     7.9361
  200.0000   111.9828     8.4631     2.4821     0.0257     0.2547     0.1148   110.4421   -26.1834     5.9740     6.3326     7.8957
  200.5000   112.8585     8.4658     2.4840     0.0225     0.2447     0.1191   109.4805   -25.7940     6.2629     6.6165     7.8716
  201.0000   109.5562     8.4685     2.4800     0.0324     0.2470     0.1180   108.3635   -25.2949     6.5657     6.9133     8.3935
  201.5000   106.2294     8.4712     2.4759     0.0524     0.2459     0.1200   107.1255   -24.7960     6.8832     7.2233     8.8225
  202.0000   108.6884     8.4739     2.4717     0.0249     0.2381     0.1226   105.8874   -24.2813     7.1032     7.5488     9.0993
  202.5000   114.2654     8.4751     2.4750    -0.0283     0.2361     0.1178   104.7120   -23.9679     7.3521     7.7956     9.2841
  203.0000   115.5533     8.4752     2.4797    -0.0275     0.2397     0.1200   103.9860   -23.6548     7.6103     7.7978     9.2612
