~VERSION INFORMATION
 VERS.                2.0:   CWLS LOG ASCII STANDARD - VERSION 2.0
 WRAP.                 NO:   ONE LINE PER DEPTH STEP
~WELL INFORMATION
#MNEM.UNIT      DATA TYPE    INFORMATION
#----------   ------------   ------------------------------
 STRT.F           26.0000:   START DEPTH
 STOP.F          535.5000:   STOP DEPTH
 STEP.F            0.5000:   STEP LENGTH
 NULL.          -999.2500:   NO VALUE
 COMP. BROWN JOHN E&C INC:   COMPANY
 WELL.       NPR 86 #11-3:   WELL
 FLD .             TEAPOT:   FIELD
 LOC .       S3 T38N R78W:   LOCATION
 CNTY.            NATRONA:   COUNTY
 STAT.            WYOMING:   STATE
 CTRY. UNITED STATES OF AMERICA:   COUNTRY
 SRVC.       Schlumberger:   SERVICE COMPANY
 DATE.        21-SEP-1990:   LOGDATE
 API .       490251130800:   API NUMBER
~CURVE INFORMATION
#MNEM.UNIT       API CODE    CURVE DESCRIPTION
#----------   ------------   ------------------------------
 DEPT.F                  :   
 ILD .OHMM   07 120 46 00:   INDUCTION LOG DEEP
 ILM .OHMM   07 120 44 00:   INDUCTION LOG MEDIUM
 GRD .GAPI   45 310 01 00:   GAMMA RAY FROM DENSITY LOG
 CALD.IN     45 280 60 00:   CALIPER
 DRHO.G/C3   45 356 01 00:   DENSITY CORRECTION
 DPHI.DEC    45 890 00 00:   DENSITY POROSITY
 RHOB.G/C3   45 350 01 00:   BULK DENSITY
~PARAMETER INFORMATION
#MNEM.UNIT          VALUE    DESCRIPTION
#----------   ------------   ------------------------------
 PD  .                 GL:   PERMANENT DATUM
 EPD .F              5144:   ELEVATION PERMANENT DATUM
 LMF .                 KB:   LOG MEASURED FROM
 DAPD.F                10:   FEET ABOVE PERMANENT DATUM
 DMF .                 KB:   DRILLING MEASURED FROM
 EKB .F              5154:   KELLING BUSHING
 EDF .F              5153:   DRILLING FLOOR
 EGL .F              5144:   GROUND LEVEL
 DATE.            9-21-90:   RUN DATE
 RUN .                  1:   RUN NUMBER
 DD  .F               540:   DEPTH DRILLER
 DL  .F               539:   DEPTH LOGGER
 BLI .F               533:   BOTTOM LOG INTERVAL
 TLI .F                49:   TOP LOG INTERVAL
 CS  .IN            8.625:   CASING SIZE
 CBD .F                50:   CASING BOTTOM DRILLER
 CBL .F                48:   CASING BOTTOM LOGGER
 BS  .IN            7.875:   BIT SIZE
 BSD .F               540:   BIT SIZE AT DEPTH
 DFT .                AIR:   DRILLING FLUID TYPE
 TCS .HRS            0315:   TIME CURCULATED STOPPED
 TLAB.HRS            0409:   TIME LOGGER AT BOTTOM
 LUN .               5882:   LOGGING UNIT NUMBER
 LUL .               CODY:   LOGGING UNIT LOCATION
 ENGI.          M. FISHER:   RECORDING ENGINEER
 WITN.          G. STRONG:   WITNESSED BY
 CLNT.            A2DTECH:   CLIENT CODE
 ORIG.   2" 2.5" 5" PRINT:   ORIGIN OF DATA
 UWI .       490251130800:   UNIQUE WELL ID
 DICO. A2D Technologies, Inc.:   DIGITIZING COMPANY
~OTHER INFORMATION
~A   DEPT      ILD        ILM         GRD      CALD       DRHO       DPHI       RHOB   
# ...
  435.5000    27.8963    27.9475    83.9352     7.7102    -0.0042     0.1775     2.2311
  436.0000    27.5240    27.2724    86.4252     7.7119    -0.0070     0.1723     2.2503
  436.5000    27.1567    26.3990    86.0197     7.7135    -0.0108     0.1669     2.2693
  437.0000    26.7943    26.4034    85.2349     7.7152    -0.0122     0.1679     2.2660
  437.5000    26.4367    25.9372    86.2372     7.7168    -0.0130     0.1696     2.2602
  438.0000    26.0541    25.5824    88.7796     7.7185    -0.0130     0.1705     2.2575
  438.5000    25.5686    25.2077    90.5537     7.7201    -0.0123     0.1705     2.2561
  439.0000    24.9754    25.1109    88.6683     7.7217    -0.0110     0.1709     2.2546
  439.5000    25.1679    24.9800    86.7984     7.7234    -0.0097     0.1713     2.2531
  440.0000    25.5184    24.8498    87.0253     7.7250    -0.0083     0.1700     2.2564
  440.5000    25.8738    24.7453    88.6184     7.7267    -0.0070     0.1689     2.2603
  441.0000    26.1585    25.0392    89.5597     7.7283    -0.0082     0.1716     2.2514
  441.5000    25.6124    25.1649    88.1566     7.7300    -0.0099     0.1745     2.2387
  442.0000    25.4558    25.2845    86.7514     7.7316    -0.0100     0.1776     2.2291
  442.5000    25.3001    25.4421    85.1585     7.7332    -0.0077     0.1731     2.2463
  443.0000    25.1454    25.2219    84.9008     7.7349    -0.0045     0.1681     2.2651
  443.5000    24.9917    24.8946    86.4776     7.7365    -0.0030     0.1629     2.2841
  444.0000    25.2077    24.5716    88.2111     7.7382    -0.0036     0.1645     2.2833
  444.5000    24.9754    24.2822    89.9619     7.7398    -0.0048     0.1675     2.2670
  445.0000    24.5173    24.2074    89.2249     7.7415    -0.0060     0.1709     2.2548
  445.5000    24.2647    24.1329    88.1182     7.7431    -0.0069     0.1709     2.2521
  446.0000    24.1888    24.0585    87.6686     7.7449    -0.0081     0.1696     2.2569
  446.5000    24.1131    23.9844    90.1596     7.7461    -0.0080     0.1683     2.2626
  447.0000    24.0676    23.9105    92.9080     7.7187    -0.0076     0.1681     2.2636
  447.5000    24.1997    23.8369    95.7663     7.6882    -0.0044     0.1690     2.2603
  448.0000    24.2948    23.7634    96.2399     7.6883    -0.0012     0.1696     2.2567
  448.5000    24.3901    23.6902    93.7841     7.6906     0.0006     0.1677     2.2635
  449.0000    24.4859    23.6173    91.0681     7.6928     0.0024     0.1643     2.2758
  449.5000    24.5173    23.5446    90.0809     7.6949     0.0040     0.1601     2.3000
  450.0000    24.0340    23.4728    92.4153     7.6970     0.0036     0.1521     2.3243
  450.5000    23.7121    23.4079    95.7852     7.6991     0.0027     0.1424     2.3543
  451.0000    23.3214    23.2050    98.5866     7.7012     0.0022     0.1282     2.4297
  451.5000    22.9105    22.9874    95.6986     7.7033     0.0037     0.1143     2.4662
  452.0000    22.5073    22.7673    92.7185     7.7054     0.0047     0.1019     2.4842
  452.5000    22.1134    22.0124    91.9916     7.7075     0.0016     0.1160     2.4485
  453.0000    21.7335    21.2797    93.7990     7.7096    -0.0014     0.1289     2.4010
  453.5000    20.9265    20.5713    95.3512     7.7117    -0.0045     0.1429     2.3525
  454.0000    20.1774    19.8866    95.7664     7.7138    -0.0074     0.1529     2.3258
  454.5000    19.6331    19.7502    94.9997     7.7159    -0.0100     0.1578     2.3028
  455.0000    19.6269    19.6568    95.6804     7.7180    -0.0100     0.1637     2.2810
  455.5000    19.8277    19.5638    99.6471     7.7201    -0.0100     0.1637     2.2810
  456.0000    19.9993    19.4713   104.1294     7.7222    -0.0100     0.1603     2.2963
  456.5000    19.7936    19.3793   105.5480     7.7244    -0.0083     0.1517     2.3233
  457.0000    19.5431    19.2876   104.0097     7.7263    -0.0051     0.1449     2.3508
  457.5000    19.1429    19.1006   101.9211     7.7142    -0.0019     0.1417     2.3644
  458.0000    18.7541    18.8371    99.4308     7.7007     0.0012     0.1422     2.3621
  458.5000    18.3728    18.5755    95.4521     7.6873     0.0041     0.1429     2.3587
  459.0000    17.9994    18.4003    92.5518     7.6890     0.0030     0.1412     2.3640
  459.5000    17.6322    17.3837    90.7724     7.6918     0.0018     0.1390     2.3737
  460.0000    17.3105    16.9304    90.8532     7.6946     0.0001     0.1367     2.3833
  460.5000    17.0485    16.9304    92.7480     7.6973    -0.0016     0.1347     2.3915
  461.0000    16.7922    16.7337    93.6525     7.7000    -0.0033     0.1329     2.3964
  461.5000    16.5396    16.5390    94.2698     7.7027    -0.0049     0.1310     2.4014
  462.0000    16.2906    16.3469    95.0047     7.7054    -0.0040     0.1300     2.4066
  462.5000    16.0759    16.1571    96.9050     7.7066    -0.0030     0.1287     2.4124
  463.0000    15.8955    15.9696    98.0866     7.7066    -0.0030     0.1275     2.4183
  463.5000    15.7171    15.7842    95.6971     7.7066    -0.0020     0.1263     2.4244
  464.0000    15.5408    15.6009    93.3388     7.7066    -0.0020     0.1258     2.4256
  464.5000    15.3664    15.4198    90.9427     7.7066    -0.0020     0.1258     2.4256
  465.0000    15.1940    15.2408    90.0173     7.7066    -0.0010     0.1258     2.4259
  465.5000    15.0235    15.0639    89.9980     7.7066     0.0010     0.1215     2.4386
  466.0000    14.8549    14.8890    89.1533     7.7066     0.0044     0.1171     2.4522
  466.5000    14.7356    14.7158    88.1142     7.7066     0.0079     0.1126     2.4644
  467.0000    14.5946    14.5464    88.6717     7.7066     0.0061     0.1106     2.4674
  467.5000    14.4665    14.3851    90.5378     7.7066     0.0037     0.1086     2.4706
  468.0000    14.3395    14.2344    92.3584     7.7066     0.0013     0.1066     2.4739
  468.5000    14.2136    14.0853    93.0419     7.7066    -0.0011     0.1069     2.4735
  469.0000    14.0889    13.9374    95.2124     7.7066    -0.0035     0.1109     2.4669
  469.5000    13.9652    13.7919    97.7965     7.7066    -0.0040     0.1149     2.4603
  470.0000    13.8426    13.6842   100.2822     7.7066    -0.0040     0.1158     2.4589
  470.5000    13.6838    13.8095    99.3488     7.7066    -0.0047     0.1116     2.4664
  471.0000    13.7424    13.9105    98.2030     7.7066    -0.0057     0.1097     2.4743
  471.5000    13.8276    14.0123    98.6152     7.7066    -0.0066     0.1129     2.4670
  472.0000    13.9134    14.1115    99.3891     7.7066    -0.0076     0.1169     2.4561
  472.5000    13.9996    14.1939   100.1698     7.7066    -0.0090     0.1209     2.4450
  473.0000    14.0691    13.9558   100.8108     7.7066    -0.0073     0.1226     2.4407
  473.5000    13.9407    13.8461   101.1427     7.7066    -0.0035     0.1206     2.4420
  474.0000    13.8345    13.7349   101.7114     7.7066     0.0002     0.1174     2.4504
  474.5000    13.7292    13.6245   102.3026     7.7066     0.0040     0.1142     2.4587
  475.0000    13.6247    13.5150   101.8952     7.7066     0.0077     0.1110     2.4677
  475.5000    13.5209    13.4065   101.2938     7.7066     0.0115     0.1051     2.4781
  476.0000    13.4179    13.2987   101.3371     7.7066     0.0129     0.0993     2.4885
  476.5000    13.3158    13.1919   104.3644     7.7066     0.0111     0.0958     2.4912
  477.0000    13.2144    13.0859   106.0098     7.7066     0.0092     0.0983     2.4882
  477.5000    13.1137    12.9998   105.3495     7.7066     0.0073     0.1002     2.4851
  478.0000    13.0139    12.8931   104.4741     7.7066     0.0070     0.1002     2.4851
  478.5000    12.9148    12.7873   106.4356     7.7066     0.0071     0.0982     2.4881
  479.0000    12.8252    12.6823   109.9302     7.7066     0.0041     0.0978     2.4884
  479.5000    12.6536    12.5808   113.4350     7.7066     0.0004     0.1008     2.4825
  480.0000    12.4981    12.5002   114.5373     7.7066    -0.0032     0.1052     2.4764
  480.5000    12.3442    12.4201   111.1734     7.7066    -0.0061     0.1086     2.4714
