~VERSION INFORMATION
 VERS.                2.0:   CWLS LOG ASCII STANDARD - VERSION 2.0
 WRAP.                 NO:   ONE LINE PER DEPTH STEP
~WELL INFORMATION
#MNEM.UNIT      DATA TYPE    INFORMATION
#----------   ------------   ------------------------------
 STRT.F            7.0000:   START DEPTH
 STOP.F          690.0000:   STOP DEPTH
 STEP.F            0.5000:   STEP LENGTH
 NULL.          -999.2500:   NO VALUE
 COMP. FENIX & SCISSON INC:   COMPANY
 WELL.  NPR#3 #26-46 SX11:   WELL
 FLD .             TEAPOT:   FIELD
 LOC .      S11 T38N R78W:   LOCATION
 CNTY.            NATRONA:   COUNTY
 STAT.            WYOMING:   STATE
 CTRY. UNITED STATES OF AMERICA:   COUNTRY
 SRVC.      Dresser Atlas:   SERVICE COMPANY
 DATE.        13-AUG-1985:   LOGDATE
 API .       490251083600:   API NUMBER
~CURVE INFORMATION
#MNEM.UNIT       API CODE    CURVE DESCRIPTION
#----------   ------------   ------------------------------
 DEPT.F                  :   
 DPHI.DEC    45 890 12 00:   DENSITY POROSITY SANDSTONE
 NPHI.DEC    42 890 03 00:   NEUTRON POROSITY SANDSTONE
 RHOB.G/C3   45 350 01 00:   BULK DENSITY
 CORR.G/C3   45 356 01 00:   DENSITY CORRECTION
 CALD.IN     45 280 60 00:   CALIPER
 SPR .MV     07 010 01 00:   SPONTANEOUS POTENTIAL
 ILD .OHMM   07 120 46 00:   INDUCTION LOG DEEP
 ILM .OHMM   07 120 44 00:   INDUCTION LOG MEDIUM
 SFL .OHMM   07 220 01 00:   SHALLOW FOCUSED LOG RESISTIVITY
 GRR .GAPI   07 310 01 00:   GAMMA RAY FROM RES. LOG.
~PARAMETER INFORMATION
#MNEM.UNIT          VALUE    DESCRIPTION
#----------   ------------   ------------------------------
 PD  .                 GL:   PERMANENT DATUM
 EPD .F              5193:   ELEVATION PERMANENT DATUM
 LMF .                 KB:   LOG MEASURED FROM
 DAPD.F                 5:   FEET ABOVE PERMANENT DATUM
 DMF .                 KB:   DRILLING MEASURED FROM
 EKB .F              5198:   KELLING BUSHING
 EGL .F              5193:   GROUND LEVEL
 DATE.          8-13-1985:   RUN DATE
 RUN .                  8:   RUN NUMBER
 DD  .F               664:   DEPTH DRILLER
 BLI .F               635:   BOTTOM LOG INTERVAL
 TLI .F               340:   TOP LOG INTERVAL
 CBL .F               340:   CASING BOTTOM LOGGER
 BS  .IN             8.75:   BIT SIZE
 BSD .F               664:   BIT SIZE AT DEPTH
 DFT .          KPC WATER:   DRILLING FLUID TYPE
 LUN .           HL- 6274:   LOGGING UNIT NUMBER
 LUL .           GILLETTE:   LOGGING UNIT LOCATION
 ENGI.             RAUTIO:   RECORDING ENGINEER
 WITN.            SCHULTE:   WITNESSED BY
 CLNT.            A2DTECH:   CLIENT CODE
 ORIG.        2" 5" PRINT:   ORIGIN OF DATA
 UWI .       490251083600:   UNIQUE WELL ID
 DICO. A2D Technologies, Inc.:   DIGITIZING COMPANY
~OTHER INFORMATION
~A    DEPT    DPHI       NPHI       RHOB       CORR       CALD         SPR       ILD        ILM        SFL        GRR   
# ...
  409.0000     0.2569     0.3545     2.2514     0.2025     6.0457   -11.5231     4.2790     4.5086     6.5331   104.4272
  409.5000     0.2585     0.3472     2.2497     0.1970     6.0468   -11.5231     4.0712     4.2318     6.2658   106.3873
  410.0000     0.2599     0.3443     2.2484     0.1916     6.0478   -11.5229     4.0712     3.9970     5.5772   108.9024
  410.5000     0.2572     0.3486     2.2489     0.1852     6.0489   -11.5229     4.2151     3.8413     4.8328   108.8604
  411.0000     0.2547     0.3372     2.2535     0.1845     6.0499   -11.5244     4.3142     3.7476     4.3822   109.0677
  411.5000     0.2508     0.3217     2.2593     0.1903     6.0509   -11.6108     4.4156     4.0900     5.2632   109.8045
  412.0000     0.2435     0.3181     2.2684     0.1960     6.0520   -11.8263     4.6006     4.3707     6.7814   110.5344
  412.5000     0.2368     0.3224     2.2774     0.2012     6.0530   -12.0400     4.8684     4.6617     7.7882   111.2692
  413.0000     0.2369     0.3286     2.2850     0.1995     6.0540   -12.2549     5.1517     4.9642     7.8965   111.9943
  413.5000     0.2410     0.3333     2.2806     0.1944     6.0551   -12.4052     5.4525     5.2863     7.8130   111.8791
  414.0000     0.2452     0.3380     2.2759     0.1876     6.0561   -12.5247     5.7743     5.5922     7.7271   110.1016
  414.5000     0.2465     0.3426     2.2717     0.1830     6.0572   -12.6418     5.9005     5.7385     7.6420   108.3122
  415.0000     0.2362     0.3405     2.2877     0.1956     6.0582   -12.6808     6.0291     5.8885     7.5580   107.0155
  415.5000     0.2137     0.3437     2.3061     0.2004     6.0592   -12.5247     6.1594     6.0425     7.5414   107.9012
  416.0000     0.2085     0.3498     2.3246     0.2022     6.0603   -12.3728     6.2041     6.1231     7.7596   109.1862
  416.5000     0.2145     0.3595     2.3313     0.2040     6.0613   -12.2215     6.2486     6.1561     8.1287   110.5242
  417.0000     0.2253     0.3575     2.3076     0.2030     6.0624   -12.1038     6.2934     6.1892     8.2069   109.1349
  417.5000     0.2272     0.3537     2.3008     0.1949     6.0634   -11.9845     6.3386     6.2225     8.2243   108.7695
  418.0000     0.2242     0.3467     2.3017     0.1946     6.0645   -11.8640     6.3904     6.2561     8.2418   108.7530
  418.5000     0.2192     0.3378     2.3089     0.2017     6.0655   -11.7431     6.3793     6.2738     8.2591   108.1590
  419.0000     0.2159     0.3352     2.3196     0.2060     6.0665   -11.7229     6.3664     6.2502     8.2682   108.3438
  419.5000     0.2150     0.3371     2.3218     0.2028     6.0676   -11.7231     6.3535     6.2340     8.2403   110.0655
  420.0000     0.2170     0.3410     2.3232     0.1994     6.0686   -11.7285     6.3407     6.2180     8.2184   111.7684
  420.5000     0.2210     0.3496     2.3171     0.1921     6.0697   -11.9310     6.3279     6.2019     8.1966   111.3600
  421.0000     0.2240     0.3512     2.3088     0.1942     6.0707   -12.3010     6.3151     6.1859     8.1749   108.1510
  421.5000     0.2265     0.3540     2.3052     0.2001     6.0717   -11.8698     6.3024     6.1700     8.1531   107.2580
  422.0000     0.2299     0.3591     2.3011     0.1994     6.0728   -11.4257     6.2897     6.1552     8.1314   108.7467
  422.5000     0.2339     0.3800     2.2932     0.1946     6.0738   -11.2799     6.2745     6.1421     8.1179   110.6037
  423.0000     0.2382     0.3721     2.2853     0.1887     6.0749   -11.2181     6.2932     6.1291     8.1350   112.2647
  423.5000     0.2386     0.3608     2.2845     0.1872     6.0759   -11.1627     6.3191     6.1162     8.1481   112.2553
  424.0000     0.2369     0.3530     2.2843     0.1858     6.0770   -11.2674     6.3450     6.1030     8.1611   110.8082
  424.5000     0.2315     0.3527     2.2939     0.1865     6.0780   -11.6754     6.3711     6.1347     8.1742   105.7499
  425.0000     0.2223     0.3546     2.3072     0.1930     6.0790   -11.9266     6.3975     6.1892     8.1914   105.3125
  425.5000     0.2114     0.3600     2.3208     0.1994     6.0801   -11.9237     6.4244     6.2442     8.1662   107.8797
  426.0000     0.2080     0.3651     2.3242     0.2020     6.0811   -11.9257     6.4494     6.3005     8.1230   110.5385
  426.5000     0.2142     0.3702     2.3236     0.2038     6.0821   -11.8636     6.2925     6.3315     8.0800   110.7922
  427.0000     0.2157     0.3752     2.3143     0.2055     6.0832   -11.7907     6.1422     6.2228     8.0372   108.4699
  427.5000     0.2132     0.3863     2.3040     0.2079     6.0842   -11.7231     5.9956     6.1468     7.9946   108.8838
  428.0000     0.2064     0.3808     2.3021     0.2101     6.0853   -11.7651     5.8525     6.0721     7.9523   111.2649
  428.5000     0.1875     0.3526     2.3296     0.2178     6.0863   -11.8139     5.7223     5.9853     7.9102   113.6195
  429.0000     0.1829     0.3201     2.3586     0.2202     6.0874   -11.8628     5.6142     5.8933     7.4176   113.2532
  429.5000     0.1872     0.3185     2.3709     0.2197     6.0878   -11.9162     5.5156     5.8028     6.7593   110.6479
  430.0000     0.1928     0.3258     2.3600     0.2141     6.0880   -11.7580     5.3988     5.7136     6.5090   110.1928
  430.5000     0.1973     0.3356     2.3530     0.1971     6.0883   -11.5289     5.2708     5.6258     7.5414   114.9047
  431.0000     0.1891     0.3475     2.3625     0.2009     6.0885   -11.3184     5.1443     5.5395     7.5114   120.0786
  431.5000     0.1788     0.3476     2.3769     0.2092     6.0887   -11.1047     5.0211     5.4548     7.4724   123.5392
  432.0000     0.1714     0.3476     2.3910     0.2176     6.0890   -10.8910     4.8938     5.3660     7.6831   123.1814
  432.5000     0.1763     0.3535     2.3909     0.2166     6.0892   -10.6993     4.8489     5.0165     7.8290   122.0875
  433.0000     0.1845     0.3631     2.3761     0.2074     6.0894   -10.6043     4.8698     4.6704     7.1331   121.0085
  433.5000     0.1924     0.3727     2.3649     0.1993     6.0897   -10.5073     4.9390     4.4257     5.9656   119.7724
  434.0000     0.1988     0.3717     2.3538     0.1913     6.0899   -10.4088     5.1241     4.3822     4.8829   118.4745
  434.5000     0.2063     0.3773     2.3431     0.1810     6.0902   -10.3330     5.1241     4.5781     4.9060   117.1802
  435.0000     0.2144     0.3879     2.3268     0.1747     6.0904   -10.5793     5.0307     4.7847     4.9390   116.2596
  435.5000     0.2154     0.3984     2.3215     0.1685     6.0907   -10.8268     5.2088     5.0006     8.2683   117.0094
  436.0000     0.2000     0.4023     2.3317     0.1648     6.0909   -11.0726     5.4396     5.2263     7.8659   117.8778
  436.5000     0.1782     0.4006     2.3703     0.1891     6.0911   -11.3181     5.6807     5.3872     7.6752   116.1174
  437.0000     0.1649     0.3988     2.4027     0.1947     6.0914   -11.5606     5.8269     5.5365     7.6479   113.3437
  437.5000     0.1674     0.3944     2.3987     0.1894     6.0916   -11.7177     6.0419     5.6899     7.6111   110.5534
  438.0000     0.1705     0.3758     2.3949     0.1836     6.0918   -11.6546     6.1051     5.8198     7.6608   108.0683
  438.5000     0.1640     0.3587     2.4013     0.1918     6.0921   -11.5944     5.7068     5.9190     7.7379   108.3468
  439.0000     0.1598     0.3428     2.4108     0.1947     6.0923   -11.5289     5.3564     5.9917     7.8305   112.0750
  439.5000     0.1549     0.3281     2.4190     0.1967     6.0926   -11.7251     5.0276     5.5481     7.9104   113.3004
  440.0000     0.1491     0.3126     2.4272     0.1978     6.0928   -11.9778     4.7189     5.0245     8.0431   111.5926
  440.5000     0.1459     0.3051     2.4356     0.2336     6.0931   -12.2379     4.6142     4.5504     6.6904   109.8508
  441.0000     0.1497     0.3062     2.4314     0.2352     6.0933   -12.1479     4.5813     4.2383     5.8048   107.2270
  441.5000     0.1604     0.3104     2.4128     0.2221     6.0935   -11.8810     4.5465     4.0712     5.0365   102.2832
  442.0000     0.1711     0.3147     2.4018     0.2075     6.0938   -11.6075     4.5465     4.0712     4.6737    99.6387
