~VERSION INFORMATION
 VERS.                2.0:   CWLS LOG ASCII STANDARD - VERSION 2.0
 WRAP.                 NO:   ONE LINE PER DEPTH STEP
~WELL INFORMATION
#MNEM.UNIT      DATA TYPE    INFORMATION
#----------   ------------   ------------------------------
 STRT.F         1000.5000:   START DEPTH
 STOP.F         2590.0000:   STOP DEPTH
 STEP.F            0.5000:   STEP LENGTH
 NULL.          -999.2500:   NO VALUE
 COMP. LAWRENCE/ALLISON INC:   COMPANY
 WELL.    LAWENCE #14x-10:   WELL
 FLD .               NONE:   FIELD
 LOC .      S10 T38N R78W:   LOCATION
 CNTY.            NATRONA:   COUNTY
 STAT.            WYOMING:   STATE
 CTRY. UNITED STATES OF AMERICA:   COUNTRY
 SRVC.            Unknown:   SERVICE COMPANY
 DATE.        13-SEP-1988:   LOGDATE
 API .       490251137000:   API NUMBER
~CURVE INFORMATION
#MNEM.UNIT       API CODE    CURVE DESCRIPTION
#----------   ------------   ------------------------------
 DEPT.F                  :   
 ROP .MIN/FT 91 810 01 00:   RATE OF DRILLING PENETRATION
 TGAS.UNITS  91 830 01 00:   TOTAL GAS FROM HOTWIRE
~PARAMETER INFORMATION
#MNEM.UNIT          VALUE    DESCRIPTION
#----------   ------------   ------------------------------
 EKB .F              5278:   KELLING BUSHING
 EGL .F              5268:   GROUND LEVEL
 DATE.         09-13-1988:   RUN DATE
 RUN .                  1:   RUN NUMBER
 DD  .F              2590:   DEPTH DRILLER
 BLI .F              2590:   BOTTOM LOG INTERVAL
 TLI .F              1000:   TOP LOG INTERVAL
 CS  .IN                7:   CASING SIZE
 CBD .F               991:   CASING BOTTOM DRILLER
 BSD .F              2590:   BIT SIZE AT DEPTH
 ENGI. R. HUSK D. PETERSON:   RECORDING ENGINEER
 CLNT.            A2DTECH:   CLIENT CODE
 ORIG.           5" PRINT:   ORIGIN OF DATA
 UWI .       490251137000:   UNIQUE WELL ID
 DICO. A2D Technologies, Inc.:   DIGITIZING COMPANY
~OTHER INFORMATION
~A  DEPT       ROP         TGAS 
# ...
 1122.0000     0.5270     3.7277
 1122.5000     0.4979     3.7067
 1123.0000     0.4857     3.6857
 1123.5000     0.4645     3.6647
 1124.0000     0.4482     3.6437
 1124.5000     0.4459     3.6227
 1125.0000     0.4356     3.6017
 1125.5000     0.4253     3.5807
 1126.0000     0.4149     3.5597
 1126.5000     0.4086     3.5387
 1127.0000     0.4091     3.5177
 1127.5000     0.4096     3.4966
 1128.0000     0.4101     3.4756
 1128.5000     0.4106     3.4546
 1129.0000     0.4112     3.4336
 1129.5000     0.4117     3.4126
 1130.0000     0.4123     3.3916
 1130.5000     0.4128     3.3706
 1131.0000     0.4133     3.3496
 1131.5000     0.4138     3.3286
 1132.0000     0.4144     3.3076
 1132.5000     0.4226     3.2866
 1133.0000     0.4421     3.2656
 1133.5000     0.4643     3.2446
 1134.0000     0.5012     3.2236
 1134.5000     0.5334     3.2026
 1135.0000     0.5673     3.1816
 1135.5000     0.6072     3.1606
 1136.0000     0.6367     3.1396
 1136.5000     0.6278     3.1186
 1137.0000     0.6189     3.0976
 1137.5000     0.6084     3.0765
 1138.0000     0.5974     3.0555
 1138.5000     0.5863     3.0345
 1139.0000     0.5752     3.0135
 1139.5000     0.5642     2.9925
 1140.0000     0.5531     2.9681
 1140.5000     0.5368     2.9503
 1141.0000     0.5179     2.9290
 1141.5000     0.4991     2.9078
 1142.0000     0.4802     2.8865
 1142.5000     0.4613     2.8652
 1143.0000     0.4425     2.8440
 1143.5000     0.4261     2.8227
 1144.0000     0.4225     2.8015
 1144.5000     0.4369     2.7802
 1145.0000     0.4537     2.7589
 1145.5000     0.4640     2.7377
 1146.0000     0.4792     2.7164
 1146.5000     0.4952     2.6951
 1147.0000     0.5055     2.6739
 1147.5000     0.5100     2.6526
 1148.0000     0.5095     2.6314
 1148.5000     0.5090     2.6101
 1149.0000     0.5020     2.5888
 1149.5000     0.4974     2.5676
 1150.0000     0.4757     2.5463
 1150.5000     0.4573     2.5250
 1151.0000     0.4535     2.5038
 1151.5000     0.4451     2.4825
 1152.0000     0.4257     2.4612
 1152.5000     0.4118     2.4400
 1153.0000     0.4090     2.4187
 1153.5000     0.3979     2.3975
 1154.0000     0.3868     2.3762
 1154.5000     0.3757     2.3549
 1155.0000     0.3752     2.3337
 1155.5000     0.3747     2.3124
 1156.0000     0.3636     2.2911
 1156.5000     0.3631     2.2699
 1157.0000     0.3626     2.2486
 1157.5000     0.3621     2.2273
 1158.0000     0.3616     2.2061
 1158.5000     0.3610     2.1848
 1159.0000     0.3617     2.1636
 1159.5000     0.3706     2.1423
 1160.0000     0.3735     2.1374
 1160.5000     0.3946     2.1670
 1161.0000     0.4181     2.1965
 1161.5000     0.4449     2.2260
 1162.0000     0.4609     2.2556
 1162.5000     0.4867     2.2851
 1163.0000     0.5003     2.3147
 1163.5000     0.5215     2.3442
 1164.0000     0.5465     2.3737
 1164.5000     0.5536     2.4050
 1165.0000     0.5294     2.4504
 1165.5000     0.5227     2.4958
 1166.0000     0.5123     2.5412
 1166.5000     0.4901     2.5866
 1167.0000     0.4625     2.6319
 1167.5000     0.4409     2.6773
 1168.0000     0.4355     2.7227
 1168.5000     0.4350     2.7681
 1169.0000     0.4410     2.8134
 1169.5000     0.4648     2.8588
 1170.0000     0.4757     2.9042
 1170.5000     0.4825     2.9496
 1171.0000     0.5004     2.9950
 1171.5000     0.5137     3.0403
 1172.0000     0.5240     3.0857
 1172.5000     0.5259     3.1311
 1173.0000     0.5464     3.1765
 1173.5000     0.5459     3.2219
 1174.0000     0.5454     3.2672
 1174.5000     0.5343     3.3126
 1175.0000     0.5232     3.3580
 1175.5000     0.5121     3.4034
 1176.0000     0.5116     3.4487
 1176.5000     0.5111     3.4941
 1177.0000     0.5000     3.5395
 1177.5000     0.4995     3.5849
 1178.0000     0.5095     3.6303
 1178.5000     0.5090     3.6756
 1179.0000     0.5072     3.7210
 1179.5000     0.4943     3.7664
 1180.0000     0.4739     3.8118
 1180.5000     0.4646     3.7588
 1181.0000     0.4618     3.7059
 1181.5000     0.4479     3.6529
 1182.0000     0.4284     3.6000
 1182.5000     0.4109     3.5471
 1183.0000     0.3745     3.4941
 1183.5000     0.3307     3.4412
 1184.0000     0.3139     3.3882
 1184.5000     0.3418     3.3353
 1185.0000     0.3673     3.2824
 1185.5000     0.3993     3.2294
 1186.0000     0.4214     3.1765
 1186.5000     0.4421     3.1235
 1187.0000     0.4741     3.0706
 1187.5000     0.4946     3.0176
 1188.0000     0.4989     2.9647
 1188.5000     0.4984     2.9118
 1189.0000     0.4979     2.8588
 1189.5000     0.4906     2.8059
 1190.0000     0.4792     2.7529
 1190.5000     0.4678     2.7000
 1191.0000     0.4640     2.6471
 1191.5000     0.4635     2.5941
 1192.0000     0.4549     2.5412
 1192.5000     0.4435     2.4882
 1193.0000     0.4090     2.4353
 1193.5000     0.4085     2.3824
 1194.0000     0.4080     2.3294
 1194.5000     0.4180     2.2765
 1195.0000     0.4492     2.2235
 1195.5000     0.4593     2.1706
 1196.0000     0.4905     2.1176
 1196.5000     0.4582     2.0647
 1197.0000     0.4467     2.0118
 1197.5000     0.4144     1.9588
 1198.0000     0.4016     1.9059
 1198.5000     0.3706     1.8529
 1199.0000     0.3567     1.8000
 1199.5000     0.3282     1.7471
 1200.0000     0.3277     1.6941
 1200.5000     0.3292     1.6701
 1201.0000     0.3418     1.6461
 1201.5000     0.3680     1.6220
 1202.0000     0.3996     1.5980
 1202.5000     0.3929     1.5740
 1203.0000     0.3740     1.5499
 1203.5000     0.3627     1.5259
 1204.0000     0.3552     1.5019
 1204.5000     0.3464     1.4778
 1205.0000     0.3286     1.4538
 1205.5000     0.3172     1.4298
 1206.0000     0.3108     1.4057
 1206.5000     0.3103     1.3817
 1207.0000     0.3097     1.3577
 1207.5000     0.3149     1.3336
 1208.0000     0.3312     1.3096
 1208.5000     0.3461     1.2856
 1209.0000     0.3629     1.2918
 1209.5000     0.3841     1.3482
 1210.0000     0.3982     1.4046
 1210.5000     0.4157     1.4610
 1211.0000     0.4293     1.5174
 1211.5000     0.4397     1.5737
 1212.0000     0.4418     1.6301
 1212.5000     0.4413     1.6865
 1213.0000     0.4301     1.7429
 1213.5000     0.4296     1.7992
 1214.0000     0.4291     1.8556
 1214.5000     0.4286     1.9120
 1215.0000     0.4175     1.9684
 1215.5000     0.4064     2.0247
 1216.0000     0.3953     2.0811
 1216.5000     0.3842     2.1375
 1217.0000     0.3833     2.1939
 1217.5000     0.3616     2.2503
 1218.0000     0.3503     2.3066
 1218.5000     0.3389     2.3630
 1219.0000     0.3263     2.4194
 1219.5000     0.3056     2.4758
 1220.0000     0.2960     2.5412
 1220.5000     0.2955     2.5714
 1221.0000     0.2949     2.6073
 1221.5000     0.2969     2.6432
 1222.0000     0.3045     2.6792
 1222.5000     0.3039     2.7151
 1223.0000     0.3033     2.7511
 1223.5000     0.3065     2.7870
 1224.0000     0.3168     2.8230
 1224.5000     0.3271     2.8589
 1225.0000     0.3330     2.8948
 1225.5000     0.3371     2.9308
 1226.0000     0.3573     2.9647
 1226.5000     0.3789     2.9007
 1227.0000     0.4001     2.8402
 1227.5000     0.4206     2.7796
 1228.0000     0.4370     2.7191
 1228.5000     0.4583     2.6585
 1229.0000     0.4797     2.5980
 1229.5000     0.4950     2.5374
 1230.0000     0.4969     2.4769
 1230.5000     0.4988     2.4163
 1231.0000     0.5008     2.3557
 1231.5000     0.5027     2.2952
 1232.0000     0.5046     2.2346
 1232.5000     0.5065     2.1741
 1233.0000     0.5085     2.1135
 1233.5000     0.5104     2.0530
 1234.0000     0.5123     1.9924
 1234.5000     0.5142     1.9319
 1235.0000     0.5162     1.8713
 1235.5000     0.5181     1.8107
 1236.0000     0.5200     1.7502
 1236.5000     0.5219     1.6896
 1237.0000     0.5240     1.6291
 1237.5000     0.5133     1.5685
 1238.0000     0.4921     1.5080
 1238.5000     0.4706     1.4474
 1239.0000     0.4601     1.3869
 1239.5000     0.4600     1.3263
 1240.0000     0.4587     1.2657
 1240.5000     0.4494     1.2048
 1241.0000     0.4400     1.1439
 1241.5000     0.4307     1.0830
 1242.0000     0.4214     1.0221
 1242.5000     0.4189     0.9612
 1243.0000     0.4226     0.9003
