~VERSION INFORMATION
 VERS.                2.0:   CWLS LOG ASCII STANDARD - VERSION 2.0
 WRAP.                 NO:   ONE LINE PER DEPTH STEP
~WELL INFORMATION
#MNEM.UNIT      DATA TYPE    INFORMATION
#----------   ------------   ------------------------------
 STRT.F           20.0000:   START DEPTH
 STOP.F          744.0000:   STOP DEPTH
 STEP.F            0.5000:   STEP LENGTH
 NULL.          -999.2500:   NO VALUE
 COMP. FENIX & SCISSON INCORP.:   COMPANY
 WELL.          SX #53-15:   WELL
 FLD .             TEAPOT:   FIELD
 LOC .      S15 T38N R78W:   LOCATION
 CNTY.            NATRONA:   COUNTY
 STAT.            WYOMING:   STATE
 CTRY. UNITED STATES OF AMERICA:   COUNTRY
 SRVC.              Welex:   SERVICE COMPANY
 DATE.        02-MAR-1977:   LOGDATE
 API .       490251030000:   API NUMBER
~CURVE INFORMATION
#MNEM.UNIT       API CODE    CURVE DESCRIPTION
#----------   ------------   ------------------------------
 DEPT.F                  :   
 SGRD.OHMM   07 220 05 00:   SHALLOW RESISTIVITY
 ILD .OHMM   07 120 46 00:   INDUCTION LOG DEEP
 ILM .OHMM   07 120 44 00:   INDUCTION LOG MEDIUM
 SPR .MV     07 010 01 00:   SPONTANEOUS POTENTIAL
 GRD .GAPI   45 310 01 00:   GAMMA RAY FROM DENSITY LOG
 CALD.IN     45 280 60 00:   CALIPER
 RHOB.G/C3   45 350 01 00:   BULK DENSITY
 DPHI.DEC    45 890 10 00:   DENSITY POROSITY SANDSTONE
 CORR.G/C3   45 356 01 00:   DENSITY CORRECTION
~PARAMETER INFORMATION
#MNEM.UNIT          VALUE    DESCRIPTION
#----------   ------------   ------------------------------
 PD  .                 GL:   PERMANENT DATUM
 EPD .F              5253:   ELEVATION PERMANENT DATUM
 LMF .                 GL:   LOG MEASURED FROM
 DMF .                 GL:   DRILLING MEASURED FROM
 EGL .F              5253:   GROUND LEVEL
 DATE.             3-2-77:   RUN DATE
 RUN .                  1:   RUN NUMBER
 DD  .F               750:   DEPTH DRILLER
 DL  .F               747:   DEPTH LOGGER
 BLI .F               745:   BOTTOM LOG INTERVAL
 TLI .F                44:   TOP LOG INTERVAL
 CS  .IN            8.625:   CASING SIZE
 CBD .F                40:   CASING BOTTOM DRILLER
 CBL .F                44:   CASING BOTTOM LOGGER
 BS  .IN            7.875:   BIT SIZE
 BSD .F               750:   BIT SIZE AT DEPTH
 DFT .           CHEM-GEL:   DRILLING FLUID TYPE
 MSS .          FLOW LINE:   MUD SAMPLE SOURCE
 RMS .OHMM           .425:   RESISTIVITY MUD SAMPLE
 MST .F                56:   MUD SAMPLE TEMPERATURE
 RMF .OHMM           .436:   RESISTIVITY MUD FILTRATE SAMPLE
 MFST.F                56:   MUD FILTRATE SAMPLE TEMPERATURE
 RMC .OHMM           .712:   RESISTIVITY MUD CAKE
 MCST.F                56:   MUD CAKE SAMPLE TEMPERATURE
 MFSS.           MEASURED:   MUD FILTRATE SAMPLE SOURCE
 MCSS.           MEASURED:   MUD CAKE SAMPLE SOURCE
 RMB .OHMM            .35:   RESISTIVITY MUD AT BHT
 BHT .F                68:   BOTTOM HOLE TEMPERATURE
 TCS .HRS               2:   TIME CURCULATED STOPPED
 MRT .F                68:   MAXIMUM RECORDED TEMPERATURE
 LUN .               8611:   LOGGING UNIT NUMBER
 LUL .           GILLETTE:   LOGGING UNIT LOCATION
 ENGI.          D. LAWSON:   RECORDING ENGINEER
 WITN.           S. BURKE:   WITNESSED BY
 CLNT.            A2DTECH:   CLIENT CODE
 ORIG.        2" 5" PRINT:   ORIGIN OF DATA
 UWI .       490251030000:   UNIQUE WELL ID
 DICO. A2D Technologies, Inc.:   DIGITIZING COMPANY
~OTHER INFORMATION
~A   DEPT     SGRD        ILD        ILM        SPR         GRD      CALD         RHOB       DPHI      CORR  
# ...
  385.0000    11.1584     7.3052     8.9102   -29.0863   114.1730     8.5111     2.4952     0.0910     0.0658
  385.5000    11.3509     7.3918     8.7080   -29.0848   114.7247     8.5117     2.4921     0.0936     0.0652
  386.0000    11.5619     7.4794     8.1694   -29.0833   115.6881     8.5124     2.4872     0.0960     0.0646
  386.5000    10.6422     7.5680     8.3059   -29.0818   116.3449     8.5130     2.4889     0.0981     0.0640
  387.0000    10.8275     7.6577     8.5390   -29.0802   116.5964     8.5136     2.4968     0.0886     0.0650
  387.5000    11.2080     7.7485     8.8275   -29.0788   116.1860     8.5143     2.5014     0.0875     0.0666
  388.0000    11.5619     7.8403     8.5309   -29.0772   117.0071     8.5149     2.4966     0.0942     0.0671
  388.5000    11.5619     7.9332     8.7851   -29.0757   119.1402     8.5155     2.4910     0.0942     0.0635
  389.0000    11.4599     8.0001     9.1609   -29.0742   122.1690     8.5162     2.4932     0.0910     0.0600
  389.5000    11.3470     8.0121     9.3547   -29.0727   123.5842     8.5168     2.4966     0.0920     0.0587
  390.0000    11.2553     8.0242     9.3337   -29.0712   123.4835     8.5175     2.4920     0.0943     0.0605
  390.5000    11.3509     8.0362     9.3176   -29.0697   120.6126     8.5181     2.4862     0.0966     0.0619
  391.0000    11.4463     8.0483     9.3015   -29.0682   117.8804     8.5187     2.4860     0.0956     0.0622
  391.5000    12.0651     8.0604     9.2855   -29.0667   118.1658     8.5194     2.4897     0.0938     0.0626
  392.0000    12.6275     8.0725     9.2695   -29.0652   119.0248     8.5200     2.4948     0.0910     0.0630
  392.5000    12.8482     8.0846     9.2535   -29.0637   120.4368     8.5206     2.4992     0.0882     0.0634
  393.0000    12.9149     8.0968     9.2375   -29.0622   124.1888     8.5213     2.5006     0.0888     0.0638
  393.5000    12.5794     8.1089     9.2216   -29.0607   128.1280     8.5219     2.4967     0.0920     0.0625
  394.0000    12.2188     8.1211     9.2057   -29.0592   128.8960     8.5225     2.4929     0.0954     0.0608
  394.5000    11.8686     8.1333     9.1898   -29.0577   127.4264     8.5232     2.4890     0.0958     0.0590
  395.0000    11.5655     8.1456     9.1739   -29.0562   123.1456     8.5238     2.4853     0.0948     0.0579
  395.5000    11.6010     8.1578     9.1581   -29.0546   119.9212     8.5245     2.4919     0.0920     0.0576
  396.0000    11.6367     8.1701     9.1424   -29.0531   117.0814     8.5251     2.4979     0.0912     0.0566
  396.5000    11.7108     8.1824     9.1260   -29.0516   114.8370     8.5257     2.4903     0.0941     0.0557
  397.0000    12.1378     8.1946     9.1096   -29.0501   113.6714     8.5264     2.4820     0.0970     0.0547
  397.5000    12.4460     8.2070     9.1005   -29.0486   113.7578     8.5270     2.4782     0.0999     0.0538
  398.0000    12.4460     8.2218     9.8206   -29.0471   113.9225     8.5276     2.4772     0.1028     0.0553
  398.5000    12.3319     8.1997    10.3328   -29.0456   114.1468     8.5283     2.4700     0.1053     0.0573
  399.0000    11.9889     8.1664    10.1267   -29.0441   114.6316     8.5289     2.4693     0.1048     0.0593
  399.5000    11.9200     8.1332     9.9234   -29.0426   116.5758     8.5295     2.4708     0.1043     0.0614
  400.0000    11.8516     8.1002     9.7052   -29.0411   118.7118     8.5274     2.4720     0.1052     0.0608
  400.5000    11.7769     8.0673     9.7265   -29.0396   120.6069     8.5175     2.4683     0.1067     0.0594
  401.0000    11.5000     8.0346     9.7567   -29.0381   120.2880     8.5079     2.4640     0.1101     0.0579
  401.5000    11.3520     7.9989     9.7956   -29.0366   120.0692     8.4983     2.4594     0.1186     0.0564
  402.0000    11.4124     7.9703     9.7063   -29.0351   120.9512     8.4887     2.4553     0.1163     0.0550
  402.5000    11.4566     7.9388     9.5326   -29.0336   120.8341     8.4790     2.4614     0.1116     0.0544
  403.0000    11.3041     7.9075     9.3621   -29.0321   119.5732     8.4701     2.4685     0.1068     0.0567
  403.5000    10.8945     7.8763     9.1945   -29.0306   115.7427     8.4699     2.4749     0.1021     0.0590
  404.0000    10.5446     7.8453     9.0163   -29.0291   116.8104     8.4700     2.4728     0.1037     0.0612
  404.5000    10.8894     7.8142     9.0703   -29.0275   117.9956     8.4700     2.4704     0.1055     0.0635
  405.0000    11.2080     7.7809     9.1840   -29.0260   116.6763     8.4700     2.4720     0.1045     0.0657
  405.5000    11.5619     7.6678     9.1309   -29.0245   116.5263     8.4700     2.4741     0.1036     0.0678
  406.0000    11.3733     7.5469     9.0737   -29.0230   117.2066     8.4700     2.4760     0.1026     0.0674
  406.5000    11.2169     7.4276     9.0168   -29.0215   117.2913     8.4700     2.4739     0.1038     0.0661
  407.0000    10.9932     7.3104     8.9602   -29.0200   119.2053     8.4700     2.4717     0.1050     0.0649
  407.5000    10.5461     7.1950     8.7977   -29.0185   120.2845     8.4700     2.4695     0.1061     0.0636
  408.0000    10.2572     7.0814     8.5462   -29.0170   119.9686     8.4700     2.4692     0.1061     0.0624
  408.5000    10.5411     6.9696     8.3018   -29.0155   118.8410     8.4700     2.4692     0.1054     0.0624
  409.0000    10.6443     6.8596     8.0645   -29.0140   117.7058     8.4700     2.4673     0.1069     0.0632
  409.5000     9.6850     6.7513     7.8338   -29.0125   116.5634     8.4700     2.4651     0.1084     0.0641
  410.0000     9.0197     6.6447     7.6092   -29.0110   115.4239     8.4700     2.4632     0.1089     0.0649
  410.5000     8.3794     6.5399     7.3933   -29.0095   114.2837     8.4699     2.4689     0.1078     0.0657
  411.0000     9.0679     6.4719     7.2934   -29.0080   113.0941     8.4699     2.4770     0.1003     0.0666
  411.5000    10.2516     6.5633     7.3649   -29.0065   113.5176     8.4708     2.4851     0.0927     0.0674
  412.0000    10.1955     6.6323     7.4402   -29.0049   116.5820     8.4862     2.4932     0.0862     0.0683
  412.5000    10.0638     6.7019     7.5159   -29.0035   120.0509     8.4950     2.5013     0.0858     0.0691
  413.0000     9.9416     6.7723     7.5924   -29.0019   121.1365     8.4997     2.5052     0.0850     0.0699
  413.5000     9.8840     6.8434     7.6697   -29.0004   121.8613     8.5046     2.5073     0.0840     0.0708
  414.0000    10.1229     6.9153     7.7478   -28.9989   122.1952     8.5096     2.5104     0.0818     0.0717
  414.5000    10.3327     6.9879     7.8267   -28.9974   121.0993     8.5147     2.5071     0.0844     0.0698
  415.0000    10.6422     7.0613     7.9064   -28.9959   119.6477     8.5197     2.5018     0.0882     0.0669
  415.5000    10.6238     7.1355     7.9454   -28.9944   116.1666     8.5247     2.4963     0.0894     0.0640
  416.0000    10.5912     7.2282     8.0006   -28.9929   115.2930     8.5297     2.4990     0.0882     0.0639
  416.5000    10.5446     7.2171     8.0562   -28.9914   117.3508     8.5347     2.5009     0.0888     0.0639
  417.0000    10.5964     7.2028     8.1121   -28.9899   117.4593     8.5398     2.4926     0.0923     0.0639
  417.5000    10.6885     7.1883     8.1476   -28.9884   116.5616     8.5448     2.4846     0.0965     0.0612
  418.0000    10.7814     7.1738     8.0225   -28.9869   116.2252     8.5498     2.4764     0.1007     0.0582
  418.5000    10.8400     7.1515     7.9324   -28.9854   115.8579     8.5548     2.4741     0.1046     0.0551
  419.0000    10.5712     7.0918     7.8432   -28.9839   114.0965     8.5599     2.4729     0.1041     0.0521
  419.5000    10.3797     7.0312     7.7551   -28.9824   113.6848     8.5649     2.4723     0.1036     0.0506
  420.0000    10.1917     7.0312     7.6679   -28.9809   114.4170     8.5698     2.4734     0.1032     0.0539
  420.5000    10.0070     6.9398     7.5818   -28.9793   115.4027     8.5700     2.4740     0.1033     0.0571
  421.0000     9.8257     6.7057     7.4969   -28.9778   116.3895     8.5700     2.4733     0.1039     0.0603
