~VERSION INFORMATION
 VERS.                2.0:   CWLS LOG ASCII STANDARD - VERSION 2.0
 WRAP.                 NO:   ONE LINE PER DEPTH STEP
~WELL INFORMATION
#MNEM.UNIT      DATA TYPE    INFORMATION
#----------   ------------   ------------------------------
 STRT.F           12.0000:   START DEPTH
 STOP.F          510.0000:   STOP DEPTH
 STEP.F            0.5000:   STEP LENGTH
 NULL.          -999.2500:   NO VALUE
 COMP. LAWRENCE-ALLISON &AS:   COMPANY
 WELL. NPR 3 #51-41SX10UP4:   WELL
 FLD .            NATRONA:   FIELD
 LOC .      S10 T38N R78W:   LOCATION
 CNTY.            NATRONA:   COUNTY
 STAT.            WYOMING:   STATE
 CTRY. UNITED STATES OF AMERICA:   COUNTRY
 SRVC.      Dresser Atlas:   SERVICE COMPANY
 DATE.        15-DEC-1984:   LOGDATE
 API .       490251100000:   API NUMBER
~CURVE INFORMATION
#MNEM.UNIT       API CODE    CURVE DESCRIPTION
#----------   ------------   ------------------------------
 DEPT.F                  :   
 RD  .OHMM   11 220 10 00:   RESISTIVITY DEEP
 RS  .OHMM   11 220 09 00:   RESISTIVITY SHALLOW
 SPR .MV     11 010 01 00:   SPONTANEOUS POTENTIAL FROM RES.
 DT  .US/F   60 520 00 00:   INTERVAL TRANSIT TIME
 CALD.IN     45 280 60 00:   CALIPER FROM DENSITY LOG
 CNC .DEC    42 890 00 00:   NEUTRON POROSITY
 CORR.G/C3   45 356 01 00:   DENSITY CORRECTION
 GRD .GAPI   45 310 01 00:   GAMMA RAY FROM DENSITY LOG
 PORD.DEC    45 890 00 00:   POROSITY DENSITY
 RHOB.G/C3   45 350 01 00:   BULK DENSITY
~PARAMETER INFORMATION
#MNEM.UNIT          VALUE    DESCRIPTION
#----------   ------------   ------------------------------
 PD  .                 GL:   PERMANENT DATUM
 EPD .F              5207:   ELEVATION PERMANENT DATUM
 LMF .                 GL:   LOG MEASURED FROM
 DMF .                 GL:   DRILLING MEASURED FROM
 EGL .F              5207:   GROUND LEVEL
 DATE.        15-DEC-1984:   RUN DATE
 RUN .                  1:   RUN NUMBER
 DD  .F               515:   DEPTH DRILLER
 DL  .F               511:   DEPTH LOGGER
 BLI .F               510:   BOTTOM LOG INTERVAL
 TLI .F                20:   TOP LOG INTERVAL
 CS  .IN            8.625:   CASING SIZE
 CBD .F                20:   CASING BOTTOM DRILLER
 CBL .F                20:   CASING BOTTOM LOGGER
 BS  .IN            7.875:   BIT SIZE
 BSD .F               515:   BIT SIZE AT DEPTH
 DFT .          KCL/WATER:   DRILLING FLUID TYPE
 MSS .           FLOWLINE:   MUD SAMPLE SOURCE
 RMS .OHMM           .129:   RESISTIVITY MUD SAMPLE
 MST .F                94:   MUD SAMPLE TEMPERATURE
 RMF .OHMM            .10:   RESISTIVITY MUD FILTRATE SAMPLE
 MFST.F                94:   MUD FILTRATE SAMPLE TEMPERATURE
 RMC .OHMM            .16:   RESISTIVITY MUD CAKE
 MCST.F                94:   MUD CAKE SAMPLE TEMPERATURE
 MFSS.               CALC:   MUD FILTRATE SAMPLE SOURCE
 MCSS.               CALC:   MUD CAKE SAMPLE SOURCE
 TCS .HRS               2:   TIME CURCULATED STOPPED
 MRT .F               100:   MAXIMUM RECORDED TEMPERATURE
 LUN .               6270:   LOGGING UNIT NUMBER
 LUL .                 FM:   LOGGING UNIT LOCATION
 ENGI.            LEBSOCK:   RECORDING ENGINEER
 WITN.          DAN LUERS:   WITNESSED BY
 CLNT.            A2DTECH:   CLIENT CODE
 ORIG.           5" PRINT:   ORIGIN OF DATA
 UWI .       490251100000:   UNIQUE WELL ID
 DICO. A2D Technologies, Inc.:   DIGITIZING COMPANY
~OTHER INFORMATION
~A   DEPT       RD         RS        SPR         DT       CALD          CNC     CORR         GRD      PORD       RHOB   
# ...
  112.5000    29.4450    13.9688   -65.7556    96.9436     7.8370     0.2717     0.0151    92.2984     0.1300     2.4557
  113.0000    29.4684    13.9787   -66.1816    96.9479     7.8376     0.2742     0.0242    92.9025     0.1347     2.4488
  113.5000    29.2890    13.7992   -66.3188    97.5571     7.8234     0.2801     0.0274    92.7630     0.1416     2.4391
  114.0000    27.9294    13.2497   -66.4525    99.2973     7.8241     0.2894     0.0320    92.4782     0.1458     2.4324
  114.5000    26.2677    12.8869   -66.1388   100.9621     7.8247     0.2939     0.0336    91.8970     0.1470     2.4325
  115.0000    25.7497    12.2181   -65.6805   102.0985     7.8252     0.2944     0.0217    91.3185     0.1466     2.4340
  115.5000    26.1338    12.4837   -65.6629   102.3292     7.8258     0.2935    -0.0023    90.2889     0.1447     2.4356
  116.0000    26.5148    12.6674   -65.6486   102.1072     7.8264     0.2808    -0.0052    90.1566     0.1442     2.4372
  116.5000    26.5394    12.8538   -65.6343   102.0371     7.8271     0.2760    -0.0020    94.9117     0.1441     2.4365
  117.0000    26.5606    12.7752   -65.6201   101.8151     7.8425     0.2706     0.0071    95.5157     0.1444     2.4343
  117.5000    26.3989    12.6103   -65.7573   101.8194     7.8579     0.2543     0.0208    94.0457     0.1468     2.4284
  118.0000    26.4199    12.6229   -66.1832   102.1256     7.8435     0.2519     0.0224    93.7580     0.1528     2.4225
  118.5000    25.8990    12.5460   -66.1686   102.4319     7.8442     0.2603     0.0226    97.3279     0.1549     2.4165
  119.0000    25.5693    12.2961   -66.7464   102.7381     7.8299     0.2590     0.0227    97.3481     0.1548     2.4159
  119.5000    25.2337    12.3084   -66.8765   103.1209     7.8009     0.2547     0.0228    95.5319     0.1560     2.4152
  120.0000    25.0801    12.1493   -67.3060   103.1253     7.8016     0.2529     0.0109    91.4393     0.1578     2.4138
  120.5000    24.7608    11.9922   -67.4397   102.7522     7.8022     0.2517    -0.0267    92.4878     0.1587     2.4146
  121.0000    24.6096    12.0017   -67.8692   102.3038     7.8027     0.2520    -0.0311    92.6475     0.1568     2.4155
  121.5000    24.6300    11.8466   -67.8549   102.1561     7.8033     0.2624    -0.0188    92.2145     0.1556     2.4155
  122.0000    24.6542    11.6934   -68.3018   102.3879     7.8039     0.2786    -0.0020    91.9297     0.1553     2.4156
  122.5000    24.6739    11.5445   -68.4181   102.7707     7.8045     0.2807     0.0054    91.7926     0.1558     2.4157
  123.0000    24.6936    11.3949   -68.6961   103.0770     7.8062     0.2715     0.0056    92.1008     0.1570     2.4165
  123.5000    24.5383    11.5630   -68.9813   102.8549     7.8206     0.2617     0.0057    92.7049     0.1576     2.4166
  124.0000    24.3931    11.7354   -68.9634   102.5573     7.8211     0.2647     0.0148    90.3488     0.1570     2.4196
  124.5000    24.4133    11.7447   -69.3930   101.4296     7.8067     0.2766     0.0180    89.7649     0.1488     2.4258
  125.0000    24.0977    11.7541   -69.5266   101.1321     7.8075     0.2760     0.0181    92.1496     0.1509     2.4258
  125.5000    23.9557    11.6802   -69.5118   101.2875     7.8080     0.2682     0.0182    93.0499     0.1521     2.4251
  126.0000    23.4787    11.6918   -69.4945   101.8966     7.8086     0.2585     0.0244    91.5799     0.1533     2.4267
  126.5000    23.5021    11.7011   -69.4803   102.4292     7.8092     0.2537     0.0531    89.2211     0.1424     2.4448
  127.0000    23.3543    11.7108   -69.4660   103.1128     7.8099     0.2545     0.0487    90.4297     0.1376     2.4471
  127.5000    22.8982    11.7221   -69.4517   103.7209     7.7955     0.2632     0.0398    95.8518     0.1400     2.4479
  128.0000    22.5698    11.6507   -69.4374   103.5743     7.7813     0.2716     0.0308    96.3695     0.1402     2.4480
  128.5000    21.7025    11.5001   -69.4231   103.4277     7.7670     0.2835     0.0430    96.8254     0.1333     2.4571
  129.0000    20.9870    11.1957   -69.4053   103.4332     7.7529     0.2859     0.0492    98.1702     0.1327     2.4571
  129.5000    20.4316    10.8994   -69.3911   103.4375     7.7535     0.2859     0.0493    98.7743     0.1338     2.4564
  130.0000    20.0247    10.3220   -68.7851   102.9890     7.7541     0.2809     0.0494    97.6006     0.1362     2.4565
  130.5000    19.4982    10.0508   -68.3270   101.1821     7.7548     0.2726     0.0525    89.3158     0.1289     2.4630
  131.0000    19.5144    10.0588   -68.1648    98.6958     7.7553     0.2723     0.0376    85.1437     0.1103     2.4882
  131.5000    19.9425    10.2068   -68.1506    97.7191     7.7559     0.2785     0.0166    85.4897     0.1082     2.4950
  132.0000    20.0967    10.3569   -68.1361    98.1019     7.7565     0.3061     0.0198    86.8345     0.1121     2.4943
  132.5000    19.9743    10.3652   -68.1184   100.2949     7.7867     0.3040     0.0319    89.9571     0.1253     2.4689
  133.0000    19.5766    10.1531   -68.1042   102.8653     7.8023     0.2901     0.0200    92.7834     0.1297     2.4607
  133.5000    19.0585    10.0989   -68.0899   104.0772     7.8175     0.2804     0.0021    93.9801     0.1312     2.4608
  134.0000    18.8158    10.0374   -68.2271   104.3079     7.8182     0.2888    -0.0039    93.5471     0.1287     2.4669
  134.5000    19.0933    10.1170   -68.6566   104.0859     7.8187     0.2915     0.0625    90.4475     0.1246     2.4699
  135.0000    19.1118    10.1952   -68.9347   103.7139     7.8193     0.2846     0.0627    89.5701     0.1233     2.4708
  135.5000    19.2595    10.4169   -69.2163   103.5663     7.8199     0.2671     0.0628    93.5844     0.1242     2.4701
  136.0000    19.1384    10.3470   -69.3499   103.7981     7.8205     0.2590     0.0381    96.4107     0.1263     2.4672
  136.5000    19.1575    10.1493   -69.3321   103.8779     7.8358     0.2614     0.0223    96.5704     0.1284     2.4664
  137.0000    18.9099    10.0201   -69.3178   103.9577     7.8216     0.2701     0.0270    97.1744     0.1292     2.4642
  137.5000    18.6654    10.0975   -69.1556   104.0376     7.8223     0.2784     0.0301   100.7415     0.1298     2.4621
  138.0000    19.2072    10.1756   -69.1413   103.8166     7.8229     0.2832     0.0333   104.3085     0.1274     2.4630
  138.5000    19.7608    10.1837   -68.8312   103.5190     7.8235     0.2795     0.0364   105.5052     0.1273     2.4616
  139.0000    19.7766    10.3442   -68.5207   102.8441     7.8240     0.2804     0.0275   104.2489     0.1318     2.4564
  139.5000    19.7924    10.7071   -69.0950   102.0183     7.8246     0.2791     0.0092   100.7902     0.1345     2.4549
  140.0000    20.0836    11.0920   -69.0807   101.4189     7.8252     0.2731    -0.0129    97.2462     0.1345     2.4565
  140.5000    20.3791    11.1777   -69.2179   101.4485     7.8259     0.2695    -0.0143    97.4058     0.1332     2.4589
  141.0000    19.8437    11.3422   -69.6439   101.9570     7.8265     0.2732    -0.0142    99.0469     0.1316     2.4604
  141.5000    19.5872    11.3596   -69.6296   102.4141     7.8270     0.2778     0.0160   100.0926     0.1296     2.4606
  142.0000    19.3301    11.1234   -69.6153   103.1732     7.8276     0.2796     0.0433    99.8104     0.1305     2.4568
  142.5000    18.8186    10.7605   -69.6006   103.6304     7.8282     0.2645     0.0584   100.1259     0.1331     2.4561
  143.0000    18.5790    10.5462   -69.8827   104.2385     7.8139     0.2645     0.0586   102.0563     0.1343     2.4546
  143.5000    18.3387    10.4841   -70.1642   104.8091     7.7849     0.2663     0.0497   101.9220     0.1337     2.4496
  144.0000    18.3539    10.4202   -70.1464   105.1539     7.7706     0.2767     0.0332   101.4861     0.1391     2.4459
  144.5000    18.3718    10.5008   -70.1321   105.2337     7.7713     0.3055     0.0047   102.6857     0.1417     2.4437
  145.0000    18.3864    10.5820   -70.1179   105.0861     7.7719     0.3043     0.0229   102.1046     0.1414     2.4468
  145.5000    18.7862    10.5925   -70.1036   103.8839     7.7873     0.2952     0.0170    99.1531     0.1378     2.4491
