~VERSION INFORMATION
 VERS.                2.0:   CWLS LOG ASCII STANDARD - VERSION 2.0
 WRAP.                 NO:   ONE LINE PER DEPTH STEP
~WELL INFORMATION
#MNEM.UNIT      DATA TYPE    INFORMATION
#----------   ------------   ------------------------------
 STRT.F          250.0000:   START DEPTH
 STOP.F         1798.0000:   STOP DEPTH
 STEP.F            0.5000:   STEP LENGTH
 NULL.          -999.2500:   NO VALUE
 COMP. BROWN JOHN E&C INC:   COMPANY
 WELL. NPR 3 STX-10 #57-10:   WELL
 FLD .  TEAPOT DOME NPR 3:   FIELD
 LOC .      S10 T38N R78W:   LOCATION
 CNTY.            NATRONA:   COUNTY
 STAT.            WYOMING:   STATE
 CTRY. UNITED STATES OF AMERICA:   COUNTRY
 SRVC.           BIRDWELL:   SERVICE COMPANY
 DATE.        24-FEB-1979:   LOGDATE
 API .       490251096900:   API NUMBER
~CURVE INFORMATION
#MNEM.UNIT       API CODE    CURVE DESCRIPTION
#----------   ------------   ------------------------------
 DEPT.F                  :   
 GRD .GAPI   45 310 01 00:   GAMMA RAY FROM DENSITY LOG
 CALD.IN     45 280 60 00:   CALIPER
 RHOB.G/C3   45 350 01 00:   BULK DENSITY
 DPHI.DEC    45 890 12 00:   DENSITY POROSITY SANDSTONE
 CORR.G/C3   45 356 01 00:   DENSITY CORRECTION
~PARAMETER INFORMATION
#MNEM.UNIT          VALUE    DESCRIPTION
#----------   ------------   ------------------------------
 PD  .                 GL:   PERMANENT DATUM
 EPD .F              5201:   ELEVATION PERMANENT DATUM
 LMF .                 KB:   LOG MEASURED FROM
 DAPD.F                10:   FEET ABOVE PERMANENT DATUM
 DMF .                 KB:   DRILLING MEASURED FROM
 EKB .F              5211:   KELLING BUSHING
 EGL .F              5201:   GROUND LEVEL
 RUN .                  1:   RUN NUMBER
 DD  .F              1802:   DEPTH DRILLER
 DL  .F              1793:   DEPTH LOGGER
 BLI .F              1793:   BOTTOM LOG INTERVAL
 TLI .F               250:   TOP LOG INTERVAL
 CS  .IN            9.625:   CASING SIZE
 CBD .F               500:   CASING BOTTOM DRILLER
 CBL .F               490:   CASING BOTTOM LOGGER
 BS  .IN             8.75:   BIT SIZE
 BSD .F              1802:   BIT SIZE AT DEPTH
 DFT .                OIL:   DRILLING FLUID TYPE
 BHT .F                90:   BOTTOM HOLE TEMPERATURE
 TCS .HRS               4:   TIME CURCULATED STOPPED
 MRT .F                90:   MAXIMUM RECORDED TEMPERATURE
 LUN .               3029:   LOGGING UNIT NUMBER
 LUL .             CASPER:   LOGGING UNIT LOCATION
 ENGI.            ROLLINS:   RECORDING ENGINEER
 WITN.              AMEND:   WITNESSED BY
 CLNT.            A2DTECH:   CLIENT CODE
 ORIG.       2", 5" PRINT:   ORIGIN OF DATA
 UWI .       490251096900:   UNIQUE WELL ID
 DICO. A2D Technologies, Inc.:   DIGITIZING COMPANY
~OTHER INFORMATION
~A   DEPT       GRD        CALD       RHOB       DPHI      CORR  
# ...
  433.0000    58.9855     9.4313     2.3738     0.1074    -0.1864
  433.5000    59.4894     9.4326     2.3887     0.0989    -0.1883
  434.0000    56.7050     9.4338     2.4037     0.0904    -0.1903
  434.5000    53.8314     9.4351     2.4186     0.0774    -0.1922
  435.0000    52.9387     9.4365     2.4349     0.0642    -0.1941
  435.5000    54.1031     9.4323     2.4513     0.0559    -0.1920
  436.0000    55.5009     9.4269     2.4677     0.0476    -0.1893
  436.5000    56.8997     9.4214     2.4841     0.0394    -0.1865
  437.0000    58.2974     9.4159     2.5003     0.0311    -0.1838
  437.5000    59.6959     9.4104     2.5117     0.0233    -0.1810
  438.0000    61.0973     9.4049     2.5125     0.0250    -0.1783
  438.5000    62.4433     9.3994     2.5058     0.0268    -0.1755
  439.0000    62.5337     9.3939     2.4989     0.0285    -0.1728
  439.5000    61.0442     9.3884     2.5011     0.0302    -0.1701
  440.0000    59.2955     9.3829     2.5121     0.0409    -0.1673
  440.5000    57.5164     9.3774     2.5056     0.0571    -0.1646
  441.0000    55.9448     9.3720     2.4887     0.0627    -0.1619
  441.5000    58.1155     9.3665     2.4720     0.0613    -0.1591
  442.0000    60.3674     9.3610     2.4552     0.0599    -0.1564
  442.5000    61.3584     9.3555     2.4383     0.0767    -0.1536
  443.0000    58.6488     9.3500     2.4217     0.0761    -0.1509
  443.5000    56.6154     9.3445     2.4225     0.0755    -0.1523
  444.0000    55.1820     9.3391     2.4264     0.0750    -0.1556
  444.5000    59.6844     9.3363     2.4218     0.0846    -0.1589
  445.0000    63.4223     9.3369     2.4125     0.0829    -0.1622
  445.5000    65.8449     9.3374     2.4091     0.0799    -0.1655
  446.0000    57.5147     9.3380     2.4396     0.0769    -0.1680
  446.5000    50.2691     9.3386     2.4642     0.0695    -0.1658
  447.0000    54.3865     9.3392     2.4887     0.0573    -0.1635
  447.5000    58.1974     9.3398     2.5132     0.0452    -0.1612
  448.0000    53.4538     9.3404     2.5376     0.0330    -0.1590
  448.5000    47.0852     9.3410     2.5488     0.0209    -0.1567
  449.0000    42.7933     9.3415     2.5387     0.0076    -0.1544
  449.5000    48.5992     9.3421     2.5036     0.0074    -0.1522
  450.0000    53.2694     9.3427     2.4694     0.0104    -0.1499
  450.5000    57.9379     9.3433     2.4353     0.0208    -0.1477
  451.0000    60.4033     9.3439     2.4011     0.0312    -0.1454
  451.5000    60.2000     9.3445     2.3669     0.0416    -0.1431
  452.0000    59.7053     9.3450     2.3327     0.0612    -0.1408
  452.5000    59.1974     9.3456     2.2985     0.0892    -0.1422
  453.0000    58.6880     9.3462     2.2746     0.1171    -0.1447
  453.5000    58.1742     9.3468     2.2701     0.1463    -0.1473
  454.0000    57.7052     9.3474     2.2657     0.1551    -0.1499
  454.5000    57.9224     9.3480     2.2609     0.1668    -0.1525
  455.0000    58.2502     9.3485     2.2553     0.1788    -0.1551
  455.5000    58.5986     9.3491     2.2495     0.1813    -0.1577
  456.0000    59.6032     9.3497     2.2436     0.1839    -0.1602
  456.5000    60.6202     9.3503     2.2382     0.1843    -0.1621
  457.0000    61.6222     9.3509     2.2427     0.1822    -0.1605
  457.5000    62.4829     9.3515     2.2476     0.1801    -0.1590
  458.0000    62.2992     9.3520     2.2524     0.1780    -0.1575
  458.5000    62.1403     9.3526     2.2569     0.1760    -0.1562
  459.0000    61.9958     9.3532     2.2577     0.1760    -0.1575
  459.5000    62.2539     9.3538     2.2487     0.1797    -0.1590
  460.0000    65.0972     9.3544     2.2397     0.1833    -0.1603
  460.5000    68.0161     9.3550     2.2307     0.1869    -0.1592
  461.0000    70.8576     9.3555     2.2240     0.1906    -0.1566
  461.5000    70.9568     9.3561     2.2270     0.1932    -0.1541
  462.0000    67.9103     9.3561     2.2355     0.1828    -0.1516
  462.5000    64.6013     9.3561     2.2438     0.1748    -0.1503
  463.0000    61.3010     9.3561     2.2521     0.1673    -0.1531
  463.5000    58.0282     9.3561     2.2604     0.1651    -0.1562
  464.0000    56.0553     9.3561     2.2687     0.1629    -0.1594
  464.5000    56.0534     9.3561     2.2769     0.1607    -0.1625
  465.0000    56.3473     9.3561     2.2852     0.1583    -0.1657
  465.5000    58.4535     9.3561     2.2935     0.1529    -0.1684
  466.0000    60.8681     9.3561     2.3018     0.1461    -0.1662
  466.5000    63.3138     9.3561     2.3101     0.1391    -0.1634
  467.0000    65.7591     9.3561     2.3183     0.1351    -0.1605
  467.5000    68.2076     9.3561     2.3266     0.1310    -0.1577
  468.0000    70.4767     9.3561     2.3349     0.1268    -0.1549
  468.5000    70.2557     9.3561     2.3431     0.1227    -0.1521
  469.0000    68.9721     9.3561     2.3481     0.1186    -0.1505
  469.5000    67.7220     9.3561     2.3531     0.1144    -0.1509
  470.0000    66.4762     9.3561     2.3580     0.1103    -0.1513
  470.5000    65.2294     9.3561     2.3630     0.1062    -0.1517
  471.0000    63.9830     9.3561     2.3679     0.1031    -0.1522
  471.5000    62.7362     9.3561     2.3729     0.1016    -0.1497
  472.0000    61.4892     9.3561     2.3778     0.1000    -0.1457
  472.5000    60.2414     9.3561     2.3828     0.0984    -0.1414
  473.0000    59.0020     9.3561     2.3877     0.0968    -0.1431
  473.5000    58.6475     9.3561     2.3927     0.0953    -0.1471
  474.0000    58.6577     9.3561     2.3937     0.0937    -0.1513
  474.5000    59.7299     9.3561     2.3941     0.0926    -0.1554
  475.0000    60.9412     9.3561     2.3946     0.0935    -0.1585
  475.5000    62.1506     9.3561     2.3949     0.0944    -0.1555
  476.0000    63.3312     9.3561     2.3945     0.0953    -0.1514
  476.5000    64.7393     9.3561     2.3928     0.0961    -0.1511
  477.0000    74.7356     9.3561     2.3912     0.0970    -0.1540
  477.5000    85.7945     9.3561     2.3897     0.0979    -0.1568
  478.0000    97.1312     9.3561     2.3881     0.0987    -0.1597
  478.5000   100.4536     9.3562     2.3865     0.0996    -0.1571
  479.0000   101.1422     9.3572     2.3849     0.1005    -0.1505
  479.5000   109.2007     9.3611     2.3833     0.1013    -0.1438
  480.0000   117.8564     9.3649     2.3818     0.1022    -0.1370
  480.5000   125.1813     9.3686     2.3802     0.1031    -0.1341
  481.0000   125.2774     9.3723     2.3786     0.1026    -0.1393
  481.5000   112.7016     9.3761     2.3785     0.1011    -0.1457
  482.0000   103.7797     9.3798     2.3791     0.0997    -0.1521
  482.5000   100.6231     9.3836     2.3816     0.0983    -0.1581
  483.0000    99.6402     9.3873     2.3843     0.0969    -0.1538
  483.5000    90.2842     9.3910     2.3872     0.0958    -0.1493
  484.0000    80.3194     9.3948     2.3902     0.0937    -0.1447
  484.5000    79.9327     9.3985     2.3943     0.0917    -0.1409
  485.0000    82.2371     9.4023     2.3988     0.0896    -0.1470
  485.5000    85.7634     9.4060     2.4049     0.0877    -0.1532
  486.0000    89.0218     9.4097     2.4121     0.0813    -0.1563
  486.5000    84.7563     9.4135     2.4306     0.0693    -0.1533
  487.0000    80.3139     9.4205     2.4381     0.0581    -0.1500
  487.5000    79.6985     9.4419     2.4655     0.0469    -0.1491
  488.0000    79.6148     9.4631     2.4808     0.0357    -0.1509
  488.5000    84.0142     9.4843     2.4901     0.0302    -0.1526
  489.0000    91.5671     9.5141     2.4973     0.0562    -0.1551
  489.5000    99.0610     9.5569     2.2284     0.0861    -0.1555
  490.0000   105.6723     9.5995     2.2266     0.0702     0.3747
  490.5000   116.6082     9.6417     2.3174     0.0542     0.4874
  491.0000   118.0864     9.7049     2.5114     0.0383     0.4881
  491.5000   117.4322     9.7795     2.5094     0.0279     0.4887
  492.0000   116.8323     9.8541     2.5057     0.0234     0.4893
  492.5000   116.2138     9.9297     2.4990     0.0329     0.4900
  493.0000   115.6080    10.0039     2.4925     0.0406     0.4908
  493.5000   114.9702    10.0458     2.4858     0.0483     0.4887
