~VERSION INFORMATION
 VERS.                2.0:   CWLS LOG ASCII STANDARD - VERSION 2.0
 WRAP.                 NO:   ONE LINE PER DEPTH STEP
~WELL INFORMATION
#MNEM.UNIT      DATA TYPE    INFORMATION
#----------   ------------   ------------------------------
 STRT.F           29.0000:   START DEPTH
 STOP.F          462.0000:   STOP DEPTH
 STEP.F            0.5000:   STEP LENGTH
 NULL.          -999.2500:   NO VALUE
 COMP.    FENIX & SCISSON:   COMPANY
 WELL.      NPR #71-SX-10:   WELL
 FLD .             TEAPOT:   FIELD
 LOC .      S10 T38N R78W:   LOCATION
 CNTY.            NATRONA:   COUNTY
 STAT.            WYOMING:   STATE
 CTRY. UNITED STATES OF AMERICA:   COUNTRY
 SRVC.              Welex:   SERVICE COMPANY
 DATE.        01-APR-1977:   LOGDATE
 API .       490251032300:   API NUMBER
~CURVE INFORMATION
#MNEM.UNIT       API CODE    CURVE DESCRIPTION
#----------   ------------   ------------------------------
 DEPT.F                  :   
 SPR .MV     07 010 01 00:   SPONTANEOUS POTENTIAL
 ILD .OHMM   07 120 46 00:   INDUCTION LOG DEEP
 ILM .OHMM   07 120 44 00:   INDUCTION LOG MEDIUM
 SGRD.OHMM   07 221 05 00:   SHALLOW SHORT GUARD RESISTIVITY
 CALD.IN     45 280 60 00:   CALIPER FROM DENSITY LOG
 GRD .GAPI   45 310 01 00:   GAMMA RAY FROM DENSITY LOG
 CORR.G/C3   45 356 01 00:   DENSITY CORRECTION
 RHOB.G/C3   45 350 01 00:   BULK DENSITY
 DPHI.DEC    45 890 12 00:   DENSITY POROSITY SANDSTONE
~PARAMETER INFORMATION
#MNEM.UNIT          VALUE    DESCRIPTION
#----------   ------------   ------------------------------
 PD  .                 GL:   PERMANENT DATUM
 EPD .F              5157:   ELEVATION PERMANENT DATUM
 LMF .                 GL:   LOG MEASURED FROM
 DMF .                 GL:   DRILLING MEASURED FROM
 EGL .F              5157:   GROUND LEVEL
 DATE.        01-APR-1977:   RUN DATE
 RUN .                  1:   RUN NUMBER
 DD  .F               475:   DEPTH DRILLER
 DL  .F               466:   DEPTH LOGGER
 BLI .F               463:   BOTTOM LOG INTERVAL
 TLI .F                30:   TOP LOG INTERVAL
 CS  .IN            8.625:   CASING SIZE
 BS  .IN            7.875:   BIT SIZE
 BSD .F               475:   BIT SIZE AT DEPTH
 DFT .                KCL:   DRILLING FLUID TYPE
 DFD .                8.5:   DRILLING FLUID DENSITY
 TCS .HRS               3:   TIME CURCULATED STOPPED
 MRT .F                67:   MAXIMUM RECORDED TEMPERATURE
 ENGI.            C. DOAK:   RECORDING ENGINEER
 WITN.   R. B. HARRINGTON:   WITNESSED BY
 CLNT.            A2DTECH:   CLIENT CODE
 ORIG.           5" PRINT:   ORIGIN OF DATA
 UWI .       490251032300:   UNIQUE WELL ID
 DICO. A2D Technologies, Inc.:   DIGITIZING COMPANY
~OTHER INFORMATION
~A   DEPT      SPR        ILD        ILM       SGRD         CALD      GRD       CORR       RHOB       DPHI   
# ...
  357.5000   -30.7865    13.1771    17.0219    19.0994     8.0959    92.3814    -0.0108     2.3987     0.1490
  358.0000   -30.7715    13.1844    17.0313    19.6510     8.0971    94.4905    -0.0182     2.3980     0.1507
  358.5000   -30.9080    13.1007    16.5683    20.2154     8.0983    95.9977    -0.0196     2.4044     0.1492
  359.0000   -31.0368    13.0174    16.1223    20.2279     8.0993    95.7188    -0.0164     2.4246     0.1435
  359.5000   -31.0221    12.7571    15.7000    19.5516     8.1004    97.0865    -0.0118     2.4556     0.1320
  360.0000   -31.0074    12.5019    15.4788    18.3816     8.1016    99.0464    -0.0071     2.4629     0.1218
  360.5000   -30.9928    12.1673    15.2882    18.1372     8.1028   101.3048    -0.0009     2.4322     0.1254
  361.0000   -31.1301    12.0067    15.1666    18.2773     8.1040   100.7273     0.0053     2.4450     0.1218
  361.5000   -31.1118    11.8482    14.9920    18.1624     8.0903    98.2096     0.0100     2.4602     0.1169
  362.0000   -31.0959    11.6112    14.8947    17.9209     8.0915    97.4780     0.0146     2.4639     0.1142
  362.5000   -31.0825    11.4579    14.9050    17.6853     8.0777    98.9950     0.0178     2.4737     0.1085
  363.0000   -30.9194    11.3067    15.1210    17.2155     8.0789    99.7608     0.0226     2.4806     0.1018
  363.5000   -30.7564    11.3130    15.1293    17.1046     8.0801    99.9247     0.0257     2.4837     0.0994
  364.0000   -30.5934    11.4802    15.2428    17.2367     8.0813    97.5611     0.0273     2.4845     0.1039
  364.5000   -30.4303    11.7286    15.2512    17.6095     8.0825    94.1479     0.0274     2.4763     0.1081
  365.0000   -30.2572    12.1493    14.8430    18.1153     8.0688    93.2719     0.0260     2.4629     0.1140
  365.5000   -29.8071    12.6796    16.2491    18.6356     8.0700    92.0975     0.0231     2.4562     0.1173
  366.0000   -29.1988    13.6252    19.3285    18.7767     8.0413    89.5797     0.0278     2.4570     0.1194
  366.5000   -28.2909    15.4366    20.7248    18.7883     8.0273    86.7635     0.0385     2.4443     0.1236
  367.0000   -27.2376    17.1408    21.6153    29.2845     8.0288    82.5761     0.0296     2.4122     0.1316
  367.5000   -26.3327    19.1474    22.3886    51.3470     8.0147    75.1575     0.0207     2.3882     0.1437
  368.0000   -25.4279    20.7004    23.1895    52.4194     8.0013    70.6995     0.0117     2.3434     0.1723
  368.5000   -24.8197    23.2797    24.6933    40.7679     7.9872    68.6295     0.0013     2.3233     0.1902
  369.0000   -24.3600    25.3475    26.8461    40.3698     7.9887    68.1964    -0.0001     2.3116     0.2024
  369.5000   -24.1969    28.1459    28.7854    40.3948     7.9899    69.2656    -0.0045     2.3060     0.2056
  370.0000   -24.0339    31.0823    30.0222    44.5348     7.9912    70.7777    -0.0134     2.3203     0.2032
  370.5000   -23.8709    32.4178    31.7485    43.3449     8.0073    73.0361    -0.0179     2.3504     0.1921
  371.0000   -23.8562    34.0456    33.3426    46.2262     8.0085    74.8467    -0.0162     2.3692     0.1824
  371.5000   -23.8415    35.2636    34.0616    44.4963     7.9948    72.7767    -0.0100     2.3896     0.1407
  372.0000   -23.9789    36.0232    34.8009    39.9625     7.9960    65.9306    -0.0008     2.4977     0.1032
  372.5000   -24.2610    36.2933    36.3023    43.0166     7.9972    61.9204     0.0130     2.5165     0.0872
  373.0000   -24.5394    36.5605    37.3479    50.6422     7.9984    61.4873     0.0209     2.5181     0.0776
  373.5000   -24.8220    35.3415    37.8700    91.2893     7.9843    62.5565     0.0285     2.5062     0.0746
  374.0000   -24.9555    33.4567    37.6290   117.2084     7.9858    65.1134     0.0300     2.4560     0.0910
  374.5000   -24.9405    31.8923    37.3901   108.6788     7.9870    67.6703     0.0286     2.4050     0.1306
  375.0000   -24.7774    30.6121    38.0654    85.3395     7.9882    71.8689     0.0257     2.3744     0.1513
  375.5000   -24.6142    29.3834    39.5619    47.4001     7.9894    75.9184     0.0198     2.3587     0.1702
  376.0000   -24.2888    27.2448    34.9527    43.3461     7.9907    78.1767     0.0154     2.3557     0.1777
  376.5000   -23.9703    25.2618    32.8604    38.0256     7.9919    79.3903     0.0140     2.3551     0.1788
  377.0000   -23.6795    23.7497    30.4687    34.2950     7.9931    80.5104     0.0142     2.3552     0.1779
  377.5000   -23.6619    22.6391    28.4473    34.0742     7.9790    81.5647     0.0128     2.3545     0.1767
  378.0000   -23.4988    21.5806    27.6859    34.5761     7.9803    82.4497     0.0129     2.3529     0.1794
  378.5000   -23.4842    21.0001    27.7011    34.8379     7.9814    83.0612     0.0115     2.3524     0.1802
  379.0000   -23.4695    20.7229    27.9088    35.1017     7.9826    83.0657     0.0101     2.3541     0.1795
  379.5000   -23.4548    20.4494    28.1181    35.8607     7.9838    82.9308     0.0088     2.3601     0.1744
  380.0000   -23.4402    20.4635    27.5556    35.1451     7.9701    82.3582     0.0135     2.3698     0.1666
  380.5000   -23.4255    20.6169    27.1881    32.3575     7.9713    81.7808     0.0151     2.3534     0.1690
  381.0000   -23.4109    20.6283    27.0154    34.9457     7.9575    80.9048     0.0107     2.3392     0.1789
  381.5000   -23.3962    20.6397    27.0340    34.4863     7.9587    80.0288     0.0063     2.3333     0.1882
  382.0000   -23.3815    20.6511    27.8081    35.2321     7.9450    79.8587     0.0019     2.3326     0.1902
  382.5000   -23.5189    20.8060    28.4070    37.5210     7.9462    82.0083    -0.0040     2.3365     0.1909
  383.0000   -23.5006    20.9620    28.0320    34.7904     7.9325    83.6696    -0.0099     2.3440     0.1878
  383.5000   -23.6379    21.1192    26.9068    34.7636     7.9337    84.7340    -0.0128     2.3561     0.1788
  384.0000   -23.6184    21.7239    25.6486    34.8492     7.9349    85.2013    -0.0142     2.3720     0.1631
  384.5000   -23.6049    22.3460    24.2807    33.4363     7.9361    80.2955    -0.0141     2.4043     0.1508
  385.0000   -23.7389    23.4680    23.9568    36.1053     7.9073    74.7927    -0.0124     2.4254     0.1400
  385.5000   -23.7240    24.8174    23.9733    33.9218     7.8488    72.7227    -0.0092     2.4562     0.1312
  386.0000   -23.7052    25.7053    23.4937    33.2673     7.8198    74.0855    -0.0046     2.5013     0.1048
  386.5000   -23.3976    26.0743    22.8649    47.8522     7.8061    78.5827     0.0092     2.4796     0.1090
  387.0000   -23.3650    24.3478    22.4075    55.9705     7.8225    83.9754     0.0214     2.4534     0.1207
  387.5000   -23.2196    22.2655    22.1086    59.6286     7.8237    86.9801     0.0218     2.4040     0.1431
  388.0000   -23.2019    21.3717    22.1238    30.6903     7.8249    88.1936     0.0126     2.3658     0.1662
  388.5000   -23.1872    20.7998    22.4445    31.5767     7.8411    88.3625     0.0067     2.3559     0.1761
  389.0000   -23.1725    21.2478    22.6128    32.7094     7.8572    88.6805     0.0023     2.3516     0.1809
  389.5000   -23.1579    21.1129    22.6252    31.6158     7.8584    89.1479     0.0009     2.3495     0.1817
  390.0000   -23.1432    20.5450    22.6377    30.1337     7.8746    90.0630    -0.0005     2.3503     0.1807
  390.5000   -23.1285    20.4174    22.6502    30.7901     7.8758    91.1273    -0.0003     2.3527     0.1775
  391.0000   -23.1139    19.5979    22.5061    30.3854     7.8770    92.0424     0.0013     2.3550     0.1698
  391.5000   -23.0992    18.5527    21.9040    29.1667     7.8931    94.0023     0.0045     2.3603     0.1660
  392.0000   -23.0845    18.0561    21.3177    29.3876     7.9093    95.8687     0.0077     2.3671     0.1654
  392.5000   -23.0699    17.9391    20.7472    30.0230     7.9105    97.7546     0.0108     2.3740     0.1621
  393.0000   -23.2036    17.8260    20.9038    28.2264     7.9117   100.5087     0.0125     2.3846     0.1566
  393.5000   -23.3409    17.7145    21.9569    27.0902     7.9129   100.9776     0.0111     2.3996     0.1506
