~VERSION INFORMATION
 VERS.                2.0:   CWLS LOG ASCII STANDARD - VERSION 2.0
 WRAP.                 NO:   ONE LINE PER DEPTH STEP
~WELL INFORMATION
#MNEM.UNIT      DATA TYPE    INFORMATION
#----------   ------------   ------------------------------
 STRT.F           85.0000:   START DEPTH
 STOP.F          780.0000:   STOP DEPTH
 STEP.F            0.5000:   STEP LENGTH
 NULL.          -999.2500:   NO VALUE
 COMP. U S NAVY-INTEX OIL:   COMPANY
 WELL.        NPR #47-S-2:   WELL
 FLD .             TEAPOT:   FIELD
 LOC .       S2 T38N R78W:   LOCATION
 CNTY.            NATRONA:   COUNTY
 STAT.            WYOMING:   STATE
 CTRY. UNITED STATES OF AMERICA:   COUNTRY
 SRVC.       Schlumberger:   SERVICE COMPANY
 DATE.        30-JUN-1962:   LOGDATE
 API .       490250640200:   API NUMBER
~CURVE INFORMATION
#MNEM.UNIT       API CODE    CURVE DESCRIPTION
#----------   ------------   ------------------------------
 DEPT.F                  :   
 SPR .MV     05 010 01 00:   SPONTANEOUS POTENTIAL FROM RES.
 ASN .OHMM   05 041 18 00:   AMPLIFIED SHORT NORMAL 18"
 ILD .OHMM   05 120 46 00:   INDUCTION LOG DEEP
 CILD.MMHO   05 110 46 00:   CONDUCTIVITY INDUCTION LOG DEEP
 CALM.IN     15 280 01 00:   CALIPER FROM MICRO LOG
 GR  .GAPI   30 310 01 00:   GAMMA RAY
~PARAMETER INFORMATION
#MNEM.UNIT          VALUE    DESCRIPTION
#----------   ------------   ------------------------------
 PD  .                 KB:   PERMANENT DATUM
 LMF .                 KB:   LOG MEASURED FROM
 DMF .                 KB:   DRILLING MEASURED FROM
 EKB .F              5175:   KELLING BUSHING
 EGL .F              5170:   GROUND LEVEL
 DATE.          6-30-1962:   RUN DATE
 RUN .                  1:   RUN NUMBER
 DD  .F               775:   DEPTH DRILLER
 DL  .F               781:   DEPTH LOGGER
 BLI .F               780:   BOTTOM LOG INTERVAL
 TLI .F                86:   TOP LOG INTERVAL
 BS  .IN             6.75:   BIT SIZE
 BSD .F               775:   BIT SIZE AT DEPTH
 DFT .            GEL-OIL:   DRILLING FLUID TYPE
 DFD .                 10:   DRILLING FLUID DENSITY
 DFV .                 50:   DRILLING FLUID VISCOSITY
 DFL .                3.6:   DRILLING FLUID LOSS
 MSS .           FLOWLINE:   MUD SAMPLE SOURCE
 RMS .OHMM           5.75:   RESISTIVITY MUD SAMPLE
 MST .F                69:   MUD SAMPLE TEMPERATURE
 RMF .OHMM           4.96:   RESISTIVITY MUD FILTRATE SAMPLE
 MFST.F                69:   MUD FILTRATE SAMPLE TEMPERATURE
 RMC .OHMM           4.80:   RESISTIVITY MUD CAKE
 MCST.F                69:   MUD CAKE SAMPLE TEMPERATURE
 RMB .OHMM           5.13:   RESISTIVITY MUD AT BHT
 BHT .F                78:   BOTTOM HOLE TEMPERATURE
 TCS .HRS               1:   TIME CURCULATED STOPPED
 MRT .F                78:   MAXIMUM RECORDED TEMPERATURE
 LUN .               2503:   LOGGING UNIT NUMBER
 LUL .              CSPR.:   LOGGING UNIT LOCATION
 ENGI.             KNOBEL:   RECORDING ENGINEER
 WITN.          JORGENSEN:   WITNESSED BY
 CLNT.            A2DTECH:   CLIENT CODE
 ORIG.      2" & 5" PRINT:   ORIGIN OF DATA
 UWI .       490250640200:   UNIQUE WELL ID
 DICO. A2D Technologies, Inc.:   DIGITIZING COMPANY
~OTHER INFORMATION
~A   DEPT      SPR        ASN        ILD         CILD     CALM         GR   
# ...
  553.0000   -22.1635     6.2725     5.8250   186.4205  -999.2500    78.0689
  553.5000   -22.1620     6.1976     5.8990   186.4130  -999.2500    77.0252
  554.0000   -22.3097     6.0479     6.0477   185.6536  -999.2500    78.2212
  554.5000   -22.4571     5.9731     6.2712   183.3905  -999.2500    78.0734
  555.0000   -22.7532     6.4222     6.4201   178.8717  -999.2500    77.7760
  555.5000   -23.0490     6.7066     6.6436   172.0973  -999.2500    78.8453
  556.0000   -23.0475     6.9461     6.8669   165.3228  -999.2500    81.4727
  556.5000   -23.0460     7.0509     7.0158   159.3003  -999.2500    84.2885
  557.0000   -23.0446     7.1257     7.1643   154.7815  -999.2500    90.4725
  557.5000   -23.0431     7.1856     7.2383   151.7665  -999.2500    91.3657
  558.0000   -23.0416     7.2156     7.2376   150.2552  -999.2500    89.8747
  558.5000   -23.0401     7.2455     7.2368   148.7439  -999.2500    91.6672
  559.0000   -23.3363     7.2605     7.2361   147.9846  -999.2500    92.1165
  559.5000   -23.6324     7.2605     7.2354   146.4733  -999.2500    91.3717
  560.0000   -24.2262     7.2605     7.2346   146.4658  -999.2500    87.1937
  560.5000   -24.6711     7.2605     7.1591   147.9624  -999.2500    89.7330
  561.0000   -24.9673     7.2754     7.0837   149.4583  -999.2500    91.2270
  561.5000   -24.9658     7.2103     7.0829   150.2030  -999.2500    91.6763
  562.0000   -24.9643     7.0958     7.0074   151.6989  -999.2500    91.9763
  562.5000   -24.9628     6.9760     6.9320   153.9471  -999.2500    91.9778
  563.0000   -24.9614     6.8563     6.7817   156.9471  -999.2500    87.9495
  563.5000   -24.9598     6.7515     6.5568   160.6990  -999.2500    87.2043
  564.0000   -25.1072     6.6617     6.2571   167.4584  -999.2500    89.1465
  564.5000   -25.2545     6.4970     5.9574   174.9697  -999.2500    90.4913
  565.0000   -25.1039     6.2725     5.5830   186.9922  -999.2500    90.1939
  565.5000   -24.9536     6.1078     5.2060   208.0374  -999.2500    88.5540
  566.0000   -24.5057     5.7635     4.8341   221.5637  -999.2500    89.0547
  566.5000   -24.2066     5.4192     4.7511   224.5637  -999.2500    89.6014
  567.0000   -23.6099     5.3293     4.6831   223.8043  -999.2500    88.6955
  567.5000   -22.8644     5.3743     4.6948   221.5412  -999.2500    88.4054
  568.0000   -22.5653     5.3293     4.9804   219.2780  -999.2500    85.1284
  568.5000   -22.8614     5.2844     5.2786   216.2630  -999.2500    84.5329
  569.0000   -23.4552     5.5988     5.7263   209.4886  -999.2500    86.3254
  569.5000   -23.7517     6.0629     6.1740   198.9548  -999.2500    89.9090
  570.0000   -23.7498     6.4671     6.4722   183.9097  -999.2500    90.5075
  570.5000   -23.5995     6.7515     6.7704   170.3683  -999.2500    90.8076
  571.0000   -23.5981     6.9311     6.9939   160.5864  -999.2500    91.4057
  571.5000   -23.7458     7.0659     7.0681   153.0601  -999.2500    90.2132
  572.0000   -23.5951     7.1856     7.2168   149.2932  -999.2500    89.0210
  572.5000   -23.5936     7.2754     7.2908   147.7819  -999.2500    86.9330
  573.0000   -24.1874     7.3277     7.3648   147.0225  -999.2500    86.6360
  573.5000   -24.6327     7.3567     7.4388   145.5112  -999.2500    86.6375
  574.0000   -24.7800     7.3952     7.5128   144.7518  -999.2500    87.2360
  574.5000   -24.7782     7.4701     7.5868   143.2406  -999.2500    90.8196
  575.0000   -24.6279     7.5449     7.5859   142.4812  -999.2500    91.1193
  575.5000   -24.6264     7.6347     7.6601   141.7218  -999.2500    88.5838
  576.0000   -24.4762     7.7545     7.7341   140.9624  -999.2500    86.3465
  576.5000   -24.3259     7.8743     7.8081   140.1879  -999.2500    84.4074
  577.0000   -24.1756     7.9940     7.8071   138.6918  -999.2500    84.5802
  577.5000   -24.0253     8.0988     7.8811   137.1804  -999.2500    85.4849
  578.0000   -23.5755     8.0689     7.9551   136.4210  -999.2500    86.5015
  578.5000   -22.9742     8.1002     8.0291   135.6267  -999.2500    84.2633
  579.0000   -22.3840     8.1756     8.1031   134.1504  -999.2500    83.6687
  579.5000   -21.9361     8.2384     8.1024   133.3910  -999.2500    82.0284
  580.0000   -22.4007     8.3383     8.1764   132.6316  -999.2500    80.5374
  580.5000   -22.5283     8.3683     8.1756   132.6241  -999.2500    77.7029
  581.0000   -22.2291     8.3683     8.1749   132.6165  -999.2500    78.8986
  581.5000   -21.9298     8.3533     8.1742   132.6090  -999.2500    80.6911
  582.0000   -21.7795     8.2635     8.1734   132.6015  -999.2500    78.1553
  582.5000   -21.7780     8.1287     8.1602   132.5940  -999.2500    76.5147
  583.0000   -21.7765     8.0090     8.0970   133.3385  -999.2500    77.7106
  583.5000   -21.7751     7.8743     8.0215   134.0829  -999.2500    79.3539
  584.0000   -21.7736     7.7695     8.0208   134.8273  -999.2500    80.6987
  584.5000   -21.7721     7.6647     7.9453   136.3235  -999.2500    81.8942
  585.0000   -21.7706     7.5749     7.8698   138.6715  -999.2500    84.4331
  585.5000   -21.7691     7.4551     7.7196   141.6770  -999.2500    87.7182
  586.0000   -21.7677     7.3353     7.5694   144.5717  -999.2500    91.7495
  586.5000   -21.7662     7.2006     7.3444   147.6871  -999.2500    93.0939
  587.0000   -21.7647     7.0210     6.8953   151.4438  -999.2500    92.6479
  587.5000   -21.6144     6.7066     6.5208   156.8297  -999.2500    89.3659
  588.0000   -21.6130     6.3024     6.2211   163.7292  -999.2500    89.3674
  588.5000   -21.3139     6.1078     5.6972   176.7911  -999.2500    89.3689
  589.0000   -20.7171     5.8084     4.9491   191.7046  -999.2500    89.5193
  589.5000   -20.4180     5.3593     4.3505   213.7597  -999.2500    87.5809
  590.0000   -20.1189     5.0299     3.8265   261.8030  -999.2500    85.9406
  590.5000   -19.9687     4.7305     3.3774   288.1113  -999.2500    85.6432
  591.0000   -19.8184     4.2365     2.9282   344.4948  -999.2500    85.4697
  591.5000   -19.6681     3.7575     2.5538   383.5850  -999.2500    84.8623
  592.0000   -19.6666     3.5180     2.3288   434.7053  -999.2500    85.2238
  592.5000   -20.1116     3.3832     2.2533   464.7730  -999.2500    83.2215
  593.0000   -20.5565     3.2485     2.2526   474.5399  -999.2500    82.3653
  593.5000   -20.7038     3.1437     2.4013   478.2937  -999.2500    82.0702
  594.0000   -20.8512     3.0689     2.6995   459.4873  -999.2500    82.0717
  594.5000   -20.9985     3.0090     3.0725   445.1941  -999.2500    89.6851
  595.0000   -21.4435     3.2335     3.5202   423.3821  -999.2500    92.0747
  595.5000   -21.8884     3.6828     3.9704   370.7430  -999.2500    98.0464
  596.0000   -22.3334     4.0346     4.3508   307.5776  -999.2500    99.5404
  596.5000   -22.7783     4.6592     4.7287   254.1866  -999.2500   103.7210
  597.0000   -22.9257     5.0302     5.1615   212.8257  -999.2500   104.1703
  597.5000   -22.9241     5.4386     5.4721   192.5175  -999.2500   104.0226
  598.0000   -22.7735     5.7896     5.8324   175.2168  -999.2500   103.4270
  598.5000   -22.6232     5.9731     5.9814   169.9461  -999.2500   104.0252
  599.0000   -22.0265     6.0030     6.0554   168.4348  -999.2500    99.8480
  599.5000   -21.5786     6.0180     6.1292   166.1717  -999.2500   103.1331
  600.0000   -21.3539     6.0329     6.0935   165.4123  -999.2500   107.0365
  600.5000   -21.5774     6.1076     5.9867   167.6604  -999.2500   107.9150
  601.0000   -21.2798     6.1674     5.8800   172.5148  -999.2500   109.4120
  601.5000   -21.1310     6.1972     5.6756   178.9951  -999.2500   108.3717
  602.0000   -20.8333     6.1521     5.3004   191.7922  -999.2500   109.5703
  602.5000   -20.6845     5.7777     5.0000   208.3486  -999.2500   113.0076
  603.0000   -20.5357     5.4781     4.6995   218.8900  -999.2500   115.1017
  603.5000   -20.5357     5.1935     4.4738   227.9277  -999.2500   110.9271
  604.0000   -20.3869     5.2084     4.3228   236.2134     6.8120   108.0958
  604.5000   -20.3869     5.0885     4.2466   243.7473     6.8426   103.0256
