~VERSION INFORMATION
 VERS.                2.0:   CWLS LOG ASCII STANDARD - VERSION 2.0
 WRAP.                 NO:   ONE LINE PER DEPTH STEP
~WELL INFORMATION
#MNEM.UNIT      DATA TYPE    INFORMATION
#----------   ------------   ------------------------------
 STRT.F           20.0000:   START DEPTH
 STOP.F          436.5000:   STOP DEPTH
 STEP.F            0.5000:   STEP LENGTH
 NULL.          -999.2500:   NO VALUE
 COMP. FENIX & SCISSON INC:   COMPANY
 WELL. NPR 3 SX-10 #55-10:   WELL
 FLD .        YEAPOT DOME:   FIELD
 LOC .      S10 T38N R78W:   LOCATION
 CNTY.            NATRONA:   COUNTY
 STAT.            WYOMING:   STATE
 CTRY. UNITED STATES OF AMERICA:   COUNTRY
 SRVC.           BIRDWELL:   SERVICE COMPANY
 DATE.        06-JUN-1978:   LOGDATE
 API .       490251062900:   API NUMBER
~CURVE INFORMATION
#MNEM.UNIT       API CODE    CURVE DESCRIPTION
#----------   ------------   ------------------------------
 DEPT.F                  :   
 GRD .GAPI   45 310 01 00:   GAMMA RAY FROM DENSITY LOG
 CALD.IN     45 280 60 00:   CALIPER FROM DENSITY LOG
 RHOB.G/C3   45 350 01 00:   BULK DENSITY
 DPHI.DEC    45 890 12 00:   DENSITY POROSITY SANDSTONE
 CORR.G/C3   45 356 01 00:   DENSITY CORRECTION
 SPR .MV     05 010 01 00:   SPONTANEOUS POTENTIAL FROM RES.
 SN  .OHMM   05 040 16 00:   SHORT NORMAL 16"
 ILD .OHMM   05 120 46 00:   INDUCTION LOG DEEP
~PARAMETER INFORMATION
#MNEM.UNIT          VALUE    DESCRIPTION
#----------   ------------   ------------------------------
 PD  .                 GL:   PERMANENT DATUM
 EPD .F              5202:   ELEVATION PERMANENT DATUM
 LMF .                 KB:   LOG MEASURED FROM
 DAPD.F                 4:   FEET ABOVE PERMANENT DATUM
 DMF .                 KB:   DRILLING MEASURED FROM
 EKB .F              5206:   KELLING BUSHING
 EGL .F              5202:   GROUND LEVEL
 DATE.             6-6-78:   RUN DATE
 RUN .                  1:   RUN NUMBER
 DD  .F               425:   DEPTH DRILLER
 DL  .F               436:   DEPTH LOGGER
 BLI .F               432:   BOTTOM LOG INTERVAL
 TLI .F                40:   TOP LOG INTERVAL
 CS  .IN            8.625:   CASING SIZE
 CBD .F                40:   CASING BOTTOM DRILLER
 CBL .F                40:   CASING BOTTOM LOGGER
 BS  .IN            7.875:   BIT SIZE
 BSD .F               425:   BIT SIZE AT DEPTH
 DFT .            KCL/OIL:   DRILLING FLUID TYPE
 DFD .                8.6:   DRILLING FLUID DENSITY
 DFV .                 34:   DRILLING FLUID VISCOSITY
 DFPH.                 10:   DRILLING FLUID PH
 DFL .                7.6:   DRILLING FLUID LOSS
 MSS .                PIT:   MUD SAMPLE SOURCE
 TCS .HRS               4:   TIME CURCULATED STOPPED
 LUN .               2958:   LOGGING UNIT NUMBER
 LUL .               CASP:   LOGGING UNIT LOCATION
 ENGI.            POINTER:   RECORDING ENGINEER
 WITN.           MCGINLEY:   WITNESSED BY
 CLNT.            A2DTECH:   CLIENT CODE
 ORIG. 1", 2", 2.5", 5" PRINT:   ORIGIN OF DATA
 UWI .       490251062900:   UNIQUE WELL ID
 DICO. A2D Technologies, Inc.:   DIGITIZING COMPANY
~OTHER INFORMATION
~A   DEPT       GRD      CALD       RHOB       DPHI       CORR        SPR         SN        ILD   
# ...
  101.0000    85.3684     7.7361     2.4433     0.1466     0.0447  -999.2500  -999.2500     5.2328
  101.5000    85.3407     8.0087     2.4467     0.1462     0.0494  -999.2500  -999.2500     5.1408
  102.0000    86.3929     8.1515     2.4520     0.1428     0.0537  -999.2500  -999.2500     5.1580
  102.5000    87.3370     8.1850     2.4573     0.1395     0.0581  -999.2500  -999.2500     5.1862
  103.0000    88.1618     8.1827     2.4628     0.1362     0.0598  -999.2500  -999.2500     5.2139
  103.5000    88.2650     8.1334     2.4646     0.1323     0.0510  -999.2500  -999.2500     5.2419
  104.0000    87.6325     8.0878     2.4575     0.1373     0.0429  -999.2500  -999.2500     5.2700
  104.5000    86.2753     8.0430     2.4508     0.1442     0.0364  -999.2500  -999.2500     5.4069
  105.0000    85.1105     7.9963     2.4436     0.1453     0.0360  -999.2500  -999.2500     5.6732
  105.5000    85.0429     7.9532     2.4395     0.1469     0.0354  -999.2500  -999.2500     5.9570
  106.0000    85.0309     7.8695     2.4376     0.1484     0.0349  -999.2500  -999.2500     6.0997
  106.5000    85.1293     7.7321     2.4355     0.1499     0.0344  -999.2500  -999.2500     6.1239
  107.0000    86.1248     7.5973     2.4333     0.1515     0.0340  -999.2500  -999.2500     6.1239
  107.5000    86.9682     7.4614     2.4314     0.1530     0.0335  -999.2500  -999.2500     6.1239
  108.0000    87.8824     7.3267     2.4294     0.1545     0.0330  -999.2500  -999.2500     6.1239
  108.5000    88.7654     7.1885     2.4351     0.1527     0.0326  -999.2500  -999.2500     6.2203
  109.0000    89.7048     7.0562     2.4419     0.1473     0.0325  -999.2500  -999.2500     6.3411
  109.5000    90.6837     6.9380     2.4488     0.1419     0.0325  -999.2500  -999.2500     6.4643
  110.0000    91.1622     6.9792     2.4558     0.1364     0.0325  -999.2500  -999.2500     6.5895
  110.5000    91.3799     7.0209     2.4627     0.1334     0.0326  -999.2500  -999.2500     6.7151
  111.0000    91.3861     7.2165     2.4680     0.1339     0.0326  -999.2500  -999.2500     6.8727
  111.5000    91.3921     7.3993     2.4651     0.1310     0.0348  -999.2500  -999.2500     7.0314
  112.0000    91.3907     7.5904     2.4625     0.1339     0.0378  -999.2500  -999.2500     7.1933
  112.5000    91.3856     7.7811     2.4597     0.1368     0.0409  -999.2500  -999.2500     7.3873
  113.0000    91.3822     7.9652     2.4571     0.1397     0.0438  -999.2500  -999.2500     7.6335
  113.5000    91.0139     8.1541     2.4538     0.1412     0.0470  -999.2500  -999.2500     7.8878
  114.0000    90.5253     8.1980     2.4548     0.1391     0.0500  -999.2500  -999.2500     8.1507
  114.5000    90.0166     8.2408     2.4596     0.1369     0.0500  -999.2500  -999.2500     8.3759
  115.0000    89.7363     8.2175     2.4636     0.1347     0.0408  -999.2500  -999.2500     8.3759
  115.5000    89.6590     8.1963     2.4532     0.1408     0.0400  -999.2500  -999.2500     8.3362
  116.0000    89.5475     8.1719     2.4418     0.1470     0.0392  -999.2500  -999.2500     8.2507
  116.5000    89.4649     8.1326     2.4359     0.1505     0.0388   -20.5411  -999.2500     7.8085
  117.0000    89.3054     8.0266     2.4357     0.1504     0.0382   -17.1810  -999.2500     7.2093
  117.5000    88.9404     7.9191     2.4346     0.1502     0.0377   -15.5311  -999.2500     6.7734
  118.0000    88.7016     7.8164     2.4338     0.1501     0.0371   -22.6824  -999.2500     6.8232
  118.5000    89.0940     7.6957     2.4332     0.1500     0.0366   -25.3094  -999.2500     6.8779
  119.0000    89.4056     7.6516     2.4387     0.1498     0.0360   -25.5548  -999.2500     6.9332
  119.5000    89.6791     7.6040     2.4440     0.1479     0.0355   -25.5568  -999.2500     6.9668
  120.0000    89.0806     7.5608     2.4508     0.1436     0.0349   -25.5528  -999.2500     6.5979
  120.5000    88.2809     7.5139     2.4572     0.1393     0.0344   -25.5492  -999.2500     6.3071
  121.0000    89.4930     7.4738     2.4622     0.1350     0.0338   -25.3451  -999.2500     6.0678
  121.5000    90.6184     7.3802     2.4614     0.1355     0.0333   -24.6985  -999.2500     6.0999
  122.0000    91.8588     7.2367     2.4610     0.1352     0.0327   -24.0574  -999.2500     6.1282
  122.5000    92.8630     7.0934     2.4652     0.1329     0.0327   -23.4199  -999.2500     6.1565
  123.0000    92.0074     7.0741     2.4690     0.1308     0.0329   -23.3441  -999.2500     6.1851
  123.5000    91.2083     7.1090     2.4704     0.1312     0.0332   -23.3454  -999.2500     6.2137
  124.0000    90.2318     7.2301     2.4668     0.1327     0.0334   -23.3466  -999.2500     6.2425
  124.5000    89.8903     7.4112     2.4625     0.1344     0.0337   -23.3470  -999.2500     6.2715
  125.0000    90.2805     7.5907     2.4582     0.1366     0.0339   -23.3472  -999.2500     6.3005
  125.5000    90.5955     7.7333     2.4540     0.1388     0.0341   -23.3270  -999.2500     6.3297
  126.0000    90.9068     7.8328     2.4496     0.1410     0.0344   -23.1771  -999.2500     6.3538
  126.5000    91.6514     7.9392     2.4455     0.1432     0.0346   -23.0273  -999.2500     5.9211
  127.0000    92.4379     8.0445     2.4411     0.1453     0.0348   -22.8782  -999.2500     5.5134
  127.5000    93.2695     8.1544     2.4409     0.1475     0.0351   -22.7299  -999.2500     5.1338
  128.0000    92.2376     8.2175     2.4405     0.1497     0.0353   -22.5953  -999.2500     4.7803
  128.5000    91.0547     8.2382     2.4354     0.1519     0.0355   -21.6401  -999.2500     4.4511
  129.0000    89.8251     8.2107     2.4326     0.1544     0.0358   -20.5613  -999.2500     4.1594
  129.5000    88.9558     8.1759     2.4386     0.1496     0.0360   -20.5351  -999.2500     4.1213
  130.0000    88.2214     8.1387     2.4455     0.1450     0.0363   -20.5406  -999.2500     4.2074
  130.5000    88.4670     8.1061     2.4470     0.1467     0.0365   -20.5464     4.7928     4.2878
  131.0000    88.8756     8.0422     2.4399     0.1489     0.0377   -20.3341     6.3455     4.3698
  131.5000    89.3329     7.9462     2.4383     0.1511     0.0388   -20.0726     7.2900     4.4534
  132.0000    89.2052     7.8530     2.4435     0.1498     0.0401   -19.8083     7.6094     4.5384
  132.5000    88.8523     7.8988     2.4483     0.1458     0.0392   -19.5497     7.7276     4.6451
  133.0000    86.9152     7.9104     2.4481     0.1419     0.0373   -19.5964     7.7524     4.6141
  133.5000    85.5118     7.8633     2.4477     0.1448     0.0355   -19.6569     7.7809     4.5743
  134.0000    85.6407     7.8189     2.4468     0.1473     0.0337   -19.7091     7.6856     4.5344
  134.5000    86.4462     7.7737     2.4479     0.1453     0.0319   -19.9323     7.5756     4.4949
  135.0000    86.2513     7.7284     2.4502     0.1434     0.0301   -19.9389     7.4671     4.4557
  135.5000    85.4614     7.6881     2.4522     0.1414     0.0286   -19.9410     7.3626     4.4170
  136.0000    85.6525     7.6748     2.4543     0.1395     0.0286   -19.9359     7.3276     4.3785
  136.5000    88.0189     7.6635     2.4563     0.1376     0.0286   -20.1933     7.2936     4.3404
  137.0000    89.9479     7.6561     2.4584     0.1365     0.0286   -20.5548     7.2597     4.3026
  137.5000    90.7425     7.5978     2.4568     0.1373     0.0286   -20.9225     7.2260     4.2652
  138.0000    91.3092     7.4715     2.4551     0.1381     0.0286   -21.2890     7.1925     4.2283
  138.5000    90.3910     7.3374     2.4531     0.1389     0.0286   -21.4177     7.1619     4.1916
  139.0000    89.6386     7.3272     2.4512     0.1404     0.0286   -21.5046     7.0794     4.1323
  139.5000    89.2687     7.4199     2.4498     0.1443     0.0286   -21.5914     6.9663     3.9244
  140.0000    89.0990     7.5009     2.4443     0.1481     0.0285   -21.6784     6.7892     3.7268
  140.5000    89.1079     7.5821     2.4361     0.1520     0.0299   -21.7450     6.6165     3.5393
  141.0000    89.4293     7.6658     2.4278     0.1559     0.0335   -21.7441     6.4483     3.3612
