~VERSION INFORMATION
 VERS.                2.0:   CWLS LOG ASCII STANDARD - VERSION 2.0
 WRAP.                 NO:   ONE LINE PER DEPTH STEP
~WELL INFORMATION
#MNEM.UNIT      DATA TYPE    INFORMATION
#----------   ------------   ------------------------------
 STRT.F         1400.0000:   START DEPTH
 STOP.F         3422.0000:   STOP DEPTH
 STEP.F            0.5000:   STEP LENGTH
 NULL.          -999.2500:   NO VALUE
 COMP. LAWRENCE/ALLISON INC:   COMPANY
 WELL.   NPR 3 #36-STX-23:   WELL
 FLD .             TEAPOT:   FIELD
 LOC .      S23 T38N R78W:   LOCATION
 CNTY.            NATRONA:   COUNTY
 STAT.            WYOMING:   STATE
 CTRY. UNITED STATES OF AMERICA:   COUNTRY
 SRVC.            Unknown:   SERVICE COMPANY
 DATE.        04-JAN-1985:   LOGDATE
 API .       490251137700:   API NUMBER
~CURVE INFORMATION
#MNEM.UNIT       API CODE    CURVE DESCRIPTION
#----------   ------------   ------------------------------
 DEPT.F                  :   
 ROP .MIN/FT 91 810 01 00:   RAT OF DRILLING PENETRATION
 TGAS.UNITS  91 830 01 00:   TOTAL GAS UNIT
~PARAMETER INFORMATION
#MNEM.UNIT          VALUE    DESCRIPTION
#----------   ------------   ------------------------------
 DATE.           1-4-1985:   RUN DATE
 RUN .                  1:   RUN NUMBER
 DD  .F              3427:   DEPTH DRILLER
 TLI .F              1400:   TOP LOG INTERVAL
 BSD .F              3427:   BIT SIZE AT DEPTH
 WITN. RAY ANDERSON/JACK HARBISON:   WITNESSED BY
 CLNT.            A2DTECH:   CLIENT CODE
 ORIG.           5" PRINT:   ORIGIN OF DATA
 UWI .       490251137700:   UNIQUE WELL ID
 DICO. A2D Technologies, Inc.:   DIGITIZING COMPANY
~OTHER INFORMATION
~A  DEPT       ROP       TGAS   
# ...
 2979.5000     0.7717   104.0686
 2980.0000     0.7711   105.8782
 2980.5000     0.7704   105.7303
 2981.0000     0.7698   105.5825
 2981.5000     0.7692   107.3954
 2982.0000     0.7685   109.2083
 2982.5000     0.7679   111.0581
 2983.0000     0.7673   148.1282
 2983.5000     0.7666   344.0587
 2984.0000     0.7660   310.5775
 2984.5000     0.7653   198.6650
 2985.0000     0.7647   127.9289
 2985.5000     0.7649   108.1731
 2986.0000     0.7654   104.1037
 2986.5000     0.8043   103.9558
 2987.0000     0.8817   103.8079
 2987.5000     0.9688   103.6600
 2988.0000     1.0267   103.5121
 2988.5000     1.0259    99.4427
 2989.0000     1.0252    97.3341
 2989.5000     1.0245    93.2646
 2990.0000     1.0238    89.1951
 2990.5000     1.0231    87.0865
 2991.0000     1.0223    88.9364
 2991.5000     1.0216    90.7493
 2992.0000     1.0209    92.5621
 2992.5000     1.0202    88.4558
 2993.0000     1.0195    86.3471
 2993.5000     1.0187    82.2776
 2994.0000     1.0180    80.1689
 2994.5000     1.0173    78.0603
 2995.0000     1.0166    77.9124
 2995.5000     1.0159    79.7623
 2996.0000     0.9962    81.9151
 2996.5000     0.8792    85.3489
 2997.0000     0.7574    85.1960
 2997.5000     0.6357    85.0490
 2998.0000     0.5269    84.9020
 2998.5000     0.5274    84.7549
 2999.0000     0.5253    82.5595
 2999.5000     0.5233    78.5784
 3000.0000     0.5214    78.4313
 3000.5000     0.5197    78.6419
 3001.0000     0.5196    78.8526
 3001.5000     0.5195    79.0632
 3002.0000     0.5194    79.2739
 3002.5000     0.5193    79.4845
 3003.0000     0.5193    79.6951
 3003.5000     0.5192    79.9058
 3004.0000     0.5191    78.0392
 3004.5000     0.5190    77.9902
 3005.0000     0.5189    77.9412
 3005.5000     0.5189    77.8922
 3006.0000     0.5188    77.8431
 3006.5000     0.5187    77.7941
 3007.0000     0.5186    77.7451
 3007.5000     0.5185    77.6961
 3008.0000     0.5185    77.6471
 3008.5000     0.5184    77.5980
 3009.0000     0.5183    77.5490
 3009.5000     0.5182    77.5000
 3010.0000     0.5181    77.4510
 3010.5000     0.5181    77.4020
 3011.0000     0.5180    77.3529
 3011.5000     0.5179    77.3039
 3012.0000     0.5178    77.2549
 3012.5000     0.5177    77.2059
 3013.0000     0.5176    77.1568
 3013.5000     0.5176    77.1078
 3014.0000     0.5175    77.0588
 3014.5000     0.5174    77.0098
 3015.0000     0.5173    76.9608
 3015.5000     0.5172   218.0864
 3016.0000     0.5394   222.0915
 3016.5000     0.5891    90.5378
 3017.0000     0.6388    82.6458
 3017.5000     0.6885    80.6362
 3018.0000     0.7394    80.5874
 3018.5000     0.7397    80.5386
 3019.0000     0.7399    80.4898
 3019.5000     0.7401    80.4410
 3020.0000     0.7404    80.3922
 3020.5000     0.7406    80.3431
 3021.0000     0.7409    80.2941
 3021.5000     0.7411    82.2065
 3022.0000     0.7413    82.1569
 3022.5000     0.7416    82.1079
 3023.0000     0.7418    80.0981
 3023.5000     0.7421    80.0490
 3024.0000     0.7423    80.0000
 3024.5000     0.7425    77.9902
 3025.0000     0.7428    77.6144
 3025.5000     0.7430    75.9314
 3026.0000     0.7433    77.8334
 3026.5000     0.8181    75.8238
 3027.0000     0.9086    71.8534
 3027.5000     1.0133    69.8438
 3028.0000     1.0135    67.8342
 3028.5000     0.8791    67.7854
 3029.0000     0.8121    67.7365
 3029.5000     0.7642    69.6607
 3030.0000     0.8125    69.5997
 3030.5000     0.8801    71.5239
 3031.0000     0.9476    71.4629
 3031.5000     0.9959    71.4140
 3032.0000     1.0250    73.3382
 3032.5000     0.9387    75.2502
 3033.0000     0.8717    75.1892
 3033.5000     0.7950    75.1404
 3034.0000     0.7375    75.0915
 3034.5000     0.7385    77.0157
 3035.0000     0.7395    76.9547
 3035.5000     0.7406    76.9059
 3036.0000     0.7416    76.8570
 3036.5000     0.7426    74.8474
 3037.0000     0.7437    72.8379
 3037.5000     0.7447    70.8283
 3038.0000     0.7458    70.7794
 3038.5000     0.7468    74.6644
 3039.0000     0.7479    74.6034
 3039.5000     0.7489    68.6722
 3040.0000     0.7500    58.8195
 3040.5000     0.7502    58.7706
 3041.0000     0.7505    58.7218
 3041.5000     0.7507    58.6730
 3042.0000     0.7510    60.5850
 3042.5000     0.7512    60.5362
 3043.0000     0.7514    60.4874
 3043.5000     0.7517    58.4778
 3044.0000     0.7519    58.4289
 3044.5000     0.7522    58.3801
 3045.0000     0.7524    60.2941
 3045.5000     0.7526    60.2433
 3046.0000     0.7529    62.1568
 3046.5000     0.7531    64.0686
 3047.0000     0.7534    67.9400
 3047.5000     0.7536   350.2451
 3048.0000     0.7804   350.1953
 3048.5000     0.8564   191.3229
 3049.0000     0.9324    87.3525
 3049.5000     1.0084    78.1721
 3050.0000     0.9831    68.9148
 3050.5000     0.9077    61.3658
 3051.0000     0.8324    60.3810
 3051.5000     0.7748    58.8820
 3052.0000     0.7462    57.3830
 3052.5000     0.7368    55.8840
 3053.0000     0.7370    53.2026
 3053.5000     0.7373    52.8588
 3054.0000     0.8048    51.1111
 3054.5000     0.9301    53.0082
 3055.0000     1.0457    52.9411
 3055.5000     1.0459    54.8377
 3056.0000     1.0462    56.7328
 3056.5000     1.0368    58.6279
 3057.0000     1.0370    58.5621
 3057.5000     1.0277    58.4965
 3058.0000     0.9702    58.4308
 3058.5000     0.8935    58.3651
 3059.0000     0.8457    60.2614
 3059.5000     0.7979    62.1554
 3060.0000     0.7596    60.1289
 3060.5000     0.7596    60.0632
 3061.0000     0.7596    58.0367
 3061.5000     0.7596    57.9711
 3062.0000     0.7596    57.9054
 3062.5000     0.7596    61.7613
 3063.0000     0.7596    61.6956
 3063.5000     0.7596    63.6071
 3064.0000     0.7596    63.5250
 3064.5000     0.7596    63.4593
 3065.0000     0.7596    63.3937
 3065.5000     0.7596    61.3672
 3066.0000     0.7593    57.3800
 3066.5000     0.7589    55.3535
 3067.0000     0.7586    53.3271
 3067.5000     0.7583    51.3006
 3068.0000     0.7579    53.2121
 3068.5000     0.7576    51.1692
 3069.0000     0.7573    51.1036
 3069.5000     0.7569    53.0151
 3070.0000     0.7566    52.9330
 3070.5000     0.7563    54.8390
 3071.0000     0.7559    54.7624
 3071.5000     0.7556    54.6967
 3072.0000     0.7553    54.6310
 3072.5000     0.7549    54.5653
 3073.0000     0.7546    54.4997
 3073.5000     0.7543    54.4340
 3074.0000     0.7539    56.3291
 3074.5000     0.7536    52.3418
 3075.0000     0.7533    48.3546
 3075.5000     0.7529    48.2889
 3076.0000     0.7526    48.2232
 3076.5000     0.7523    46.1968
 3077.0000     0.7519    46.1311
 3077.5000     0.7516    42.1439
 3078.0000     0.7513    42.0915
 3078.5000     0.7509   234.1803
 3079.0000     0.7506   671.3726
 3079.5000     0.7503   667.3823
 3080.0000     0.7500   316.3362
 3080.5000     0.7497   147.6431
 3081.0000     0.7495    49.5382
 3081.5000     0.7492    47.5282
 3082.0000     0.7490    51.3676
 3082.5000     0.7488    55.2235
 3083.0000     0.7485    53.1970
 3083.5000     0.7483    53.1314
 3084.0000     0.7480    51.1049
 3084.5000     0.7478    51.0392
 3085.0000     0.7476    50.9735
 3085.5000     0.7473    50.9079
 3086.0000     0.7471    50.8422
 3086.5000     0.7469    50.7765
 3087.0000     0.7466    50.7108
 3087.5000     0.7464    52.6224
 3088.0000     0.7461    52.5403
 3088.5000     0.7459    52.4746
 3089.0000     0.7457    54.3861
 3089.5000     0.7454    54.3040
 3090.0000     0.7452    54.2383
 3090.5000     0.7450    54.1726
 3091.0000     0.7447    54.1070
 3091.5000     0.7445    54.0413
 3092.0000     0.7442    53.9756
 3092.5000     0.7440    53.9099
 3093.0000     0.7438    53.8443
 3093.5000     0.7435    53.7786
 3094.0000     0.7433    53.7129
 3094.5000     0.7431    53.6472
 3095.0000     0.7428    53.5948
 3095.5000     0.7426    53.5294
 3096.0000     0.7423    53.4641
 3096.5000     0.7421    53.1322
 3097.0000     0.7419    51.3726
 3097.5000     0.7416    51.4979
 3098.0000     0.7414    53.2039
 3098.5000     0.7412    53.1372
 3099.0000     0.7409    51.1112
 3099.5000     0.7407    51.0458
 3100.0000     0.7404    50.9804
 3100.5000     0.7401    50.6025
