~VERSION INFORMATION
 VERS.                2.0:   CWLS LOG ASCII STANDARD - VERSION 2.0
 WRAP.                 NO:   ONE LINE PER DEPTH STEP
~WELL INFORMATION
#MNEM.UNIT      DATA TYPE    INFORMATION
#----------   ------------   ------------------------------
 STRT.F           64.0000:   START DEPTH
 STOP.F          795.0000:   STOP DEPTH
 STEP.F            0.5000:   STEP LENGTH
 NULL.          -999.2500:   NO VALUE
 COMP. LAWRENCE/ALLISON INC:   COMPANY
 WELL.      23-61 SX #2-2:   WELL
 FLD .             TEAPOT:   FIELD
 LOC .       S2 T38N R78W:   LOCATION
 CNTY.            NATRONA:   COUNTY
 STAT.            WYOMING:   STATE
 CTRY. UNITED STATES OF AMERICA:   COUNTRY
 SRVC.              Welex:   SERVICE COMPANY
 DATE.        14-AUG-1985:   LOGDATE
 API .       490251103800:   API NUMBER
~CURVE INFORMATION
#MNEM.UNIT       API CODE    CURVE DESCRIPTION
#----------   ------------   ------------------------------
 DEPT.F                  :   
 SPR .MV     07 010 01 00:   SPONTANEOUS POTENTIAL
 ILD .OHMM   07 120 46 00:   INDUCTION LOG DEEP
 ILM .OHMM   07 120 44 00:   INDUCTION LOG MEDIUM
 SGRD.OHMM   07 221 05 00:   SHALLOW SHORT GUARD RESISTIVITY
 DPHI.DEC    45 890 12 00:   DENSITY POROSITY SANDSTONE
 NPHI.DEC    42 890 03 00:   NEUTRON POROSITY SANDSTONE
 GRD .GAPI   45 310 01 00:   GAMMA RAY FROM DENSITY LOG
 CALD.IN     45 280 60 00:   CALIPER FROM DENSITY
 CORR.G/C3   45 356 01 00:   DENSITY CORRECTION
 RHOB.G/C3   45 350 01 00:   BULK DENSITY
~PARAMETER INFORMATION
#MNEM.UNIT          VALUE    DESCRIPTION
#----------   ------------   ------------------------------
 PD  .                 GL:   PERMANENT DATUM
 EPD .F              5112:   ELEVATION PERMANENT DATUM
 LMF .                 GL:   LOG MEASURED FROM
 DMF .                 GL:   DRILLING MEASURED FROM
 EGL .F              5112:   GROUND LEVEL
 DATE.        14-AUG-1985:   RUN DATE
 RUN .                  1:   RUN NUMBER
 DD  .F               800:   DEPTH DRILLER
 DL  .F               797:   DEPTH LOGGER
 BLI .F               795:   BOTTOM LOG INTERVAL
 TLI .F                76:   TOP LOG INTERVAL
 CS  .IN            8.625:   CASING SIZE
 CBD .F                76:   CASING BOTTOM DRILLER
 CBL .F                76:   CASING BOTTOM LOGGER
 BS  .IN            7.875:   BIT SIZE
 BSD .F               800:   BIT SIZE AT DEPTH
 DFT .                KCL:   DRILLING FLUID TYPE
 MSS .               TANK:   MUD SAMPLE SOURCE
 RMS .OHMM           0.22:   RESISTIVITY MUD SAMPLE
 MST .F                64:   MUD SAMPLE TEMPERATURE
 MFSS.               MEAS:   MUD FILTRATE SAMPLE SOURCE
 TCS .HRS            2230:   TIME CURCULATED STOPPED
 TLAB.HRS            0200:   TIME LOGGER AT BOTTOM
 LUN .               1892:   LOGGING UNIT NUMBER
 LUL .             CASPER:   LOGGING UNIT LOCATION
 ENGI.         T. QUINLAN:   RECORDING ENGINEER
 WITN.        N. JENNINGS:   WITNESSED BY
 CLNT.            A2DTECH:   CLIENT CODE
 ORIG.        2" 5" PRINT:   ORIGIN OF DATA
 UWI .       490251103800:   UNIQUE WELL ID
 DICO. A2D Technologies, Inc.:   DIGITIZING COMPANY
 R1  . POROSITY WITH SANDSTONE:   REMARKS 1
~OTHER INFORMATION
~A   DEPT      SPR        ILD        ILM       SGRD       DPHI       NPHI         GRD      CALD       CORR       RHOB   
# ...
  164.5000   -34.4075    12.3925    14.1060    13.7935     0.1879     0.3134    84.1794     8.0704     0.0312     2.3648
  165.0000   -33.9412    12.4696    14.0993    14.1691     0.1891     0.3146    84.1647     8.0550     0.0288     2.3632
  165.5000   -33.5390    12.6370    14.1928    14.3583     0.1915     0.3119    83.8554     8.0695     0.0219     2.3592
  166.0000   -33.9853    12.7176    14.3836    14.4529     0.1976     0.3086    82.6532     8.0691     0.0165     2.3504
  166.5000   -34.1318    12.7097    14.4776    14.2428     0.2031     0.3075    81.7486     8.0685     0.0164     2.3417
  167.0000   -34.1281    12.7912    14.7766    14.1360     0.2013     0.3087    80.8441     8.0681     0.0186     2.3408
  167.5000   -34.1251    12.9628    14.9769    14.1282     0.1998     0.3102    81.4276     8.0676     0.0216     2.3423
  168.0000   -33.8232    13.0453    15.2864    14.5201     0.1975     0.3100    82.9040     8.0672     0.0237     2.3452
  168.5000   -33.9697    13.2203    15.3962    14.8191     0.1963     0.3090    84.9756     8.0668     0.0244     2.3512
  169.0000   -34.2658    13.3977    15.5947    15.2301     0.1974     0.3079    86.7496     8.0663     0.0213     2.3473
  169.5000   -34.5625    13.3894    15.6963    15.3305     0.2072     0.3083    88.8212     8.0659     0.0158     2.3336
  170.0000   -34.7090    13.5816    15.6869    15.6440     0.2130     0.3089    90.8929     8.0655     0.0150     2.3229
  170.5000   -34.8555    13.6731    15.7910    15.8551     0.2179     0.3083    92.0912     8.0650     0.0126     2.3144
  171.0000   -34.5529    13.7428    16.0052    16.1816     0.2228     0.3066    92.9528     8.0637     0.0133     2.3091
  171.5000   -33.5036    14.0227    16.1095    16.0602     0.2255     0.3054    92.3429     8.0023     0.0162     2.3044
  172.0000   -32.7533    14.1143    16.2126    15.8290     0.2268     0.3066    90.8431     7.9744     0.0207     2.3005
  172.5000   -32.3019    14.5048    16.5495    15.7102     0.2256     0.3079    89.3433     8.1227     0.0236     2.3003
  173.0000   -32.7474    14.8001    17.0077    15.7014     0.2184     0.3091    87.5459     8.1371     0.0266     2.3132
  173.5000   -34.0948    15.2096    17.7263    15.9303     0.2077     0.3088    86.3437     8.1666     0.0305     2.3435
  174.0000   -34.5352    15.5217    18.4753    16.4672     0.1958     0.3043    85.1415     8.1660     0.0392     2.3626
  174.5000   -34.3478    15.7325    19.5265    17.4030     0.1840     0.3003    83.9393     8.1358     0.0482     2.3753
  175.0000   -32.8101    16.1678    20.2100    19.5839     0.1782     0.2950    83.3324     8.0610     0.0481     2.3803
  175.5000   -30.4897    16.1553    20.4845    20.6968     0.1834     0.2926    81.5349     8.0010     0.0450     2.3681
  176.0000   -30.3373    16.2608    19.6348    19.4264     0.1876     0.2957    79.7375     7.9857     0.0426     2.3581
  176.5000   -31.6796    16.0231    18.5595    16.0818     0.1928     0.3057    77.9401     8.0020     0.0387     2.3437
  177.0000   -32.2746    15.6814    18.4219    15.6305     0.2089     0.3109    76.7183     8.1038     0.0303     2.3269
  177.5000   -32.5713    15.3471    18.2700    15.6220     0.2223     0.3079    79.1071     8.1630     0.0234     2.3026
  178.0000   -32.7171    15.2309    17.8973    15.5048     0.2308     0.3049    83.9166     8.1774     0.0195     2.2919
  178.5000   -34.5079    14.9020    17.7625    15.1753     0.2309     0.3055    87.4171     8.1769     0.0194     2.2918
  179.0000   -35.1028    14.7932    17.6305    15.1669     0.2281     0.3071    86.2119     8.1616     0.0193     2.2993
  179.5000   -35.0999    14.6661    17.4995    15.0532     0.2239     0.3083    85.0098     8.1314     0.0207     2.3083
  180.0000   -35.0969    14.3661    17.4911    15.2563     0.2199     0.3093    83.5099     8.1012     0.0236     2.3158
  180.5000   -34.4961    14.3572    17.3611    15.5705     0.2164     0.3090    82.9059     8.0710     0.0205     2.3180
  181.0000   -34.0447    14.1495    17.3527    15.2395     0.2177     0.3075    87.3556     8.0557     0.0159     2.3156
  181.5000   -33.8922    13.9448    17.3444    15.1251     0.2189     0.3048    88.8320     8.0552     0.0165     2.3147
  182.0000   -34.0389    13.9361    17.3360    15.1166     0.2186     0.3015    87.6298     8.0547     0.0197     2.3154
  182.5000   -34.3348    13.9275    17.3277    15.1066     0.2165     0.3002    86.1300     8.0692     0.0248     2.3168
  183.0000   -34.4863    13.9189    17.1989    15.0983     0.2117     0.3037    85.5230     8.0984     0.0302     2.3214
  183.5000   -34.3263    13.7175    17.0711    15.0900     0.2063     0.3053    86.9994     8.0980     0.0366     2.3309
  184.0000   -33.8774    13.5190    16.8264    14.7693     0.2015     0.3065    88.7734     8.1126     0.0433     2.3467
  184.5000   -34.0240    13.5106    16.8183    14.6585     0.1963     0.3074    92.0355     8.1269     0.0402     2.3536
  185.0000   -33.9959    13.2225    16.6933    14.6504     0.1973     0.3087    89.6429     8.1116     0.0332     2.3520
  185.5000   -33.8679    12.7613    16.4541    14.9521     0.1988     0.3078    88.4008     8.0814     0.0294     2.3450
  186.0000   -34.3134    12.0610    16.3316    15.0506     0.1998     0.3063    86.9405     8.0512     0.0270     2.3419
  186.5000   -37.4494    11.3991    15.8444    15.0403     0.1965     0.3052    89.3072     8.0507     0.0277     2.3517
  187.0000   -41.7813    10.6987    14.1892    14.4157     0.1871     0.3076    90.4889     8.0503     0.0306     2.3690
  187.5000   -44.6184     9.8332    12.0796    13.3433     0.1744     0.3125    90.1766     8.0498     0.0335     2.3901
  188.0000   -45.6625     9.0943    10.7233    11.6801     0.1587     0.3153    89.5697     8.0493     0.0357     2.4173
  188.5000   -45.2104     8.3524     9.5859    10.3680     0.1526     0.3183    90.7484     8.0489     0.0326     2.4263
  189.0000   -44.7590     7.8247     8.5692     9.0724     0.1505     0.3199    95.4986     8.0485     0.0241     2.4285
  189.5000   -44.6066     7.0653     8.2139     8.3378     0.1510     0.3214   102.3322     8.0480     0.0225     2.4269
  190.0000   -44.7531     6.6775     7.9839     7.8775     0.1518     0.3239   106.1895     8.0625     0.0216     2.4268
  190.5000   -45.7965     6.4897     7.7605     7.5564     0.1506     0.3272   107.3712     8.0646     0.0238     2.4290
  191.0000   -45.9438     6.3072     7.4387     7.6051     0.1479     0.3297   106.1661     8.0467     0.0253     2.4335
  191.5000   -45.7906     6.3033     7.3330     7.6552     0.1446     0.3315   104.9639     8.0311     0.0268     2.4379
  192.0000   -45.9371     6.2994     7.4324     7.8129     0.1431     0.3273   102.5712     7.9994     0.0296     2.4409
  192.5000   -48.7742     6.4287     7.6384     8.0285     0.1471     0.3213   102.5595     7.9858     0.0234     2.4312
  193.0000   -50.5650     6.4707     7.7961     8.2512     0.1532     0.3177   103.7579     7.9853     0.0195     2.4225
  193.5000   -51.4640     6.5119     7.7922     8.4211     0.1554     0.3171   104.3218     7.9849     0.0194     2.4186
  194.0000   -51.2965     6.4167     7.6272     8.4765     0.1569     0.3211   103.7119     8.0143     0.0216     2.4162
  194.5000   -50.5560     6.2799     7.4114     8.2952     0.1588     0.3252   103.4026     8.0288     0.0231     2.4131
  195.0000   -50.4037     6.2760     7.3073     8.0625     0.1603     0.3288   102.4980     8.0282     0.0267     2.4100
  195.5000   -50.5502     6.2721     7.2530     7.8363     0.1640     0.3300   103.6768     8.0129     0.0319     2.4054
  196.0000   -48.9023     6.2682     7.3004     7.7775     0.1676     0.3261   106.3437     7.9827     0.0356     2.4007
  196.5000   -46.9562     6.2643     7.3479     7.7732     0.1692     0.3240   109.6058     7.9823     0.0408     2.3961
  197.0000   -47.2522     6.2605     7.3958     7.8233     0.1665     0.3228   109.5941     7.9670     0.0438     2.4028
  197.5000   -47.6984     6.2566     7.5477     8.0403     0.1607     0.3244   108.9871     7.9515     0.0482     2.4141
