~VERSION INFORMATION
 VERS.                2.0:   CWLS LOG ASCII STANDARD - VERSION 2.0
 WRAP.                 NO:   ONE LINE PER DEPTH STEP
~WELL INFORMATION
#MNEM.UNIT      DATA TYPE    INFORMATION
#----------   ------------   ------------------------------
 STRT.F           22.5000:   START DEPTH
 STOP.F          644.0000:   STOP DEPTH
 STEP.F            0.5000:   STEP LENGTH
 NULL.          -999.2500:   NO VALUE
 COMP.    FELIX & SCISION:   COMPANY
 WELL.     NPR #3 #14-S-2:   WELL
 FLD .             TEAPOT:   FIELD
 LOC .       S2 T38N R78W:   LOCATION
 CNTY.            NATRONA:   COUNTY
 STAT.            WYOMING:   STATE
 CTRY. UNITED STATES OF AMERICA:   COUNTRY
 SRVC.           BIRDWELL:   SERVICE COMPANY
 DATE.        18-JAN-1978:   LOGDATE
 API .       490251055600:   API NUMBER
~CURVE INFORMATION
#MNEM.UNIT       API CODE    CURVE DESCRIPTION
#----------   ------------   ------------------------------
 DEPT.F                  :   
 CALD.IN     45 280 60 00:   CALIPER FROM DENSITY LOG
 CORR.G/C3   45 356 01 00:   DENSITY CORRECTION
 DPHI.DEC    45 890 12 00:   DENSITY POROSITY SANDSTONE
 GRD .GAPI   45 310 01 00:   GAMMA RAY FROM DENSITY LOG
 RHOB.G/C3   45 350 01 00:   BULK DENSITY
 ILD .OHMM   05 120 46 00:   INDUCTION LOG DEEP
 SPR .MV     05 010 01 00:   SPONTANEOUS POTENTIAL FROM RES.
 SN  .OHMM   05 040 16 00:   SHORT NORMAL 16"
~PARAMETER INFORMATION
#MNEM.UNIT          VALUE    DESCRIPTION
#----------   ------------   ------------------------------
 PD  .                 GL:   PERMANENT DATUM
 EPD .F              5121:   ELEVATION PERMANENT DATUM
 LMF .                 KB:   LOG MEASURED FROM
 DAPD.F                 4:   FEET ABOVE PERMANENT DATUM
 DMF .                 KB:   DRILLING MEASURED FROM
 EKB .F              5126:   KELLING BUSHING
 EGL .F              5121:   GROUND LEVEL
 DATE.          1-18-1978:   RUN DATE
 RUN .                  1:   RUN NUMBER
 DD  .F               645:   DEPTH DRILLER
 DL  .F               648:   DEPTH LOGGER
 BLI .F               642:   BOTTOM LOG INTERVAL
 TLI .F                39:   TOP LOG INTERVAL
 CS  .IN            8.625:   CASING SIZE
 CBD .F                39:   CASING BOTTOM DRILLER
 BS  .IN            7.875:   BIT SIZE
 BSD .F               645:   BIT SIZE AT DEPTH
 DFT .                KCL:   DRILLING FLUID TYPE
 DFD .                8.8:   DRILLING FLUID DENSITY
 DFV .                 34:   DRILLING FLUID VISCOSITY
 DFPH.                9.5:   DRILLING FLUID PH
 DFL .                6.4:   DRILLING FLUID LOSS
 MSS .                PIT:   MUD SAMPLE SOURCE
 RMS .OHMM            .38:   RESISTIVITY MUD SAMPLE
 MST .F                43:   MUD SAMPLE TEMPERATURE
 RMF .OHMM            .26:   RESISTIVITY MUD FILTRATE SAMPLE
 MFST.F                70:   MUD FILTRATE SAMPLE TEMPERATURE
 RMC .OHMM            .42:   RESISTIVITY MUD CAKE
 MCST.F                70:   MUD CAKE SAMPLE TEMPERATURE
 MFSS.           MEASURED:   MUD FILTRATE SAMPLE SOURCE
 MCSS.           MEASURED:   MUD CAKE SAMPLE SOURCE
 RMB .OHMM            .24:   RESISTIVITY MUD AT BHT
 BHT .F                69:   BOTTOM HOLE TEMPERATURE
 TCS .HRS               2:   TIME CURCULATED STOPPED
 MRT .F                69:   MAXIMUM RECORDED TEMPERATURE
 LUN .               2958:   LOGGING UNIT NUMBER
 LUL .             CASPER:   LOGGING UNIT LOCATION
 ENGI.           REYNOLDS:   RECORDING ENGINEER
 WITN.         HARRINGTON:   WITNESSED BY
 CLNT.            A2DTECH:   CLIENT CODE
 ORIG.      2" , 5" PRINT:   ORIGIN OF DATA
 UWI .       490251055600:   UNIQUE WELL ID
 DICO. A2D Technologies, Inc.:   DIGITIZING COMPANY
~OTHER INFORMATION
~A   DEPT     CALD       CORR       DPHI         GRD      RHOB        ILD        SPR         SN   
# ...
  184.5000     8.0036     0.0819     0.1420    84.1487     2.4197    10.4133   -22.0595    10.2936
  185.0000     8.0195     0.0842     0.1420    85.6474     2.4190    10.3443   -22.2025    10.2266
  185.5000     8.0341     0.0873     0.1420    91.3040     2.4182    10.2757   -22.1964    10.2305
  186.0000     8.0321     0.0896     0.1426    92.0547     2.4160    10.2076   -22.3395    10.2343
  186.5000     8.0302     0.0927     0.1438    91.6192     2.4123    10.1400   -22.3333    10.2381
  187.0000     8.0283     0.0972     0.1449    91.4809     2.4116    10.1435   -22.4765    10.2420
  187.5000     8.0263     0.1041     0.1449    92.0881     2.4131    10.1463   -22.7667    10.1753
  188.0000     8.0244     0.1086     0.1443    93.2871     2.4139    10.1490   -22.7608    10.1793
  188.5000     8.0224     0.1140     0.1437    93.0000     2.4139    10.0818   -22.6061    10.1129
  189.0000     8.0205     0.1163     0.1437    92.5646     2.4139    10.0845   -22.3026    10.0480
  189.5000     8.0185     0.1193     0.1430    93.4814     2.4140    10.0170   -22.1479    10.0518
  190.0000     8.0166     0.1224     0.1424    97.2016     2.4147     9.8820   -22.1420    10.0556
  190.5000     8.0146     0.1270     0.1418    97.8133     2.4170     9.8853   -22.1361    10.0593
  191.0000     8.0127     0.1316     0.1405    98.2764     2.4208     9.8881   -22.1302    10.0631
  191.5000     8.0107     0.1316     0.1380    98.4136     2.4299     9.8908   -22.1242     9.9967
  192.0000     8.0088     0.1316     0.1330    98.4239     2.4374     9.8935   -22.1183    10.0014
  192.5000     8.0069     0.1309     0.1306    97.8398     2.4398     9.8962   -22.1124    10.0051
  193.0000     8.0062     0.1302     0.1302    96.0671     2.4413     9.8306   -22.2568     9.9400
  193.5000     7.9924     0.1295     0.1299    94.2917     2.4413     9.8333   -22.3997     9.8753
  194.0000     7.9786     0.1288     0.1299    94.8989     2.4413     9.8360   -22.6914     9.8790
  194.5000     7.9647     0.1288     0.1296    96.0979     2.4406     9.7708   -22.6840     9.8138
  195.0000     7.9658     0.1281     0.1302    96.9997     2.4391     9.7736   -22.6781     9.8184
  195.5000     7.9687     0.1282     0.1304    98.3473     2.4369     9.7763   -22.9713     9.8221
  196.0000     7.9827     0.1282     0.1310    99.6957     2.4362     9.7790   -23.2630     9.8258
  196.5000     7.9840     0.1290     0.1310   101.9348     2.4370     9.7141   -23.4059     9.8976
  197.0000     7.9850     0.1313     0.1304   104.7683     2.4393     9.6497   -23.3985     9.9013
  197.5000     7.9860     0.1321     0.1291   106.1159     2.4415     9.5857   -23.3926     9.8368
  198.0000     7.9871     0.1329     0.1276   105.6804     2.4438     9.4571   -23.3867     9.7640
  198.5000     7.9881     0.1330     0.1249    98.1127     2.4484     9.3938   -23.3808     9.5761
  199.0000     7.9740     0.1338     0.1222    96.7831     2.4507     9.2678   -23.2261     9.3196
  199.5000     7.9601     0.1338     0.1215    97.3903     2.4514     9.1422   -23.3690     9.1320
  200.0000     7.9762     0.1324     0.1212    98.5893     2.4522     8.9569   -23.2134     9.0093
  200.5000     7.9313     0.1270     0.1209    97.2606     2.4523     8.8337   -23.2032     8.8287
  201.0000     7.8716     0.1233     0.1212    94.5948     2.4523     8.6521   -23.1929     8.6510
  201.5000     7.8300     0.1210     0.1212    92.6720     2.4524     8.3706   -23.1826     8.4768
  202.0000     7.8011     0.1114     0.1224    91.7893     2.4517     8.1458   -23.6190     8.3054
  202.5000     7.7871     0.1084     0.1232    90.0150     2.4509     7.9821   -23.9062     8.0829
  203.0000     7.7731     0.1032     0.1244    87.3492     2.4487     7.9298   -24.1935     7.9751
  203.5000     7.7742     0.0942     0.1268    86.9122     2.4473     7.8789   -23.8854     7.9781
  204.0000     7.7751     0.0851     0.1389    88.0030     2.4285     7.8291   -23.7083     7.9811
  204.5000     7.7760     0.0852     0.1461    89.4998     2.4082     7.8873   -23.5670     7.9840
  205.0000     7.7768     0.0905     0.1476    90.0612     2.4053     7.9459   -23.5546     8.0981
  205.5000     7.7926     0.0951     0.1466    89.9192     2.4084     8.1166   -23.5443     8.2138
  206.0000     7.8084     0.0966     0.1448    89.1873     2.4114     8.3485   -23.6854     8.4469
  206.5000     7.8092     0.0989     0.1442    88.0074     2.4114     8.6468   -23.8240     8.6270
  207.0000     7.7952     0.0982     0.1427    86.9760     2.4205     8.7110   -24.1113     8.8109
  207.5000     7.8110     0.0952     0.1426    87.5792     2.4258     8.7152   -24.2473     8.8804
  208.0000     7.8145     0.0922     0.1454    90.7083     2.4078     8.7194   -24.2370     8.9402
  208.5000     7.8278     0.0953     0.1487    93.0945     2.4018     8.7245   -24.2267     8.9435
  209.0000     7.8287     0.0968     0.1495    94.2921     2.4019     8.8504   -24.2165     8.9476
  209.5000     7.8296     0.0984     0.1486    95.7867     2.4057     8.8546   -24.2062     8.8885
  210.0000     7.8454     0.0992     0.1455    97.4300     2.4125     8.9204   -24.0471     8.8307
  210.5000     7.8611     0.0992     0.1426    98.7761     2.4163     8.9247   -24.0368     8.8348
  211.0000     7.8769     0.1000     0.1407    99.5278     2.4201     8.9289   -23.8778     8.7765
  211.5000     7.8926     0.0993     0.1404    98.9423     2.4202     8.9332   -23.8675     8.7806
  212.0000     7.8935     0.0971     0.1407    95.3850     2.4187     8.8747   -23.7083     8.7839
  212.5000     7.9093     0.0948     0.1416    93.0163     2.4165     8.9417   -23.6979     8.7872
  213.0000     7.9399     0.0934     0.1449    95.8801     2.4074     8.9459   -23.6875     8.8514
  213.5000     7.9557     0.0957     0.1476    97.0461     2.4023     8.9502   -23.6750     8.8547
  214.0000     7.9722     0.0980     0.1452    96.2645     2.4121     8.8926   -23.8161     8.7963
  214.5000     7.9863     0.0995     0.1412    94.0939     2.4189     8.7745   -23.9547     8.7390
  215.0000     7.9861     0.0995     0.1391    93.2111     2.4205     8.7122   -24.0906     8.7431
  215.5000     7.9858     0.0988     0.1376    92.7742     2.4228     8.6621   -24.2317     8.6861
  216.0000     7.9856     0.1011     0.1373    92.0400     2.4236     8.6673   -24.2189     8.6895
  216.5000     7.9853     0.1049     0.1367    90.7115     2.4244     8.6714   -24.2086     8.7530
  217.0000     7.9850     0.1050     0.1355    90.5695     2.4349     8.6755   -24.1984     8.7563
  217.5000     7.9848     0.1027     0.1318    91.4721     2.4350     8.7400   -24.1881     8.7596
  218.0000     7.9845     0.1005     0.1303    93.4125     2.4358     8.7441   -24.1778     8.7629
  218.5000     7.9843     0.0983     0.1300    94.6100     2.4366     8.6869   -24.1675     8.7552
  219.0000     7.9840     0.0976     0.1296    94.3216     2.4389     8.6310   -24.1573     8.7091
  219.5000     7.9838     0.0969     0.1288    92.5474     2.4419     8.5756   -24.2958     8.5337
  220.0000     7.9835     0.0984     0.1272    90.0302     2.4442     8.5215   -24.4344     8.4206
  220.5000     7.9833     0.0970     0.1266    90.1875     2.4458     8.5255   -24.4241     8.3075
  221.0000     7.9830     0.0962     0.1263    92.4252     2.4466     8.4707   -24.2649     8.2534
  221.5000     7.9828     0.0955     0.1278    91.9882     2.4391     8.4748   -24.1057     8.1997
  222.0000     7.9825     0.0948     0.1305    91.2521     2.4354     8.4789   -24.0952     8.2036
  222.5000     7.9823     0.0956     0.1320    90.8171     2.4332     8.4830   -23.9340     8.2066
  223.0000     7.9820     0.0956     0.1323    90.8440     2.4325     8.4879   -23.9237     8.2097
  223.5000     7.9817     0.0957     0.1319    91.4552     2.4340     8.4919   -23.9135     8.2128
  224.0000     7.9815     0.0958     0.1313    92.3316     2.4371     8.4960   -23.9032     8.2159
  224.5000     7.9812     0.0935     0.1286    91.5974     2.4499     8.5000   -24.0417     8.2190
