~VERSION INFORMATION
 VERS.                2.0:   CWLS LOG ASCII STANDARD - VERSION 2.0
 WRAP.                 NO:   ONE LINE PER DEPTH STEP
~WELL INFORMATION
#MNEM.UNIT      DATA TYPE    INFORMATION
#----------   ------------   ------------------------------
 STRT.F           30.0000:   START DEPTH
 STOP.F          655.5000:   STOP DEPTH
 STEP.F            0.5000:   STEP LENGTH
 NULL.          -999.2500:   NO VALUE
 COMP. FENIX & SCISSON INC:   COMPANY
 WELL.    NPR-3 SX #52-15:   WELL
 FLD .             TEAPOT:   FIELD
 LOC .      S15 T38N R78W:   LOCATION
 CNTY.            NATRONA:   COUNTY
 STAT.            WYOMING:   STATE
 CTRY. UNITED STATES OF AMERICA:   COUNTRY
 SRVC.            Unknown:   SERVICE COMPANY
 DATE.        27-MAY-1978:   LOGDATE
 API .       490251062200:   API NUMBER
~CURVE INFORMATION
#MNEM.UNIT       API CODE    CURVE DESCRIPTION
#----------   ------------   ------------------------------
 DEPT.F                  :   
 GRD .GAPI   45 310 01 00:   GAMMA RAY FROM DENSITY LOG
 CALD.IN     45 280 60 00:   CALIPER
 RHOB.G/C3   45 350 01 00:   BULK DENSITY
 DPHI.DEC    45 890 12 00:   DENSITY POROSITY SANDSTONE
 CORR.G/C3   45 356 01 00:   DENSITY CORRECTION
 SN  .OHMM   05 040 16 00:   SHORT NORMAL 16"
 IL  .OHMM   05 120 00 00:   INDUCTION LOG
 SPR .MV     05 010 01 00:   SPONTANEOUS POTENTIAL FROM RES.
~PARAMETER INFORMATION
#MNEM.UNIT          VALUE    DESCRIPTION
#----------   ------------   ------------------------------
 PD  .                 GL:   PERMANENT DATUM
 EPD .F              5240:   ELEVATION PERMANENT DATUM
 LMF .                 KB:   LOG MEASURED FROM
 DAPD.F                 4:   FEET ABOVE PERMANENT DATUM
 DMF .                 GL:   DRILLING MEASURED FROM
 EKB .F              5244:   KELLING BUSHING
 EGL .F              5240:   GROUND LEVEL
 DATE.          5-27-1978:   RUN DATE
 RUN .                  1:   RUN NUMBER
 DD  .F               645:   DEPTH DRILLER
 DL  .F               655:   DEPTH LOGGER
 BLI .F               650:   BOTTOM LOG INTERVAL
 TLI .F                50:   TOP LOG INTERVAL
 CS  .IN            8.625:   CASING SIZE
 CBD .F                40:   CASING BOTTOM DRILLER
 CBL .F                40:   CASING BOTTOM LOGGER
 BS  .IN            7.875:   BIT SIZE
 BSD .F               645:   BIT SIZE AT DEPTH
 DFT .                KCL:   DRILLING FLUID TYPE
 DFD .                8.6:   DRILLING FLUID DENSITY
 DFV .                 32:   DRILLING FLUID VISCOSITY
 DFPH.               10.5:   DRILLING FLUID PH
 DFL .                7.4:   DRILLING FLUID LOSS
 MSS .           FLOWLINE:   MUD SAMPLE SOURCE
 RMS .OHMM            .30:   RESISTIVITY MUD SAMPLE
 MST .F                66:   MUD SAMPLE TEMPERATURE
 RMF .OHMM            .32:   RESISTIVITY MUD FILTRATE SAMPLE
 MFST.F                64:   MUD FILTRATE SAMPLE TEMPERATURE
 RMC .OHMM            .50:   RESISTIVITY MUD CAKE
 MCST.F                64:   MUD CAKE SAMPLE TEMPERATURE
 MFSS.           MEASURED:   MUD FILTRATE SAMPLE SOURCE
 BHT .F                68:   BOTTOM HOLE TEMPERATURE
 TCS .HRS               2:   TIME CURCULATED STOPPED
 MRT .F                68:   MAXIMUM RECORDED TEMPERATURE
 LUN .               2958:   LOGGING UNIT NUMBER
 LUL .              CASP.:   LOGGING UNIT LOCATION
 ENGI.            POINTER:   RECORDING ENGINEER
 WITN.           MCGINLEY:   WITNESSED BY
 CLNT.            A2DTECH:   CLIENT CODE
 ORIG.      2" , 5" PRINT:   ORIGIN OF DATA
 UWI .       490251062200:   UNIQUE WELL ID
 DICO. A2D Technologies, Inc.:   DIGITIZING COMPANY
~OTHER INFORMATION
~A   DEPT       GRD      CALD       RHOB       DPHI       CORR         SN         IL        SPR   
# ...
  394.5000   103.7152     7.6580     2.4511     0.1451     0.0664     5.9562     6.1798   -22.8953
  395.0000   103.2068     7.6297     2.4417     0.1404     0.0732     5.8333     6.0522   -22.9550
  395.5000   104.3539     7.6022     2.4388     0.1357     0.0798     5.7416     5.9570   -22.9999
  396.0000   106.9082     7.5502     2.4500     0.1296     0.0786     5.7416     5.9570   -22.8287
  396.5000   108.8172     7.4474     2.4614     0.1209     0.0767     5.8728     6.1090   -22.6567
  397.0000   109.4468     7.3874     2.4728     0.1234     0.0749     6.0747     6.3378   -22.4878
  397.5000   109.9743     7.3550     2.4799     0.1232     0.0691     6.2815     6.5752   -22.0757
  398.0000   109.8142     7.3282     2.4817     0.1242     0.0606     6.4953     6.8216   -21.4747
  398.5000   109.0576     7.3890     2.4798     0.1239     0.0540     6.7164     7.0771   -20.8745
  399.0000   109.4294     7.4518     2.4778     0.1207     0.0541     6.9451     7.3422   -20.3758
  399.5000   110.0520     7.4744     2.4764     0.1154     0.0538     7.1815     7.6173   -20.2302
  400.0000   105.6181     7.4512     2.4855     0.1098     0.0634     7.4258     7.9026   -20.0799
  400.5000   102.4782     7.4283     2.4947     0.1042     0.0740     7.6805     8.2230   -19.9288
  401.0000   102.6547     7.4053     2.5042     0.0987     0.0847     7.8984     8.4142   -19.7757
  401.5000   102.9453     7.3823     2.5101     0.0952     0.0953     8.0435     8.6273   -19.6300
  402.0000   102.4873     7.3598     2.5159     0.0965     0.1058     8.1899     8.8518   -19.8352
  402.5000   101.9678     7.3549     2.5218     0.0979     0.1041     8.2230     8.7183   -20.1483
  403.0000   103.0662     7.3815     2.5263     0.1019     0.1015     8.1476     8.5831   -20.8605
  403.5000   104.5171     7.4075     2.5242     0.1093     0.0945     8.1476     8.4534   -21.5695
  404.0000   102.4078     7.4337     2.5127     0.1116     0.0801     8.0089     8.3095   -21.9754
  404.5000    97.8494     7.4599     2.5019     0.1128     0.0657     7.8759     8.1715   -22.1012
  405.0000    96.4585     7.4859     2.4999     0.1275     0.0514     7.7452     8.0358   -22.2013
  405.5000    97.6891     7.5121     2.4945     0.1327     0.0370     7.6166     7.9024   -22.2116
  406.0000    98.9535     7.5150     2.4772     0.1320     0.0243     7.4910     7.7720   -22.2113
  406.5000   102.2098     7.4962     2.4622     0.1317     0.0272     7.3493     7.6427   -22.2112
  407.0000   105.6927     7.4775     2.4646     0.1321     0.0303     7.1986     7.5192   -22.2112
  407.5000   108.0034     7.4718     2.4663     0.1305     0.0334     7.0499     7.3966   -22.2112
  408.0000   107.3522     7.4917     2.4652     0.1273     0.0364     6.9029     7.2782   -22.2115
  408.5000   105.9626     7.5112     2.4665     0.1259     0.0395     6.6712     7.1219   -22.2105
  409.0000   104.5302     7.5306     2.4723     0.1275     0.0409     6.4447     6.8666   -22.2163
  409.5000   103.2033     7.5503     2.4746     0.1329     0.0420     6.2259     6.6192   -21.8826
  410.0000   103.2617     7.5790     2.4736     0.1436     0.0430     6.0436     6.3808   -21.4024
  410.5000   103.3637     7.6433     2.4561     0.1539     0.0443     5.9857     6.1500   -20.9139
  411.0000   103.2746     7.7084     2.4362     0.1539     0.0500     5.9024     6.1233   -20.4275
  411.5000   103.1616     7.7398     2.4252     0.1500     0.0559     5.9492     6.1838   -20.0380
  412.0000   103.0476     7.7620     2.4260     0.1385     0.0629     6.0429     6.2722   -20.2530
  412.5000   102.9361     7.7836     2.4483     0.1269     0.0746     6.3246     6.5619   -20.4579
  413.0000   102.8196     7.7856     2.4710     0.1153     0.0806     6.6906     6.9416   -20.6614
  413.5000   103.1284     7.7400     2.4935     0.1037     0.0817     7.0777     7.3433   -20.8647
  414.0000   104.3453     7.7043     2.5156     0.1018     0.0766     7.4873     7.7683   -21.0689
  414.5000   105.7438     7.7047     2.5238     0.1146     0.0665     7.7623     8.0900   -21.2704
  415.0000   105.2560     7.7065     2.5093     0.1159     0.0579     7.8897     8.3935   -21.3664
  415.5000   105.6118     7.7112     2.4968     0.1176     0.0581     7.9755     8.6902   -21.1516
  416.0000   107.9392     7.7158     2.4915     0.1193     0.0580     8.0623     8.7172   -20.9483
  416.5000   110.2934     7.7205     2.4897     0.1195     0.0608     8.1500     8.7427   -20.7449
  417.0000   111.4270     7.7240     2.4846     0.1144     0.0645     8.2386     8.7684   -20.5423
  417.5000   111.4823     7.7183     2.4831     0.1092     0.0760     8.3283     8.7941   -20.3640
  418.0000   109.3499     7.7126     2.4958     0.1041     0.0876     8.4188     8.8199   -20.2273
  418.5000   105.4700     7.7070     2.5080     0.0989     0.0989     8.5316     8.8518   -20.0899
  419.0000   102.7964     7.6990     2.5201     0.0954     0.1027     8.5291     8.8463   -19.9526
  419.5000   102.6614     7.6894     2.5287     0.0946     0.1062     8.5247     8.8368   -19.8153
  420.0000   103.2904     7.6797     2.5285     0.0938     0.1058     8.5203     8.8273   -19.6776
  420.5000   104.5684     7.6701     2.5289     0.0919     0.1055     8.5159     8.8177   -19.5402
  421.0000   105.8371     7.6693     2.5311     0.0898     0.1052     8.5115     8.8082   -19.4188
  421.5000   107.0468     7.6798     2.5333     0.0914     0.1050     8.5071     8.7988   -19.4219
  422.0000   108.1774     7.6902     2.5355     0.0957     0.1047     8.5027     8.7893   -19.4223
  422.5000   109.1926     7.7006     2.5379     0.0990     0.1044     8.4984     8.7798   -19.4223
  423.0000   109.1627     7.7110     2.5242     0.0990     0.1059     8.4940     8.7704   -19.4223
  423.5000   109.8951     7.7214     2.5185     0.0977     0.1100     8.4896     8.7609   -19.4223
  424.0000   111.2993     7.7319     2.5231     0.0941     0.1141     8.4852     8.7515   -19.4223
  424.5000   110.7750     7.7425     2.5285     0.0904     0.1183     8.4809     8.7420   -19.4223
  425.0000   109.7766     7.7466     2.5339     0.0868     0.1260     8.4765     8.7326   -19.4223
  425.5000   108.8926     7.7492     2.5393     0.0832     0.1373     8.4721     8.7232   -19.4222
  426.0000   107.4637     7.7518     2.5447     0.0793     0.1430     8.4678     8.7138   -19.4226
  426.5000   105.9580     7.7544     2.5501     0.0825     0.1443     8.4635     8.7046   -19.4399
  427.0000   106.8812     7.7570     2.5555     0.0879     0.1443     8.4589     8.6928   -19.4588
  427.5000   108.3164     7.7596     2.5501     0.0934     0.1432     8.4547     8.6936   -19.4776
  428.0000   107.7663     7.7623     2.5404     0.0930     0.1401     8.3984     8.5505   -19.4965
  428.5000   107.3585     7.7622     2.5324     0.0926     0.1370     8.3201     8.4575   -19.5153
  429.0000   107.3576     7.7432     2.5306     0.0946     0.1340     8.2424     8.3655   -19.5341
  429.5000   107.3987     7.7240     2.5305     0.0967     0.1309     8.1655     8.2745   -19.5529
  430.0000   108.9336     7.7050     2.5279     0.0987     0.1279     8.0419     8.1845   -19.5717
  430.5000   110.0166     7.6859     2.5225     0.1008     0.1248     7.9059     7.9846   -19.5905
  431.0000   110.0953     7.6667     2.5211     0.1030     0.1218     7.7723     7.7632   -19.6093
  431.5000   112.1732     7.6469     2.5179     0.1067     0.1187     7.6409     7.5478   -19.6282
  432.0000   115.1413     7.6703     2.5113     0.1155     0.1157     7.5118     7.3385   -19.6470
  432.5000   114.9247     7.7011     2.5026     0.1178     0.1146     7.3848     7.1349   -19.6658
  433.0000   113.7471     7.6881     2.4938     0.1190     0.1151     7.2600     6.9370   -19.6846
  433.5000   109.2895     7.6690     2.4900     0.1264     0.1156     7.1373     6.7446   -19.7034
  434.0000   104.7850     7.6489     2.4808     0.1331     0.1165     7.0166     6.6332   -19.7222
  434.5000   103.8610     7.6550     2.4697     0.1277     0.1263     6.8980     6.5922   -19.7410
