~VERSION INFORMATION
 VERS.                2.0:   CWLS LOG ASCII STANDARD - VERSION 2.0
 WRAP.                 NO:   ONE LINE PER DEPTH STEP
~WELL INFORMATION
#MNEM.UNIT      DATA TYPE    INFORMATION
#----------   ------------   ------------------------------
 STRT.F           29.0000:   START DEPTH
 STOP.F          500.0000:   STOP DEPTH
 STEP.F            0.5000:   STEP LENGTH
 NULL.          -999.2500:   NO VALUE
 COMP.    FENIX & SCISSON:   COMPANY
 WELL.        NPR #48-S-3:   WELL
 FLD .             TEAPOT:   FIELD
 LOC .       S3 T38N R78W:   LOCATION
 CNTY.            NATRONA:   COUNTY
 STAT.            WYOMING:   STATE
 CTRY. UNITED STATES OF AMERICA:   COUNTRY
 SRVC.              Welex:   SERVICE COMPANY
 DATE.        24-APR-1977:   LOGDATE
 API .       490251034900:   API NUMBER
~CURVE INFORMATION
#MNEM.UNIT       API CODE    CURVE DESCRIPTION
#----------   ------------   ------------------------------
 DEPT.F                  :   
 SPR .MV     07 010 01 00:   SPONTANEOUS POTENTIAL
 ILD .OHMM   07 120 46 00:   INDUCTION LOG DEEP
 ILM .OHMM   07 120 44 00:   INDUCTION LOG MEDIUM
 SGRD.OHMM   07 221 05 00:   SHALLOW SHORT GUARD RESISTIVITY
 GRD .GAPI   45 310 01 00:   GAMMA RAY FROM DENSITY LOG
 CALD.IN     45 280 60 00:   CALIPER FROM DENSITY LOG
 CORR.G/C3   45 356 01 00:   DENSITY CORRECTION
 RHOB.G/C3   45 350 01 00:   BULK DENSITY
 DPHI.DEC    45 890 12 00:   DENSITY POROSITY SANDSTONE
~PARAMETER INFORMATION
#MNEM.UNIT          VALUE    DESCRIPTION
#----------   ------------   ------------------------------
 PD  .                 GL:   PERMANENT DATUM
 EPD .F              5199:   ELEVATION PERMANENT DATUM
 LMF .                 GL:   LOG MEASURED FROM
 DMF .                 GL:   DRILLING MEASURED FROM
 EGL .F              5199:   GROUND LEVEL
 DATE.        24-APR-1977:   RUN DATE
 RUN .                  1:   RUN NUMBER
 DD  .F               500:   DEPTH DRILLER
 DL  .F               499:   DEPTH LOGGER
 BLI .F               497:   BOTTOM LOG INTERVAL
 TLI .F                30:   TOP LOG INTERVAL
 CS  .IN            8.625:   CASING SIZE
 BS  .IN               12:   BIT SIZE
 BSD .F               500:   BIT SIZE AT DEPTH
 DFT .             KCLMUD:   DRILLING FLUID TYPE
 DFD .                8.9:   DRILLING FLUID DENSITY
 TCS .HRS               1:   TIME CURCULATED STOPPED
 MRT .F                70:   MAXIMUM RECORDED TEMPERATURE
 ENGI.          T. JOYNER:   RECORDING ENGINEER
 WITN.            R. LYON:   WITNESSED BY
 CLNT.            A2DTECH:   CLIENT CODE
 ORIG.           5" PRINT:   ORIGIN OF DATA
 UWI .       490251034900:   UNIQUE WELL ID
 DICO. A2D Technologies, Inc.:   DIGITIZING COMPANY
~OTHER INFORMATION
~A   DEPT      SPR        ILD        ILM       SGRD        GRD         CALD      CORR        RHOB     DPHI   
# ...
  321.0000   -33.3096    26.6432    22.1432    45.9925    88.9053     7.8158     0.0084     2.3782     0.1489
  321.5000   -32.8701    25.2317    19.4026    39.8221    87.6527     7.8299     0.0084     2.3459     0.1707
  322.0000   -32.5617    23.8949    18.2481    29.0079    89.9842     7.8289     0.0083     2.3309     0.1857
  322.5000   -32.2532    22.6290    17.8853    26.1736    92.1518     7.8432     0.0083     2.3233     0.1906
  323.0000   -32.0932    21.2825    17.9051    25.8339    95.4205     7.8421     0.0076     2.3256     0.1932
  323.5000   -31.7848    20.4357    18.0453    24.8041    99.5860     7.8569     0.0076     2.3321     0.1918
  324.0000   -31.7731    19.4873    18.0613    23.8109    95.9968     7.8551     0.0075     2.3387     0.1870
  324.5000   -31.7614    18.5829    18.0773    25.5368    93.0608     7.8543     0.0083     2.3432     0.1838
  325.0000   -31.6014    18.0920    18.0933    25.7618    91.3570     7.8534     0.0083     2.3318     0.1847
  325.5000   -31.5897    17.9832    18.1094    25.3990    94.1762     7.8376     0.0082     2.3362     0.1883
  326.0000   -31.4297    17.9997    17.8765    25.4179    96.5508     7.8368     0.0090     2.3377     0.1892
  326.5000   -31.4180    18.0190    17.5250    25.4369    97.7332     7.8208     0.0090     2.3375     0.1866
  327.0000   -31.4063    18.0350    17.2996    24.7625    97.4227     7.8199     0.0089     2.3345     0.1857
  327.5000   -31.3947    18.1762    16.9593    24.2730    96.5185     7.8190     0.0089     2.3284     0.1882
  328.0000   -31.3828    18.1922    16.6230    24.9760    95.4654     7.8182     0.0097     2.3231     0.1959
  328.5000   -31.3709    18.2083    16.2896    25.1678    94.7103     7.8157     0.0097     2.3160     0.2014
  329.0000   -31.3567    18.2244    15.9629    25.1866    94.5514     7.8015     0.0111     2.3131     0.2005
  329.5000   -31.3450    18.1109    15.6644    24.5188    94.2409     7.8154     0.0119     2.3235     0.1955
  330.0000   -31.3334    18.0060    15.3598    23.7045    94.3825     7.8146     0.0119     2.3309     0.1895
  330.5000   -31.3217    17.8937    15.1623    23.2316    95.8604     7.7988     0.0126     2.3428     0.1850
  331.0000   -31.3100    17.7862    15.0678    24.4047    97.6389     7.7979     0.0133     2.3510     0.1762
  331.5000   -31.2983    17.3201    15.4007    25.1068   100.0135     7.7969     0.0133     2.3546     0.1732
  332.0000   -31.2867    16.8625    15.8466    24.9480    99.1069     7.7811     0.0141     2.3553     0.1729
  332.5000   -31.4263    16.4170    16.4186    23.6294    94.7750     7.7802     0.0148     2.3552     0.1733
  333.0000   -31.5601    16.0870    17.1293    24.1420    93.4263     7.7794     0.0155     2.3544     0.1739
  333.5000   -31.6997    15.8872    17.8707    24.3275    98.1829     7.7783     0.0170     2.3543     0.1736
  334.0000   -31.8334    15.5782    18.2614    24.3456   101.1614     7.7774     0.0170     2.3558     0.1731
  334.5000   -31.8218    15.4811    18.7902    23.8643    98.9058     7.7766     0.0169     2.3586     0.1722
  335.0000   -31.9585    15.2854    19.4684    23.8866    97.1075     7.7757     0.0170     2.3637     0.1711
  335.5000   -32.0951    15.2989    19.8941    23.9044    96.0543     7.7599     0.0169     2.3689     0.1693
  336.0000   -32.2318    15.3125    20.1890    22.1727    95.2993     7.7589     0.0169     2.3711     0.1672
  336.5000   -32.2172    15.2204    20.3473    22.6536    94.9911     7.7732     0.0147     2.3710     0.1658
  337.0000   -32.3569    15.2339    20.3656    23.6250    95.5750     7.7721     0.0147     2.3724     0.1658
  337.5000   -32.3423    15.2473    20.2202    23.4800    97.0554     7.8014     0.0116     2.3783     0.1635
  338.0000   -32.3306    15.0512    19.8447    23.3402    98.2377     7.8153     0.0109     2.3894     0.1593
  338.5000   -32.3189    14.8576    19.3247    22.8788    98.6751     7.8142     0.0091     2.3953     0.1534
  339.0000   -32.3072    14.7679    18.8101    22.2722    96.8225     7.8133     0.0086     2.3945     0.1516
  339.5000   -32.2956    14.4779    18.0656    21.6817    93.4365     7.8125     0.0078     2.3898     0.1532
  340.0000   -32.1355    14.3909    17.8293    21.6979    92.9795     7.8116     0.0063     2.3853     0.1547
  340.5000   -32.1238    14.2058    17.9729    21.8650    93.2676     7.8108     0.0062     2.3867     0.1556
  341.0000   -31.9638    14.2183    17.9889    22.0328    93.5557     7.8249     0.0055     2.3874     0.1556
  341.5000   -31.9521    14.1329    18.0048    22.2023    95.1498     7.8238     0.0055     2.3858     0.1542
  342.0000   -31.9405    14.0479    18.0208    22.2224    98.7520     7.8381     0.0055     2.3834     0.1551
  342.5000   -31.9288    13.9634    17.9085    22.2390    98.1435     7.8370     0.0047     2.3796     0.1575
  343.0000   -31.9171    13.8795    17.6821    22.2556    96.3452     7.8362     0.0047     2.3773     0.1593
  343.5000   -32.0538    13.7960    17.4542    22.2722    96.7824     7.8351     0.0039     2.3787     0.1608
  344.0000   -32.0392    13.7131    17.1115    22.1355    98.1137     7.8343     0.0032     2.3794     0.1608
  344.5000   -32.0275    13.5367    16.7743    21.9996    97.8033     7.8185     0.0032     2.3778     0.1599
  345.0000   -32.0159    13.4553    16.5519    21.7141    97.0482     7.8176     0.0032     2.3739     0.1593
  345.5000   -32.0042    13.2823    16.2200    21.1384    95.8460     7.8168     0.0039     2.3731     0.1600
  346.0000   -32.1438    13.1143    16.1361    20.7205    93.1515     7.8157     0.0039     2.3797     0.1621
  346.5000   -32.1292    13.0355    16.0391    20.3109    93.2902     7.8300     0.0039     2.3879     0.1642
  347.0000   -32.2688    12.8678    15.9427    19.9094    95.5157     7.8289     0.0038     2.3938     0.1594
  347.5000   -32.2542    12.7905    15.8469    19.6510    98.0393     7.8281     0.0046     2.3997     0.1549
  348.0000   -32.3938    12.7135    15.7516    20.2240    99.5197     7.8270     0.0038     2.3988     0.1517
  348.5000   -32.5305    12.6371    15.5491    20.9605    98.0123     7.8262     0.0038     2.3988     0.1493
  349.0000   -32.5159    12.5611    15.3491    21.5446    97.4110     7.8104     0.0030     2.4024     0.1469
  349.5000   -32.5043    12.4856    15.2568    20.8330    98.4443     7.8095     0.0030     2.4023     0.1457
  350.0000   -32.4926    12.4967    15.0484    20.3849    99.5211     7.8087     0.0031     2.4000     0.1458
  350.5000   -32.7114    12.4610    14.9737    19.9889    99.9148     7.8079     0.0040     2.4018     0.1455
  351.0000   -32.7567    12.4390    14.7824    19.7612   100.5045     7.8072     0.0048     2.4074     0.1440
  351.5000   -32.5915    12.4531    14.6945    19.7794   100.4939     7.8064     0.0057     2.4126     0.1416
  352.0000   -32.2783    12.4671    14.8113    19.7974   100.4854     7.8057     0.0071     2.4164     0.1386
  352.5000   -32.1135    12.5676    15.1365    19.8153   100.4768     7.8199     0.0070     2.4171     0.1400
  353.0000   -32.0970    12.6690    15.3623    20.1091   100.1460     7.8041     0.0062     2.4141     0.1430
  353.5000   -32.0805    12.8597    15.8086    20.4072    99.2654     7.8034     0.0053     2.4057     0.1442
  354.0000   -31.9157    13.0534    16.2678    20.2806    98.0646     7.8027     0.0052     2.3998     0.1434
  354.5000   -31.6025    13.2500    16.7403    20.3036    96.4167     7.7870     0.0051     2.4020     0.1413
  355.0000   -31.4377    13.3568    15.9649    21.3283    93.8747     7.7861     0.0050     2.4102     0.1410
  355.5000   -31.1245    13.5580    14.9129    21.9454    91.4816     7.7854     0.0049     2.4146     0.1410
  356.0000   -30.6629    13.5731    14.1241    21.6592    94.4516     7.7847     0.0041     2.4139     0.1414
  356.5000   -30.2013    13.4909    13.6575    21.0883    97.4237     7.7840     0.0017     2.4019     0.1455
  357.0000   -30.1848    13.4129    13.4798    21.1122    99.0545     7.7833     0.0001     2.3827     0.1593
