~VERSION INFORMATION
 VERS.                2.0:   CWLS LOG ASCII STANDARD - VERSION 2.0
 WRAP.                 NO:   ONE LINE PER DEPTH STEP
~WELL INFORMATION
#MNEM.UNIT      DATA TYPE    INFORMATION
#----------   ------------   ------------------------------
 STRT.F           20.0000:   START DEPTH
 STOP.F          678.0000:   STOP DEPTH
 STEP.F            0.5000:   STEP LENGTH
 NULL.          -999.2500:   NO VALUE
 COMP. FENIX & SCISSON INC:   COMPANY
 WELL. 27-42 SX 11 WO #27-11:   WELL
 FLD .        TEAPOT DOME:   FIELD
 LOC .      S11 T38N R78W:   LOCATION
 CNTY.            NATRONA:   COUNTY
 STAT.            WYOMING:   STATE
 CTRY. UNITED STATES OF AMERICA:   COUNTRY
 SRVC.      Dresser Atlas:   SERVICE COMPANY
 DATE.        13-AUG-1985:   LOGDATE
 API .       490251083800:   API NUMBER
~CURVE INFORMATION
#MNEM.UNIT       API CODE    CURVE DESCRIPTION
#----------   ------------   ------------------------------
 DEPT.F                  :   
 RHOB.G/C3   45 350 01 00:   BULK DENSITY
 CORR.G/C3   45 356 01 00:   DENSITY CORRECTION
 CALD.IN     45 280 60 00:   CALIPER
 GRD .GAPI   45 310 01 00:   GAMMA RAY FROM DENSITY LOG
 DPOR.DEC    45 890 12 00:   DENSITY POROSITY SANDSTONE
 NPOR.DEC    42 890 03 00:   NEUTRON POROSITY SANDSTONE
 SPR .MV     07 010 01 00:   SPONTANEOUS POTENTIAL
 SFL .OHMM   07 220 01 00:   SHALLOW FOCUSED LOG RESISTIVITY
 ILD .OHMM   07 120 46 00:   INDUCTION LOG DEEP
 ILM .OHMM   07 120 44 00:   INDUCTION LOG MEDIUM
~PARAMETER INFORMATION
#MNEM.UNIT          VALUE    DESCRIPTION
#----------   ------------   ------------------------------
 PD  .                 GL:   PERMANENT DATUM
 EPD .F              5188:   ELEVATION PERMANENT DATUM
 LMF .                 KB:   LOG MEASURED FROM
 DAPD.F                 5:   FEET ABOVE PERMANENT DATUM
 DMF .                 KB:   DRILLING MEASURED FROM
 EKB .F              5193:   KELLING BUSHING
 EGL .F              5188:   GROUND LEVEL
 DATE.          8-13-1985:   RUN DATE
 RUN .                  8:   RUN NUMBER
 DD  .F               632:   DEPTH DRILLER
 BLI .F               598:   BOTTOM LOG INTERVAL
 TLI .F               303:   TOP LOG INTERVAL
 CBL .F               303:   CASING BOTTOM LOGGER
 BS  .IN              .75:   BIT SIZE
 BSD .F               632:   BIT SIZE AT DEPTH
 DFT .          KCL WATER:   DRILLING FLUID TYPE
 LUN .            HL-6274:   LOGGING UNIT NUMBER
 LUL .           GILLETTE:   LOGGING UNIT LOCATION
 ENGI.             RAUTIO:   RECORDING ENGINEER
 WITN.            SCHULTE:   WITNESSED BY
 CLNT.            A2DTECH:   CLIENT CODE
 ORIG.           2" PRINT:   ORIGIN OF DATA
 UWI .       490251083800:   UNIQUE WELL ID
 DICO. A2D Technologies, Inc.:   DIGITIZING COMPANY
~OTHER INFORMATION
~A   DEPT     RHOB       CORR       CALD        GRD       DPOR       NPOR        SPR        SFL        ILD          ILM 
# ...
  455.5000     2.5137     0.0249     9.0010   113.3942     0.0984     0.2800    -6.7625     9.3176     8.7111     8.6897
  456.0000     2.5057     0.0153     9.0027   109.9013     0.0984     0.2875    -6.4923     9.5351     9.8055     9.7112
  456.5000     2.4760     0.0068     9.0054   106.6521     0.1257     0.2787    -6.2241    10.0754    11.0373    10.8527
  457.0000     2.4342    -0.0033     9.0057   101.7049     0.1489     0.2713    -5.9536    12.2107    12.4239    12.1284
  457.5000     2.3935    -0.0041     9.0050    95.5626     0.1703     0.2639    -5.6881    14.7219    13.9856    13.5541
  458.0000     2.3653    -0.0011     8.9512    90.3941     0.1888     0.2564    -5.4199    17.7907    15.7455    15.1474
  458.5000     2.3430     0.0095     8.9023    81.7769     0.2059     0.2490    -5.1323    21.4993    17.7264    16.9279
  459.0000     2.3123     0.0197     8.8498    73.0970     0.2293     0.2429    -4.9628    25.9810    19.9560    18.9443
  459.5000     2.3007     0.0298     8.7953    68.8542     0.2251     0.2449    -4.9902    34.9992    21.4438    21.1758
  460.0000     2.3118     0.0404     8.7665    64.5846     0.2179     0.2526    -4.9001    32.2848    22.7391    22.5697
  460.5000     2.3206     0.0446     8.7694    63.2750     0.2118     0.2657    -4.6729    26.7157    22.6411    22.2518
  461.0000     2.3285     0.0382     8.7817    66.0428     0.2110     0.2724    -4.5739    22.5332    21.4648    21.0972
  461.5000     2.3029     0.0249     8.7959    71.6016     0.2243     0.2652    -4.4521    24.7919    20.3514    20.0020
  462.0000     2.2796     0.0127     8.8111    74.5006     0.2408     0.2551    -4.2624    27.0396    19.2978    18.9649
  462.5000     2.2654     0.0005     8.8257    72.2703     0.2509     0.2575    -4.0736    25.2068    18.3002    17.9834
  463.0000     2.2736     0.0017     8.8412    70.5141     0.2402     0.2659    -3.8790    22.4525    17.3543    17.0563
  463.5000     2.2917     0.0083     8.8493    72.1469     0.2301     0.2675    -3.7757    19.9992    16.5107    16.1774
  464.0000     2.3049     0.0125     8.8486    76.0665     0.2268     0.2686    -3.7860    18.2491    16.1789    15.9011
  464.5000     2.3142     0.0130     8.8486    79.9335     0.2181     0.2723    -3.7863    17.7516    16.2082    15.9011
  465.0000     2.3289     0.0140     8.8487    83.8265     0.2093     0.2737    -3.7834    17.9481    16.1826    15.9011
  465.5000     2.3423     0.0151     8.8486    84.2951     0.2022     0.2727    -3.7867    18.4151    16.1956    15.9011
  466.0000     2.3502     0.0153     8.8486    83.1612     0.1991     0.2682    -3.7893    18.3436    16.4423    15.9011
  466.5000     2.3501     0.0217     8.8486    82.4022     0.1974     0.2621    -3.7211    18.0803    16.8009    15.9011
  467.0000     2.3439     0.0329     8.8485    82.4847     0.2036     0.2645    -3.4631    18.2610    16.6015    15.7462
  467.5000     2.3314     0.0360     8.8485    82.6382     0.2108     0.2661    -3.2095    18.6493    16.1877    15.4235
  468.0000     2.3257     0.0313     8.8486    82.7960     0.2142     0.2589    -2.9514    19.0458    15.7841    15.1073
  468.5000     2.3586     0.0392     8.8482    82.6181     0.1851     0.2512    -2.6929    19.4571    15.3906    14.7977
  469.0000     2.3823     0.0573     8.8491    82.3436     0.1598     0.2435    -2.4361    18.3255    15.0069    14.4944
  469.5000     2.4391     0.0740     8.8502    81.9582     0.1447     0.2357    -2.1789    17.2435    14.6404    14.1973
  470.0000     2.4243     0.0536     8.8786    81.9013     0.1564     0.2319    -1.9178    16.1956    14.2349    13.9846
  470.5000     2.4065     0.0327     8.9061    83.1448     0.1661     0.2386    -1.6659    16.1956    14.2498    13.9846
  471.0000     2.3944     0.0187     8.9337    85.7196     0.1717     0.2452    -1.4078    16.1956    14.2363    13.9846
  471.5000     2.3864     0.0203     8.9617    88.2075     0.1777     0.2519    -1.1260    16.1956    14.2382    13.9846
  472.0000     2.3696     0.0236     8.9377    88.7512     0.1870     0.2565    -1.0857    16.1956    14.2401    13.9846
  472.5000     2.3520     0.0261     8.8973    88.1232     0.1942     0.2606    -1.3892    16.1956    14.3135    14.2175
  473.0000     2.3575     0.0292     8.8568    87.4928     0.1935     0.2615    -1.6694    16.5595    14.6178    14.6011
  473.5000     2.3528     0.0320     8.8170    86.8103     0.1963     0.2581    -1.9453    17.0007    14.9286    14.9951
  474.0000     2.3508     0.0351     8.7767    86.8203     0.1926     0.2609    -2.1851    17.4538    15.2460    15.3998
  474.5000     2.3461     0.0307     8.7372    86.4233     0.2028     0.2664    -2.1883    17.7516    15.5701    15.8153
  475.0000     2.3235     0.0239     8.6973    86.0547     0.2117     0.2721    -2.1940    17.7516    15.9011    16.2421
  475.5000     2.3121     0.0206     8.6888    85.6604     0.2204     0.2786    -2.1922    18.6075    16.2392    16.4955
  476.0000     2.3482     0.0396     8.6890    85.5888     0.1932     0.2860    -2.1924    19.4571    16.4955    15.9804
  476.5000     2.3838     0.0583     8.6973    85.6680     0.1693     0.2813    -2.1925    18.4828    16.4955    15.4962
  477.0000     2.4089     0.0613     8.7064    87.1905     0.1630     0.2758    -2.1920    17.3946    16.2134    15.0267
  477.5000     2.4070     0.0515     8.7159    88.3468     0.1615     0.2703    -2.1930    15.9312    15.9596    14.5714
  478.0000     2.3967     0.0428     8.7253    87.9557     0.1655     0.2661    -2.1902    16.1586    15.7098    14.1299
  478.5000     2.3831     0.0327     8.7348    87.8833     0.1736     0.2640    -2.1888    17.1394    15.4638    13.7012
  479.0000     2.3692     0.0318     8.7440    89.4713     0.1819     0.2620    -2.0709    17.0891    15.2217    13.2863
  479.5000     2.3734     0.0344     8.7535    90.0309     0.1846     0.2616    -1.9219    16.4692    14.9505    12.9953
  480.0000     2.3844     0.0396     8.7635    89.5230     0.1794     0.2658    -1.7884    15.9027    14.6008    12.9961
  480.5000     2.3941     0.0441     8.7689    88.5338     0.1687     0.2715    -1.6774    15.3245    14.2593    12.9966
  481.0000     2.3892     0.0474     8.7663    87.6201     0.1687     0.2694    -1.5740    15.3331    13.9258    12.8977
  481.5000     2.3785     0.0431     8.7645    86.6891     0.1806     0.2654    -1.4683    15.3345    13.6000    12.7243
  482.0000     2.3835     0.0396     8.7627    85.8632     0.1762     0.2674    -1.4277    15.2039    13.2819    12.5531
  482.5000     2.3960     0.0358     8.7607    87.2008     0.1692     0.2685    -1.5657    14.9980    12.9713    12.3832
  483.0000     2.3997     0.0377     8.7588    90.2115     0.1671     0.2706    -1.7011    14.7950    12.7588    12.2169
  483.5000     2.4019     0.0408     8.7569    92.9568     0.1671     0.2737    -1.8372    14.5952    12.5269    12.0755
  484.0000     2.4071     0.0438     8.7549    95.7543     0.1623     0.2768    -1.9749    14.3984    12.5269    12.0755
  484.5000     2.4008     0.0429     8.7530    95.0780     0.1652     0.2768    -2.1218    14.2435    12.5269    12.0884
  485.0000     2.3944     0.0411     8.7511    94.6857     0.1701     0.2733    -2.1950    14.2436    12.5463    12.1521
  485.5000     2.3893     0.0394     8.7492    95.7882     0.1726     0.2740    -2.1865    14.2436    12.5921    12.2162
  486.0000     2.3890     0.0377     8.7473    97.4866     0.1726     0.2731    -2.0429    14.1595    12.6380    12.2806
  486.5000     2.3805     0.0359     8.7454    97.4974     0.1774     0.2710    -1.8611    14.0640    12.6841    12.3453
  487.0000     2.3727     0.0334     8.7435    97.1451     0.1817     0.2689    -1.8434    13.9846    12.7304    12.4105
  487.5000     2.3646     0.0311     8.7416    96.9822     0.1861     0.2691    -1.9717    14.1914    12.7768    12.4760
  488.0000     2.3614     0.0280     8.7397    93.8325     0.1894     0.2709    -2.0852    14.5073    12.8235    12.5417
  488.5000     2.3672     0.0313     8.7378    90.6270     0.1873     0.2676    -2.1997    14.3440    12.8703    12.6076
