~VERSION INFORMATION
 VERS.                2.0:   CWLS LOG ASCII STANDARD - VERSION 2.0
 WRAP.                 NO:   ONE LINE PER DEPTH STEP
~WELL INFORMATION
#MNEM.UNIT      DATA TYPE    INFORMATION
#----------   ------------   ------------------------------
 STRT.F           34.0000:   START DEPTH
 STOP.F         1014.5000:   STOP DEPTH
 STEP.F            0.5000:   STEP LENGTH
 NULL.          -999.2500:   NO VALUE
 COMP. FENIX & SCISSON INC:   COMPANY
 WELL.       NPR-3 #54-14:   WELL
 FLD .             TEAPOT:   FIELD
 LOC .      S14 T38N R78W:   LOCATION
 CNTY.            NATRONA:   COUNTY
 STAT.            WYOMING:   STATE
 CTRY. UNITED STATES OF AMERICA:   COUNTRY
 SRVC.            Unknown:   SERVICE COMPANY
 DATE.        20-APR-1978:   LOGDATE
 API .       490251062100:   API NUMBER
~CURVE INFORMATION
#MNEM.UNIT       API CODE    CURVE DESCRIPTION
#----------   ------------   ------------------------------
 DEPT.F                  :   
 SPR .MV     05 010 01 00:   SPONTANEOUS POTENTIAL FROM RES.
 SN  .OHMM   05 040 16 00:   SHORT NORMAL 16"
 ILD .OHMM   05 120 46 00:   INDUCTION LOG DEEP
 CALD.IN     45 280 60 00:   CALIPER
 GRD .GAPI   45 310 01 00:   GAMMA RAY FROM DENSITY LOG
 RHOB.G/C3   45 350 01 00:   BULK DENSITY
 DPOR.DEC    45 890 12 00:   DENSITY POROSITY SANDSTONE
 CORR.G/C3   45 356 01 00:   DENSITY CORRECTION
~PARAMETER INFORMATION
#MNEM.UNIT          VALUE    DESCRIPTION
#----------   ------------   ------------------------------
 PD  .                 GL:   PERMANENT DATUM
 EPD .F              5268:   ELEVATION PERMANENT DATUM
 LMF .                 KB:   LOG MEASURED FROM
 DAPD.F                 4:   FEET ABOVE PERMANENT DATUM
 DMF .                 KB:   DRILLING MEASURED FROM
 EKB .F              5272:   KELLING BUSHING
 EGL .F              5268:   GROUND LEVEL
 DATE.          4-20-1978:   RUN DATE
 RUN .                  1:   RUN NUMBER
 DD  .F              1030:   DEPTH DRILLER
 DL  .F              1021:   DEPTH LOGGER
 BLI .F              1014:   BOTTOM LOG INTERVAL
 TLI .F                50:   TOP LOG INTERVAL
 CS  .IN            8.625:   CASING SIZE
 CBD .F                40:   CASING BOTTOM DRILLER
 BS  .IN            7.875:   BIT SIZE
 BSD .F              1030:   BIT SIZE AT DEPTH
 DFT .                KCL:   DRILLING FLUID TYPE
 DFD .                8.6:   DRILLING FLUID DENSITY
 DFV .                 33:   DRILLING FLUID VISCOSITY
 DFPH.                 10:   DRILLING FLUID PH
 DFL .                  8:   DRILLING FLUID LOSS
 MSS .          FLOW LINE:   MUD SAMPLE SOURCE
 RMS .OHMM            .34:   RESISTIVITY MUD SAMPLE
 MST .F                64:   MUD SAMPLE TEMPERATURE
 RMF .OHMM            .36:   RESISTIVITY MUD FILTRATE SAMPLE
 MFST.F                60:   MUD FILTRATE SAMPLE TEMPERATURE
 RMC .OHMM            .48:   RESISTIVITY MUD CAKE
 MCST.F                68:   MUD CAKE SAMPLE TEMPERATURE
 MFSS.               MEAS:   MUD FILTRATE SAMPLE SOURCE
 MCSS.               MEAS:   MUD CAKE SAMPLE SOURCE
 RMB .OHMM            .29:   RESISTIVITY MUD AT BHT
 BHT .F                74:   BOTTOM HOLE TEMPERATURE
 TCS .HRS               6:   TIME CURCULATED STOPPED
 MRT .F                74:   MAXIMUM RECORDED TEMPERATURE
 LUN .               2958:   LOGGING UNIT NUMBER
 LUL .               CASP:   LOGGING UNIT LOCATION
 ENGI.             MILLER:   RECORDING ENGINEER
 WITN.           MCGINELY:   WITNESSED BY
 CLNT.            A2DTECH:   CLIENT CODE
 ORIG.       2", 5" PRINT:   ORIGIN OF DATA
 UWI .       490251062100:   UNIQUE WELL ID
 DICO. A2D Technologies, Inc.:   DIGITIZING COMPANY
~OTHER INFORMATION
~A   DEPT      SPR         SN        ILD       CALD         GRD      RHOB       DPOR       CORR   
# ...
  277.0000   -36.2701     4.4072     4.8144     7.8310   102.9238     2.4198     0.1490     0.0014
  277.5000   -36.3312     4.3436     4.7489     7.8161   104.0987     2.4112     0.1515    -0.0031
  278.0000   -36.3923     4.2809     4.7174     7.8011   103.7345     2.4026     0.1576    -0.0076
  278.5000   -36.4535     4.2191     4.7309     7.7862   103.2866     2.3940     0.1642    -0.0121
  279.0000   -36.5139     4.1582     4.7406     7.7713   101.9741     2.3854     0.1671    -0.0166
  279.5000   -36.5544     4.0982     4.7503     7.7564   100.7120     2.3801     0.1683    -0.0211
  280.0000   -36.5537     4.0391     4.7602     7.7414    97.4980     2.3765     0.1726    -0.0247
  280.5000   -36.5538     3.9808     4.6252     7.7265    94.7843     2.3646     0.1814    -0.0223
  281.0000   -36.5538     3.9083     4.3940     7.7116   100.3252     2.3386     0.1902    -0.0210
  281.5000   -36.5538     3.8275     4.0441     7.6967   104.9167     2.3295     0.1999    -0.0207
  282.0000   -36.5541     3.5443     3.7221     7.6817   109.5167     2.3116     0.2144    -0.0097
  282.5000   -36.5553     3.2463     3.4257     7.6668   114.1141     2.2908     0.2290     0.0049
  283.0000   -36.5452     2.9734     3.1529     7.6519   118.6877     2.2696     0.2300     0.0096
  283.5000   -36.3650     2.7234     2.9018     7.6369   121.9218     2.2661     0.2292     0.0096
  284.0000   -36.1882     2.5416     2.7850     7.6218   121.9180     2.2752     0.2218     0.0097
  284.5000   -36.0129     2.4951     2.8225     7.6192   120.6645     2.2972     0.2105     0.0099
  285.0000   -35.8376     2.4951     2.8716     7.6191   113.4471     2.3181     0.1993     0.0101
  285.5000   -35.6624     2.5332     2.9211     7.6191   105.4668     2.3370     0.1880     0.0103
  286.0000   -35.4871     2.7624     2.9738     7.6231   103.0702     2.3561     0.1768     0.0105
  286.5000   -35.3119     3.0122     3.2694     7.6569   109.2381     2.3749     0.1655     0.0106
  287.0000   -35.1366     3.2847     3.5983     7.6911   112.3473     2.3864     0.1644     0.0108
  287.5000   -34.9614     3.5819     3.9598     7.7285   111.6188     2.3893     0.1636     0.0110
  288.0000   -34.7861     3.9059     4.3575     7.7812   108.0136     2.3969     0.1623     0.0112
  288.5000   -34.6109     4.2592     4.7940     7.8338   104.3049     2.4072     0.1516     0.0114
  289.0000   -34.4356     4.4478     5.0869     7.8863   102.1373     2.4140     0.1477     0.0115
  289.5000   -34.2603     4.6171     5.2013     7.9389   102.7737     2.4181     0.1463     0.0134
  290.0000   -34.0846     4.7938     5.3184     7.9914   104.1643     2.4248     0.1444     0.0192
  290.5000   -33.9093     4.9772     5.4380     8.0435   108.7701     2.4268     0.1406     0.0248
  291.0000   -33.7607     5.1724     5.5656     8.0747   111.3524     2.4293     0.1359     0.0306
  291.5000   -33.7655     5.2585     5.6979     8.0693   109.7994     2.4402     0.1319     0.0281
  292.0000   -33.8341     5.3483     5.8333     8.0644   108.3047     2.4501     0.1316     0.0230
  292.5000   -34.0092     5.4395     5.9719     8.0594   106.8855     2.4443     0.1346     0.0215
  293.0000   -34.1828     5.5324     6.1138     8.0545   106.5555     2.4376     0.1372     0.0215
  293.5000   -34.3567     5.6203     6.2207     8.0496   108.9517     2.4392     0.1342     0.0198
  294.0000   -34.5306     5.6203     6.2116     8.0446   107.1455     2.4485     0.1313     0.0175
  294.5000   -34.7044     5.5944     6.2030     8.0397   105.1905     2.4552     0.1284     0.0152
  295.0000   -34.8782     5.5705     6.1945     8.0347   105.8029     2.4546     0.1324     0.0134
  295.5000   -35.0520     5.5468     6.1859     8.0298   107.1808     2.4437     0.1373     0.0153
  296.0000   -35.2258     5.5232     6.1773     8.0249   104.5527     2.4317     0.1422     0.0179
  296.5000   -35.3997     5.4307     6.1687     8.0199   101.8607     2.4251     0.1440     0.0206
  297.0000   -35.5735     5.3185     6.1462     8.0110   101.4051     2.4235     0.1453     0.0234
  297.5000   -35.7474     5.2086     6.0501     7.9931   104.3377     2.4216     0.1466     0.0232
  298.0000   -35.9211     5.0916     5.9560     7.9753   108.3485     2.4191     0.1479     0.0229
  298.5000   -36.0967     4.9457     5.8344     7.9576   112.4061     2.4181     0.1488     0.0226
  299.0000   -36.1547     4.8040     5.6268     7.9406   112.6571     2.4181     0.1495     0.0223
  299.5000   -36.1557     4.6663     5.4265     7.9035   110.3345     2.4182     0.1503     0.0220
  300.0000   -36.1555     4.5326     5.2334     7.8638   109.5123     2.4160     0.1536     0.0217
  300.5000   -36.1554     4.4027     5.0472     7.8240   114.9044     2.4023     0.1593     0.0230
  301.0000   -36.1554     4.2765     4.8675     7.7843   117.2515     2.3877     0.1643     0.0282
  301.5000   -36.1554     4.1540     4.6926     7.7446   115.6051     2.3902     0.1545     0.0313
  302.0000   -36.1554     4.0317     4.5903     7.7048   112.8762     2.4113     0.1458     0.0217
  302.5000   -36.1554     4.0310     4.5427     7.6651   110.1281     2.4257     0.1436     0.0116
  303.0000   -36.1554     4.0943     4.5460     7.6253   107.3811     2.4272     0.1438     0.0054
  303.5000   -36.1554     4.2033     4.5463     7.5852   104.6264     2.4267     0.1453     0.0059
  304.0000   -36.1554     4.3143     4.5867     7.5825   103.0593     2.4187     0.1468     0.0065
  304.5000   -36.1554     4.4214     4.8687     7.5863   106.1632     2.4229     0.1483     0.0072
  305.0000   -36.1554     4.4880     5.0753     7.5901   108.2571     2.4167     0.1488     0.0075
  305.5000   -36.1554     4.5455     5.2694     7.5939   104.6563     2.4144     0.1472     0.0067
  306.0000   -36.1551     4.5344     5.2625     7.5975    99.9965     2.4258     0.1455     0.0057
  306.5000   -36.1555     4.5243     5.2501     7.6362    98.9978     2.4269     0.1454     0.0046
  307.0000   -36.1537     4.5142     5.2378     7.6904   103.6510     2.4156     0.1519     0.0035
  307.5000   -36.3840     4.5038     5.2255     7.7204   104.8326     2.4035     0.1584     0.0032
  308.0000   -36.7874     4.4214     5.2203     7.7509   101.6987     2.3923     0.1647     0.0029
  308.5000   -37.1963     4.3406     5.2966     7.7818    99.0655     2.3841     0.1699     0.0026
  309.0000   -37.3616     4.2612     5.3749     7.8303    99.0021     2.3758     0.1750     0.0023
  309.5000   -37.3853     4.1833     5.4668     7.9023    99.6609     2.3677     0.1803     0.0020
  310.0000   -37.4061     4.0155     5.4166     7.9739    99.6684     2.3591     0.1868     0.0016
  310.5000   -37.4269     3.8207     4.8274     8.0458    98.9994     2.3363     0.1975     0.0022
  311.0000   -37.4480     3.6354     4.3154     8.1199    99.2281     2.3205     0.2100     0.0045
  311.5000   -37.4692     3.4356     3.8577     8.1379   101.8445     2.3023     0.2234     0.0121
  312.0000   -37.4905     3.0765     3.4486     8.1420   104.9898     2.2710     0.2368     0.0266
  312.5000   -37.5131     2.7550     3.0828     8.1458   105.4898     2.2461     0.2431     0.0459
  313.0000   -37.5338     2.4671     2.7558     8.1497    96.5734     2.2478     0.2314     0.0604
  313.5000   -37.4423     2.2524     2.6863     8.1528    88.0205     2.3093     0.2022     0.0614
  314.0000   -36.7846     2.2527     2.7221     8.1177    79.4865     2.3782     0.1730     0.0302
  314.5000   -36.1699     2.3944     2.7363     8.0329    74.9267     2.4296     0.1438     0.0315
  315.0000   -36.1387     2.6063     2.7354     7.9559    84.4505     2.4350     0.1396     0.0336
  315.5000   -36.1294     3.0085     2.7617     7.9250    91.5796     2.4226     0.1481     0.0262
  316.0000   -36.1175     3.4728     2.7589     7.8962    98.6971     2.4092     0.1551     0.0162
  316.5000   -36.1050     4.0087     3.6220     7.8672   103.9046     2.4074     0.1559     0.0068
  317.0000   -36.0925     4.1449     4.3255     7.8383   103.2422     2.4053     0.1558     0.0035
