~VERSION INFORMATION
 VERS.                2.0:   CWLS LOG ASCII STANDARD - VERSION 2.0
 WRAP.                 NO:   ONE LINE PER DEPTH STEP
~WELL INFORMATION
#MNEM.UNIT      DATA TYPE    INFORMATION
#----------   ------------   ------------------------------
 STRT.F           53.0000:   START DEPTH
 STOP.F         4152.0000:   STOP DEPTH
 STEP.F            0.5000:   STEP LENGTH
 NULL.          -999.2500:   NO VALUE
 COMP. DEPARTMENT OF ENERGY:   COMPANY
 WELL. RES 3 TEAPOT #11-STX-11:   WELL
 FLD . TEAPOT NAVAL RESERVE:   FIELD
 LOC .      S11 T38N R78W:   LOCATION
 CNTY.            NATRONA:   COUNTY
 STAT.            WYOMING:   STATE
 CTRY. UNITED STATES OF AMERICA:   COUNTRY
 SRVC.       Schlumberger:   SERVICE COMPANY
 DATE.        24-JUL-1975:   LOGDATE
 API .       490251025200:   API NUMBER
~CURVE INFORMATION
#MNEM.UNIT       API CODE    CURVE DESCRIPTION
#----------   ------------   ------------------------------
 DEPT.F                  :   
 SPR .MV     07 010 01 00:   SPONTANEOUS POTENTIAL
 ILD .OHMM   07 120 46 00:   INDUCTION LOG DEEP
 ILM .OHMM   07 120 44 00:   INDUCTION LOG MEDIUM
 LL8 .OHMM   07 220 08 00:   LATEROLOG-8 RES.
 DPOR.DEC    45 890 12 00:   DENSITY POROSITY SANDSTONE
 NPOR.DEC    42 890 03 00:   NEUTRON POROSITY SANDSTONE
 RHOB.G/C3   45 350 01 00:   BULK DENSITY
 CORR.G/C3   45 356 01 00:   DENSITY CORRECTION
 GRD .GAPI   45 310 01 00:   GAMMA RAY FROM DENSITY LOG
 CALD.IN     45 280 60 00:   CALIPER FROM DENSITY LOG
~PARAMETER INFORMATION
#MNEM.UNIT          VALUE    DESCRIPTION
#----------   ------------   ------------------------------
 PD  .                 GL:   PERMANENT DATUM
 EPD .F              5165:   ELEVATION PERMANENT DATUM
 LMF .                 KB:   LOG MEASURED FROM
 DAPD.F                13:   FEET ABOVE PERMANENT DATUM
 DMF .                 KB:   DRILLING MEASURED FROM
 EKB .F              5178:   KELLING BUSHING
 EGL .F              5165:   GROUND LEVEL
 DATE.            7-24-75:   RUN DATE
 RUN .                  1:   RUN NUMBER
 DD  .F              4150:   DEPTH DRILLER
 DL  .F              4154:   DEPTH LOGGER
 BLI .F              4152:   BOTTOM LOG INTERVAL
 TLI .F              1800:   TOP LOG INTERVAL
 CS  .IN            8.625:   CASING SIZE
 CBD .F               625:   CASING BOTTOM DRILLER
 CBL .F               627:   CASING BOTTOM LOGGER
 BS  .IN            7.875:   BIT SIZE
 BSD .F              4150:   BIT SIZE AT DEPTH
 DFT .                FGM:   DRILLING FLUID TYPE
 DFD .                9.5:   DRILLING FLUID DENSITY
 DFV .                 85:   DRILLING FLUID VISCOSITY
 MSS .           FLOWLINE:   MUD SAMPLE SOURCE
 RMS .OHMM           1.34:   RESISTIVITY MUD SAMPLE
 MST .F                91:   MUD SAMPLE TEMPERATURE
 RMF .OHMM           1.17:   RESISTIVITY MUD FILTRATE SAMPLE
 MFST.F                91:   MUD FILTRATE SAMPLE TEMPERATURE
 MFSS.                  M:   MUD FILTRATE SAMPLE SOURCE
 RMB .OHMM            .94:   RESISTIVITY MUD AT BHT
 BHT .F               130:   BOTTOM HOLE TEMPERATURE
 TCS .HRS            1230:   TIME CURCULATED STOPPED
 TLAB.HRS            1900:   TIME LOGGER AT BOTTOM
 MRT .F               132:   MAXIMUM RECORDED TEMPERATURE
 LUN .               7680:   LOGGING UNIT NUMBER
 LUL .               CSPR:   LOGGING UNIT LOCATION
 ENGI.             FRENCH:   RECORDING ENGINEER
 WITN.             CARTER:   WITNESSED BY
 CLNT.            A2DTECH:   CLIENT CODE
 ORIG.       2", 5" PRINT:   ORIGIN OF DATA
 UWI .       490251025200:   UNIQUE WELL ID
 DICO. A2D Technologies, Inc.:   DIGITIZING COMPANY
~OTHER INFORMATION
~A   DEPT      SPR          ILD        ILM       LL8      DPOR       NPOR       RHOB       CORR        GRD       CALD   
# ...
 1795.0000  -999.2500  -999.2500  -999.2500  -999.2500  -999.2500  -999.2500  -999.2500  -999.2500  -999.2500    11.6625
 1795.5000  -999.2500  -999.2500  -999.2500  -999.2500  -999.2500  -999.2500  -999.2500  -999.2500  -999.2500    11.6435
 1796.0000  -999.2500  -999.2500  -999.2500  -999.2500  -999.2500  -999.2500  -999.2500  -999.2500  -999.2500    11.6413
 1796.5000  -999.2500  -999.2500  -999.2500  -999.2500  -999.2500  -999.2500  -999.2500  -999.2500  -999.2500    11.6391
 1797.0000  -999.2500  -999.2500  -999.2500  -999.2500  -999.2500  -999.2500  -999.2500  -999.2500  -999.2500    11.6370
 1797.5000  -999.2500  -999.2500  -999.2500  -999.2500  -999.2500  -999.2500  -999.2500  -999.2500  -999.2500    11.6349
 1798.0000  -999.2500  -999.2500  -999.2500  -999.2500  -999.2500  -999.2500  -999.2500  -999.2500  -999.2500    11.6328
 1798.5000  -999.2500  -999.2500  -999.2500  -999.2500  -999.2500  -999.2500  -999.2500  -999.2500  -999.2500    11.6307
 1799.0000  -999.2500  -999.2500  -999.2500  -999.2500  -999.2500  -999.2500  -999.2500  -999.2500  -999.2500    11.6286
 1799.5000  -999.2500  -999.2500  -999.2500  -999.2500  -999.2500  -999.2500     2.5698     0.0050   168.9316    11.6265
 1800.0000  -999.2500  -999.2500  -999.2500  -999.2500     0.0647     0.3142     2.5582     0.0001   169.4593    11.6243
 1800.5000  -999.2500  -999.2500  -999.2500  -999.2500     0.0534     0.3138     2.5505     0.0089   167.8850    11.6168
 1801.0000  -999.2500  -999.2500  -999.2500  -999.2500     0.0504     0.3045     2.5548     0.0075   166.7666    11.6030
 1801.5000  -999.2500  -999.2500  -999.2500  -999.2500     0.0508     0.2983     2.5643     0.0063   167.2453    11.5892
 1802.0000  -999.2500  -999.2500  -999.2500  -999.2500     0.0513     0.2966     2.5767     0.0153   168.0284    11.5754
 1802.5000  -999.2500  -999.2500  -999.2500  -999.2500     0.0407     0.2948     2.5859     0.0143   167.2818    11.5628
 1803.0000  -999.2500  -999.2500  -999.2500  -999.2500     0.0332     0.2906     2.5802     0.0044   165.6635    11.5489
 1803.5000  -999.2500  -999.2500  -999.2500  -999.2500     0.0320     0.2863     2.5819     0.0010   166.6566    11.5335
 1804.0000  -999.2500  -999.2500  -999.2500  -999.2500     0.0356     0.2838     2.5875     0.0145   169.9747    11.5240
 1804.5000  -999.2500  -999.2500  -999.2500  -999.2500     0.0281     0.2990     2.5685     0.0385   173.3203    11.5314
 1805.0000  -999.2500  -999.2500  -999.2500  -999.2500     0.0544     0.3103     2.5963     0.0690   175.2744    11.5386
 1805.5000  -999.2500  -999.2500  -999.2500  -999.2500     0.0501     0.3178     2.5750     0.0328   176.9192    11.5459
 1806.0000  -999.2500  -999.2500  -999.2500  -999.2500     0.0441     0.3144     2.5540     0.0166   176.9266    11.5531
 1806.5000  -999.2500  -999.2500  -999.2500  -999.2500     0.0565     0.3089     2.5632     0.0224   172.2782    11.5604
 1807.0000  -999.2500  -999.2500  -999.2500  -999.2500     0.0617     0.3057     2.5702     0.0067   167.6884    11.5604
 1807.5000  -999.2500  -999.2500  -999.2500  -999.2500     0.0583     0.2982     2.5511     0.0015   164.8808    11.5526
 1808.0000  -999.2500  -999.2500  -999.2500  -999.2500     0.0533     0.2994     2.5668     0.0117   164.0906    11.5445
 1808.5000  -999.2500  -999.2500  -999.2500  -999.2500     0.0544     0.3114     2.5792     0.0223   167.4365    11.5576
 1809.0000  -999.2500  -999.2500  -999.2500  -999.2500     0.0347     0.3134     2.5650     0.0145   168.4255    11.5813
 1809.5000  -999.2500  -999.2500  -999.2500  -999.2500     0.0309     0.3018     2.5925     0.0226   167.1832    11.6051
 1810.0000  -999.2500  -999.2500  -999.2500  -999.2500     0.0390     0.2926     2.5959     0.0350   168.2529    11.6291
 1810.5000  -999.2500  -999.2500  -999.2500  -999.2500     0.0408     0.2823     2.5679     0.0082   169.9262    11.6548
 1811.0000  -999.2500  -999.2500  -999.2500  -999.2500     0.0495     0.2729     2.5526     0.0124   171.9915    11.6655
 1811.5000  -999.2500  -999.2500  -999.2500  -999.2500     0.0583     0.2734     2.5679     0.0339   175.6747    11.6748
 1812.0000  -999.2500  -999.2500  -999.2500  -999.2500     0.0609     0.2788     2.5895     0.0242   179.2861    11.6843
 1812.5000  -999.2500  -999.2500  -999.2500  -999.2500     0.0503     0.2857     2.6012     0.0395   181.3457    11.6646
 1813.0000  -999.2500  -999.2500  -999.2500  -999.2500     0.0429     0.2868     2.5827     0.0246   179.7289    11.6642
 1813.5000  -999.2500  -999.2500  -999.2500  -999.2500     0.0385     0.2862     2.5710     0.0147   177.9259    11.6636
 1814.0000  -999.2500  -999.2500  -999.2500  -999.2500     0.0292     0.2870     2.5742     0.0186   176.6489    11.6819
 1814.5000  -999.2500  -999.2500  -999.2500  -999.2500     0.0176     0.2936     2.5732     0.0143   175.9968    11.7083
 1815.0000  -999.2500  -999.2500  -999.2500  -999.2500     0.0228     0.2970     2.5611     0.0061   175.3948    11.7351
 1815.5000  -999.2500  -999.2500  -999.2500  -999.2500     0.0260     0.3035     2.5755     0.0211   174.8474    11.7621
 1816.0000  -999.2500  -999.2500  -999.2500  -999.2500     0.0336     0.3082     2.5926     0.0285   174.3247    11.7440
 1816.5000  -999.2500  -999.2500  -999.2500  -999.2500     0.0449     0.3047     2.5936     0.0125   174.6647    11.7209
 1817.0000  -999.2500  -999.2500  -999.2500  -999.2500     0.0381     0.3041     2.5898     0.0166   177.2444    11.7040
 1817.5000  -999.2500  -999.2500  -999.2500  -999.2500     0.0344     0.3052     2.5861     0.0117   177.7821    11.7179
 1818.0000  -999.2500  -999.2500  -999.2500  -999.2500     0.0402     0.2998     2.5883     0.0115   175.4277    11.7331
 1818.5000  -999.2500  -999.2500  -999.2500  -999.2500     0.0498     0.2982     2.5888     0.0153   174.4700    11.7486
 1819.0000  -999.2500  -999.2500  -999.2500  -999.2500     0.0501     0.3023     2.5873     0.0214   174.6534    11.7636
 1819.5000  -999.2500  -999.2500  -999.2500  -999.2500     0.0393     0.3062     2.5924     0.0276   174.8726    11.7379
 1820.0000  -999.2500  -999.2500  -999.2500  -999.2500     0.0357     0.3068     2.5756     0.0256   174.4129    11.7258
 1820.5000  -999.2500  -999.2500  -999.2500  -999.2500     0.0481     0.2986     2.5717     0.0256   171.1574    11.7339
 1821.0000  -999.2500  -999.2500  -999.2500  -999.2500     0.0505     0.2884     2.5847     0.0215   168.7514    11.7423
 1821.5000  -999.2500  -999.2500  -999.2500  -999.2500     0.0388     0.2841     2.5717     0.0115   170.0227    11.7508
 1822.0000  -999.2500  -999.2500  -999.2500  -999.2500     0.0401     0.2818     2.5724     0.0205   173.0443    11.7593
 1822.5000  -999.2500  -999.2500  -999.2500  -999.2500     0.0393     0.2865     2.5863     0.0204   175.0069    11.7711
 1823.0000  -999.2500  -999.2500  -999.2500  -999.2500     0.0506     0.2899     2.5767     0.0126   176.0262    11.7890
 1823.5000  -999.2500  -999.2500  -999.2500  -999.2500     0.0593     0.2907     2.5799     0.0143   177.1820    11.8071
 1824.0000  -999.2500  -999.2500  -999.2500  -999.2500     0.0562     0.2927     2.5872     0.0191   178.4355    11.8249
 1824.5000  -999.2500  -999.2500  -999.2500  -999.2500     0.0552     0.2985     2.5909     0.0378   179.6420    11.8038
 1825.0000  -999.2500  -999.2500  -999.2500  -999.2500     0.0558     0.3043     2.6035     0.0466   179.5410    11.7767
 1825.5000  -999.2500  -999.2500  -999.2500  -999.2500     0.0689     0.3175     2.5856     0.0301   178.7174    11.7493
 1826.0000  -999.2500  -999.2500  -999.2500  -999.2500     0.0642     0.3271     2.5710     0.0187   174.8620    11.7530
 1826.5000  -999.2500  -999.2500  -999.2500  -999.2500     0.0599     0.3243     2.5672     0.0135   170.3615    11.7745
 1827.0000  -999.2500  -999.2500  -999.2500  -999.2500     0.0556     0.3222     2.5795     0.0189   170.0109    11.7958
 1827.5000  -999.2500  -999.2500  -999.2500  -999.2500     0.0513     0.3259     2.5940     0.0326   172.1077    11.8174
 1828.0000  -999.2500  -999.2500  -999.2500  -999.2500     0.0597     0.3279     2.6020     0.0259   173.3842    11.8214
