~VERSION INFORMATION
 VERS.                2.0:   CWLS LOG ASCII STANDARD - VERSION 2.0
 WRAP.                 NO:   ONE LINE PER DEPTH STEP
~WELL INFORMATION
#MNEM.UNIT      DATA TYPE    INFORMATION
#----------   ------------   ------------------------------
 STRT.F           80.0000:   START DEPTH
 STOP.F          739.0000:   STOP DEPTH
 STEP.F            0.5000:   STEP LENGTH
 NULL.          -999.2500:   NO VALUE
 COMP. U S NAVY-INTEX OIL:   COMPANY
 WELL.        NPR #36-S-2:   WELL
 FLD .             TEAPOT:   FIELD
 LOC .       S2 T38N R78W:   LOCATION
 CNTY.            NATRONA:   COUNTY
 STAT.            WYOMING:   STATE
 CTRY. UNITED STATES OF AMERICA:   COUNTRY
 SRVC.       Schlumberger:   SERVICE COMPANY
 DATE.        23-JUN-1962:   LOGDATE
 API .       490250641800:   API NUMBER
~CURVE INFORMATION
#MNEM.UNIT       API CODE    CURVE DESCRIPTION
#----------   ------------   ------------------------------
 DEPT.F                  :   
 ASN .OHMM   05 041 16 00:   AMPLIFIED SHORT NORMAL 16"
 ILD .OHMM   05 120 46 00:   INDUCTION LOG DEEP
 CILD.MMHO   05 110 46 00:   CONDUCTIVITY INDUCTION LOG DEEP
 SPR .MV     05 010 01 00:   SPONTANEOUS POTENTIAL FROM RES.
 GR  .GAPI   30 310 01 00:   GAMMA RAY
~PARAMETER INFORMATION
#MNEM.UNIT          VALUE    DESCRIPTION
#----------   ------------   ------------------------------
 PD  .                 KB:   PERMANENT DATUM
 EPD .F              5143:   ELEVATION PERMANENT DATUM
 EKB .F              5143:   KELLING BUSHING
 EGL .F              5138:   GROUND LEVEL
 DATE.        23-JUN-1962:   RUN DATE
 RUN .                  1:   RUN NUMBER
 DD  .F               738:   DEPTH DRILLER
 DL  .F               740:   DEPTH LOGGER
 BLI .F               739:   BOTTOM LOG INTERVAL
 TLI .F                80:   TOP LOG INTERVAL
 BS  .IN             6.75:   BIT SIZE
 BSD .F               738:   BIT SIZE AT DEPTH
 DFT .       OIL EMULSION:   DRILLING FLUID TYPE
 DFD .               10.0:   DRILLING FLUID DENSITY
 DFV .                 53:   DRILLING FLUID VISCOSITY
 DFL .                3.8:   DRILLING FLUID LOSS
 RMS .OHMM            3.9:   RESISTIVITY MUD SAMPLE
 MST .F                66:   MUD SAMPLE TEMPERATURE
 RMF .OHMM            2.9:   RESISTIVITY MUD FILTRATE SAMPLE
 MFST.F                66:   MUD FILTRATE SAMPLE TEMPERATURE
 RMC .OHMM            4.4:   RESISTIVITY MUD CAKE
 MCST.F                66:   MUD CAKE SAMPLE TEMPERATURE
 TCS .HRS               1:   TIME CURCULATED STOPPED
 LUN .               2503:   LOGGING UNIT NUMBER
 LUL .               CSPR:   LOGGING UNIT LOCATION
 ENGI.             DANNER:   RECORDING ENGINEER
 WITN.          JORGENSON:   WITNESSED BY
 CLNT.            A2DTECH:   CLIENT CODE
 ORIG.           5" PRINT:   ORIGIN OF DATA
 UWI .       490250641800:   UNIQUE WELL ID
 DICO. A2D Technologies, Inc.:   DIGITIZING COMPANY
~OTHER INFORMATION
~A   DEPT        ASN        ILD      CILD       SPR         GR   
# ...
  446.0000     9.6487     9.4359   112.5520   -47.0747  -999.2500
  446.5000     9.8000     9.4388   112.5612   -46.4596  -999.2500
  447.0000     9.9663     9.5920   111.8161   -46.4536  -999.2500
  447.5000     9.8615     9.7451   111.0727   -46.2984  -999.2500
  448.0000     9.4103     9.7481   110.3294   -46.2925  -999.2500
  448.5000     9.3793     9.7511   109.5861   -46.1373  -999.2500
  449.0000     9.6374     9.7540   110.3461   -45.9821  -999.2500
  449.5000     9.7584     9.8321   111.1043   -45.9761  -999.2500
  450.0000     9.7440     9.8048   113.2175   -45.9701  -999.2500
  450.5000     9.6483     9.6128   116.8954   -46.3005  -999.2500
  451.0000     9.4434     9.1654   120.5734   -46.6309  -999.2500
  451.5000     9.1275     8.7179   124.2513   -46.9829  -999.2500
  452.0000     8.6910     8.4206   127.6183   -47.1244  -999.2500
  452.5000     8.4353     8.2727   132.0199   -46.3651  -999.2500
  453.0000     8.3000     8.2012   135.0004   -46.5040  -999.2500
  453.5000     8.1196     8.1291   137.2997   -46.4936  -999.2500
  454.0000     7.9543     8.0570   140.2904   -46.3340  -999.2500
  454.5000     8.0148     8.0601   140.9391   -45.7265  -999.2500
  455.0000     8.0000     7.9880   140.9160   -45.4177  -999.2500
  455.5000     7.9250     7.9910   140.8934   -45.2580  -999.2500
  456.0000     8.1211     7.9940   139.3694   -45.3969  -999.2500
  456.5000     8.2268     7.9970   136.9644   -46.2821  -999.2500
  457.0000     8.2874     8.0000   133.1780   -45.3761  -999.2500
  457.5000     8.3178     8.1582   130.2883   -45.3657  -999.2500
  458.0000     8.3783     8.3063   131.0222   -45.8031  -999.2500
  458.5000     8.4238     8.3183   130.9942   -45.0462  -999.2500
  459.0000     8.4693     8.4625   130.9717   -45.0358  -999.2500
  459.5000     8.5148     8.5535   130.1985   -45.0254  -999.2500
  460.0000     8.4699     8.6192   128.6746   -45.0150  -999.2500
  460.5000     8.4250     8.6222   126.3999   -45.0045  -999.2500
  461.0000     8.5308     8.7003   124.8759   -44.9940  -999.2500
  461.5000     8.6515     8.7783   123.3520   -44.9815  -999.2500
  462.0000     8.7723     8.9314   122.5788   -44.3741  -999.2500
  462.5000     8.7726     8.9344   121.8056   -45.1126  -999.2500
  463.0000     8.7729     8.9374   121.0324   -45.4007  -999.2500
  463.5000     9.0443     8.9404   120.2592   -45.5396  -999.2500
  464.0000     9.1801     8.8676   119.4860   -45.0788  -999.2500
  464.5000     9.0449     8.9464   118.7128   -44.9192  -999.2500
  465.0000     8.9849     8.9493   119.4467   -44.9088  -999.2500
  465.5000     9.0003     8.9523   120.9201   -44.8984  -999.2500
  466.0000     9.0157     8.9553   122.4048   -44.8880  -999.2500
  466.5000     9.0009     8.8825   124.6290   -45.0295  -999.2500
  467.0000     8.9259     8.8104   125.3629   -45.0165  -999.2500
  467.5000     8.8509     8.8141   126.0912   -44.8569  -999.2500
  468.0000     8.7759     8.8171   125.3124   -44.5480  -999.2500
  468.5000     8.7310     8.8201   125.2900   -45.2839  -999.2500
  469.0000     8.7464     8.8981   125.2675   -45.2735  -999.2500
  469.5000     8.7919     8.8253   125.2451   -45.2631  -999.2500
  470.0000     8.9578     8.7532   124.4719   -45.1034  -999.2500
  470.5000     8.9431     8.7569   123.6987   -44.7945  -999.2500
  471.0000     8.9434     8.8350   122.9255   -45.0827  -999.2500
  471.5000     8.9437     8.9131   122.1523   -45.6693  -999.2500
  472.0000     8.9440     8.9911   122.1298   -45.9600  -999.2500
  472.5000     8.9593     8.9941   122.1074   -45.6485  -999.2500
  473.0000     8.9596     9.0722   121.3342   -44.7426  -999.2500
  473.5000     8.9750     9.0751   121.3117   -45.0307  -999.2500
  474.0000     8.9151     9.0030   121.2893   -45.4707  -999.2500
  474.5000     8.7497     9.0060   122.7683   -45.3085  -999.2500
  475.0000     8.6596     9.0090   124.9981   -44.7011  -999.2500
  475.5000     8.5844     8.8618   125.7264   -44.2429  -999.2500
  476.0000     8.5243     8.7898   127.9562   -44.3821  -999.2500
  476.5000     8.4786     8.7177   129.4353   -44.6699  -999.2500
  477.0000     8.3882     8.6377   130.1692   -44.6595  -999.2500
  477.5000     8.2816     8.4885   131.6427   -44.0521  -999.2500
  478.0000     8.1319     8.4144   133.8781   -43.7432  -999.2500
  478.5000     7.9963     8.2791   136.8530   -43.7328  -999.2500
  479.0000     7.8590     8.0576   141.3351   -44.0209  -999.2500
  479.5000     7.7117     7.8347   148.0694   -44.0106  -999.2500
  480.0000     7.6024     7.6132   155.5544   -44.4577  -999.2500
  480.5000     7.4365     7.3909   163.7902   -44.5868  -999.2500
  481.0000     7.1627     7.2430   170.5246   -44.4269  -999.2500
  481.5000     6.8459     7.0215   173.5051   -44.0975  -999.2500
  482.0000     6.6524     6.9487   173.4827   -43.4866  -999.2500
  482.5000     6.5858     6.9524   172.7095   -43.3507  -999.2500
  483.0000     6.6614     6.8796   171.9363   -43.3382  -999.2500
  483.5000     6.5865     6.9584   171.1631   -43.3279  -999.2500
  484.0000     6.6169     7.0364   168.1376   -43.3175  -999.2500
  484.5000     7.1443     7.2646   162.8599   -43.7548  -999.2500
  485.0000     7.4458     7.5679   154.5792   -44.3415  -999.2500
  485.5000     7.5064     7.7210   147.0493   -44.4829  -999.2500
  486.0000     7.5368     7.7991   142.5223   -44.1714  -999.2500
  486.5000     7.5672     7.8772   139.4969   -44.0118  -999.2500
  487.0000     7.6127     7.8801   139.4744   -43.8548  -999.2500
  487.5000     7.6732     7.8831   139.4520   -44.5906  -999.2500
  488.0000     7.7187     7.8861   139.4294   -44.5777  -999.2500
  488.5000     7.7491     7.8891   138.6563   -44.7165  -999.2500
  489.0000     7.7344     7.8921   138.6337   -44.4076  -999.2500
  489.5000     7.6895     7.8951   138.6111   -43.8002  -999.2500
  490.0000     7.6145     7.8980   139.3397   -44.2376  -999.2500
  490.5000     7.5997     7.9010   139.3169   -44.3791  -999.2500
  491.0000     7.6602     7.7539   140.0456   -44.2168  -999.2500
  491.5000     7.5100     7.6817   142.2754   -44.0572  -999.2500
  492.0000     7.3597     7.5346   146.1857   -44.0468  -999.2500
  492.5000     7.2094     7.3123   153.6910   -44.7853  -999.2500
  493.0000     7.0440     6.9400   161.9462   -44.4738  -999.2500
  493.5000     6.8485     6.5676   172.6946   -44.6152  -999.2500
  494.0000     6.6380     6.1172   188.6088   -45.1993  -999.2500
  494.5000     6.3973     5.5225   200.3684   -45.6366  -999.2500
  495.0000     5.9609     5.2252   210.4310   -45.6263  -999.2500
  495.5000     5.7805     5.0029   212.6664   -45.4666  -999.2500
  496.0000     5.5699     4.9308   211.8875   -45.3070  -999.2500
  496.5000     5.6907     5.0841   210.3636   -44.9981  -999.2500
  497.0000     5.6458     5.2502   208.0889   -44.5399  -999.2500
  497.5000     5.6612     5.6162   202.0605   -44.2310  -999.2500
  498.0000     6.1434     6.1447   194.5305   -44.0714  -999.2500
  498.5000     6.5804     6.8234   180.9945   -44.3595  -999.2500
  499.0000     6.9422     7.1267   162.2033   -44.7970  -999.2500
  499.5000     7.1383     7.3549   151.6703   -44.7865  -999.2500
  500.0000     7.2515     7.5191   146.9999   -44.7761    77.5882
  500.5000     7.3876     7.6616   145.2037   -45.4845    73.5806
  501.0000     7.5236     7.8041   143.4075   -45.9558    70.9091
  501.5000     7.6597     7.9465   141.6113   -45.7972    69.8701
  502.0000     7.7435     8.0393   139.8150   -45.4913    70.1670
  502.5000     7.8645     8.1158   138.0188   -46.0808    70.1670
  503.0000     8.0157     8.1173   136.2226   -46.2245    70.3154
  503.5000     8.1519     8.1939   135.7458   -45.4689    84.4155
  504.0000     8.2127     8.1954   133.4731   -45.3121    75.9555
  504.5000     8.3037     8.2719   131.9970   -45.3047    74.4712
  505.0000     8.3946     8.2734   131.2312   -45.5957    78.7755
  505.5000     8.5007     8.2749   130.4654   -46.0379    60.2226
  506.0000     8.6368     8.2764   129.6997   -46.3270    70.6123
  506.5000     8.6525     8.2779   129.6197   -46.6199    71.2059
