~VERSION INFORMATION
 VERS.                2.0:   CWLS LOG ASCII STANDARD - VERSION 2.0
 WRAP.                 NO:   ONE LINE PER DEPTH STEP
~WELL INFORMATION
#MNEM.UNIT      DATA TYPE    INFORMATION
#----------   ------------   ------------------------------
 STRT.F           46.0000:   START DEPTH
 STOP.F          670.0000:   STOP DEPTH
 STEP.F            0.5000:   STEP LENGTH
 NULL.          -999.2500:   NO VALUE
 COMP. FENIX & SCISSON INC:   COMPANY
 WELL. TEAPOT #27 62SX 11WI-11:   WELL
 FLD .             TEAPOT:   FIELD
 LOC .      S11 T38N R78W:   LOCATION
 CNTY.            NATRONA:   COUNTY
 STAT.            WYOMING:   STATE
 CTRY. UNITED STATES OF AMERICA:   COUNTRY
 SRVC.      Dresser Atlas:   SERVICE COMPANY
 DATE.        27-JUL-1980:   LOGDATE
 API .       490251084000:   API NUMBER
~CURVE INFORMATION
#MNEM.UNIT       API CODE    CURVE DESCRIPTION
#----------   ------------   ------------------------------
 DEPT.F                  :   
 GRD .GAPI   45 310 01 00:   GAMMA RAY FROM DENSITY LOG
 RHOB.G/C3   45 350 01 00:   BULK DENSITY
 CORR.G/C3   45 356 01 00:   DENSITY CORRECTION
 CALD.IN     45 280 60 00:   CALIPER
 DPOR.DEC    45 890 12 00:   DENSITY POROSITY SANDSTONE
 SPR .MV     07 010 01 00:   SPONTANEOUS POTENTIAL
 SFL .OHMM   07 220 01 00:   SHALLOW FOCUSED LOG RESISTIVITY
 ILD .OHMM   07 120 46 00:   INDUCTION LOG DEEP
 ILM .OHMM   07 120 44 00:   INDUCTION LOG MEDIUM
~PARAMETER INFORMATION
#MNEM.UNIT          VALUE    DESCRIPTION
#----------   ------------   ------------------------------
 PD  .                 GL:   PERMANENT DATUM
 EPD .F              5186:   ELEVATION PERMANENT DATUM
 LMF .                 KB:   LOG MEASURED FROM
 DAPD.F                 5:   FEET ABOVE PERMANENT DATUM
 DMF .                 KB:   DRILLING MEASURED FROM
 EKB .F              5191:   KELLING BUSHING
 EGL .F              5186:   GROUND LEVEL
 DATE.            7-27-80:   RUN DATE
 RUN .                  1:   RUN NUMBER
 DD  .F               660:   DEPTH DRILLER
 DL  .F               663:   DEPTH LOGGER
 BLI .F               661:   BOTTOM LOG INTERVAL
 TLI .F                46:   TOP LOG INTERVAL
 BS  .IN            7.875:   BIT SIZE
 BSD .F               660:   BIT SIZE AT DEPTH
 DFT .           CHEM GEL:   DRILLING FLUID TYPE
 DFD .                9.5:   DRILLING FLUID DENSITY
 DFV .                 50:   DRILLING FLUID VISCOSITY
 DFPH.                 11:   DRILLING FLUID PH
 DFL .                  6:   DRILLING FLUID LOSS
 MSS .           FLOWLINE:   MUD SAMPLE SOURCE
 RMS .OHMM            .08:   RESISTIVITY MUD SAMPLE
 MST .F                70:   MUD SAMPLE TEMPERATURE
 RMC .OHMM            .08:   RESISTIVITY MUD CAKE
 MCST.F                70:   MUD CAKE SAMPLE TEMPERATURE
 MFSS.               MEAS:   MUD FILTRATE SAMPLE SOURCE
 MCSS.               MEAS:   MUD CAKE SAMPLE SOURCE
 RMB .OHMM            .06:   RESISTIVITY MUD AT BHT
 BHT .F                90:   BOTTOM HOLE TEMPERATURE
 TCS .HRS               5:   TIME CURCULATED STOPPED
 MRT .F                90:   MAXIMUM RECORDED TEMPERATURE
 LUN .               6145:   LOGGING UNIT NUMBER
 LUL .              GLTTE:   LOGGING UNIT LOCATION
 ENGI.              HENRY:   RECORDING ENGINEER
 WITN.              AMEND:   WITNESSED BY
 CLNT.            A2DTECH:   CLIENT CODE
 ORIG.       2", 5" PRINT:   ORIGIN OF DATA
 UWI .       490251084000:   UNIQUE WELL ID
 DICO. A2D Technologies, Inc.:   DIGITIZING COMPANY
~OTHER INFORMATION
~A   DEPT      GRD       RHOB       CORR       CALD       DPOR        SPR          SFL        ILD      ILM   
# ...
  447.5000   115.3693     2.5373     0.0296     8.5435     0.0852   -42.8763     9.6321     6.5080     6.9944
  448.0000   117.3133     2.5372     0.0289     8.5440     0.0865   -42.7683     9.6021     6.4529     6.9776
  448.5000   119.5613     2.5345     0.0257     8.5445     0.0881   -42.6629     9.5541     6.3904     6.9609
  449.0000   121.1948     2.5315     0.0226     8.5452     0.0900   -42.5554     9.4515     6.4185     6.9426
  449.5000   122.0669     2.5286     0.0195     8.5332     0.0919   -42.5223     9.3188     6.4615     6.9544
  450.0000   120.8157     2.5236     0.0186     8.5195     0.0941   -42.5219     9.3984     6.5056     6.9686
  450.5000   117.7057     2.5185     0.0177     8.5057     0.0972   -42.5226     9.5151     6.4785     6.9828
  451.0000   117.1703     2.5133     0.0195     8.5082     0.1004   -42.5205     9.6332     6.4494     6.9970
  451.5000   121.5486     2.5091     0.0222     8.5119     0.1024   -42.4128     9.7576     6.4732     7.0140
  452.0000   124.6456     2.5113     0.0251     8.5156     0.1015   -42.2958     9.5645     6.5090     7.0360
  452.5000   125.3205     2.5148     0.0248     8.5192     0.0995   -42.1789     9.3176     6.4198     7.0580
  453.0000   124.3316     2.5156     0.0239     8.5227     0.1003   -42.0623     9.3572     6.2107     7.0710
  453.5000   123.7657     2.5031     0.0178     8.5220     0.1056   -41.9481     9.4050     5.9260     6.9444
  454.0000   123.2185     2.4958     0.0188     8.5144     0.1096   -41.8209     9.3520     5.6543     6.7697
  454.5000   120.8577     2.4920     0.0177     8.5069     0.1099   -41.6560     9.3188     5.3951     6.3591
  455.0000   119.3066     2.4932     0.0148     8.4993     0.1104   -41.3446     9.1061     5.1715     5.9728
  455.5000   117.9990     2.4742     0.0134     8.4917     0.1210   -40.9912     8.5644     5.1016     5.6914
  456.0000   119.1708     2.4595     0.0118     8.4857     0.1317   -40.5302     8.1914     5.0697     5.4623
  456.5000   119.8136     2.4569     0.0150     8.4981     0.1329   -40.1194     8.4518     5.0384     5.4629
  457.0000   120.0531     2.4626     0.0197     8.5105     0.1308   -40.0474     8.6533     4.9472     5.6380
  457.5000   119.0244     2.4823     0.0247     8.5227     0.1188   -39.9735     8.8604     4.8401     5.7525
  458.0000   121.5976     2.5065     0.0234     8.5348     0.1023   -39.7863     8.9839     4.7346     5.7752
  458.5000   123.8529     2.5141     0.0206     8.5452     0.0963   -39.8332     8.8998     4.7169     5.7752
  459.0000   123.7421     2.5029     0.0175     8.5449     0.1021   -39.8859     8.9821     4.7169     5.6882
  459.5000   122.0316     2.4915     0.0181     8.5449     0.1104   -39.9440     8.6376     4.7169     5.5641
  460.0000   123.5517     2.4734     0.0241     8.5449     0.1212   -39.7653     8.0308     4.7973     5.2330
  460.5000   125.0201     2.4594     0.0294     8.5449     0.1325   -39.5592     6.4494     4.8531     4.9837
  461.0000   123.8542     2.4525     0.0324     8.5449     0.1356   -39.6375     6.8871     4.8690     5.1361
  461.5000   123.1945     2.4649     0.0355     8.5482     0.1201   -39.7521     7.5376     4.8831     5.3244
  462.0000   124.1632     2.5271     0.0365     8.5628     0.0961   -40.2286     8.2655     4.9844     5.5367
  462.5000   121.3261     2.5423     0.0328     8.5771     0.0868   -40.6407     9.3285     5.2349     5.6961
  463.0000   118.4622     2.5260     0.0291     8.5909     0.0907   -40.8958     9.2799     5.4991     5.7633
  463.5000   117.5760     2.5146     0.0270     8.6047     0.0995   -40.9117     9.2316     5.7770     5.9228
  464.0000   117.2284     2.5090     0.0254     8.6187     0.1056   -40.8810     9.1836     6.0280     6.1659
  464.5000   115.9589     2.5100     0.0238     8.6247     0.0939   -40.8497     9.1489     6.1613     6.4190
  465.0000   114.6600     2.5288     0.0254     8.6248     0.0885   -40.8192     9.2206     6.0883     6.5227
  465.5000   114.2437     2.5342     0.0276     8.6248     0.0870   -40.7890     9.2772     5.8466     6.6067
  466.0000   114.5744     2.5371     0.0293     8.6248     0.0856   -40.7565     9.3341     5.4715     6.6299
  466.5000   115.1764     2.5341     0.0247     8.6248     0.0879   -40.6043     9.4050     5.1208     6.4631
  467.0000   115.2424     2.5243     0.0197     8.6248     0.0934   -40.2125     9.2556     4.8222     6.0130
  467.5000   114.8242     2.5107     0.0115     8.6248     0.1008   -39.8292     8.6974     4.6737     5.5942
  468.0000   115.4977     2.4616     0.0052     8.6247     0.1248   -39.2043     8.1925     4.6118     5.1470
  468.5000   117.0828     2.4282     0.0147     8.6247     0.1514   -38.5328     8.3549     4.5656     4.9390
  469.0000   119.7006     2.4297     0.0267     8.6248     0.1509   -38.1619     8.6204     4.5199     5.0377
  469.5000   120.2853     2.4726     0.0390     8.6286     0.1210   -38.3585     8.8944     4.5048     5.1573
  470.0000   118.3645     2.5139     0.0431     8.6415     0.0912   -38.7805     9.1489     4.6036     5.3296
  470.5000   117.0357     2.5215     0.0424     8.6541     0.0955   -39.2011     8.4658     4.9015     5.5158
  471.0000   117.4204     2.5120     0.0412     8.6668     0.1020   -39.6230     8.0431     5.3121     5.6415
  471.5000   117.7688     2.5298     0.0337     8.6796     0.0842   -40.0522     8.6257     5.7752     5.9402
  472.0000   116.3412     2.5570     0.0372     8.6846     0.0734   -40.3237     9.4919     6.0913     6.3241
  472.5000   112.9605     2.5648     0.0406     8.6846     0.0694   -40.5601     9.7800     6.4387     6.6355
  473.0000   111.2087     2.5694     0.0437     8.6847     0.0663   -40.7954     9.8954     6.6413     6.8075
  473.5000   109.0371     2.5695     0.0451     8.6825     0.0677   -41.0314    10.0122     6.8096     6.9840
  474.0000   108.4236     2.5652     0.0466     8.6793     0.0685   -41.2679    10.1304     6.9822     7.1651
  474.5000   109.9657     2.5672     0.0479     8.6760     0.0671   -41.5017    10.2499     7.0338     7.3361
  475.0000   110.8868     2.5628     0.0487     8.6727     0.0701   -41.5839    10.3114     7.0658     7.4354
  475.5000   109.7298     2.5590     0.0496     8.6694     0.0720   -41.6431    10.2515     7.0980     7.5436
  476.0000   108.8630     2.5623     0.0521     8.6662     0.0699   -41.7023    10.2115     7.1303     7.6815
  476.5000   109.7163     2.5675     0.0614     8.6647     0.0671   -41.7618    10.1716     7.1627     7.6392
  477.0000   110.4057     2.5742     0.0589     8.6647     0.0639   -41.8216    10.1236     7.2022     7.5828
  477.5000   109.5097     2.5674     0.0558     8.6649     0.0678   -41.8808    10.1683     7.1934     7.5268
  478.0000   109.6083     2.5578     0.0481     8.6639     0.0736   -41.9124    10.2255     7.1823     7.4724
  478.5000   111.1521     2.5485     0.0410     8.6375     0.0786   -41.8259    10.2834     7.1710     7.5442
  479.0000   113.0146     2.5420     0.0378     8.6105     0.0824   -41.7484    10.3414     7.1598     7.6111
  479.5000   114.2676     2.5438     0.0343     8.5855     0.0817   -41.5102    10.4067     7.1486     7.5038
  480.0000   112.1698     2.5454     0.0325     8.5849     0.0812   -41.1350    10.3114     7.1364     7.4039
  480.5000   107.7592     2.5401     0.0306     8.5848     0.0842   -40.4128    10.1888     7.1642     7.3361
  481.0000   107.2987     2.5350     0.0287     8.5848     0.0868   -40.0294     9.9525     7.2038     7.3851
  481.5000   108.2551     2.5301     0.0276     8.5848     0.0884   -39.6260     9.7217     7.2433     7.4377
  482.0000   109.1463     2.5314     0.0276     8.5849     0.0859   -39.6341     9.6682     7.3280     7.5534
  482.5000   107.5860     2.5436     0.0277     8.5942     0.0823   -39.7453    10.1794     7.4880     7.7743
  483.0000   105.8939     2.5363     0.0231     8.6044     0.0870   -39.8589    10.6352     7.6818     8.0458
  483.5000   105.1902     2.5248     0.0179     8.6147     0.0922   -39.9715    11.0922     7.6189     7.9837
