~VERSION INFORMATION
 VERS.                2.0:   CWLS LOG ASCII STANDARD - VERSION 2.0
 WRAP.                 NO:   ONE LINE PER DEPTH STEP
~WELL INFORMATION
#MNEM.UNIT      DATA TYPE    INFORMATION
#----------   ------------   ------------------------------
 STRT.F            0.0000:   START DEPTH
 STOP.F          652.0000:   STOP DEPTH
 STEP.F            0.5000:   STEP LENGTH
 NULL.          -999.2500:   NO VALUE
 COMP. US DEPTMNT OF ENRGY:   COMPANY
 WELL. NPR ##3 14-14-SX-11:   WELL
 FLD .   TEAPOT NAVAL RES:   FIELD
 LOC .      S11 T38N R78W:   LOCATION
 CNTY.            NATRONA:   COUNTY
 STAT.            WYOMING:   STATE
 CTRY. UNITED STATES OF AMERICA:   COUNTRY
 SRVC.            Unknown:   SERVICE COMPANY
 DATE.        03-JAN-1985:   LOGDATE
 API .       490251102400:   API NUMBER
~CURVE INFORMATION
#MNEM.UNIT       API CODE    CURVE DESCRIPTION
#----------   ------------   ------------------------------
 DEPT.F                  :   
 CALD.IN     45 280 60 00:   CALIPER
 CORR.G/C3   45 356 01 00:   DENSITY CORRECTION
 PORD.DEC    45 890 12 00:   DENSITY POROSITY SANDSTONE
 CNC .DEC    42 890 03 00:   NEUTRON POROSITY SANDSTONE
 SPR .MV     11 010 01 00:   SPONTANEOUS POTENTIAL FROM RES.
 GRR .GAPI   11 310 01 00:   GAMMA RAY FROM RES.
 RS  .OHMM   11 220 09 00:   RESISTIVITY SHALLOW
 RD  .OHMM   11 220 10 00:   RESISTIVITY DEEP
 DEN .G/C3   45 350 01 00:   COMPENSATED BULK DENSTIY
~PARAMETER INFORMATION
#MNEM.UNIT          VALUE    DESCRIPTION
#----------   ------------   ------------------------------
 PD  .                 GL:   PERMANENT DATUM
 EPD .F            5197.3:   ELEVATION PERMANENT DATUM
 LMF .                 KB:   LOG MEASURED FROM
 DMF .                 KB:   DRILLING MEASURED FROM
 EKB .F            5197.3:   KELLING BUSHING
 EGL .F            5197.3:   GROUND LEVEL
 DATE.         3-JAN-1985:   RUN DATE
 RUN .                  1:   RUN NUMBER
 DD  .F               650:   DEPTH DRILLER
 DL  .F               653:   DEPTH LOGGER
 BLI .F               651:   BOTTOM LOG INTERVAL
 CS  .IN            8.625:   CASING SIZE
 CBD .F                20:   CASING BOTTOM DRILLER
 CBL .F                20:   CASING BOTTOM LOGGER
 BS  .IN             6.25:   BIT SIZE
 BSD .F               650:   BIT SIZE AT DEPTH
 DFT .                KCL:   DRILLING FLUID TYPE
 RMS .OHMM            .12:   RESISTIVITY MUD SAMPLE
 MST .F                70:   MUD SAMPLE TEMPERATURE
 RMF .OHMM            .09:   RESISTIVITY MUD FILTRATE SAMPLE
 MFST.F                70:   MUD FILTRATE SAMPLE TEMPERATURE
 RMC .OHMM            .15:   RESISTIVITY MUD CAKE
 MCST.F                70:   MUD CAKE SAMPLE TEMPERATURE
 MFSS.               CALC:   MUD FILTRATE SAMPLE SOURCE
 MCSS.               CALC:   MUD CAKE SAMPLE SOURCE
 RMB .OHMM             .1:   RESISTIVITY MUD AT BHT
 BHT .F                80:   BOTTOM HOLE TEMPERATURE
 TCS .HRS               3:   TIME CURCULATED STOPPED
 MRT .F                80:   MAXIMUM RECORDED TEMPERATURE
 LUN .               6274:   LOGGING UNIT NUMBER
 LUL .               GLTE:   LOGGING UNIT LOCATION
 ENGI.               MACK:   RECORDING ENGINEER
 WITN.               PAGE:   WITNESSED BY
 CLNT.            A2DTECH:   CLIENT CODE
 ORIG.       2", 5" PRINT:   ORIGIN OF DATA
 UWI .       490251102400:   UNIQUE WELL ID
 DICO. A2D Technologies, Inc.:   DIGITIZING COMPANY
~OTHER INFORMATION
~A    DEPT    CALD       CORR       PORD        CNC        SPR         GRR        RS         RD        DEN   
# ...
  584.0000     6.3461     0.0453     0.0977     0.2618   -49.6659   107.1141     9.9663    11.2046     2.5124
  584.5000     6.3458     0.0403     0.0977     0.2726   -50.1695   109.7937     9.7661    11.0091     2.5096
  585.0000     6.3454     0.0447     0.1004     0.2767   -50.6263   112.1807     9.5700    10.8175     2.5060
  585.5000     6.3451     0.0527     0.1006     0.2778   -50.6924   113.1049     9.3718    10.6293     2.5045
  586.0000     6.3448     0.0621     0.1007     0.2736   -50.7757   116.4439     9.2709    10.4444     2.5035
  586.5000     6.3445     0.0713     0.1015     0.2720   -50.8608   121.4217     9.1612    10.2627     2.5004
  587.0000     6.3442     0.0555     0.1050     0.2724   -50.9458   120.7707     9.0057    10.0888     2.4953
  587.5000     6.3438     0.0429     0.1084     0.2727   -51.0309   112.2923     8.7695     9.9446     2.4904
  588.0000     6.3435     0.0592     0.1115     0.2680   -51.1159   111.7248     8.5378     9.8025     2.4885
  588.5000     6.3432     0.0796     0.1098     0.2665   -51.2009   112.9901     8.4851     9.6625     2.4929
  589.0000     6.3429     0.0812     0.1067     0.2757   -51.2860   113.8988     8.5105     9.5244     2.4968
  589.5000     6.3425     0.0702     0.1060     0.2827   -51.3710   112.9630     8.5325     9.3883     2.4939
  590.0000     6.3422     0.0582     0.1096     0.2882   -51.4560   111.5102     8.5545     9.2612     2.4841
  590.5000     6.3419     0.0459     0.1181     0.2964   -51.5411   109.1241     8.5637     9.1474     2.4727
  591.0000     6.3415     0.0344     0.1290     0.2986   -51.6261   107.1184     8.1809     9.0350     2.4544
  591.5000     6.3412     0.0311     0.1425     0.3000   -51.7111   109.7236     7.5771     8.6024     2.4404
  592.0000     6.3409     0.0337     0.1438     0.2985   -51.7965   113.9125     6.9627     7.7441     2.4414
  592.5000     6.3406     0.0387     0.1348     0.2787   -51.8815   116.7494     6.3981     6.9714     2.4521
  593.0000     6.3403     0.0437     0.1268     0.2747   -51.9633   115.0515     6.0281     6.5546     2.4683
  593.5000     6.3399     0.0489     0.1189     0.2707   -51.8596   113.7268     6.0252     7.1811     2.4829
  594.0000     6.3396     0.0537     0.1143     0.2707   -51.4780   113.0413     7.1501     8.0299     2.4849
  594.5000     6.3393     0.0364     0.1146     0.2659   -51.1012   113.5703     8.2173     8.9790     2.4825
  595.0000     6.3390     0.0149     0.1149     0.2610   -50.7679   115.6866     9.2607    10.0435     2.4803
  595.5000     6.3386     0.0126     0.1135     0.2619   -50.5855   118.3459     9.7427    10.7809     2.4859
  596.0000     6.3383     0.0285     0.1095     0.2643   -50.4024   117.5199     9.9249    11.0020     2.4920
  596.5000     6.3380     0.0441     0.1054     0.2633   -50.2184   115.0065     9.9996    11.2241     2.4980
  597.0000     6.3377     0.0588     0.1027     0.2632   -50.0363   113.8403    10.0712    11.4528     2.5031
  597.5000     6.3373     0.0730     0.1002     0.2650   -49.9396   114.3692    10.1433    11.6860     2.5081
  598.0000     6.3370     0.0763     0.0974     0.2660   -49.8358   114.6733    10.2160    11.8045     2.5132
  598.5000     6.3367     0.0581     0.0972     0.2625   -49.7309   111.9477    10.2891    11.9063     2.5135
  599.0000     6.3364     0.0403     0.1003     0.2581   -49.6258   109.5693    10.3541    12.0091     2.5070
  599.5000     6.3360     0.0436     0.1032     0.2540   -49.5207   108.6583    10.4183    12.1131     2.5008
  600.0000     6.3357     0.0497     0.1062     0.2522   -49.4156   113.1463    10.4894    12.2165     2.4976
  600.5000     6.3354     0.0517     0.1088     0.2499   -49.3105   116.8690    10.4894    12.2705     2.4949
  601.0000     6.3351     0.0431     0.1088     0.2476   -49.2049   115.5828    10.3559    12.2395     2.4938
  601.5000     6.3348     0.0345     0.1080     0.2457   -49.0997   115.6272    10.2549    12.2166     2.4966
  602.0000     6.3339     0.0415     0.1061     0.2524   -49.0072   115.5710    10.1548    12.1938     2.4992
  602.5000     6.3330     0.0518     0.1059     0.2595   -49.0841   112.5217    10.1096    12.1712     2.4998
  603.0000     6.3320     0.0553     0.1081     0.2604   -49.3189   109.1920    10.2372    12.1566     2.4962
  603.5000     6.3310     0.0542     0.1103     0.2577   -49.5507   105.8363    10.3329    12.3386     2.4926
  604.0000     6.3300     0.0529     0.1116     0.2549   -49.7827   104.3869    10.4296    12.4746     2.4900
  604.5000     6.3291     0.0513     0.1120     0.2521   -50.0145   105.6098    10.4894    12.6127     2.4891
  605.0000     6.3281     0.0490     0.1137     0.2493   -50.2464   107.0953    10.4894    12.4938     2.4856
  605.5000     6.3271     0.0467     0.1145     0.2499   -50.4783   105.7366    10.3659    12.3727     2.4835
  606.0000     6.3261     0.0444     0.1140     0.2550   -50.7101   104.5732    10.1647    12.2528     2.4882
  606.5000     6.3252     0.0422     0.1114     0.2601   -50.9420   105.1367     9.9674    12.1345     2.4923
  607.0000     6.3242     0.0385     0.1115     0.2652   -51.1739   105.2416     9.7739    11.8820     2.4930
  607.5000     6.3232     0.0303     0.1134     0.2703   -51.4061   104.7242     9.3064    11.2193     2.4894
  608.0000     6.3222     0.0411     0.1143     0.2717   -51.6350   105.2440     8.8125    10.5936     2.4856
  608.5000     6.3213     0.0541     0.1149     0.2711   -51.8020   107.1660     8.3448    10.0028     2.4859
  609.0000     6.3203     0.0562     0.1163     0.2776   -52.4488   107.2747     7.9018     9.4449     2.4822
  609.5000     6.3193     0.0536     0.1185     0.2847   -53.2054   104.6296     7.4821     8.9181     2.4785
  610.0000     6.3183     0.0507     0.1252     0.2978   -53.9682   101.6000     7.0852     8.4210     2.4735
  610.5000     6.3174     0.0549     0.1336     0.3050   -54.7170    98.8373     6.6766     7.9511     2.4572
  611.0000     6.3164     0.0615     0.1423     0.3321   -55.2277   103.6998     6.5563     7.5077     2.4400
  611.5000     6.3154     0.0651     0.1529     0.3593   -55.9342   110.3622     6.1013     6.9549     2.4151
  612.0000     6.3144     0.0567     0.1742     0.3866   -56.0325   114.1046     5.4169     6.3958     2.3786
  612.5000     6.3135     0.0486     0.2032     0.4136   -56.0268   114.7439     4.4276     5.2561     2.3334
  613.0000     6.3125     0.0479     0.2322     0.4096   -56.0245   114.4223     3.5166     4.1543     2.2880
  613.5000     6.3115     0.0353     0.2437     0.3951   -56.0245   112.8723     2.7931     3.2834     2.2714
  614.0000     6.3105     0.0044     0.2220     0.3451   -56.0245   109.1305     2.2084     2.5831     2.2813
  614.5000     6.3096     0.0058     0.1907     0.2985   -56.0245   104.9032     2.1855     2.4896     2.3460
  615.0000     6.3086     0.0213     0.1593     0.2898   -56.0245   104.3853     2.4885     2.9429     2.4090
  615.5000     6.3076     0.0371     0.1303     0.2775   -56.0245   104.3802     3.1018     3.6348     2.4606
  616.0000     6.3066     0.0529     0.1183     0.2818   -56.0247   104.4133     3.8618     4.4895     2.4770
  616.5000     6.3057     0.0678     0.1191     0.2914   -56.0210   106.0580     4.8073     5.5451     2.4782
  617.0000     6.3047     0.0566     0.1188     0.2918   -56.0312   109.6998     5.9843     6.8489     2.4763
  617.5000     6.3037     0.0393     0.1175     0.2796   -55.5971   110.5392     7.1008     8.1450     2.4794
  618.0000     6.3027     0.0254     0.1136     0.2700   -55.6219   106.6426     7.2834     8.4669     2.4862
  618.5000     6.3018     0.0358     0.1097     0.2785   -55.6241   102.9253     7.4576     8.5993     2.4931
  619.0000     6.3008     0.0525     0.1035     0.2876   -55.6236   104.0655     7.7769     8.9532     2.4998
  619.5000     6.2998     0.0694     0.0964     0.2946   -55.6236   107.4157     8.0879     9.4347     2.5114
  620.0000     6.2989     0.0738     0.0892     0.2859   -55.6236   110.3323     8.4113     9.9421     2.5255
