~VERSION INFORMATION
 VERS.                2.0:   CWLS LOG ASCII STANDARD - VERSION 2.0
 WRAP.                 NO:   ONE LINE PER DEPTH STEP
~WELL INFORMATION
#MNEM.UNIT      DATA TYPE    INFORMATION
#----------   ------------   ------------------------------
 STRT.F           30.0000:   START DEPTH
 STOP.F          750.0000:   STOP DEPTH
 STEP.F            0.5000:   STEP LENGTH
 NULL.          -999.2500:   NO VALUE
 COMP. FENIX & SCISSON INC:   COMPANY
 WELL. TEAPOT DOME SX #38-11:   WELL
 FLD .             TEAPOT:   FIELD
 LOC .      S11 T38N R78W:   LOCATION
 CNTY.            NATRONA:   COUNTY
 STAT.            WYOMING:   STATE
 CTRY. UNITED STATES OF AMERICA:   COUNTRY
 SRVC.            Unknown:   SERVICE COMPANY
 DATE.        23-FEB-1978:   LOGDATE
 API .       490251058200:   API NUMBER
~CURVE INFORMATION
#MNEM.UNIT       API CODE    CURVE DESCRIPTION
#----------   ------------   ------------------------------
 DEPT.F                  :   
 CALD.IN     45 280 60 00:   CALIPER FROM DENSITY LOG
 GRD .GAPI   45 310 01 00:   GAMMA RAY FROM DENSITY LOG
 RHOB.G/C3   45 350 01 00:   BULK DENSITY
 DPHI.DEC    45 890 12 00:   DENSITY POROSITY SANDSTONE
 CORR.G/C3   45 356 01 00:   DENSITY CORRECTION
 SPR .MV     07 010 01 00:   SPONTANEOUS POTENTIAL FROM RES. LOG
 SN  .OHMM   07 040 16 00:   SHORT NORMAL 16'
 ILD .OHMM   07 120 46 00:   INDUCTION LOG DEEP
~PARAMETER INFORMATION
#MNEM.UNIT          VALUE    DESCRIPTION
#----------   ------------   ------------------------------
 PD  .                 GL:   PERMANENT DATUM
 EPD .F              5204:   ELEVATION PERMANENT DATUM
 LMF .                 KB:   LOG MEASURED FROM
 DAPD.F                 4:   FEET ABOVE PERMANENT DATUM
 DMF .                 KB:   DRILLING MEASURED FROM
 EKB .F              5208:   KELLING BUSHING
 EGL .F              5204:   GROUND LEVEL
 DATE.            2-23-78:   RUN DATE
 RUN .                  1:   RUN NUMBER
 DD  .F               755:   DEPTH DRILLER
 DL  .F               751:   DEPTH LOGGER
 BLI .F               745:   BOTTOM LOG INTERVAL
 TLI .F                45:   TOP LOG INTERVAL
 CS  .IN            8.625:   CASING SIZE
 CBD .F                40:   CASING BOTTOM DRILLER
 CBL .F                40:   CASING BOTTOM LOGGER
 BS  .IN            7.875:   BIT SIZE
 BSD .F               755:   BIT SIZE AT DEPTH
 DFT .         LIGNO SULF:   DRILLING FLUID TYPE
 DFD .                8.7:   DRILLING FLUID DENSITY
 DFV .                 33:   DRILLING FLUID VISCOSITY
 DFPH.                 10:   DRILLING FLUID PH
 DFL .                  4:   DRILLING FLUID LOSS
 MSS .          FLOW LINE:   MUD SAMPLE SOURCE
 RMS .OHMM              2:   RESISTIVITY MUD SAMPLE
 MST .F                60:   MUD SAMPLE TEMPERATURE
 RMF .OHMM            1.9:   RESISTIVITY MUD FILTRATE SAMPLE
 MFST.F                62:   MUD FILTRATE SAMPLE TEMPERATURE
 RMC .OHMM            3.5:   RESISTIVITY MUD CAKE
 MCST.F                60:   MUD CAKE SAMPLE TEMPERATURE
 MFSS.               MEAS:   MUD FILTRATE SAMPLE SOURCE
 MCSS.               MEAS:   MUD CAKE SAMPLE SOURCE
 RMB .OHMM           1.69:   RESISTIVITY MUD AT BHT
 BHT .F                71:   BOTTOM HOLE TEMPERATURE
 TCS .HRS               3:   TIME CURCULATED STOPPED
 MRT .F                71:   MAXIMUM RECORDED TEMPERATURE
 LUN .               2958:   LOGGING UNIT NUMBER
 LUL .               CASP:   LOGGING UNIT LOCATION
 ENGI.            POINTER:   RECORDING ENGINEER
 WITN.           MCGINLEY:   WITNESSED BY
 CLNT.            A2DTECH:   CLIENT CODE
 ORIG.       2", 5" PRINT:   ORIGIN OF DATA
 UWI .       490251058200:   UNIQUE WELL ID
 DICO. A2D Technologies, Inc.:   DIGITIZING COMPANY
~OTHER INFORMATION
~A   DEPT     CALD         GRD      RHOB       DPHI       CORR        SPR         SN        ILD   
# ...
  718.5000     8.1385   106.8893     2.4884     0.1035     0.0269   -39.7587    12.0415    10.0347
  719.0000     8.1369   106.5112     2.4905     0.1025     0.0269   -39.8031    12.0998    10.1082
  719.5000     8.1352   103.5310     2.4932     0.1016     0.0267   -39.9142    12.1584    10.1823
  720.0000     8.1335    98.2829     2.4945     0.1006     0.0254   -40.2590    12.2103    10.2435
  720.5000     8.1318   100.0056     2.4941     0.0998     0.0241   -41.6991    12.2300    10.3647
  721.0000     8.1301   104.5771     2.4865     0.1041     0.0230   -42.8733    12.2497    10.5039
  721.5000     8.1285   108.9343     2.4723     0.1081     0.0248   -42.6888    12.2694    10.5392
  722.0000     8.1268   107.5954     2.4622     0.1117     0.0266   -42.4333    12.2892    10.5492
  722.5000     8.1251   103.4837     2.4662     0.1111     0.0284   -42.2395    12.3090    10.5593
  723.0000     8.1234    99.4563     2.4699     0.1102     0.0302   -42.2734    12.3196    10.5694
  723.5000     8.1217    96.7058     2.4738     0.1093     0.0311   -42.3030    12.3357    10.5794
  724.0000     8.1200    96.7470     2.4716     0.1083     0.0316   -42.3323    12.3544    10.5895
  724.5000     8.1184    96.7999     2.4742     0.1083     0.0322   -42.3614    12.3730    10.5996
  725.0000     8.1167    98.2734     2.4765     0.1085     0.0327   -42.3904    12.3917    10.6097
  725.5000     8.1150   103.8590     2.4716     0.1089     0.0332   -42.4197    12.4105    10.6199
  726.0000     8.1133   104.4078     2.4715     0.1098     0.0338   -42.4729    12.4336    10.6291
  726.5000     8.1116   101.5249     2.4725     0.1107     0.0343   -42.5814    12.3553    10.6046
  727.0000     8.1100    99.1444     2.4662     0.1116     0.0349   -42.6887    12.2474    10.5599
  727.5000     8.1083    98.3890     2.4552     0.1125     0.0364   -42.7957    12.1414    10.5152
  728.0000     8.1066    99.2214     2.4480     0.1073     0.0381   -42.7775    12.0785    10.4708
  728.5000     8.1049    99.5606     2.4637     0.0962     0.0367   -42.5962    12.0376    10.4343
  729.0000     8.1032    98.6786     2.4758     0.1008     0.0328   -42.4148    11.9960    10.3528
  729.5000     8.1015    98.0540     2.4720     0.1031     0.0309   -42.2347    11.9547    10.2706
  730.0000     8.0999   102.1089     2.4631     0.1013     0.0329   -42.5887    11.9133    10.1890
  730.5000     8.0982   106.8163     2.4662     0.0977     0.0352   -42.7788    11.8735    10.1081
  731.0000     8.0965   110.3735     2.4734     0.0962     0.0369   -42.4467    11.7419    10.0278
  731.5000     8.0948   111.6299     2.4806     0.0957     0.0388   -42.1245    11.5381     9.9482
  732.0000     8.0931   112.9621     2.4832     0.0945     0.0387   -41.8013    11.3378     9.8692
  732.5000     8.0914   112.8397     2.4759     0.0910     0.0341   -41.6409    11.1409     9.7908
  733.0000     8.0898   111.2068     2.4844     0.0961     0.0296   -41.8230    10.9475     9.7004
  733.5000     8.0881   106.4592     2.4792     0.1002     0.0292   -42.0017    10.7575     9.5830
  734.0000     8.0864   104.1412     2.4713     0.0996     0.0297   -42.1790    10.5708     9.4670
  734.5000     8.0847  -999.2500     2.4743     0.1003     0.0301   -42.3573    10.3873     9.3523
  735.0000     8.0830  -999.2500     2.4740     0.1065     0.0305   -42.4481    10.2822     9.2391
  735.5000     8.0814  -999.2500     2.4656     0.1086     0.0318   -42.4809    10.2056     9.1272
  736.0000     8.0797  -999.2500     2.4584     0.1076     0.0367   -42.5119    10.1297     9.0167
  736.5000     8.0780  -999.2500     2.4606     0.1047     0.0412   -42.5426    10.0542     8.9075
  737.0000     8.0763  -999.2500     2.4660     0.1018     0.0492   -42.5742     9.9794     8.7997
  737.5000     8.0746  -999.2500     2.4715     0.0989     0.0578   -42.6053     9.8268     8.7046
  738.0000     8.0726  -999.2500     2.4799     0.0929     0.0667   -42.6308     9.4886     8.5755
  738.5000     8.0715  -999.2500     2.4913     0.0858     0.0670   -42.3163     9.4271     8.4483
  739.0000     8.0496  -999.2500     2.5030     0.0835     0.0647   -41.5209     9.6952     8.3230
  739.5000  -999.2500  -999.2500     2.5000     0.0872     0.0624   -40.7152     9.4904     8.1995
  740.0000  -999.2500  -999.2500     2.4932     0.0899     0.0612   -41.3869     9.2585     8.1330
  740.5000  -999.2500  -999.2500     2.4865     0.0927     0.0632   -42.2864     9.0020     8.1927
  741.0000  -999.2500  -999.2500     2.4830     0.0913     0.0651   -43.1894     9.1985     8.2626
  741.5000  -999.2500  -999.2500     2.4892     0.0877     0.0670   -43.6022     9.4287     8.3337
  742.0000  -999.2500  -999.2500     2.4951     0.0842     0.0687   -43.3973     9.7816     8.4388
  742.5000  -999.2500  -999.2500     2.5010     0.0806     0.0688   -43.2054     9.4844     8.2883
  743.0000  -999.2500  -999.2500     2.5067     0.0770     0.0707   -43.2900     9.0020     8.0030
  743.5000  -999.2500  -999.2500     2.5122     0.0734     0.0644   -45.2562     9.7816     7.7662
  744.0000  -999.2500  -999.2500     2.5250     0.0699     0.0546   -47.2592     9.1332     7.7662
  744.5000  -999.2500  -999.2500     2.5177     0.0725     0.0466   -47.9671     8.6010     7.8720
  745.0000  -999.2500  -999.2500     2.5175     0.0712     0.0468   -43.2896     8.2817     7.9511
  745.5000  -999.2500  -999.2500     2.5225     0.0703     0.0468   -39.5097     8.2744     7.9842
  746.0000  -999.2500  -999.2500     2.5198     0.0779     0.0468   -38.4585     8.2671     7.9577
  746.5000  -999.2500  -999.2500     2.5109     0.0857     0.0468   -37.5174     8.2599     7.9387
  747.0000  -999.2500  -999.2500     2.5018     0.0898     0.0468   -36.6195     8.2526     7.9197
  747.5000  -999.2500  -999.2500     2.4923     0.0897     0.0468   -36.7823     8.2453     7.9008
  748.0000  -999.2500  -999.2500     2.4956     0.0890     0.0468   -37.0224     8.2381     7.8819
  748.5000  -999.2500  -999.2500     2.4928     0.0896     0.0468   -37.2097     8.2308     7.8630
  749.0000  -999.2500  -999.2500     2.4907     0.0910     0.0468   -36.8694     8.2236     7.8442
  749.5000  -999.2500  -999.2500     2.4949     0.0914     0.0468   -36.6374     8.2163     7.8382
  750.0000  -999.2500  -999.2500     2.4956     0.0914     0.0468   -36.7967     8.2091     7.8382
