~VERSION INFORMATION
 VERS.                2.0:   CWLS LOG ASCII STANDARD - VERSION 2.0
 WRAP.                 NO:   ONE LINE PER DEPTH STEP
~WELL INFORMATION
#MNEM.UNIT      DATA TYPE    INFORMATION
#----------   ------------   ------------------------------
 STRT.F            0.0000:   START DEPTH
 STOP.F          717.5000:   STOP DEPTH
 STEP.F            0.5000:   STEP LENGTH
 NULL.          -999.2500:   NO VALUE
 COMP. LAWRENCE/ALLISON INC:   COMPANY
 WELL. NPR 3 #27-64-SX-11-WP:   WELL
 FLD .             TEAPOT:   FIELD
 LOC .      S11 T38N R78W:   LOCATION
 CNTY.            NATRONA:   COUNTY
 STAT.            WYOMING:   STATE
 CTRY. UNITED STATES OF AMERICA:   COUNTRY
 SRVC.      Dresser Atlas:   SERVICE COMPANY
 DATE.        15-SEP-1984:   LOGDATE
 API .       490251097500:   API NUMBER
~CURVE INFORMATION
#MNEM.UNIT       API CODE    CURVE DESCRIPTION
#----------   ------------   ------------------------------
 DEPT.F                  :   
 CALD.IN     45 280 60 00:   CALIPER FROM DENSITY LOG
 CNC .DEC    42 890 03 00:   COMPENSATED NEUTRON POROSITY SANDSTONE
 CORR.G/C3   45 356 01 00:   DENSITY CORRECTION
 DEN .G/C3   45 350 01 00:   BULK DENSTIY
 PORD.DEC    45 890 12 00:   POROSITY DENSITY SANDSTONE
 GRR .GAPI   07 310 01 00:   GAMMA RAY FROM RESISTIVITY
 RFOC.OHMM   07 220 01 00:   RESISTIVITY FOCUSED LOG
 RILD.OHMM   07 120 46 00:   RESISTIVITY INDUCTION LOG DEEP
 RILM.OHMM   07 120 44 00:   RESITIVITY INDUCTION LOG MEDIUM
 SPR .MV     07 010 01 00:   SPONTANEOUS POTENTIAL FROM RES.
~PARAMETER INFORMATION
#MNEM.UNIT          VALUE    DESCRIPTION
#----------   ------------   ------------------------------
 PD  .                 GL:   PERMANENT DATUM
 EPD .F              5198:   ELEVATION PERMANENT DATUM
 LMF .                 GL:   LOG MEASURED FROM
 DMF .                 GL:   DRILLING MEASURED FROM
 EGL .F              5198:   GROUND LEVEL
 DATE.        15-SEP-1984:   RUN DATE
 RUN .                  1:   RUN NUMBER
 DD  .F               736:   DEPTH DRILLER
 DL  .F               722:   DEPTH LOGGER
 BLI .F               704:   BOTTOM LOG INTERVAL
 TLI .F                42:   TOP LOG INTERVAL
 CS  .IN            8.625:   CASING SIZE
 CBD .F                42:   CASING BOTTOM DRILLER
 CBL .F                42:   CASING BOTTOM LOGGER
 BS  .IN            7.875:   BIT SIZE
 BSD .F               736:   BIT SIZE AT DEPTH
 DFT .          KCL WATER:   DRILLING FLUID TYPE
 MSS .           FLOWLINE:   MUD SAMPLE SOURCE
 RMS .OHMM           0.22:   RESISTIVITY MUD SAMPLE
 MST .F                70:   MUD SAMPLE TEMPERATURE
 RMB .OHMM           0.17:   RESISTIVITY MUD AT BHT
 BHT .F                90:   BOTTOM HOLE TEMPERATURE
 TCS .HRS               5:   TIME CURCULATED STOPPED
 MRT .F                90:   MAXIMUM RECORDED TEMPERATURE
 LUN .               6274:   LOGGING UNIT NUMBER
 LUL .               GLTE:   LOGGING UNIT LOCATION
 ENGI.             RAUTIO:   RECORDING ENGINEER
 WITN.            JOHNSON:   WITNESSED BY
 CLNT.            A2DTECH:   CLIENT CODE
 ORIG.         2.5" PRINT:   ORIGIN OF DATA
 UWI .       490251097500:   UNIQUE WELL ID
 DICO. A2D Technologies, Inc.:   DIGITIZING COMPANY
~OTHER INFORMATION
~A    DEPT    CALD        CNC       CORR        DEN       PORD         GRR      RFOC       RILD       RILM        SPR   
# ...
  502.5000     8.1410     0.2583     0.0092     2.3409     0.1947    58.8166    12.7310    15.3237    14.6144    16.6100
  503.0000     8.1429     0.2658     0.0068     2.3289     0.2048    57.5621    13.0891    15.5428    15.1099    17.0355
  503.5000     8.1448     0.2584    -0.0166     2.3170     0.2125    58.6674    13.6795    15.7177    15.3204    17.0148
  504.0000     8.1467     0.2478    -0.0252     2.3303     0.2161    59.1973    14.1611    15.6938    15.5020    17.2934
  504.5000     8.1486     0.2384    -0.0219     2.3332     0.2078    59.1243    14.3431    15.6778    15.4812    16.9705
  505.0000     8.1505     0.2358    -0.0126     2.3331     0.2067    58.4512    14.5274    15.6596    15.4674    16.6567
  505.5000     8.1524     0.2346    -0.0051     2.3366     0.2073    58.3895    14.5066    15.6381    15.4517    16.3402
  506.0000     8.1543     0.2275    -0.0040     2.3516     0.2006    58.3195    14.4927    15.8387    15.6458    16.0199
  506.5000     8.1562     0.1988    -0.0042     2.3675     0.1905    58.8269    14.4778    16.1233    15.8475    15.7060
  507.0000     8.1582     0.1802    -0.0013     2.3888     0.1709    60.5403    14.5498    16.8045    15.8657    15.6341
  507.5000     8.1601     0.1854     0.0163     2.4200     0.1527    61.7554    15.2594    17.3709    16.3564    15.0740
  508.0000     8.1620     0.2079     0.0251     2.4691     0.1108    61.9014    16.3459    17.8355    16.9185    14.4595
  508.5000     8.1641     0.2213     0.0369     2.4987     0.1008    61.5076    17.6239    18.1537    17.6231    14.4408
  509.0000     8.1645     0.2241     0.0427     2.5090     0.1026    62.0376    18.4306    18.7929    18.0861    14.4201
  509.5000     8.1651     0.2209     0.0432     2.4941     0.1157    61.9645    19.1870    18.7738    18.5638    15.2840
  510.0000     8.1656     0.2219     0.0463     2.4407     0.1459    61.2915    18.8032    18.4299    18.5472    15.8577
  510.5000     8.1662     0.2337     0.0481     2.4011     0.1727    61.2297    17.6371    17.7273    17.9713    16.7272
  511.0000     8.1667     0.2432     0.0480     2.3698     0.1865    61.0019    16.9005    17.2305    17.5222    17.2919
  511.5000     8.1672     0.2459     0.0478     2.3618     0.1905    59.8919    16.4265    16.9773    17.0296    17.5710
  512.0000     8.1678     0.2444     0.0477     2.3617     0.1905    59.2385    16.4085    16.7267    16.7544    17.8476
  512.5000     8.1683     0.2468     0.0475     2.3616     0.1905    59.7685    16.3879    16.2555    16.5364    17.8254
  513.0000     8.1688     0.2539     0.0474     2.3544     0.1959    60.5602    17.2962    16.2366    16.5173    17.8025
  513.5000     8.1694     0.2587     0.0472     2.3420     0.2128    60.8047    18.3166    16.2150    16.5024    18.0804
  514.0000     8.1699     0.2581     0.0382     2.3228     0.2179    60.7337    18.9951    16.1986    16.4855    18.0592
  514.5000     8.1704     0.2508     0.0165     2.3155     0.2078    61.4714    18.2113    16.4055    16.4656    18.0353
  515.0000     8.1710     0.2491     0.0052     2.3390     0.1936    62.9483    15.9921    16.6102    16.6787    18.3132
  515.5000     8.1715     0.2432     0.0214     2.3538     0.1895    64.0710    14.7051    16.5897    16.8929    18.2929
  516.0000     8.1720     0.2305     0.0326     2.3596     0.1895    65.1917    15.3940    16.5716    16.8741    18.2681
  516.5000     8.1726     0.2171     0.0387     2.3566     0.1919    63.9156    16.0286    16.5523    16.8552    18.2501
  517.0000     8.1731     0.2033     0.0418     2.3529     0.1945    63.8539    16.5234    16.5309    16.8394    18.2308
  517.5000     8.1736     0.2082     0.0461     2.3378     0.2044    64.5758    15.9874    16.2889    16.7344    18.2101
  518.0000     8.1742     0.2244     0.0281     2.3308     0.2098    66.6350    15.5396    16.0485    16.3481    18.1870
  518.5000     8.1747     0.2372     0.0071     2.3296     0.2057    67.1953    15.0646    15.8088    15.8918    18.1686
  519.0000     8.1752     0.2377     0.0159     2.3381     0.1941    65.3096    14.8807    15.5778    15.4464    18.1479
  519.5000     8.1758     0.2255     0.0217     2.3548     0.1878    64.0947    14.6602    15.1394    15.0104    17.8281
  520.0000     8.1763     0.2199     0.0245     2.3724     0.1856    64.0134    14.6457    15.0120    14.9970    17.5142
  520.5000     8.1768     0.2180    -0.0006     2.3649     0.1898    63.9516    14.6296    14.8972    14.9825    17.4941
  521.0000     8.1774     0.2170    -0.0174     2.3604     0.1892    68.4971    14.6111    14.8812    14.9671    17.1775
  521.5000     8.1779     0.2189    -0.0131     2.3662     0.1863    70.3195    14.7989    14.8638    14.9501    16.8594
  522.0000     8.1784     0.2367    -0.0068     2.3706     0.1852    69.0610    14.7830    15.0493    14.9363    16.8402
  522.5000     8.1790     0.2474     0.0012     2.3676     0.1870    67.8107    14.7668    15.0339    14.9210    16.8195
  523.0000     8.1795     0.2486     0.0043     2.3613     0.1900    67.7396    14.7494    15.0164    14.9033    17.0947
  523.5000     8.1800     0.2474     0.0074     2.3553     0.1924    70.0283    14.9389    14.9959    15.0955    17.0740
  524.0000     8.1806     0.2385     0.0085     2.3518     0.1943    70.5583    15.0068    14.9807    15.0803    17.0533
  524.5000     8.1811     0.2245     0.0083     2.3490     0.1955    69.8935    15.1113    14.9640    15.1764    17.0291
  525.0000     8.1816     0.2169     0.0082     2.3464     0.1962    69.8122    15.3033    15.0497    15.2570    17.3077
  525.5000     8.1822     0.2126     0.0080     2.3464     0.1972    69.1587    15.5000    15.1352    15.2414    17.2870
  526.0000     8.1827     0.2197     0.0019     2.3463     0.1972    67.3136    15.4777    15.1176    15.2257    16.9704
  526.5000     8.1832     0.2209    -0.0074     2.3462     0.1973    66.6375    15.6775    15.1000    15.4181    16.9480
  527.0000     8.1838     0.2177    -0.0132     2.3461     0.1973    67.7592    15.4103    15.0800    15.1944    16.9290
  527.5000     8.1843     0.2168    -0.0126     2.3476     0.1973    67.5936    15.1227    15.0647    15.1788    16.9083
  528.0000     8.1848     0.2175    -0.0105     2.3490     0.1974    67.0296    14.9938    14.9900    14.9542    16.5891
  528.5000     8.1854     0.2169    -0.0149     2.3504     0.1968    66.3597    14.5735    14.4212    14.7375    16.2737
  529.0000     8.1859     0.2163    -0.0183     2.3518     0.1962    66.8896    14.5575    14.2105    14.3248    15.8689
  529.5000     8.1864     0.2164    -0.0199     2.3500     0.1963    68.2169    14.3408    14.0016    14.3101    15.0467
  530.0000     8.1870     0.2170    -0.0171     2.3457     0.1978    68.5207    14.3271    13.9853    14.0996    14.7328
  530.5000     8.1876     0.2182    -0.0113     2.3442     0.2011    67.8570    14.2676    13.7772    13.8946    14.6543
  531.0000     8.1862     0.2266    -0.0055     2.3527     0.1955    67.7870    14.1012    13.5755    13.8060    14.1006
  531.5000     8.1552     0.2421    -0.0027     2.3544     0.1920    67.1109    13.8925    13.5597    13.4892    14.0780
  532.0000     8.1538     0.2490     0.0001     2.3535     0.1922    67.0491    13.6893    13.5415    13.4772    13.7633
  532.5000     8.1523     0.2426    -0.0002     2.3512     0.1938    66.9822    13.6742    13.5278    13.2801    13.4467
  533.0000     8.1509     0.2402    -0.0066     2.3512     0.1941    67.5030    13.6572    13.5124    13.2640    13.4232
  533.5000     8.1494     0.2429    -0.0129     2.3511     0.1941    67.4248    13.6442    13.4967    13.2521    13.4052
  534.0000     8.1479     0.2466    -0.0183     2.3510     0.1942    67.3609    13.8195    13.4799    13.4230    13.0040
  534.5000     8.1557     0.2450    -0.0243     2.3510     0.1942    67.2899    13.9932    13.4653    13.4082    12.7684
  535.0000     8.1748     0.2409    -0.0156     2.3509     0.1942    67.2086    13.9770    13.6382    13.5792    12.7504
  535.5000     8.1435     0.2386    -0.0051     2.3508     0.1955    67.1469    13.9625    13.6174    13.7529    12.6770
