~VERSION INFORMATION
 VERS.                2.0:   CWLS LOG ASCII STANDARD - VERSION 2.0
 WRAP.                 NO:   ONE LINE PER DEPTH STEP
~WELL INFORMATION
#MNEM.UNIT      DATA TYPE    INFORMATION
#----------   ------------   ------------------------------
 STRT.F           83.0000:   START DEPTH
 STOP.F         3044.0000:   STOP DEPTH
 STEP.F            0.5000:   STEP LENGTH
 NULL.          -999.2500:   NO VALUE
 COMP.   TESORO PETROLEUM:   COMPANY
 WELL.  NPR # 3  AX #81-4:   WELL
 FLD .        TEAPOT DOME:   FIELD
 LOC .       S4 T38N R78W:   LOCATION
 CNTY.            NATRONA:   COUNTY
 STAT.            WYOMING:   STATE
 CTRY. UNITED STATES OF AMERICA:   COUNTRY
 SRVC.       Schlumberger:   SERVICE COMPANY
 DATE.        31-JUL-1969:   LOGDATE
 API .       490251002700:   API NUMBER
~CURVE INFORMATION
#MNEM.UNIT       API CODE    CURVE DESCRIPTION
#----------   ------------   ------------------------------
 DEPT.F                  :   
 CILD.MMHO   05 110 46 00:   CONDUCTIVITY INDUCTION LOG DEEP
 ILD .OHMM   05 120 46 00:   INDUCTION LOG DEEP
 SN  .OHMM   05 040 16 00:   SHORT NORMAL 16"
 SPR .MV     05 010 01 00:   SPONTANEOUS POTENTIAL FROM RES.
 CALD.IN     45 280 60 00:   CALIPER FROM DENSITY
 DPHI.DEC    45 890 12 00:   DENSITY POROSITY SANDSTONE
 GRD .GAPI   45 310 01 00:   GAMMA RAY FROM DENSITY LOG
 RHOB.G/C3   45 350 01 00:   BULK DENSITY
 DRHO.G/C3   45 356 01 00:   DENSITY CORRECTION
~PARAMETER INFORMATION
#MNEM.UNIT          VALUE    DESCRIPTION
#----------   ------------   ------------------------------
 PD  .                 GL:   PERMANENT DATUM
 EPD .F              5170:   ELEVATION PERMANENT DATUM
 LMF .                 KB:   LOG MEASURED FROM
 DAPD.F                13:   FEET ABOVE PERMANENT DATUM
 DMF .                 KB:   DRILLING MEASURED FROM
 EKB .F              5183:   KELLING BUSHING
 EGL .F              5170:   GROUND LEVEL
 DATE.            7-31-69:   RUN DATE
 RUN .                  2:   RUN NUMBER
 DD  .F              3047:   DEPTH DRILLER
 DL  .F              3044:   DEPTH LOGGER
 BLI .F              3043:   BOTTOM LOG INTERVAL
 TLI .F               626:   TOP LOG INTERVAL
 CS  .IN            10.75:   CASING SIZE
 CBD .F               625:   CASING BOTTOM DRILLER
 CBL .F               626:   CASING BOTTOM LOGGER
 BS  .IN             6.25:   BIT SIZE
 BSD .F              3047:   BIT SIZE AT DEPTH
 DFT .      FRESH GEL MUD:   DRILLING FLUID TYPE
 DFD .                9.7:   DRILLING FLUID DENSITY
 DFV .                 50:   DRILLING FLUID VISCOSITY
 DFPH.                9.5:   DRILLING FLUID PH
 DFL .                  8:   DRILLING FLUID LOSS
 MSS .          FLOW LINE:   MUD SAMPLE SOURCE
 RMS .OHMM           1.35:   RESISTIVITY MUD SAMPLE
 MST .F                74:   MUD SAMPLE TEMPERATURE
 RMF .OHMM            .81:   RESISTIVITY MUD FILTRATE SAMPLE
 MFST.F                74:   MUD FILTRATE SAMPLE TEMPERATURE
 MFSS.                  M:   MUD FILTRATE SAMPLE SOURCE
 RMB .OHMM            .83:   RESISTIVITY MUD AT BHT
 BHT .F               121:   BOTTOM HOLE TEMPERATURE
 TCS .HRS               4:   TIME CURCULATED STOPPED
 MRT .F               121:   MAXIMUM RECORDED TEMPERATURE
 LUN .               4507:   LOGGING UNIT NUMBER
 LUL .               CSPR:   LOGGING UNIT LOCATION
 ENGI.               MIXA:   RECORDING ENGINEER
 WITN.                MAY:   WITNESSED BY
 CLNT.            A2DTECH:   CLIENT CODE
 ORIG.     1", 2.5" PRINT:   ORIGIN OF DATA
 UWI .       490251002700:   UNIQUE WELL ID
 DICO. A2D Technologies, Inc.:   DIGITIZING COMPANY
~OTHER INFORMATION
~A   DEPT      CILD       ILD         SN        SPR       CALD       DPHI        GRD       RHOB       DRHO   
# ...
 3003.0000    32.5565    35.0302    40.4844   -33.7760     6.0159     0.1412    43.7381     2.3993     0.0552
 3003.5000    33.9506    34.4315    40.7694   -34.3927     6.0161     0.1440    48.1151     2.3914     0.0493
 3004.0000    33.9506    33.9101    40.9304   -34.8806     6.0163     0.1526    52.7832     2.3823     0.0482
 3004.5000    33.9506    34.7381    41.1394   -35.1435     6.0164     0.1597    51.8867     2.3850     0.0478
 3005.0000    31.8165    35.5106    41.3551   -35.3318     6.0166     0.1585    47.0319     2.3821     0.0488
 3005.5000    30.8642    36.1283    41.1796   -35.4429     6.0167     0.1674    40.7395     2.3701     0.0521
 3006.0000    28.5080    36.5912    40.6962   -35.6492     6.0169     0.1632    36.7956     2.3687     0.0584
 3006.5000    27.7778    37.0724    40.2822   -35.7423     6.0171     0.1521    35.7771     2.3766     0.0672
 3007.0000    27.7778    35.5946    40.1090   -35.7377     6.0172     0.1412    37.7981     2.3892     0.0754
 3007.5000    26.2346    33.9704    40.1090   -35.7330     6.0174     0.1357    42.2592     2.3997     0.0846
 3008.0000    28.2512    33.2394    40.1090   -35.7275     6.0175     0.1320    46.4100     2.4060     0.0922
 3008.5000    29.8560    33.0495    39.9281   -35.7230     6.0177     0.1386    48.5033     2.4091     0.0959
 3009.0000    30.8642    33.0495    39.5101   -35.7185     6.0179     0.1488    50.3278     2.3968     0.0905
 3009.5000    31.5225    33.1303    38.6220   -35.4054     6.0180     0.1557    52.1523     2.3811     0.0746
 3010.0000    33.1277    32.0636    36.9630   -34.7836     6.0182     0.1546    54.5792     2.3823     0.0642
 3010.5000    33.9506    30.0556    34.8131   -34.1618     6.0183     0.1458    57.6085     2.3883     0.0541
 3011.0000    33.9506    28.8261    34.3458   -33.5400     6.0185     0.1421    59.4330     2.3963     0.0481
 3011.5000    34.8559    28.6690    34.3458   -33.8442     6.0187     0.1540    58.0239     2.3823     0.0466
 3012.0000    35.4938    29.1776    34.3458   -33.8395     6.0188     0.1693    55.5177     2.3517     0.0480
 3012.5000    35.4938    29.2118    34.3328   -33.8543     6.0190     0.1817    53.4606     2.3429     0.0537
 3013.0000    35.4938    28.5604    33.9303   -34.1673     6.0191     0.1740    55.3951     2.3581     0.0548
 3013.5000    35.4938    28.0960    32.7102   -34.4434     6.0193     0.1625    58.5673     2.3729     0.0520
 3014.0000    35.4938    27.3220    32.0871   -34.4383     6.0195     0.1599    62.1382     2.3830     0.0481
 3014.5000    37.0370    26.8576    31.6329   -34.4336     6.0196     0.1575    65.8915     2.3936     0.0456
 3015.0000    37.0370    26.8576    31.3084   -34.6503     6.0198     0.1569    68.1774     2.3876     0.0433
 3015.5000    37.0370    26.8576    30.9386   -35.1852     6.0199     0.1622    68.0967     2.3772     0.0493
 3016.0000    38.5802    26.8246    30.3999   -35.1852     6.0201     0.1646    63.3962     2.3775     0.0536
 3016.5000    40.1235    26.4307    29.8092   -35.2665     6.0203     0.1604    59.2088     2.3844     0.0610
 3017.0000    40.1650    25.6219    29.3225   -35.4938     6.0204     0.1536    59.5573     2.3945     0.0680
 3017.5000    41.7693    24.8503    28.7643   -35.6018     6.0206     0.1439    60.2711     2.3987     0.0730
 3018.0000    43.2099    24.2033    28.1153   -35.8025     6.0207     0.1380    61.5722     2.3984     0.0776
 3018.5000    43.4364    23.5563    27.4662   -35.6677     6.0209     0.1429    59.3763     2.3933     0.0731
 3019.0000    45.0414    23.0258    26.9081   -35.1976     6.0211     0.1592    60.3287     2.3856     0.0503
 3019.5000    46.6459    22.8981    26.4213   -34.5536     6.0212     0.1701    56.1291     2.3781     0.0350
 3020.0000    48.2510    23.0599    26.0384   -33.9096     6.0214     0.1741    47.7126     2.3623     0.0299
 3020.5000    49.3827    23.4593    25.9346   -33.0774     6.0215     0.1721    44.1154     2.3573     0.0299
 3021.0000    48.3127    24.1924    25.9346   -32.5144     6.0217     0.1713    43.5302     2.3636     0.0304
 3021.5000    45.6999    25.0012    25.9346   -32.1923     6.0219     0.1746    41.0363     2.3662     0.0373
 3022.0000    42.7780    25.6099    25.9346   -32.3272     6.0220     0.1796  -999.2500     2.3579     0.0450
 3022.5000    39.4032    25.8811    27.1807   -33.1329     6.0222     0.1842  -999.2500     2.3477     0.0503
 3023.0000    37.7981    25.9288    27.8037   -34.5679     6.0223     0.1871  -999.2500     2.3467     0.0529
 3023.5000    36.1934    25.9288    27.8037   -35.1852     6.0225     0.1804  -999.2500     2.3530     0.0537
 3024.0000    36.3991    25.6192    27.6480   -35.8025     6.0226     0.1726  -999.2500     2.3625     0.0535
 3024.5000    38.9713    25.0000    26.8367   -35.8025     6.0228     0.1642  -999.2500     2.3724     0.0507
 3025.0000    40.1235    24.2260    26.0384   -35.8025     6.0230     0.1588  -999.2500     2.3793     0.0507
 3025.5000    42.3043    22.5232    25.4088   -35.1317     6.0231     0.1564  -999.2500     2.3816     0.0525
 3026.0000    45.5141    21.4314    24.8701   -33.9239     6.0233     0.1604  -999.2500     2.3773     0.0562
 3026.5000    47.5103    20.1693    24.1237   -33.5618     6.0234     0.1647  -999.2500     2.3710     0.0608
 3027.0000    52.4691    19.5372    23.6760   -32.8643     6.0236     0.1680  -999.2500     2.3681     0.0643
 3027.5000    54.0123    19.0298    23.3516   -31.9651     6.0238     0.1681  -999.2500     2.3741     0.0657
 3028.0000    55.5556    18.4406    23.0271   -31.4815     6.0239     0.1638  -999.2500     2.3801     0.0623
 3028.5000    58.6420    18.1530    22.7609   -31.4815     6.0241     0.1593  -999.2500     2.3861     0.0417
 3029.0000    60.1852    17.9912    22.4689   -31.4815     6.0242     0.1570  -999.2500     2.3861     0.0264
 3029.5000    61.8114    17.8295    22.0535   -31.4815     6.0244     0.1550  -999.2500     2.3876     0.0247
 3030.0000    64.8148    17.7245    21.8069   -31.4815     6.0246     0.1591  -999.2500     2.3842     0.0278
 3030.5000    64.8148    17.6607    21.6446   -31.6286     6.0247     0.1626  -999.2500     2.3799     0.0358
 3031.0000    64.5883    17.5697    21.5732   -31.7901     6.0249     0.1626  -999.2500     2.3786     0.0439
 3031.5000    62.9833    17.6473    21.6706   -31.7901     6.0250     0.1584  -999.2500     2.3824     0.0535
 3032.0000    61.7284    18.1476    21.8328   -31.9774     6.0252     0.1496  -999.2500     2.3942     0.0608
 3032.5000    60.9055    19.2314    22.3262   -32.0988     6.0254     0.1400  -999.2500     2.4059     0.0634
 3033.0000    58.1686    20.6239    23.2086   -32.0988     6.0255     0.1357  -999.2500     2.4057     0.0586
 3033.5000    56.5637    22.0797    24.1820   -32.0988     6.0257     0.1381  -999.2500     2.3932     0.0373
 3034.0000    54.3627    23.4229    25.1558   -31.8580     6.0258     0.1495  -999.2500     2.3807     0.0327
 3034.5000    51.8108    24.3590    25.6231   -31.7901     6.0260     0.1592  -999.2500     2.3689     0.0323
 3035.0000    49.4854    25.0000    25.9346   -31.7901     6.0262     0.1684  -999.2500     2.3603     0.0422
 3035.5000    47.0573    25.4644    26.4019   -31.7901     6.0263     0.1739  -999.2500     2.3540     0.0601
 3036.0000    44.6089    25.6192    26.5576   -32.0988     6.0265     0.1784  -999.2500     2.3554     0.0768
 3036.5000    43.2099    25.4644    26.2071   -32.7160     6.0266     0.1783  -999.2500     2.3678     0.0821
 3037.0000    43.2099    25.4644    25.2596   -33.3582     6.0268     0.1702  -999.2500     2.3813     0.0774
 3037.5000    43.2099    25.3096    24.6105   -33.9506     6.0270     0.1595  -999.2500     2.3915     0.0584
 3038.0000  -999.2500    25.3096    24.0134   -33.8723     6.0271     0.1476  -999.2500     2.4025     0.0423
 3038.5000  -999.2500    25.3096    23.6889   -33.2808     6.0273     0.1474  -999.2500     2.3861     0.0358
 3039.0000  -999.2500    25.3096    23.3255   -32.9588     6.0274     0.1623  -999.2500     2.3636     0.0366
