~VERSION INFORMATION
 VERS.                2.0:   CWLS LOG ASCII STANDARD - VERSION 2.0
 WRAP.                 NO:   ONE LINE PER DEPTH STEP
~WELL INFORMATION
#MNEM.UNIT      DATA TYPE    INFORMATION
#----------   ------------   ------------------------------
 STRT.F           40.0000:   START DEPTH
 STOP.F          462.0000:   STOP DEPTH
 STEP.F            0.5000:   STEP LENGTH
 NULL.          -999.2500:   NO VALUE
 COMP.    FENIX & SCISSON:   COMPANY
 WELL.        NPR #68-S-3:   WELL
 FLD .             TEAPOT:   FIELD
 LOC .       S3 T38N R78W:   LOCATION
 CNTY.            NATRONA:   COUNTY
 STAT.            WYOMING:   STATE
 CTRY. UNITED STATES OF AMERICA:   COUNTRY
 SRVC.      Dresser Atlas:   SERVICE COMPANY
 DATE.        28-MAR-1977:   LOGDATE
 API .       490251031900:   API NUMBER
~CURVE INFORMATION
#MNEM.UNIT       API CODE    CURVE DESCRIPTION
#----------   ------------   ------------------------------
 DEPT.F                  :   
 SPR .MV     07 010 01 00:   SPONTANEOUS POTENTIAL
 ILD .OHMM   07 120 46 00:   INDUCTION LOG DEEP
 ILM .OHMM   07 120 44 00:   INDUCTION LOG MEDIUM
 SFL .OHMM   07 220 01 00:   SHALLOW FOCUSED LOG RESISTIVITY
 CALD.IN     45 280 60 00:   CALIPER FROM DENSITY LOG
 GRD .GAPI   45 310 01 00:   GAMMA RAY FROM DENSITY LOG
 CORR.G/C3   45 356 01 00:   DENSITY CORRECTION
 RHOB.G/C3   45 350 01 00:   BULK DENSITY
 DPHI.DEC    45 890 12 00:   DENSITY POROSITY SANDSTONE
~PARAMETER INFORMATION
#MNEM.UNIT          VALUE    DESCRIPTION
#----------   ------------   ------------------------------
 PD  .                 GL:   PERMANENT DATUM
 EPD .F              5162:   ELEVATION PERMANENT DATUM
 LMF .                 KB:   LOG MEASURED FROM
 DAPD.F                 5:   FEET ABOVE PERMANENT DATUM
 DMF .                 KB:   DRILLING MEASURED FROM
 EKB .F              5167:   KELLING BUSHING
 EGL .F              5162:   GROUND LEVEL
 DATE.        28-MAR-1977:   RUN DATE
 RUN .                  1:   RUN NUMBER
 DD  .F               452:   DEPTH DRILLER
 DL  .F               464:   DEPTH LOGGER
 BLI .F               462:   BOTTOM LOG INTERVAL
 TLI .F                40:   TOP LOG INTERVAL
 CS  .IN               10:   CASING SIZE
 CBD .F                40:   CASING BOTTOM DRILLER
 CBL .F                40:   CASING BOTTOM LOGGER
 BS  .IN            7.875:   BIT SIZE
 BSD .F               452:   BIT SIZE AT DEPTH
 DFT .           CHEM GEL:   DRILLING FLUID TYPE
 DFD .                8.9:   DRILLING FLUID DENSITY
 DFV .                 34:   DRILLING FLUID VISCOSITY
 DFPH.                8.0:   DRILLING FLUID PH
 DFL .                8.2:   DRILLING FLUID LOSS
 MSS .         CIRCULATED:   MUD SAMPLE SOURCE
 RMS .OHMM           .223:   RESISTIVITY MUD SAMPLE
 MST .F                51:   MUD SAMPLE TEMPERATURE
 RMF .OHMM           .161:   RESISTIVITY MUD FILTRATE SAMPLE
 MFST.F                51:   MUD FILTRATE SAMPLE TEMPERATURE
 RMC .OHMM           .285:   RESISTIVITY MUD CAKE
 MCST.F                51:   MUD CAKE SAMPLE TEMPERATURE
 MFSS.               MEAS:   MUD FILTRATE SAMPLE SOURCE
 MCSS.               MEAS:   MUD CAKE SAMPLE SOURCE
 RMB .OHMM           .186:   RESISTIVITY MUD AT BHT
 BHT .F                61:   BOTTOM HOLE TEMPERATURE
 TCS .HRS            0500:   TIME CURCULATED STOPPED
 MRT .F                61:   MAXIMUM RECORDED TEMPERATURE
 LUN .               6145:   LOGGING UNIT NUMBER
 LUL .              GLTTE:   LOGGING UNIT LOCATION
 ENGI.              GOULD:   RECORDING ENGINEER
 WITN.               LYON:   WITNESSED BY
 CLNT.            A2DTECH:   CLIENT CODE
 ORIG.           5" PRINT:   ORIGIN OF DATA
 UWI .       490251031900:   UNIQUE WELL ID
 DICO. A2D Technologies, Inc.:   DIGITIZING COMPANY
~OTHER INFORMATION
~A   DEPT      SPR        ILD        ILM        SFL       CALD        GRD       CORR       RHOB       DPHI   
# ...
  186.0000   -25.2816     4.2316     4.5396     4.5616     7.9743   123.7430     0.0337     2.4658     0.1118
  186.5000   -25.1154     4.1754     4.5113     4.7252     7.9764   121.5297     0.0354     2.4583     0.1157
  187.0000   -25.0986     4.1774     4.5458     5.2820     7.9785   120.3597     0.0371     2.4546     0.1180
  187.5000   -24.7829     4.2377     4.5805     5.3954     7.9806   118.4445     0.0419     2.4660     0.1160
  188.0000   -24.6167     4.3587     4.6475     4.9346     7.9677   119.6589     0.0481     2.4834     0.1011
  188.5000   -24.4505     4.5772     4.7483     5.0762     7.9698   121.4695     0.0511     2.4992     0.0947
  189.0000   -24.2843     4.8401     4.9547     5.7139     7.9723   122.3859     0.0512     2.5061     0.0914
  189.5000   -23.9686     5.0827     5.2064     6.0841     7.9744   123.6004     0.0514     2.5114     0.0881
  190.0000   -23.8024     5.3746     5.5855     5.7605     7.9765   124.8148     0.0531     2.5175     0.0844
  190.5000   -23.4868     5.6052     5.9510     6.0923     7.9785   123.7938     0.0563     2.5251     0.0796
  191.0000   -23.3206     5.8862     6.2039     6.5331     7.9657   118.7490     0.0595     2.5357     0.0729
  191.5000   -23.1543     6.0963     6.4281     6.8617     7.9677   116.8338     0.0596     2.5456     0.0687
  192.0000   -22.9881     6.2272     6.6520     7.0587     7.9698   115.6637     0.0583     2.5494     0.0650
  192.5000   -22.9714     6.3609     6.7962     7.1120     7.9719   116.4311     0.0539     2.5502     0.0632
  193.0000   -22.9547     6.4081     6.8957     7.1658     7.9740   116.1552     0.0481     2.5473     0.0644
  193.5000   -23.0916     6.4557     6.9483     7.1195     7.9606   117.0716     0.0422     2.5451     0.0691
  194.0000   -23.0707     6.4143     6.9040     7.0269     7.9477   119.1885     0.0364     2.5370     0.0832
  194.5000   -23.2076     6.3731     6.8149     6.9816     7.9353   120.6930     0.0305     2.5168     0.0907
  195.0000   -23.3404     6.2886     6.6795     6.7959     7.9374   120.8644     0.0247     2.5026     0.0961
  195.5000   -23.6184     6.2468     6.5467     6.6592     7.9395   120.7372     0.0248     2.4944     0.0976
  196.0000   -23.6017     6.1228     6.5022     6.4822     7.9261   122.1007     0.0265     2.4915     0.0982
  196.5000   -23.7351     5.9958     6.3257     6.3527     7.9287   119.4403     0.0312     2.4930     0.0978
  197.0000   -24.0167     5.8336     6.1967     6.2690     7.9308   120.7849     0.0329     2.4961     0.0957
  197.5000   -24.3223     5.5914     5.9815     6.2295     7.9328   123.9612     0.0375     2.5090     0.0905
  198.0000   -24.4578     5.2689     5.7049     6.1902     7.9349   125.0266     0.0422     2.5256     0.0803
  198.5000   -24.5934     4.9875     5.3697     6.1512     7.9370   123.2605     0.0484     2.5265     0.0766
  199.0000   -24.8777     4.6886     5.0131     6.1125     7.9391   122.5375     0.0501     2.5205     0.0805
  199.5000   -24.8645     4.4076     4.7125     5.9458     7.9411   123.1559     0.0487     2.5153     0.0826
  200.0000   -25.0000     4.2575     4.5442     5.7277     7.9432   129.4337     0.0482     2.5116     0.0851
  200.5000   -24.9777     4.2321     4.4281     5.3761     7.9451   129.9031     0.0440     2.5072     0.0897
  201.0000   -24.9538     4.1183     4.4028     5.1422     7.9471   129.3294     0.0386     2.4990     0.0996
  201.5000   -25.3781     4.0911     4.5004     4.6992     7.9491   118.6215     0.0297     2.4758     0.1134
  202.0000   -25.3560     4.1791     4.6345     4.4883     7.9361   118.0396     0.0239     2.4331     0.1257
  202.5000   -24.7386     4.2685     4.8291     4.9012     7.9380   118.0725     0.0195     2.4121     0.1419
  203.0000   -24.2700     4.4822     5.0646     5.6430     7.9549   117.6453     0.0166     2.4055     0.1494
  203.5000   -23.9502     4.6742     5.2813     6.5721     7.9569   118.2639     0.0137     2.4063     0.1509
  204.0000   -23.4816     5.0111     5.5455     6.9966     7.9588   121.7140     0.0154     2.4304     0.1262
  204.5000   -23.0130     5.3353     5.7430     7.0480     7.9608   121.5874     0.0245     2.4808     0.1054
  205.0000   -22.8421     5.7200     5.9065     7.0017     7.9627   120.5663     0.0352     2.5005     0.0952
  205.5000   -22.6711     6.0063     6.0328     6.9563     7.9647   121.7811     0.0368     2.5013     0.0918
  206.0000   -22.4960     6.1774     6.1193     6.8637     7.9666   123.1448     0.0385     2.5051     0.0888
  206.5000   -22.3289     6.3096     6.2501     6.8672     7.9531   118.8453     0.0401     2.5135     0.0830
  207.0000   -22.3065     6.3561     6.2961     7.0625     7.9705   116.6321     0.0448     2.5256     0.0746
  207.5000   -22.2842     6.4028     6.3864     7.2131     7.9725   117.9958     0.0494     2.5422     0.0682
  208.0000   -22.2619     6.4055     6.3890     7.2667     7.9744   121.8930     0.0525     2.5505     0.0622
  208.5000   -22.0908     6.4526     6.4360     7.3201     7.9609   125.3431     0.0527     2.5559     0.0594
  209.0000   -22.0641     6.4553     6.4386     7.3231     7.9634   126.1550     0.0528     2.5597     0.0570
  209.5000   -22.1963     6.4134     6.4413     7.2756     7.9653   121.5130     0.0529     2.5621     0.0543
  210.0000   -22.1686     6.4160     6.4439     7.2786     7.9822   121.6844     0.0531     2.5606     0.0578
  210.5000   -22.1464     6.3744     6.4021     7.2307     7.9687   124.3894     0.0517     2.5517     0.0617
  211.0000   -22.2731     6.3770     6.4048     7.1344     7.9557   125.7530     0.0518     2.5495     0.0638
  211.5000   -22.2509     6.3357     6.4074     7.0882     7.9582   126.2225     0.0474     2.5459     0.0674
  212.0000   -22.3831     6.2946     6.3658     7.0919     7.9601   126.8410     0.0416     2.5377     0.0733
  212.5000   -22.3554     6.2537     6.3685     7.0948     7.9621   126.8634     0.0386     2.5310     0.0760
  213.0000   -22.4876     6.3004     6.3711     7.0977     7.9640   123.3090     0.0374     2.5296     0.0772
  213.5000   -22.4599     6.3030     6.3737     7.1006     7.9660   121.0959     0.0392     2.5297     0.0762
  214.0000   -22.5921     6.3056     6.3764     7.1036     7.9829   124.9931     0.0438     2.5327     0.0741
  214.5000   -22.5644     6.3082     6.3790     7.1065     7.9848   125.8465     0.0470     2.5358     0.0717
  215.0000   -22.3934     6.3108     6.2940     7.1094     7.9714   122.6533     0.0514     2.5404     0.0692
  215.5000   -22.5256     6.2698     6.2473     7.1123     7.9738   122.1512     0.0531     2.5428     0.0674
  216.0000   -22.4979     6.2285     6.1201     7.1152     7.9757   126.2748     0.0517     2.5391     0.0689
  216.5000   -22.4758     6.1455     5.9221     7.1182     7.9623   125.7011     0.0504     2.5377     0.0697
  217.0000   -22.7512     5.9808     5.7629     7.0721     7.9647   124.2331     0.0505     2.5415     0.0679
  217.5000   -22.7291     5.7399     5.5310     7.0261     7.9667   123.0632     0.0506     2.5438     0.0664
  218.0000   -22.8613     5.5087     5.2355     6.9326     7.9686   124.2779     0.0492     2.5424     0.0717
  218.5000   -22.9879     5.2504     4.9558     6.7932     7.9706   127.1318     0.0479     2.5305     0.0804
  219.0000   -23.4067     5.0042     4.8892     6.5201     7.9725   127.7503     0.0435     2.5163     0.0909
  219.5000   -23.3845     4.7695     4.9943     5.8401     7.9745   127.0275     0.0406     2.4968     0.0981
  220.0000   -23.2135     4.7381     5.1011     4.9840     7.9764   127.1990     0.0408     2.4811     0.1068
  220.5000   -23.1914     4.7735     5.2101     4.8838     7.9784   128.8607     0.0394     2.4707     0.1119
  221.0000   -23.1692     4.7420     5.2848     5.7491     7.9803   129.6282     0.0395     2.4610     0.1151
  221.5000   -23.1471     4.6470     5.3237     6.5880     7.9823   131.1409     0.0412     2.4611     0.1163
  222.0000   -23.2738     4.5850     5.2166     6.4406     7.9842   134.2929     0.0458     2.4942     0.1055
