~VERSION INFORMATION
 VERS.                2.0:   CWLS LOG ASCII STANDARD - VERSION 2.0
 WRAP.                 NO:   ONE LINE PER DEPTH STEP
~WELL INFORMATION
#MNEM.UNIT      DATA TYPE    INFORMATION
#----------   ------------   ------------------------------
 STRT.F            0.0000:   START DEPTH
 STOP.F          860.0000:   STOP DEPTH
 STEP.F            0.5000:   STEP LENGTH
 NULL.          -999.2500:   NO VALUE
 COMP.          U.S. NAVY:   COMPANY
 WELL. NPR #3 TEAPOT DOME #28S-35:   WELL
 FLD .             TEAPOT:   FIELD
 LOC .      S35 T39N R78W:   LOCATION
 CNTY.            NATRONA:   COUNTY
 STAT.            WYOMING:   STATE
 CTRY. UNITED STATES OF AMERICA:   COUNTRY
 SRVC.       Schlumberger:   SERVICE COMPANY
 DATE.        10-NOV-1958:   LOGDATE
 API .       490250649800:   API NUMBER
~CURVE INFORMATION
#MNEM.UNIT       API CODE    CURVE DESCRIPTION
#----------   ------------   ------------------------------
 DEPT.F                  :   
 SPR .MV     01 010 01 00:   SPONTANEOUS POTENTIAL FROM RES.
 ASN .OHMM   01 041 16 00:   AMPLIFIED SHORT NORMAL 16"
 LT18.OHMM   01 070 18 00:   LATERAL 18'
 LN  .OHMM   01 060 64 00:   LONG NORMAL 64"
 GRN .CPS    35 310 30 00:   GAMMA RAY
 NEUT.CPS    35 330 30 00:   NEUTRON
 MCAL.IN     15 280 01 00:   CALIPER FROM MICRO LOG
~PARAMETER INFORMATION
#MNEM.UNIT          VALUE    DESCRIPTION
#----------   ------------   ------------------------------
 LMF .                 KB:   LOG MEASURED FROM
 DMF .                 KB:   DRILLING MEASURED FROM
 EKB .F              5113:   KELLING BUSHING
 EGL .F              5103:   GROUND LEVEL
 DATE.         11-10-1958:   RUN DATE
 RUN .                  1:   RUN NUMBER
 DD  .F               860:   DEPTH DRILLER
 DL  .F               861:   DEPTH LOGGER
 BLI .F               860:   BOTTOM LOG INTERVAL
 TLI .F                90:   TOP LOG INTERVAL
 CBD .F                34:   CASING BOTTOM DRILLER
 BS  .IN             6.75:   BIT SIZE
 BSD .F               860:   BIT SIZE AT DEPTH
 DFT .          OIL ADDED:   DRILLING FLUID TYPE
 DFD .                 10:   DRILLING FLUID DENSITY
 DFV .                 20:   DRILLING FLUID VISCOSITY
 DFPH.                7.5:   DRILLING FLUID PH
 DFL .                4.2:   DRILLING FLUID LOSS
 RMS .OHMM              2:   RESISTIVITY MUD SAMPLE
 MST .F                62:   MUD SAMPLE TEMPERATURE
 RMF .OHMM            1.4:   RESISTIVITY MUD FILTRATE SAMPLE
 MFST.F                72:   MUD FILTRATE SAMPLE TEMPERATURE
 RMC .OHMM            1.9:   RESISTIVITY MUD CAKE
 MCST.F                72:   MUD CAKE SAMPLE TEMPERATURE
 MFSS.                  M:   MUD FILTRATE SAMPLE SOURCE
 MCSS.                  M:   MUD CAKE SAMPLE SOURCE
 RMB .OHMM            1.7:   RESISTIVITY MUD AT BHT
 BHT .F                72:   BOTTOM HOLE TEMPERATURE
 TCS .HRS               1:   TIME CURCULATED STOPPED
 MRT .F                72:   MAXIMUM RECORDED TEMPERATURE
 LUN .               2754:   LOGGING UNIT NUMBER
 LUL .                 NC:   LOGGING UNIT LOCATION
 ENGI.             QUINBY:   RECORDING ENGINEER
 WITN.             MARTIN:   WITNESSED BY
 CLNT.            A2DTECH:   CLIENT CODE
 ORIG.     1", 2.5" PRINT:   ORIGIN OF DATA
 UWI .       490250649800:   UNIQUE WELL ID
 DICO. A2D Technologies, Inc.:   DIGITIZING COMPANY
~OTHER INFORMATION
~A    DEPT     SPR        ASN       LT18         LN          GRN     NEUT       MCAL   
# ...
  728.0000   -22.4747    10.6908    13.1856    12.1087     5.9773   451.0188     6.1213
  728.5000   -21.9335    10.6911    13.1081    12.1116     6.3678   448.7465     6.1711
  729.0000   -21.9121    10.6913    13.1081    12.1143     6.4898   465.8162     6.1705
  729.5000   -21.3591    10.6916    13.1081    12.1169     6.5304   474.9847     6.1700
  730.0000   -20.8062    10.6919    12.9730    12.1196     6.4491   456.6682     6.1730
  730.5000   -20.5694    10.6922    12.9730    12.1223     6.5104   458.2019     6.2996
  731.0000   -20.8398    10.6924    12.9730    12.1250     6.6117   462.8244     6.4961
  731.5000   -20.5059    10.6927    12.8378    12.1277     6.5408   465.8505     6.5229
  732.0000   -20.2934    10.6443    12.8378    12.1305     6.3198   465.6494     6.5224
  732.5000   -20.2921    10.5581    12.8378    12.1331     6.5884   460.5947     6.5218
  733.0000   -20.3758    10.5584    12.8378    12.1359     6.7744   457.3458     6.5213
  733.5000   -20.9262    10.5586    12.7027    12.0024     6.3379   452.2576     6.4934
  734.0000   -21.3752    10.6247    12.5676    12.0055     6.3271   446.0340     6.4655
  734.5000   -21.1543    10.6944    12.5676    12.0081     6.3868   467.7258     6.4104
  735.0000   -20.7110    10.8298    12.5676    12.0109     6.2854   476.5189     6.3825
  735.5000   -20.2840    10.7514    12.4324    12.0136     6.3305   488.8089     6.3820
  736.0000   -20.4166    10.6952    12.4324    11.9583     6.4838   476.6249     6.3814
  736.5000   -20.5530    10.5603    12.4324    11.8832     6.5319   474.4401     6.3809
  737.0000   -20.5516    10.5606    12.4324    11.8859     6.4694   474.4646     6.4350
  737.5000   -20.5503    10.5609    12.4324    11.8150     6.7066   479.7458     6.4891
  738.0000   -20.6540    10.6963    12.4324    11.7555     7.0892   484.9580     6.5436
  738.5000   -20.2756    10.6965    12.4324    11.6228     7.0794   479.2447     6.5973
  739.0000   -20.0025    10.6968    12.3810    11.6255     6.5711   485.0427     6.5410
  739.5000   -19.7294    10.6970    12.2630    11.6281     6.4491   476.6513     6.4869
  740.0000   -19.4563    10.8325    12.0973    11.6308     6.4234   469.0233     6.4590
  740.5000   -19.1833    10.8327    11.9316    11.6335     6.4898   457.5781     6.4585
  741.0000   -19.4538    10.6978    11.8172    11.6361     6.6117   481.2526     6.4579
  741.5000   -19.7242    10.6981    11.6216    11.6388     6.9370   495.7654     6.4574
  742.0000   -20.2662    10.6984    11.6216    11.7773     6.8761   478.2123     6.4295
  742.5000   -20.5366    10.6986    11.4865    11.7800     6.6931   453.7879     6.4290
  743.0000   -21.3505    10.6989    11.3514    11.7827     6.7947   452.1517     6.4285
  743.5000   -21.8926    10.6992    11.0811    11.7853     7.0590   460.6728     6.4279
  744.0000   -21.8913    10.6994    10.8108    11.7881     6.7484   475.1856     6.4273
  744.5000   -21.6173    10.5646    10.6757    11.7908     6.4224   475.0193     6.4268
  745.0000   -21.0644    10.4297    10.5405    11.7935     6.3068   472.1454     6.4317
  745.5000   -20.5113    10.4010    10.4054    11.7962     6.3099   476.9069     6.4531
  746.0000   -19.9838    10.2951    10.2703    11.7990     6.3796   478.2673     6.4524
  746.5000   -20.2876    10.2954    10.1311    11.8016     6.5039   475.4451     6.4519
  747.0000   -21.1513    10.2957     9.8550    11.8044     6.5711   466.0648     6.4444
  747.5000   -21.6102    10.2498     9.5946    11.8071     6.4115   466.2748     6.4235
  748.0000   -21.0073    10.1610     9.4379    11.9457     6.0815   460.7137     6.3880
  748.5000   -20.5204    10.1613     9.2968    12.0007     6.1019   449.7759     6.3244
  749.0000   -20.2473    10.2206     9.1559    12.1445     6.2982   442.0317     6.2412
  749.5000   -19.9742    10.2970     8.9189    12.2882     6.1769   442.6232     6.2661
  750.0000   -19.7011    10.3649     8.8739    12.5000     6.1035   440.0825     6.3570
  750.5000   -19.6997    10.5679     8.7329    12.7745     6.1347   422.6080     6.4750
  751.0000   -19.6984    10.7033     8.5135    13.1272     6.2841   430.5637     6.3825
  751.5000   -19.9687    10.9738     8.3784    13.4598     6.4491   457.2597     6.2894
  752.0000   -20.0907    11.1092     8.3099    13.7342     6.4288   476.0615     6.1894
  752.5000   -20.6408    11.3798     8.3176    14.0086     6.2255   469.1971     6.1721
  753.0000   -20.7799    11.7854     8.3784    14.5547     6.1238   472.2578     6.1716
  753.5000   -21.3455    12.1911     8.5135    14.7244     6.1645   479.8993     6.1594
  754.0000   -22.1757    12.7319     9.0541    14.0166     6.2864   486.7283     6.0524
  754.5000   -22.6780    13.5430    10.1351    13.4757     6.0831   466.9339     5.8719
  755.0000   -22.6764    14.3541    13.1081    13.0708     6.0807   482.2101     5.7614
  755.5000   -22.6750    15.6317    15.6757    12.8017     5.9815   478.3996     5.7044
  756.0000   -24.0324    17.3655    17.4324    12.5327     5.7578   462.3734     5.7039
  756.5000   -25.3898    19.4182    19.7297    12.3995     5.7375   450.1647     5.7444
  757.0000   -27.2906    21.1119    22.5676    12.2663     5.6750   452.4619     5.8262
  757.5000   -28.3762    22.3284    21.4865    12.6868     5.5032   454.7767     5.8953
  758.0000   -28.9185    22.4638    20.6757    13.4202     5.2902   457.5199     5.9475
  758.5000   -28.9170    22.0587    20.1351    14.5308     5.4683   462.4075     5.9743
  759.0000   -28.9157    22.0590    19.7297    15.8545     5.6678   464.4613     6.0011
  759.5000   -28.9143    22.0592    19.3243    17.5360     5.9228   473.1448     6.0005
  760.0000   -28.3695    22.0595    19.0541    18.1246     5.9002   481.8392     5.9726
  760.5000   -28.0964    22.0598    18.7838    17.6787     5.6358   483.0486     5.9174
  761.0000   -28.0951    21.9249    18.2432    17.4506     5.5958   485.9020     5.8622
  761.5000   -28.0938    21.6549    17.8378    17.5057     5.8392   490.9468     5.8070
  762.0000   -28.0924    21.3849    17.8378    17.7282     6.0425   492.2307     5.7697
  762.5000   -28.1137    21.1149    17.6914    17.8668     6.1645   469.4746     5.9425
  763.0000   -28.9667    20.9800    17.2631    18.0729     6.2255   467.6293     6.1059
  763.5000   -29.4859    20.5662    16.5527    18.2799     6.3068   474.2252     6.2147
  764.0000   -29.7175    19.8923    15.3676    18.4964     6.4084   485.1310     6.2222
  764.5000   -29.7161    19.6179    13.8148    18.8293     6.1645   502.8567     6.1863
  765.0000   -29.6513    19.3594    12.8108    19.3755     6.3678   501.3296     6.1584
  765.5000   -29.3700    19.2046    11.7528    19.9216     6.2255   501.4434     6.1579
  766.0000   -28.8169    18.7951    10.9766    20.0601     6.4349   498.3963     6.1573
  766.5000   -28.6237    18.5208    10.6757    19.3835     6.6197   494.4460     6.1568
  767.0000   -28.6223    18.4146    10.5405    18.2992     6.5313   504.5178     6.2382
  767.5000   -28.7251    18.4149    10.5405    17.3508     6.4898   506.3861     6.4016
  768.0000   -29.0037    18.3737    10.6757    16.6741     6.7337   498.4236     6.5650
  768.5000   -29.2822    18.2345    10.8108    16.1333     6.4694   481.6340     6.6464
  769.0000   -30.5190    17.7751    10.9459    15.7283     6.7258   475.5330     6.6459
  769.5000   -29.7006    17.4699    11.2162    15.5951     6.8078   473.2494     6.6726
  770.0000   -27.4545    17.5288    11.3514    15.6024     6.7927   474.0197     6.6721
  770.5000   -23.6182    17.8036    11.2162    15.7461     6.7337   477.0804     6.6716
  771.0000   -22.6331    17.6739    10.8108    16.0258     6.8512   465.3932     6.6710
  771.5000   -22.3598    17.1931    10.4054    16.1696     6.9581   451.0093     6.6705
  772.0000   -22.3585    16.7200     9.5946    16.4239     6.8134   459.6562     6.6699
  772.5000   -21.8136    16.4457     8.7838    16.5931     6.6590   483.2155     6.6967
  773.0000   -21.5406    16.3908     8.1081    16.8727     6.4491   476.3510     6.6962
