~VERSION INFORMATION
 VERS.                2.0:   CWLS LOG ASCII STANDARD - VERSION 2.0
 WRAP.                 NO:   ONE LINE PER DEPTH STEP
~WELL INFORMATION
#MNEM.UNIT      DATA TYPE    INFORMATION
#----------   ------------   ------------------------------
 STRT.F           28.5000:   START DEPTH
 STOP.F          781.0000:   STOP DEPTH
 STEP.F            0.5000:   STEP LENGTH
 NULL.          -999.2500:   NO VALUE
 COMP. FENIX & SCISSON INC:   COMPANY
 WELL. NPR 3 23 SX 14 #23-14:   WELL
 FLD .        TEAPOT DOME:   FIELD
 LOC .      S14 T38N R78W:   LOCATION
 CNTY.            NATRONA:   COUNTY
 STAT.            WYOMING:   STATE
 CTRY. UNITED STATES OF AMERICA:   COUNTRY
 SRVC.            Unknown:   SERVICE COMPANY
 DATE.        13-MAY-1978:   LOGDATE
 API .       490251063400:   API NUMBER
~CURVE INFORMATION
#MNEM.UNIT       API CODE    CURVE DESCRIPTION
#----------   ------------   ------------------------------
 DEPT.F                  :   
 RHOB.G/C3   45 350 01 00:   BULK DENSITY
 DPHI.DEC    45 890 12 00:   DENSITY POROSITY SANDSTONE
 GRD .GAPI   45 310 01 00:   GAMMA RAY FROM DENSITY LOG
 CALD.IN     45 280 60 00:   CALIPER FROM DENSITY LOG
 CORR.G/C3   45 356 01 00:   DENSITY CORRECTION
 SN  .OHMM   05 040 16 00:   SHORT NORMAL 16"
 SPR .MV     05 010 01 00:   SPONTANEOUS POTENTIAL FROM RES.
 ILD .OHMM   05 120 46 00:   INDUCTION LOG DEEP
~PARAMETER INFORMATION
#MNEM.UNIT          VALUE    DESCRIPTION
#----------   ------------   ------------------------------
 PD  .                 GL:   PERMANENT DATUM
 EPD .F              5202:   ELEVATION PERMANENT DATUM
 LMF .                 KB:   LOG MEASURED FROM
 DMF .                 KB:   DRILLING MEASURED FROM
 EKB .F              5206:   KELLING BUSHING
 EGL .F              5202:   GROUND LEVEL
 DATE.          5-13-1978:   RUN DATE
 RUN .                  1:   RUN NUMBER
 DD  .F               785:   DEPTH DRILLER
 DL  .F               776:   DEPTH LOGGER
 BLI .F               770:   BOTTOM LOG INTERVAL
 TLI .F                50:   TOP LOG INTERVAL
 CS  .IN            8.625:   CASING SIZE
 CBD .F                40:   CASING BOTTOM DRILLER
 CBL .F                40:   CASING BOTTOM LOGGER
 BS  .IN            7.875:   BIT SIZE
 BSD .F               785:   BIT SIZE AT DEPTH
 DFT .                KCL:   DRILLING FLUID TYPE
 DFD .                8.6:   DRILLING FLUID DENSITY
 DFV .                 30:   DRILLING FLUID VISCOSITY
 DFPH.                 10:   DRILLING FLUID PH
 DFL .                 14:   DRILLING FLUID LOSS
 MSS .           FLOWLINE:   MUD SAMPLE SOURCE
 RMS .OHMM             .4:   RESISTIVITY MUD SAMPLE
 MST .F                69:   MUD SAMPLE TEMPERATURE
 RMF .OHMM            .36:   RESISTIVITY MUD FILTRATE SAMPLE
 MFST.F                72:   MUD FILTRATE SAMPLE TEMPERATURE
 RMC .OHMM            .56:   RESISTIVITY MUD CAKE
 MCST.F                73:   MUD CAKE SAMPLE TEMPERATURE
 MFSS.               MEAS:   MUD FILTRATE SAMPLE SOURCE
 RMB .OHMM            .35:   RESISTIVITY MUD AT BHT
 BHT .F                79:   BOTTOM HOLE TEMPERATURE
 TCS .HRS               2:   TIME CURCULATED STOPPED
 MRT .F                79:   MAXIMUM RECORDED TEMPERATURE
 LUN .               3006:   LOGGING UNIT NUMBER
 LUL .              CASP.:   LOGGING UNIT LOCATION
 ENGI.             MILLER:   RECORDING ENGINEER
 WITN.           MCGINLEY:   WITNESSED BY
 CLNT.            A2DTECH:   CLIENT CODE
 ORIG.           5" PRINT:   ORIGIN OF DATA
 UWI .       490251063400:   UNIQUE WELL ID
 DICO. A2D Technologies, Inc.:   DIGITIZING COMPANY
~OTHER INFORMATION
~A   DEPT     RHOB       DPHI         GRD      CALD       CORR         SN        SPR        ILD   
# ...
  231.0000     2.4704     0.1131    79.2123     7.7432     0.0421     7.9953   -64.4414     6.5363
  231.5000     2.4725     0.1109    78.3489     7.7346     0.0421     8.0228   -64.5653     6.5617
  232.0000     2.4746     0.1087    78.0832     7.7196     0.0421     8.0504   -64.6886     6.5960
  232.5000     2.4755     0.1076    77.8480     7.6960     0.0421     8.0780   -64.8124     6.6304
  233.0000     2.4727     0.1107    78.3382     7.6726     0.0415     8.1057   -64.9341     6.6650
  233.5000     2.4693     0.1137    79.5270     7.6491     0.0384     8.1336   -65.0522     6.6998
  234.0000     2.4658     0.1146    78.1709     7.6257     0.0354     8.1486   -64.8558     6.7348
  234.5000     2.4675     0.1113    76.8018     7.5914     0.0324     8.0572   -64.6330     6.7699
  235.0000     2.4700     0.1080    76.4585     7.5348     0.0333     7.9938   -64.4049     6.8053
  235.5000     2.4724     0.1050    76.3742     7.4258     0.0346     7.9276   -64.1726     6.8408
  236.0000     2.4748     0.1050    76.4159     7.2775     0.0360     8.0207   -63.9424     6.8765
  236.5000     2.4757     0.1081    77.1106     7.3170     0.0333     8.1243   -63.9274     6.9124
  237.0000     2.4734     0.1121    77.8048     7.4840     0.0302     8.2291   -63.9410     6.9485
  237.5000     2.4690     0.1163    77.5915     7.6128     0.0272     8.3346   -63.9548     6.9848
  238.0000     2.4645     0.1183    77.2193     7.6103     0.0261     8.3904   -63.9681     7.0212
  238.5000     2.4599     0.1165    76.8444     7.6100     0.0261     8.4118   -63.9814     7.0579
  239.0000     2.4611     0.1148    76.4717     7.6113     0.0260     8.4337   -63.9947     7.0947
  239.5000     2.4651     0.1131    76.0993     7.5497     0.0286     8.4540   -64.0079     7.1318
  240.0000     2.4692     0.1102    75.7266     7.5260     0.0324     8.6504   -64.0212     7.1690
  240.5000     2.4733     0.1062    75.3524     7.5727     0.0363     8.8514   -64.0345     7.2064
  241.0000     2.4776     0.1042    74.9607     7.6209     0.0369     8.9328   -64.0478     7.2532
  241.5000     2.4785     0.1045    75.2951     7.6255     0.0347     9.0221   -64.0610     7.3189
  242.0000     2.4785     0.1054    75.9169     7.6197     0.0324     9.1122   -64.0743     7.3851
  242.5000     2.4784     0.1062    77.0760     7.6137     0.0302     9.2032   -64.0876     7.4520
  243.0000     2.4765     0.1083    78.4706     7.6078     0.0279     9.2953   -64.1009     7.5194
  243.5000     2.4717     0.1103    80.1000     7.6019     0.0257     9.3885   -64.1141     7.5875
  244.0000     2.4669     0.1123    80.5944     7.5961     0.0240     9.4393   -64.1274     7.6562
  244.5000     2.4631     0.1104    81.0908     7.5902     0.0254     9.4187   -64.1407     7.7255
  245.0000     2.4708     0.1055    82.6356     7.5843     0.0313     9.4045   -64.1540     7.7954
  245.5000     2.4794     0.1022    84.0818     7.5784     0.0340     9.3903   -64.1672     7.8660
  246.0000     2.4834     0.1022    83.9061     7.5727     0.0341     9.3761   -64.1805     7.9372
  246.5000     2.4833     0.1014    82.9068     7.5446     0.0341     9.3619   -64.1938     8.0090
  247.0000     2.4826     0.1033    80.6234     7.5000     0.0341     9.3531   -64.2071     8.0815
  247.5000     2.4820     0.1036    78.3166     7.4551     0.0341     9.4890   -64.2204     8.1547
  248.0000     2.4823     0.0997    76.1396     7.4104     0.0342     9.6061   -64.2336     8.2285
  248.5000     2.4871     0.0954    75.8904     7.3648     0.0348     9.7249   -64.2469     8.3000
  249.0000     2.4913     0.0968    76.3548     7.3685     0.0355     9.8449   -64.2602     8.4172
  249.5000     2.4891     0.0984    77.8106     7.3965     0.0361     9.9665   -64.2735     8.5315
  250.0000     2.4875     0.0978    79.1047     7.4521     0.0367    10.0896   -64.2872     8.6474
  250.5000     2.4875     0.0968    78.1534     7.5374     0.0373    10.2142   -64.3028     8.7648
  251.0000     2.4875     0.0983    77.1659     7.6036     0.0380    10.3478   -64.3070     8.8839
  251.5000     2.4862     0.1016    76.4896     7.5371     0.0386    10.3972   -63.8412     9.0045
  252.0000     2.4822     0.1028    76.5068     7.4720     0.0392    10.4500   -63.3340     9.1268
  252.5000     2.4785     0.1009    76.7870     7.4073     0.0398    10.5031   -62.9113     9.2507
  253.0000     2.4796     0.0964    77.4716     7.3426     0.0432    10.5564   -62.9196     9.3764
  253.5000     2.4914     0.0930    77.1008     7.2781     0.0452    10.6101   -62.9104     9.5037
  254.0000     2.4979     0.0994    76.6423     7.2239     0.0400    10.6639   -63.3903     9.6328
  254.5000     2.4812     0.1055    75.1349     7.2419     0.0312    10.7181   -63.9066     9.7636
  255.0000     2.4680     0.1122    73.6299     7.3103     0.0273    10.7351   -63.8983     9.8831
  255.5000     2.4661     0.1126    72.8400     7.3750     0.0242    10.6252   -63.8758     9.6339
  256.0000     2.4643     0.1130    72.7196     7.4012     0.0228    10.5261   -63.8552     9.4090
  256.5000     2.4626     0.1134    73.7852     7.4289     0.0254    10.4279   -63.8351     9.1916
  257.0000     2.4633     0.1087    75.4569     7.4569     0.0280    10.3307   -63.8151     9.0115
  257.5000     2.4694     0.1038    77.5093     7.4863     0.0310    10.2531   -63.7951     8.9996
  258.0000     2.4796     0.0990    78.7268     7.4693     0.0362    10.2668   -63.7750     8.9858
  258.5000     2.4877     0.0984    79.4576     7.3827     0.0404    10.2784   -63.7550     8.9724
  259.0000     2.4875     0.0976    79.6677     7.1458     0.0413    10.2897   -63.7349     8.9588
  259.5000     2.4896     0.0968    79.6244     6.9361     0.0423    10.3012   -63.7149     8.9453
  260.0000     2.4927     0.0962    79.5762     7.0195     0.0432    10.3127   -63.6949     8.9318
  260.5000     2.4927     0.0996    79.5340     7.1064     0.0438    10.3241   -63.6748     8.9183
  261.0000     2.4857     0.1034    79.7525     7.2859     0.0418    10.3351   -63.6548     8.9048
  261.5000     2.4789     0.1074    80.5486     7.5053     0.0412    10.3457   -63.6348     8.8914
  262.0000     2.4776     0.1041    81.3634     7.5695     0.0494    10.2158   -63.6147     8.8779
  262.5000     2.4866     0.0983    80.9334     7.5914     0.0576    10.0799   -63.5947     8.8645
  263.0000     2.4954     0.0935    80.4859     7.5923     0.0657     9.9684   -63.5746     8.8514
  263.5000     2.5013     0.0873    80.4028     7.5939     0.0738     9.9445   -63.5540     8.7543
  264.0000     2.5058     0.0782    80.3397     7.5957     0.0818     9.9200   -63.5344     8.6602
  264.5000     2.5210     0.0770    79.0838     7.5975     0.0864     9.8956   -63.5575     8.5670
  265.0000     2.5280     0.0897    77.4840     7.5993     0.0726     9.8712   -63.7651     8.4749
  265.5000     2.5097     0.0985    78.9386     7.6011     0.0529     9.8469   -63.9681     8.3766
  266.0000     2.4950     0.1042    80.9854     7.6029     0.0388     9.8226   -64.1699     8.3533
  266.5000     2.4863     0.1042    81.6081     7.6047     0.0341     9.7984   -64.3251     8.3281
  267.0000     2.4821     0.1047    79.7417     7.6064     0.0320     9.7743   -64.3564     8.3030
  267.5000     2.4806     0.1005    77.8213     7.6079     0.0321     9.7502   -64.3889     8.2779
  268.0000     2.4846     0.0942    78.4174     7.6152     0.0321     9.7262   -64.4216     8.2529
  268.5000     2.4917     0.1004    79.8972     7.6181     0.0321     9.7022   -64.4552     8.2280
  269.0000     2.4865     0.1053    81.4262     7.6051     0.0321     9.6783   -64.4873     8.1701
  269.5000     2.4816     0.1062    81.2602     7.5911     0.0321     9.6546   -64.4491     8.1066
  270.0000     2.4767     0.1072    80.3561     7.5773     0.0321     9.6308   -64.0805     8.0435
  270.5000     2.4724     0.1082    79.6830     7.5635     0.0321     9.5809   -63.7190     7.9810
  271.0000     2.4737     0.1086    80.0310     7.5497     0.0321     9.4734   -63.4846     7.9189
