~VERSION INFORMATION
 VERS.                2.0:   CWLS LOG ASCII STANDARD - VERSION 2.0
 WRAP.                 NO:   ONE LINE PER DEPTH STEP
~WELL INFORMATION
#MNEM.UNIT      DATA TYPE    INFORMATION
#----------   ------------   ------------------------------
 STRT.F            7.0000:   START DEPTH
 STOP.F          690.0000:   STOP DEPTH
 STEP.F            0.5000:   STEP LENGTH
 NULL.          -999.2500:   NO VALUE
 COMP. FENIX & SCISSON INC:   COMPANY
 WELL.  NPR#3 #26-46 SX11:   WELL
 FLD .             TEAPOT:   FIELD
 LOC .      S11 T38N R78W:   LOCATION
 CNTY.            NATRONA:   COUNTY
 STAT.            WYOMING:   STATE
 CTRY. UNITED STATES OF AMERICA:   COUNTRY
 SRVC.      Dresser Atlas:   SERVICE COMPANY
 DATE.        13-AUG-1985:   LOGDATE
 API .       490251083600:   API NUMBER
~CURVE INFORMATION
#MNEM.UNIT       API CODE    CURVE DESCRIPTION
#----------   ------------   ------------------------------
 DEPT.F                  :   
 DPHI.DEC    45 890 12 00:   DENSITY POROSITY SANDSTONE
 NPHI.DEC    42 890 03 00:   NEUTRON POROSITY SANDSTONE
 RHOB.G/C3   45 350 01 00:   BULK DENSITY
 CORR.G/C3   45 356 01 00:   DENSITY CORRECTION
 CALD.IN     45 280 60 00:   CALIPER
 SPR .MV     07 010 01 00:   SPONTANEOUS POTENTIAL
 ILD .OHMM   07 120 46 00:   INDUCTION LOG DEEP
 ILM .OHMM   07 120 44 00:   INDUCTION LOG MEDIUM
 SFL .OHMM   07 220 01 00:   SHALLOW FOCUSED LOG RESISTIVITY
 GRR .GAPI   07 310 01 00:   GAMMA RAY FROM RES. LOG.
~PARAMETER INFORMATION
#MNEM.UNIT          VALUE    DESCRIPTION
#----------   ------------   ------------------------------
 PD  .                 GL:   PERMANENT DATUM
 EPD .F              5193:   ELEVATION PERMANENT DATUM
 LMF .                 KB:   LOG MEASURED FROM
 DAPD.F                 5:   FEET ABOVE PERMANENT DATUM
 DMF .                 KB:   DRILLING MEASURED FROM
 EKB .F              5198:   KELLING BUSHING
 EGL .F              5193:   GROUND LEVEL
 DATE.          8-13-1985:   RUN DATE
 RUN .                  8:   RUN NUMBER
 DD  .F               664:   DEPTH DRILLER
 BLI .F               635:   BOTTOM LOG INTERVAL
 TLI .F               340:   TOP LOG INTERVAL
 CBL .F               340:   CASING BOTTOM LOGGER
 BS  .IN             8.75:   BIT SIZE
 BSD .F               664:   BIT SIZE AT DEPTH
 DFT .          KPC WATER:   DRILLING FLUID TYPE
 LUN .           HL- 6274:   LOGGING UNIT NUMBER
 LUL .           GILLETTE:   LOGGING UNIT LOCATION
 ENGI.             RAUTIO:   RECORDING ENGINEER
 WITN.            SCHULTE:   WITNESSED BY
 CLNT.            A2DTECH:   CLIENT CODE
 ORIG.        2" 5" PRINT:   ORIGIN OF DATA
 UWI .       490251083600:   UNIQUE WELL ID
 DICO. A2D Technologies, Inc.:   DIGITIZING COMPANY
~OTHER INFORMATION
~A    DEPT    DPHI       NPHI       RHOB       CORR       CALD         SPR       ILD        ILM        SFL        GRR   
# ...
  141.0000  -999.2500  -999.2500  -999.2500  -999.2500  -999.2500   -39.7114     6.0715     5.9426     6.4171    61.7861
  141.5000  -999.2500  -999.2500  -999.2500  -999.2500  -999.2500   -39.6867     6.0572     5.9151     6.7731    58.3592
  142.0000  -999.2500  -999.2500  -999.2500  -999.2500  -999.2500   -39.6622     6.0428     5.8825     7.1080    60.6201
  142.5000  -999.2500  -999.2500  -999.2500  -999.2500  -999.2500   -39.6376     6.0285     5.8879     7.2931    64.4032
  143.0000  -999.2500  -999.2500  -999.2500  -999.2500  -999.2500   -39.6129     6.0143     5.8945     7.4168    68.2195
  143.5000  -999.2500  -999.2500  -999.2500  -999.2500  -999.2500   -39.5887     6.0000     5.9012     7.4481    71.9140
  144.0000  -999.2500  -999.2500  -999.2500  -999.2500  -999.2500   -39.5375     5.9917     5.9078     7.4724    75.5710
  144.5000  -999.2500  -999.2500  -999.2500  -999.2500  -999.2500   -39.4719     6.0358     5.9145     7.3110    79.0822
  145.0000  -999.2500  -999.2500  -999.2500  -999.2500  -999.2500   -39.4057     6.0669     5.9212     7.1366    81.6076
  145.5000  -999.2500  -999.2500  -999.2500  -999.2500  -999.2500   -39.3396     6.0982     5.9277     7.1532    83.3343
  146.0000  -999.2500  -999.2500  -999.2500  -999.2500  -999.2500   -39.2735     6.1297     5.9348     7.1810    81.1031
  146.5000  -999.2500  -999.2500  -999.2500  -999.2500  -999.2500   -39.2074     6.1613     5.9751     7.2030    78.2288
  147.0000  -999.2500  -999.2500  -999.2500  -999.2500  -999.2500   -39.1413     6.1930     6.0351     7.3317    75.3237
  147.5000  -999.2500  -999.2500  -999.2500  -999.2500  -999.2500   -39.0752     6.2250     6.0952     7.4561    72.4034
  148.0000  -999.2500  -999.2500  -999.2500  -999.2500  -999.2500   -39.0091     6.2572     6.1359     7.7449    72.5753
  148.5000  -999.2500  -999.2500  -999.2500  -999.2500  -999.2500   -38.9426     6.2736     6.1739     8.0431    73.4909
  149.0000  -999.2500  -999.2500  -999.2500  -999.2500  -999.2500   -38.8768     6.2737     6.2164     7.9763    72.5838
  149.5000  -999.2500  -999.2500  -999.2500  -999.2500  -999.2500   -38.8144     6.2730     6.1528     7.6932    71.4208
  150.0000  -999.2500  -999.2500  -999.2500  -999.2500  -999.2500   -38.9608     6.2763     6.0820     7.3938    70.3959
  150.5000  -999.2500  -999.2500  -999.2500  -999.2500  -999.2500   -39.3247     6.1494     5.9892     7.1322    71.3399
  151.0000  -999.2500  -999.2500  -999.2500  -999.2500  -999.2500   -39.5764     6.0384     5.8759     7.0934    74.7304
  151.5000  -999.2500  -999.2500  -999.2500  -999.2500  -999.2500   -39.5482     5.9294     5.7648     7.0548    78.0638
  152.0000  -999.2500  -999.2500  -999.2500  -999.2500  -999.2500   -39.5261     5.8224     5.6607     7.0163    81.0924
  152.5000  -999.2500  -999.2500  -999.2500  -999.2500  -999.2500   -39.5029     5.7173     5.5912     6.9379    80.1710
  153.0000  -999.2500  -999.2500  -999.2500  -999.2500  -999.2500   -39.4799     5.6462     5.5225     6.8785    78.5189
  153.5000  -999.2500  -999.2500  -999.2500  -999.2500  -999.2500   -39.4569     5.6028     5.4650     6.9838    76.8671
  154.0000  -999.2500  -999.2500  -999.2500  -999.2500  -999.2500   -39.4339     5.5632     5.4650     7.0770    76.9709
  154.5000  -999.2500  -999.2500  -999.2500  -999.2500  -999.2500   -39.4108     5.5447     5.4650     7.1364    78.4481
  155.0000  -999.2500  -999.2500  -999.2500  -999.2500  -999.2500   -39.3881     5.5258     5.4651     7.1364    79.9245
  155.5000  -999.2500  -999.2500  -999.2500  -999.2500  -999.2500   -39.3446     5.5071     5.4656     7.1364    80.0688
  156.0000  -999.2500  -999.2500  -999.2500  -999.2500  -999.2500   -39.2886     5.4885     5.4500     7.1055    78.5077
  156.5000  -999.2500  -999.2500  -999.2500  -999.2500  -999.2500   -39.2323     5.4699     5.4124     7.0275    77.1229
  157.0000  -999.2500  -999.2500  -999.2500  -999.2500  -999.2500   -39.1782     5.4514     5.3748     6.9503    78.7748
  157.5000  -999.2500  -999.2500  -999.2500  -999.2500  -999.2500   -39.1464     5.4329     5.3375     6.8740    80.8793
  158.0000  -999.2500  -999.2500  -999.2500  -999.2500  -999.2500   -39.1158     5.4154     5.3162     6.8155    82.9376
  158.5000  -999.2500  -999.2500  -999.2500  -999.2500  -999.2500   -39.0851     5.5121     5.3567     6.9089    83.4449
  159.0000  -999.2500  -999.2500  -999.2500  -999.2500  -999.2500   -39.0543     5.6094     5.3899     7.0011    81.1882
  159.5000  -999.2500  -999.2500  -999.2500  -999.2500  -999.2500   -39.0235     5.7077     5.4637     7.1309    78.9261
  160.0000  -999.2500  -999.2500  -999.2500  -999.2500  -999.2500   -38.9938     5.8228     5.6728     7.3755    76.6660
  160.5000  -999.2500  -999.2500  -999.2500  -999.2500  -999.2500   -39.0490     5.9429     5.8498     7.6111    74.4639
  161.0000  -999.2500  -999.2500  -999.2500  -999.2500  -999.2500   -39.2928     6.0655     5.9305     7.6815    74.5718
  161.5000  -999.2500  -999.2500  -999.2500  -999.2500  -999.2500   -39.5344     6.1906     6.0118     7.5936    77.7759
  162.0000  -999.2500  -999.2500  -999.2500  -999.2500  -999.2500   -39.7753     6.3319     6.0941     7.5128    79.5400
  162.5000  -999.2500  -999.2500  -999.2500  -999.2500  -999.2500   -39.9860     6.3080     6.1188     7.4724    78.8978
  163.0000  -999.2500  -999.2500  -999.2500  -999.2500  -999.2500   -39.9834     6.2815     6.1366     7.6472    78.7860
  163.5000  -999.2500  -999.2500  -999.2500  -999.2500  -999.2500   -39.8693     6.2551     6.1594     7.7663    81.7200
  164.0000  -999.2500  -999.2500  -999.2500  -999.2500  -999.2500   -39.7237     6.2288     6.1150     7.8873    83.2373
  164.5000  -999.2500  -999.2500  -999.2500  -999.2500  -999.2500   -39.5871     6.1888     6.0537     7.9695    77.9414
  165.0000  -999.2500  -999.2500  -999.2500  -999.2500  -999.2500   -39.7027     6.1368     5.9929     7.7276    73.1760
  165.5000  -999.2500  -999.2500  -999.2500  -999.2500  -999.2500   -39.8307     6.0854     5.9328     7.5505    70.5846
  166.0000  -999.2500  -999.2500  -999.2500  -999.2500  -999.2500   -39.9584     6.0343     5.8676     7.3769    72.1530
  166.5000  -999.2500  -999.2500  -999.2500  -999.2500  -999.2500   -40.0837     5.9714     5.7724     7.2089    73.4573
  167.0000  -999.2500  -999.2500  -999.2500  -999.2500  -999.2500   -40.1332     5.8462     5.6786     7.1348    72.6331
  167.5000  -999.2500  -999.2500  -999.2500  -999.2500  -999.2500   -39.8862     5.7223     5.5865     7.1364    72.2268
  168.0000  -999.2500  -999.2500  -999.2500  -999.2500  -999.2500   -39.6467     5.7223     5.5665     7.2144    72.3647
  168.5000  -999.2500  -999.2500  -999.2500  -999.2500  -999.2500   -39.4082     5.7223     5.5665     7.3161    70.9725
  169.0000  -999.2500  -999.2500  -999.2500  -999.2500  -999.2500   -39.3484     5.8024     5.5665     7.3368    69.0122
  169.5000  -999.2500  -999.2500  -999.2500  -999.2500  -999.2500   -39.2855     5.9385     5.6074     7.2217    68.9763
  170.0000  -999.2500  -999.2500  -999.2500  -999.2500  -999.2500   -39.2215     6.0778     5.8059     7.0846    71.1240
  170.5000  -999.2500  -999.2500  -999.2500  -999.2500  -999.2500   -39.0385     6.3316     6.0300     7.0062    73.7445
  171.0000  -999.2500  -999.2500  -999.2500  -999.2500  -999.2500   -38.5600     6.7563     6.2745     8.0948    76.1414
  171.5000  -999.2500  -999.2500  -999.2500  -999.2500  -999.2500   -38.0894     7.0782     6.5289     9.4613    76.4278
  172.0000  -999.2500  -999.2500  -999.2500  -999.2500  -999.2500   -37.7822     7.2023     6.7138    10.3114    74.7639
  172.5000  -999.2500  -999.2500  -999.2500  -999.2500  -999.2500   -38.5526     7.0475     6.8785     8.2797    72.4087
  173.0000  -999.2500  -999.2500  -999.2500  -999.2500  -999.2500   -39.4057     7.0062     6.8785     7.8242    70.0230
  173.5000  -999.2500  -999.2500  -999.2500  -999.2500  -999.2500   -39.5774     7.0062     6.8312     7.8965    67.6996
  174.0000  -999.2500  -999.2500  -999.2500  -999.2500  -999.2500   -39.7047     7.0062     6.7338     8.0767    65.3555
