~VERSION INFORMATION
 VERS.                2.0:   CWLS LOG ASCII STANDARD - VERSION 2.0
 WRAP.                 NO:   ONE LINE PER DEPTH STEP
~WELL INFORMATION
#MNEM.UNIT      DATA TYPE    INFORMATION
#----------   ------------   ------------------------------
 STRT.F           34.5000:   START DEPTH
 STOP.F          665.5000:   STOP DEPTH
 STEP.F            0.5000:   STEP LENGTH
 NULL.          -999.2500:   NO VALUE
 COMP. FENIX & SCISSON INC:   COMPANY
 WELL.    NPR-3 SX #14-14:   WELL
 FLD .        TEAPOT DOME:   FIELD
 LOC .      S14 T38N R78W:   LOCATION
 CNTY.            NATRONA:   COUNTY
 STAT.            WYOMING:   STATE
 CTRY. UNITED STATES OF AMERICA:   COUNTRY
 SRVC.            Unknown:   SERVICE COMPANY
 DATE.        01-JUN-1978:   LOGDATE
 API .       490251063100:   API NUMBER
~CURVE INFORMATION
#MNEM.UNIT       API CODE    CURVE DESCRIPTION
#----------   ------------   ------------------------------
 DEPT.F                  :   
 SPR .MV     05 010 01 00:   SPONTANEOUS POTENTIAL FROM RES.
 SN  .OHMM   05 040 16 00:   SHORT NORMAL 16"
 IL  .OHMM   05 120 00 00:   INDUCTION LOG
 GRD .GAPI   45 310 01 00:   GAMMA RAY FROM DENSITY LOG
 RHOB.G/C3   45 350 01 00:   BULK DENSITY
 DPHI.DEC    45 890 12 00:   DENSITY POROSITY SANDSTONE
 CORR.G/C3   45 356 01 00:   DENSITY CORRECTION
 CALD.IN     45 280 60 00:   CALIPER FROM DENSITY LOG
~PARAMETER INFORMATION
#MNEM.UNIT          VALUE    DESCRIPTION
#----------   ------------   ------------------------------
 PD  .                 GL:   PERMANENT DATUM
 EPD .F              5212:   ELEVATION PERMANENT DATUM
 LMF .                 KB:   LOG MEASURED FROM
 DAPD.F                 4:   FEET ABOVE PERMANENT DATUM
 DMF .                 KB:   DRILLING MEASURED FROM
 EKB .F              5216:   KELLING BUSHING
 EGL .F              5212:   GROUND LEVEL
 DATE.           6-1-1978:   RUN DATE
 RUN .                  1:   RUN NUMBER
 DD  .F               670:   DEPTH DRILLER
 DL  .F               670:   DEPTH LOGGER
 BLI .F               664:   BOTTOM LOG INTERVAL
 TLI .F                40:   TOP LOG INTERVAL
 CS  .IN            8.625:   CASING SIZE
 CBD .F                40:   CASING BOTTOM DRILLER
 BS  .IN            7.875:   BIT SIZE
 BSD .F               670:   BIT SIZE AT DEPTH
 DFT .                KCL:   DRILLING FLUID TYPE
 DFD .                8.7:   DRILLING FLUID DENSITY
 DFV .                 32:   DRILLING FLUID VISCOSITY
 DFPH.                 10:   DRILLING FLUID PH
 RMS .OHMM            .30:   RESISTIVITY MUD SAMPLE
 MST .F                66:   MUD SAMPLE TEMPERATURE
 BHT .F                75:   BOTTOM HOLE TEMPERATURE
 TCS .HRS               2:   TIME CURCULATED STOPPED
 MRT .F                75:   MAXIMUM RECORDED TEMPERATURE
 LUN .               2958:   LOGGING UNIT NUMBER
 LUL .              CSPR.:   LOGGING UNIT LOCATION
 ENGI.             MILLER:   RECORDING ENGINEER
 WITN.           MCGINLEY:   WITNESSED BY
 CLNT.            A2DTECH:   CLIENT CODE
 ORIG.      2" , 5" PRINT:   ORIGIN OF DATA
 UWI .       490251063100:   UNIQUE WELL ID
 DICO. A2D Technologies, Inc.:   DIGITIZING COMPANY
~OTHER INFORMATION
~A   DEPT      SPR         SN         IL         GRD      RHOB       DPHI       CORR       CALD   
# ...
  399.0000   -30.6989     7.7974     7.5346    78.0384     2.4748     0.1198     0.0230     7.5879
  399.5000   -30.7103     7.7161     7.4137    79.7647     2.4768     0.1199     0.0254     7.5851
  400.0000   -30.7216     7.6356     7.2948    79.5564     2.4769     0.1201     0.0269     7.5823
  400.5000   -30.7329     7.5563     7.1777    78.5760     2.4753     0.1192     0.0276     7.5795
  401.0000   -30.7443     7.4777     7.0563    77.6346     2.4753     0.1187     0.0283     7.5767
  401.5000   -30.7556     7.2689     6.7678    78.3363     2.4758     0.1198     0.0290     7.5739
  402.0000   -30.7670     7.0237     6.4754    79.9357     2.4763     0.1208     0.0297     7.5712
  402.5000   -30.7783     6.7860     6.1956    80.3226     2.4768     0.1219     0.0304     7.5715
  403.0000   -30.7897     6.5556     5.7094    76.9456     2.4741     0.1229     0.0294     7.5770
  403.5000   -30.8010     6.3329     5.2165    74.4698     2.4692     0.1289     0.0279     7.5824
  404.0000   -30.8123     6.1179     4.9708    74.2199     2.4570     0.1384     0.0264     7.5878
  404.5000   -30.8237     5.9101     4.9708    74.2995     2.4432     0.1479     0.0248     7.5932
  405.0000   -30.8350     5.6541     4.9953    74.3788     2.4294     0.1608     0.0264     7.5986
  405.5000   -30.8464     5.6580     5.0303    74.4536     2.4154     0.1551     0.0286     7.6041
  406.0000   -30.8577     5.6503     5.0653    74.5270     2.4071     0.1462     0.0304     7.6095
  406.5000   -30.8691     5.9568     5.1003    74.5947     2.4412     0.1373     0.0279     7.6149
  407.0000   -30.8804     6.3146     5.1380    75.1163     2.4535     0.1284     0.0253     7.6203
  407.5000   -30.8918     6.6939     5.2840    76.4601     2.4669     0.1195     0.0227     7.6258
  408.0000   -30.9031     7.0960     5.8848    78.3079     2.4801     0.1165     0.0233     7.6312
  408.5000   -30.9144     7.3879     6.5539    79.7625     2.4800     0.1178     0.0242     7.6366
  409.0000   -30.9258     7.5333     6.9915    78.8481     2.4793     0.1141     0.0250     7.6420
  409.5000   -30.9371     7.6816     7.1217    77.0153     2.4820     0.1106     0.0259     7.6474
  410.0000   -30.9485     7.8329     7.1876    76.4497     2.4899     0.1108     0.0267     7.6529
  410.5000   -30.9598     7.9870     7.1886    77.1999     2.4904     0.1108     0.0276     7.6583
  411.0000   -30.9711     8.1452     7.2530    77.5898     2.4913     0.1097     0.0284     7.6637
  411.5000   -30.9825     8.2133     7.3220    77.6138     2.4922     0.1086     0.0284     7.6691
  412.0000   -30.9938     8.2584     7.3892    79.2077     2.4927     0.1094     0.0282     7.6746
  412.5000   -31.0052     8.3038     7.4420    80.9883     2.4914     0.1093     0.0281     7.6800
  413.0000   -31.0166     8.3494     7.5061    81.9010     2.4923     0.1082     0.0279     7.6854
  413.5000   -31.0279     8.3953     7.5706    81.9719     2.4934     0.1118     0.0277     7.6908
  414.0000   -31.0382     8.4414     7.6357    81.3581     2.4866     0.1099     0.0275     7.6962
  414.5000   -31.0380     8.4878     7.7014    80.3584     2.4945     0.1095     0.0273     7.7017
  415.0000   -31.0379     8.5344     7.7677    79.6599     2.4937     0.1114     0.0272     7.7071
  415.5000   -31.0379     8.5637     7.8345    80.1198     2.4918     0.1115     0.0270     7.7125
  416.0000   -31.0379     8.5461     7.9019    79.5924     2.4920     0.1091     0.0268     7.7179
  416.5000   -31.0379     8.5312     7.9548    77.8812     2.4939     0.1066     0.0266     7.7234
  417.0000   -31.0379     8.5163     7.9548    77.9268     2.4957     0.1064     0.0252     7.7285
  417.5000   -31.0379     8.5015     7.9548    78.9287     2.4968     0.1063     0.0234     7.7301
  418.0000   -31.0379     8.4867     7.8784    78.2159     2.4959     0.1096     0.0216     7.7318
  418.5000   -31.0379     8.4719     7.8850    77.3616     2.4926     0.1125     0.0205     7.7336
  419.0000   -31.0379     8.4571     7.8830    77.0097     2.4859     0.1135     0.0202     7.7353
  419.5000   -31.0379     8.4424     7.7926    77.0033     2.4878     0.1146     0.0199     7.7370
  420.0000   -31.0379     8.4276     7.7261    76.9882     2.4856     0.1145     0.0197     7.7387
  420.5000   -31.0379     8.4131     7.6602    77.2517     2.4805     0.1139     0.0194     7.7405
  421.0000   -31.0379     8.4073     7.5949    78.2065     2.4820     0.1133     0.0191     7.7422
  421.5000   -31.0379     8.4066     7.5301    79.4418     2.4862     0.1128     0.0188     7.7439
  422.0000   -31.0379     8.4082     7.4659    80.6027     2.4901     0.1147     0.0186     7.7457
  422.5000   -31.0379     8.3141     7.4022    80.9644     2.4858     0.1166     0.0186     7.7474
  423.0000   -31.0379     8.2508     7.3391    80.8312     2.4812     0.1129     0.0201     7.7491
  423.5000   -31.0379     8.1881     7.2765    80.6798     2.4839     0.1123     0.0229     7.7509
  424.0000   -31.0376     8.1258     7.2145    80.7579     2.4863     0.1116     0.0258     7.7526
  424.5000   -31.0364     8.0641     7.1530    81.2936     2.4930     0.1135     0.0284     7.7543
  425.0000   -31.0420     8.0022     7.0931    81.8200     2.4876     0.1162     0.0275     7.7561
  425.5000   -31.1850     7.9067     6.9558    82.3460     2.4822     0.1166     0.0263     7.7578
  426.0000   -31.2856     7.6890     6.7206    82.9755     2.4784     0.1189     0.0252     7.7595
  426.5000   -31.7698     7.4773     6.4920    84.3283     2.4768     0.1213     0.0252     7.7613
  427.0000   -32.2844     7.2715     6.2716    86.8937     2.4702     0.1236     0.0267     7.7630
  427.5000   -32.8089     7.0713     6.0585    88.5404     2.4668     0.1258     0.0281     7.7647
  428.0000   -32.8437     6.8638     5.8527    84.9786     2.4648     0.1325     0.0267     7.7664
  428.5000   -32.8793     6.3708     5.5586    82.4775     2.4564     0.1411     0.0226     7.7682
  429.0000   -32.9178     5.8818     5.2042    81.0580     2.4408     0.1497     0.0216     7.7699
  429.5000   -32.9571     5.4300     4.7581    79.6004     2.4252     0.1585     0.0233     7.7716
  430.0000   -32.9963     5.0130     4.2768    79.0527     2.4096     0.1672     0.0243     7.7734
  430.5000   -33.0355     4.6281     3.8446    79.3832     2.3939     0.1800     0.0232     7.7751
  431.0000   -33.0748     4.2728     3.4561    79.7484     2.3761     0.1961     0.0221     7.7768
  431.5000   -33.1140     3.9445     3.1349    79.2317     2.3575     0.2123     0.0210     7.7786
  432.0000   -33.1534     3.6408     3.1061    76.4880     2.3270     0.2284     0.0221     7.7803
  432.5000   -33.1956     3.3116     3.1577    75.9748     2.2933     0.2446     0.0246     7.7820
  433.0000   -33.2492     3.3132     3.2050    74.2452     2.2595     0.2607     0.0269     7.7838
  433.5000   -32.6470     3.3132     3.2530    71.4066     2.2331     0.2644     0.0330     7.7855
  434.0000   -31.9458     3.5483     3.4049    68.5936     2.2360     0.2570     0.0465     7.7876
  434.5000   -31.2440     3.8398     3.7413    66.5033     2.2567     0.2149     0.0600     7.7723
  435.0000   -30.5405     3.9841     3.8897    66.6568     2.2774     0.1743     0.0732     7.7514
  435.5000   -30.4322     4.4871     4.1413    67.9403     2.3559     0.1339     0.0647     7.7302
  436.0000   -30.6150     5.0310     4.6044    71.3874     2.4356     0.1229     0.0322     7.7091
  436.5000   -30.8272     5.5354     5.1193    74.9983     2.4477     0.1158     0.0263     7.6893
  437.0000   -30.8401     5.8273     5.6571    78.6028     2.4338     0.1142     0.0265     7.6970
  437.5000   -30.8386     6.0885     5.9214    82.1982     2.4557     0.1138     0.0266     7.7057
  438.0000   -30.8383     6.0885     5.9774    84.4343     2.4752     0.1172     0.0266     7.7143
  438.5000   -30.8383     6.0885     6.0327    85.0492     2.4753     0.1208     0.0266     7.7228
  439.0000   -30.8383     6.0885     5.9773    86.0590     2.4705     0.1243     0.0266     7.7314
