~VERSION INFORMATION
 VERS.                2.0:   CWLS LOG ASCII STANDARD - VERSION 2.0
 WRAP.                 NO:   ONE LINE PER DEPTH STEP
~WELL INFORMATION
#MNEM.UNIT      DATA TYPE    INFORMATION
#----------   ------------   ------------------------------
 STRT.F           50.0000:   START DEPTH
 STOP.F         1020.0000:   STOP DEPTH
 STEP.F            0.5000:   STEP LENGTH
 NULL.          -999.2500:   NO VALUE
 COMP. LAWRENCE/ALLISON INC:   COMPANY
 WELL.      28 STX #14-14:   WELL
 FLD .             TEAPOT:   FIELD
 LOC .      S14 T38N R78W:   LOCATION
 CNTY.            NATRONA:   COUNTY
 STAT.            WYOMING:   STATE
 CTRY. UNITED STATES OF AMERICA:   COUNTRY
 SRVC.            Unknown:   SERVICE COMPANY
 DATE.        22-OCT-1984:   LOGDATE
 API .       490251099000:   API NUMBER
~CURVE INFORMATION
#MNEM.UNIT       API CODE    CURVE DESCRIPTION
#----------   ------------   ------------------------------
 DEPT.F                  :   
 SPR .MV     07 010 01 00:   SPONTANEOUS POTENTIAL
 RILD.OHMM   07 120 46 00:   INDUCTION LOG DEEP RESISTIVITY
 RILM.OHMM   07 120 44 00:   INDUCTION LOG MEDIUM RESISTIVITY
 RFOC.OHMM   07 220 04 00:   RESISTIVITY FOCUSED LOG
 GRD .GAPI   45 310 01 00:   GAMMA RAY FROM DENSITY LOG
 CALD.IN     45 280 60 00:   CALIPER
 DEN .G/C3   45 350 01 00:   COMPENSATED BULK DENSTIY
 CORR.G/C3   45 356 01 00:   DENSITY CORRECTION
 PORD.DEC    45 890 12 00:   POROSITY DENSITY SANDSTONE
 CNC .DEC    42 890 03 00:   NEUTRON POROSITY SANDSTONE
 AC  .US/F   60 520 00 00:   ACOUSTIC SONIC
~PARAMETER INFORMATION
#MNEM.UNIT          VALUE    DESCRIPTION
#----------   ------------   ------------------------------
 PD  .                 GL:   PERMANENT DATUM
 EPD .F              5257:   ELEVATION PERMANENT DATUM
 LMF .                 KB:   LOG MEASURED FROM
 DAPD.F                12:   FEET ABOVE PERMANENT DATUM
 DMF .                 KB:   DRILLING MEASURED FROM
 EKB .F              5269:   KELLING BUSHING
 EGL .F              5257:   GROUND LEVEL
 DATE.           10-22-84:   RUN DATE
 RUN .                  1:   RUN NUMBER
 DD  .F              1020:   DEPTH DRILLER
 DL  .F              1019:   DEPTH LOGGER
 BLI .F              1017:   BOTTOM LOG INTERVAL
 TLI .F                52:   TOP LOG INTERVAL
 CS  .IN               16:   CASING SIZE
 CBD .F                40:   CASING BOTTOM DRILLER
 CBL .F                52:   CASING BOTTOM LOGGER
 BS  .IN            12.25:   BIT SIZE
 BSD .F              1020:   BIT SIZE AT DEPTH
 DFT .          GEL/WATER:   DRILLING FLUID TYPE
 DFD .                9.1:   DRILLING FLUID DENSITY
 DFV .                 35:   DRILLING FLUID VISCOSITY
 MSS .           FLOWLINE:   MUD SAMPLE SOURCE
 RMS .OHMM           2.04:   RESISTIVITY MUD SAMPLE
 MST .F                76:   MUD SAMPLE TEMPERATURE
 RMF .OHMM           1.53:   RESISTIVITY MUD FILTRATE SAMPLE
 MFST.F                76:   MUD FILTRATE SAMPLE TEMPERATURE
 RMC .OHMM           2.55:   RESISTIVITY MUD CAKE
 MCST.F                76:   MUD CAKE SAMPLE TEMPERATURE
 MFSS.               CALC:   MUD FILTRATE SAMPLE SOURCE
 MCSS.               CALC:   MUD CAKE SAMPLE SOURCE
 TCS .HRS               3:   TIME CURCULATED STOPPED
 MRT .F               100:   MAXIMUM RECORDED TEMPERATURE
 LUN .            HL 6307:   LOGGING UNIT NUMBER
 LUL .           GILLETTE:   LOGGING UNIT LOCATION
 ENGI.          CROSSBERG:   RECORDING ENGINEER
 WITN.            JOHNSON:   WITNESSED BY
 CLNT.            A2DTECH:   CLIENT CODE
 ORIG.       2", 5" PRINT:   ORIGIN OF DATA
 UWI .       490251099000:   UNIQUE WELL ID
 DICO. A2D Technologies, Inc.:   DIGITIZING COMPANY
~OTHER INFORMATION
~A   DEPT      SPR       RILD       RILM       RFOC        GRD        CALD       DEN       CORR       PORD          CNC       AC   
# ...
  751.5000   -59.5343     6.4209     5.2249     5.3543    97.5759    11.7942     2.4971     0.2241     0.1076     0.4107    53.9696
  752.0000   -60.4864     6.6826     5.4701     5.5652    96.7099    11.4563     2.4180     0.2915     0.1594     0.3954    40.3736
  752.5000   -60.5738     6.9550     5.7269     5.8034    95.8319    10.8338     2.2711     0.3093     0.2569     0.3659    40.7828
  753.0000   -60.3574     7.2389     5.9956     5.7732    95.0293    10.2047     2.1538     0.2558     0.2978     0.3365    41.2943
  753.5000   -60.1289     7.5350     6.0538     5.7332    95.7742     9.9664     2.0713     0.2123     0.2979     0.3174    41.8058
  754.0000   -59.9050     7.9402     6.0936     5.6935    98.1607     9.7698     2.0605     0.1689     0.2980     0.3671    42.3173
  754.5000   -59.7922     7.9358     6.1384     5.6541   100.6595     8.1641     2.1171     0.1255     0.2981     0.3691    42.8288
  755.0000   -60.0182     7.9293     6.1273     5.6149   103.6692     6.6307     2.1672     0.0817     0.2983     0.3557    43.3403
  755.5000   -60.2339     7.9228     6.1112     5.5751   106.7553     6.6104     2.2189     0.0620     0.2735     0.3417    43.5508
  756.0000   -60.4524     7.9163     6.0950     5.5487   107.8444     6.9520     2.2669     0.0643     0.2407     0.3277    42.6536
  756.5000   -60.6890     7.9098     6.0789     5.7123   107.3297     7.4196     2.2807     0.1033     0.2375     0.3188    41.7564
  757.0000   -60.6657     7.9033     6.0628     5.8453   105.5477     7.8856     2.2796     0.1457     0.2357     0.3170    40.8483
  757.5000   -58.8610     7.8969     6.0468     5.9719   103.6501     8.3520     2.2648     0.1820     0.2503     0.3142    43.1164
  758.0000   -57.0861     7.8903     6.0308     5.9335   101.7572     8.8184     2.2373     0.1975     0.2652     0.3106    56.1854
  758.5000   -55.3306     7.8837     6.0147     5.8770    99.8102     9.2850     2.2192     0.1964     0.2717     0.3070    69.1831
  759.0000   -54.3809     7.8777     5.9983     5.8210    97.0076     9.7508     2.2116     0.2026     0.2761     0.3046    82.1444
  759.5000   -54.3774     7.8676     5.9832     5.7657    94.1162    10.2192     2.2039     0.2231     0.2808     0.3024    91.3176
  760.0000   -54.3686     7.9665     5.9714     5.7109    91.2153    10.5279     2.1975     0.2430     0.2846     0.2943    97.4062
  760.5000   -54.5377     8.1853     6.2772     5.8398    88.3565    10.7325     2.2127     0.2580     0.2775     0.2822   100.6287
  761.0000   -54.7847     8.4102     6.5308     6.0027    87.0668    10.8102     2.2415     0.2545     0.2644     0.2786   100.8283
  761.5000   -55.0316     8.6413     6.7948     6.1956    86.2852    10.9093     2.2734     0.2395     0.2469     0.2778   100.5838
  762.0000   -55.1676     8.8662     7.0693     6.1956    87.4450    11.0744     2.3089     0.2247     0.2224     0.2850    99.3211
  762.5000   -55.1657     8.4786     7.1110     6.1953    89.3216    11.2810     2.3447     0.2204     0.1987     0.2994    98.0482
  763.0000   -54.8548     7.6784     6.2186     6.1556    91.2215    11.4701     2.3805     0.2314     0.1751     0.2971    96.7753
  763.5000   -54.1500     6.9541     5.2980     6.1203    93.0804    11.5758     2.3944     0.2367     0.1698     0.2938    95.5024
  764.0000   -53.4486     6.2971     4.5152     6.0874    97.5324    11.6828     2.3759     0.2125     0.1772     0.2970    94.5689
  764.5000   -52.7447     5.7015     3.8494     5.2457   103.5163    11.7910     2.3528     0.1804     0.1883     0.3006    94.0419
  765.0000   -52.0298     5.1620     3.5401     4.4019   106.2881    11.8996     2.3217     0.1475     0.2019     0.3042    94.3413
  765.5000   -51.8209     4.7893     3.5038     3.3461   108.4091    12.0084     2.2912     0.1361     0.2236     0.3078   102.3740
  766.0000   -52.1986     4.7893     4.0068     3.3759   110.5135    12.1168     2.2609     0.1347     0.2450     0.3114   111.6802
  766.5000   -52.4675     4.9045     4.4651     3.7933   111.2834    12.2062     2.2924     0.1288     0.2470     0.2977   119.5795
  767.0000   -52.7308     5.2215     4.9758     4.3636   108.4313    12.2236     2.3582     0.1028     0.2125     0.3007   121.0878
  767.5000   -52.9784     5.8555     5.5449     5.0218    98.1656    12.2422     2.4359     0.0868     0.1622     0.3007   119.0006
  768.0000   -52.9494     6.5673     6.1791     5.7759    91.7460    12.2596     2.5033     0.0838     0.1118     0.2781   110.9603
  768.5000   -52.9068     7.3657     6.8859     6.4241    91.5463    12.2595     2.5171     0.0810     0.0981     0.2754   101.5138
  769.0000   -52.8633     8.2608     7.6536     6.7200    98.3933    12.2589     2.5122     0.0645     0.1019     0.2729    94.1257
  769.5000   -52.8145     9.5433     7.6536     6.8444   101.9262    12.2583     2.4995     0.0398     0.1061     0.2718    92.7974
  770.0000   -52.8207     9.4771     7.4866     6.9712    99.1872    12.2577     2.4868     0.0146     0.1131     0.2735    93.1603
  770.5000   -54.0160     9.3219     7.3628     7.0459    94.5510    12.2571     2.4782     0.0115     0.1202     0.2746    93.9854
  771.0000   -55.2343     9.1688     7.2410     6.9410    91.4542    12.2566     2.4724     0.0117     0.1230     0.2701    94.8403
  771.5000   -56.1624     9.0186     7.1207     6.8148    93.9287    12.2560     2.4795    -0.0077     0.1227     0.2613    95.4236
  772.0000   -56.6636     8.7851     6.9807     6.6678    96.9704    12.2554     2.4929    -0.0278     0.1176     0.2522    95.9316
  772.5000   -57.1665     8.8813     6.9949     6.6846    97.5031    12.2548     2.5060    -0.0255     0.1064     0.2539    95.8371
  773.0000   -57.5161     8.9549     7.0635     6.7254    95.1670    12.2542     2.5101    -0.0028     0.1019     0.2590    95.7504
  773.5000   -57.6103     9.0251     7.1320     6.7667    93.0358    12.2537     2.5031     0.0196     0.1047     0.2602    95.6630
  774.0000   -57.9599     9.0967     7.2013     6.8082    95.4224    12.2531     2.4946     0.0425     0.1096     0.2594    95.7876
  774.5000   -58.3760     9.3830     7.4069     6.8500    98.7992    12.2525     2.4861     0.0409     0.1146     0.2542    95.9939
  775.0000   -58.7893     9.7338     7.8304     6.8922    98.6697    12.2520     2.4776     0.0321     0.1193     0.2418    96.2103
  775.5000   -59.2007    10.2542     8.2781     7.0943    95.8465    12.2514     2.4691     0.0240     0.1239     0.2294    96.9303
  776.0000   -59.6085    10.8443     8.7514     7.6914    89.2549    12.2508     2.4609     0.0164     0.1295     0.2226    97.6614
  776.5000   -59.9590    11.4674     9.2517     8.3383    82.5369    12.2502     2.4483     0.0056     0.1354     0.2249    97.0656
  777.0000   -59.9881    12.1256     9.7806     9.0407    75.8268    12.2497     2.4347    -0.0055     0.1445     0.2260    95.3641
  777.5000   -60.0264    12.8212    10.3398     9.8095    68.9120    12.2491     2.4199    -0.0046     0.1528     0.2284    92.7181
  778.0000   -60.0647    13.5568    10.5581     9.9001    66.4763    12.2485     2.4272    -0.0011     0.1553     0.2325    90.0450
  778.5000   -60.1072    14.3345    10.6957     9.9001    67.0117    12.2479     2.4384    -0.0063     0.1441     0.2313    88.7225
  779.0000   -60.3246    14.8351    10.8368     9.9001    67.6258    12.2473     2.4430    -0.0243     0.1432     0.2292    87.8053
  779.5000   -61.3870    14.7116    10.9535     9.8030    67.6674    12.2468     2.4181    -0.0360     0.1514     0.2277    87.2555
  780.0000   -62.4504    14.3937    10.7398     9.6388    66.7557    12.2462     2.3726    -0.0163     0.1794     0.2375    89.0190
  780.5000   -63.4862    14.0827    10.5264     9.4773    65.0975    12.2456     2.3284     0.0082     0.2066     0.2521    91.8405
  781.0000   -63.3443    13.7785    10.3173     9.3184    63.8170    12.2450     2.3012     0.0168     0.2269     0.2534    95.9204
  781.5000   -62.8377    13.4808    10.1123     9.0925    65.3642    12.2445     2.2980     0.0137     0.2277     0.2543   100.8283
