~VERSION INFORMATION
 VERS.                2.0:   CWLS LOG ASCII STANDARD - VERSION 2.0
 WRAP.                 NO:   ONE LINE PER DEPTH STEP
~WELL INFORMATION
#MNEM.UNIT      DATA TYPE    INFORMATION
#----------   ------------   ------------------------------
 STRT.F            0.0000:   START DEPTH
 STOP.F          978.0000:   STOP DEPTH
 STEP.F            0.5000:   STEP LENGTH
 NULL.          -999.2500:   NO VALUE
 COMP. FENIX & SCISSON INC:   COMPANY
 WELL. N.P.R #3 SX-14 #53:   WELL
 FLD .             TEAPOT:   FIELD
 LOC .      S14 T38N R78W:   LOCATION
 CNTY.            NATRONA:   COUNTY
 STAT.            WYOMING:   STATE
 CTRY. UNITED STATES OF AMERICA:   COUNTRY
 SRVC.              Welex:   SERVICE COMPANY
 DATE.        06-MAR-1977:   LOGDATE
 API .       490251029800:   API NUMBER
~CURVE INFORMATION
#MNEM.UNIT       API CODE    CURVE DESCRIPTION
#----------   ------------   ------------------------------
 DEPT.F                  :   
 SPR .MV     07 010 01 00:   SPONTANEOUS POTENTIAL
 SGRD.OHMM   07 220 05 00:   SHALLOW RESISTIVITY
 ILD .OHMM   07 120 46 00:   INDUCTION LOG DEEP
 ILM .OHMM   07 120 44 00:   INDUCTION LOG MEDIUM
 GRD .GAPI   45 310 01 00:   GAMMA RAY FROM DENSITY LOG
 CALD.IN     45 280 60 00:   CALIPER
 RHOB.G/C3   45 350 01 00:   BULK DENSITY
 DPHI.DEC    45 890 12 00:   DENSITY POROSITY SANDSTONE
 CORR.G/C3   45 356 01 00:   DENSITY CORRECTION
~PARAMETER INFORMATION
#MNEM.UNIT          VALUE    DESCRIPTION
#----------   ------------   ------------------------------
 PD  .                 GL:   PERMANENT DATUM
 EPD .F              5230:   ELEVATION PERMANENT DATUM
 LMF .                 GL:   LOG MEASURED FROM
 DMF .                 GL:   DRILLING MEASURED FROM
 EGL .F              5230:   GROUND LEVEL
 DATE.             3-6-77:   RUN DATE
 RUN .                  1:   RUN NUMBER
 DD  .F               989:   DEPTH DRILLER
 DL  .F               980:   DEPTH LOGGER
 BLI .F               978:   BOTTOM LOG INTERVAL
 TLI .F                50:   TOP LOG INTERVAL
 CS  .IN            8.625:   CASING SIZE
 CBD .F                42:   CASING BOTTOM DRILLER
 CBL .F                42:   CASING BOTTOM LOGGER
 BS  .IN            7.875:   BIT SIZE
 BSD .F               989:   BIT SIZE AT DEPTH
 DFT .            KCL MUD:   DRILLING FLUID TYPE
 DFD .                8.4:   DRILLING FLUID DENSITY
 DFV .                 30:   DRILLING FLUID VISCOSITY
 DFPH.                7.2:   DRILLING FLUID PH
 DFL .               14.4:   DRILLING FLUID LOSS
 MSS .            MUD PIT:   MUD SAMPLE SOURCE
 RMS .OHMM            .41:   RESISTIVITY MUD SAMPLE
 MST .F                48:   MUD SAMPLE TEMPERATURE
 RMF .OHMM            .39:   RESISTIVITY MUD FILTRATE SAMPLE
 MFST.F                48:   MUD FILTRATE SAMPLE TEMPERATURE
 RMC .OHMM            .55:   RESISTIVITY MUD CAKE
 MCST.F                48:   MUD CAKE SAMPLE TEMPERATURE
 MFSS.           FANN KIT:   MUD FILTRATE SAMPLE SOURCE
 MCSS.           FANN KIT:   MUD CAKE SAMPLE SOURCE
 RMB .OHMM            .34:   RESISTIVITY MUD AT BHT
 BHT .F                58:   BOTTOM HOLE TEMPERATURE
 TCS .HRS               2:   TIME CURCULATED STOPPED
 MRT .F                58:   MAXIMUM RECORDED TEMPERATURE
 LUN .               8611:   LOGGING UNIT NUMBER
 LUL .           GILLETTE:   LOGGING UNIT LOCATION
 ENGI.            C. DOAK:   RECORDING ENGINEER
 WITN.           S. BURKE:   WITNESSED BY
 CLNT.            A2DTECH:   CLIENT CODE
 ORIG.        2" 5" PRINT:   ORIGIN OF DATA
 UWI .       490251029800:   UNIQUE WELL ID
 DICO. A2D Technologies, Inc.:   DIGITIZING COMPANY
~OTHER INFORMATION
~A    DEPT     SPR       SGRD        ILD        ILM        GRD       CALD       RHOB       DPHI       CORR   
# ...
  146.0000   -31.6625     8.5277     5.8096     7.2236    97.1701     7.8064     2.4224     0.1295     0.0495
  146.5000   -31.5976     8.7553     5.8542     7.2480    98.2306     7.8095     2.4251     0.1286     0.0497
  147.0000   -31.5330     8.4893     5.8745     7.2724    99.8764     7.8127     2.4284     0.1273     0.0500
  147.5000   -31.4669     7.8797     5.8949     7.2970   101.5109     7.8158     2.4316     0.1259     0.0502
  148.0000   -31.4780     7.6962     5.9154     7.3216   102.8400     7.8189     2.4332     0.1283     0.0496
  148.5000   -31.5189     8.3279     5.9359     7.3463   102.1705     7.8220     2.4275     0.1307     0.0475
  149.0000   -31.5609     8.5171     5.9566     7.3712   101.5605     7.8252     2.4236     0.1331     0.0454
  149.5000   -31.6027     8.5161     5.9773     7.3962   102.3381     7.8283     2.4258     0.1328     0.0434
  150.0000   -31.6445     8.5143     5.9980     7.4186   103.0547     7.8314     2.4255     0.1329     0.0414
  150.5000   -31.6863     8.5142     6.0189     7.4032   102.5327     7.8345     2.4194     0.1363     0.0393
  151.0000   -31.7279     8.5142     6.0402     7.3895   102.2139     7.8376     2.4152     0.1391     0.0386
  151.5000   -31.7683     8.5144     6.0615     7.3756   102.6054     7.8408     2.4162     0.1371     0.0390
  152.0000   -31.8163     8.5142     5.9803     7.3619   101.7747     7.8445     2.4217     0.1346     0.0394
  152.5000   -31.9957     8.5142     5.8969     7.3307   103.3126     7.8492     2.4272     0.1320     0.0398
  153.0000   -32.0869     8.2783     5.8146     7.2294   105.2936     7.8538     2.4313     0.1294     0.0403
  153.5000   -32.1305     8.0578     5.7335     7.1294   107.2895     7.8585     2.4261     0.1332     0.0379
  154.0000   -32.1778     8.2828     5.6535     7.0309   108.8333     7.8618     2.4123     0.1380     0.0343
  154.5000   -32.2257     7.9782     5.5746     6.9336   110.0018     7.8547     2.4093     0.1431     0.0308
  155.0000   -32.2736     7.5422     5.4968     6.8378   111.1435     7.8476     2.4107     0.1422     0.0287
  155.5000   -32.3214     7.0209     5.4291     6.7432   111.9274     7.8405     2.4123     0.1411     0.0297
  156.0000   -32.3693     7.2860     5.4668     6.6445   111.1309     7.8334     2.4103     0.1415     0.0307
  156.5000   -32.4171     7.6680     5.5007     6.6851   110.5756     7.8264     2.4081     0.1421     0.0317
  157.0000   -32.4650     7.8537     5.5348     6.7284   110.0079     7.8236     2.4092     0.1426     0.0327
  157.5000   -32.5129     7.8801     5.5692     6.7720   108.8573     7.8256     2.4120     0.1409     0.0336
  158.0000   -32.5607     7.9066     5.6037     6.8159   107.6814     7.8275     2.4146     0.1390     0.0346
  158.5000   -32.6086     7.9329     5.6385     6.8601   108.5070     7.8294     2.4171     0.1370     0.0356
  159.0000   -32.6564     7.9591     5.6735     6.9045   108.9185     7.8314     2.4196     0.1351     0.0371
  159.5000   -32.7043     7.9847     5.7087     6.9493   108.7141     7.8333     2.4225     0.1331     0.0414
  160.0000   -32.7522     8.0652     5.7441     6.9943   108.4627     7.8352     2.4345     0.1261     0.0457
  160.5000   -32.8000     8.1411     5.7797     7.0396   109.4602     7.8372     2.4468     0.1192     0.0499
  161.0000   -32.8479     8.2071     5.8627     7.0852   111.6789     7.8391     2.4592     0.1122     0.0542
  161.5000   -32.8957     8.0627     5.9651     7.1311   114.0461     7.8410     2.4673     0.1066     0.0564
  162.0000   -32.9436     7.9841     6.0692     7.2469   111.5197     7.8421     2.4615     0.1102     0.0548
  162.5000   -32.9915     8.2449     6.1752     7.4186   108.0831     7.8385     2.4520     0.1163     0.0526
  163.0000   -33.0393     8.4416     6.2830     7.5944   106.8429     7.8350     2.4439     0.1223     0.0504
  163.5000   -33.0872     8.7418     6.3927     7.7743   106.3841     7.8314     2.4416     0.1227     0.0500
  164.0000   -33.1351     9.4288     6.5043     7.9585   107.8275     7.8279     2.4391     0.1231     0.0496
  164.5000   -33.1829     9.9555     6.6176     8.1470   110.3625     7.8244     2.4389     0.1235     0.0493
  165.0000   -33.2308     9.7357     6.7670     8.2828   112.3437     7.8233     2.4404     0.1229     0.0489
  165.5000   -33.2786     9.3388     6.7228     8.2828   114.2272     7.8244     2.4418     0.1217     0.0486
  166.0000   -33.3265     9.9527     6.6604     8.2828   115.1145     7.8255     2.4443     0.1193     0.0496
  166.5000   -33.3744     9.5301     6.5983     8.2828   116.5212     7.8266     2.4525     0.1157     0.0536
  167.0000   -33.4227     8.8059     6.5368     8.2828   118.6865     7.8278     2.4592     0.1138     0.0535
  167.5000   -33.4590     8.1309     6.4759     8.2727   120.0553     7.8289     2.4562     0.1143     0.0524
  168.0000   -33.4928     7.7695     6.4155     8.2191   117.2772     7.8300     2.4532     0.1151     0.0514
  168.5000   -33.5265     8.3832     6.3556     8.1662   113.3422     7.8311     2.4546     0.1143     0.0503
  169.0000   -33.5602     8.8524     6.2965     8.1135   109.8636     7.8322     2.4605     0.1135     0.0492
  169.5000   -33.5939     9.5060     6.2309     8.0609   110.4064     7.8333     2.4600     0.1135     0.0481
  170.0000   -33.6277     8.9927     6.2643     7.9842   111.1451     7.8344     2.4545     0.1165     0.0470
  170.5000   -33.6614     7.9882     6.3487     8.0536   110.9128     7.8355     2.4483     0.1195     0.0462
  171.0000   -33.6951     8.1881     6.4688     8.1942   110.4715     7.8366     2.4424     0.1219     0.0458
  171.5000   -33.7288     8.6071     6.5911     8.3364   111.6886     7.8378     2.4428     0.1219     0.0454
  172.0000   -33.7620     9.0416     6.7157     8.4810   114.3118     7.8389     2.4415     0.1219     0.0450
  172.5000   -33.7917     9.4973     6.8427     8.6282   114.5826     7.8400     2.4376     0.1243     0.0446
  173.0000   -33.8764     9.7931     6.9721     8.7779   114.4597     7.8411     2.4348     0.1260     0.0450
  173.5000   -34.0233     9.9788     7.1039     8.9303   113.9177     7.8422     2.4402     0.1226     0.0477
  174.0000   -34.0294    10.1670     7.2383     9.0852   112.4084     7.8407     2.4457     0.1192     0.0503
  174.5000   -34.0305    10.2302     7.3751     9.2429   109.5147     7.8376     2.4508     0.1177     0.0520
  175.0000   -34.0162    10.2699     7.5146     9.4033   106.8379     7.8345     2.4464     0.1208     0.0495
  175.5000   -34.2402    10.3057     7.6568     9.5424   105.8671     7.8314     2.4414     0.1239     0.0470
  176.0000   -34.2117    10.5620     7.8011     9.6809   105.9552     7.8283     2.4365     0.1270     0.0445
  176.5000   -34.4369    11.3130     7.9889     9.8214   107.4420     7.8252     2.4316     0.1301     0.0421
  177.0000   -34.4294    11.0435     7.9111     9.9639   108.8212     7.8227     2.4271     0.1319     0.0409
  177.5000   -34.6387    10.8131     7.9111    10.1364   108.6653     7.8243     2.4311     0.1285     0.0428
  178.0000   -34.6823    10.9489     7.9111    10.0148   108.4531     7.8260     2.4386     0.1248     0.0446
  178.5000   -34.8197    11.0105     7.9120     9.8660   109.0198     7.8276     2.4476     0.1210     0.0464
  179.0000   -34.9595    10.4706     7.7736     9.7183   109.6618     7.8292     2.4595     0.1150     0.0483
  179.5000   -35.0992    10.1093     7.6642     9.5730   110.3163     7.8309     2.4713     0.1074     0.0501
  180.0000   -35.2388     9.8617     7.5561     9.4299   110.7555     7.8325     2.4803     0.0998     0.0489
  180.5000   -35.3783    10.8677     7.4496     9.2891   111.1508     7.8341     2.4783     0.0988     0.0472
  181.0000   -35.5179    11.5278     7.3447     9.1503   111.6721     7.8357     2.4757     0.1013     0.0455
  181.5000   -35.6575     9.8839     7.2412     9.0136   112.7342     7.8374     2.4694     0.1037     0.0438
  182.0000   -35.7971     9.0794     7.2034     8.8789   113.5463     7.8390     2.4608     0.1081     0.0421
