~VERSION INFORMATION
 VERS.                2.0:   CWLS LOG ASCII STANDARD - VERSION 2.0
 WRAP.                 NO:   ONE LINE PER DEPTH STEP
~WELL INFORMATION
#MNEM.UNIT      DATA TYPE    INFORMATION
#----------   ------------   ------------------------------
 STRT.F           27.0000:   START DEPTH
 STOP.F          566.0000:   STOP DEPTH
 STEP.F            0.5000:   STEP LENGTH
 NULL.          -999.2500:   NO VALUE
 COMP.    FENIX & SCISSON:   COMPANY
 WELL. S-3 NPR #3 #86-S-3:   WELL
 FLD .             TEAPOT:   FIELD
 LOC .       S3 T38N R78W:   LOCATION
 CNTY.            NATRONA:   COUNTY
 STAT.            WYOMING:   STATE
 CTRY. UNITED STATES OF AMERICA:   COUNTRY
 SRVC.       Schlumberger:   SERVICE COMPANY
 DATE.        08-APR-1977:   LOGDATE
 API .       490251032900:   API NUMBER
~CURVE INFORMATION
#MNEM.UNIT       API CODE    CURVE DESCRIPTION
#----------   ------------   ------------------------------
 DEPT.F                  :   
 CALD.IN     45 280 60 00:   CALIPER FROM DENSITY LOG
 GRD .GAPI   45 310 01 00:   GAMMA RAY FROM DENSITY LOG
 CORR.G/C3   45 356 01 00:   DENSITY CORRECTION
 RHOB.G/C3   45 350 01 00:   BULK DENSITY
 DPHI.DEC    45 890 12 00:   DENSITY POROSITY SANDSTONE
 SPR .MV     07 010 01 00:   SPONTANEOUS POTENTIAL
 ILD .OHMM   07 120 46 00:   INDUCTION LOG DEEP
 ILM .OHMM   07 120 44 00:   INDUCTION LOG MEDIUM
 LL8 .OHMM   07 220 08 00:   LATEROLOG-8 RES.
~PARAMETER INFORMATION
#MNEM.UNIT          VALUE    DESCRIPTION
#----------   ------------   ------------------------------
 PD  .                 GL:   PERMANENT DATUM
 EPD .F              5147:   ELEVATION PERMANENT DATUM
 LMF .                 KB:   LOG MEASURED FROM
 DMF .                 KB:   DRILLING MEASURED FROM
 EGL .F              5147:   GROUND LEVEL
 DATE.        08-APR-1977:   RUN DATE
 RUN .                  1:   RUN NUMBER
 DD  .F               570:   DEPTH DRILLER
 DL  .F               567:   DEPTH LOGGER
 BLI .F               566:   BOTTOM LOG INTERVAL
 TLI .F                27:   TOP LOG INTERVAL
 CS  .IN            8.625:   CASING SIZE
 CBD .F                40:   CASING BOTTOM DRILLER
 CBL .F                33:   CASING BOTTOM LOGGER
 BS  .IN            7.875:   BIT SIZE
 BSD .F               570:   BIT SIZE AT DEPTH
 DFT .                KCL:   DRILLING FLUID TYPE
 DFD .                8.6:   DRILLING FLUID DENSITY
 DFV .                 31:   DRILLING FLUID VISCOSITY
 DFPH.                9.5:   DRILLING FLUID PH
 DFL .                8.6:   DRILLING FLUID LOSS
 MSS .           FLOWLINE:   MUD SAMPLE SOURCE
 RMS .OHMM          0.306:   RESISTIVITY MUD SAMPLE
 MST .F                78:   MUD SAMPLE TEMPERATURE
 RMF .OHMM          0.230:   RESISTIVITY MUD FILTRATE SAMPLE
 MFST.F                78:   MUD FILTRATE SAMPLE TEMPERATURE
 MFSS.               MEAS:   MUD FILTRATE SAMPLE SOURCE
 RMB .OHMM          0.341:   RESISTIVITY MUD AT BHT
 BHT .F                70:   BOTTOM HOLE TEMPERATURE
 TCS .HRS              20:   TIME CURCULATED STOPPED
 MRT .F                70:   MAXIMUM RECORDED TEMPERATURE
 LUN .               5642:   LOGGING UNIT NUMBER
 LUL .               CSPR:   LOGGING UNIT LOCATION
 ENGI.             MARTIN:   RECORDING ENGINEER
 WITN.               LYON:   WITNESSED BY
 CLNT.            A2DTECH:   CLIENT CODE
 ORIG.       2", 5" PRINT:   ORIGIN OF DATA
 UWI .       490251032900:   UNIQUE WELL ID
 DICO. A2D Technologies, Inc.:   DIGITIZING COMPANY
~OTHER INFORMATION
~A   DEPT     CALD         GRD      CORR       RHOB       DPHI        SPR        ILD        ILM        LL8   
# ...
  282.5000     8.1477   114.8893     0.0155     2.4371     0.1271   -75.2928     6.9115     6.9840     7.7633
  283.0000     8.1498   116.1051     0.0111     2.4327     0.1306   -75.7325     6.8652     6.9367     7.8733
  283.5000     8.1518   117.3210     0.0014     2.4253     0.1402   -76.0222     6.8193     6.8420     7.9299
  284.0000     8.1539   118.9839     0.0105     2.4314     0.1333   -76.4622     6.6757     6.5624     8.0987
  284.5000     8.1560   124.3726     0.0279     2.4442     0.1239   -76.7519     6.3615     6.2077     8.3287
  285.0000     8.1580   124.9925     0.0152     2.4210     0.1368   -77.0420     5.9294     5.7530     8.6227
  285.5000     8.1601   124.8669     0.0115     2.3753     0.1536   -77.6322     5.2957     4.9760     7.9727
  286.0000     8.1622   124.8905     0.0184     2.3506     0.1776   -78.2218     4.5266     4.4539     4.7943
  286.5000     8.1642   123.7745     0.0124     2.3484     0.1827   -78.6618     4.1748     4.1849     4.0536
  287.0000     8.1663   119.5785     0.0027     2.3523     0.1802   -78.9519     4.1783     4.3333     4.7094
  287.5000     8.1684   118.1117     0.0066     2.3749     0.1715   -79.3919     4.2989     4.4558     6.1793
  288.0000     8.1705   115.3037     0.0097     2.4005     0.1510   -79.5311     4.5131     4.5818     6.6807
  288.5000     8.1726   112.6388     0.0036     2.3946     0.1495   -79.5205     4.6779     4.7441     5.6935
  289.0000     8.1751   116.9902     0.0078     2.3932     0.1576   -79.5100     4.9398     4.9464     5.5429
  289.5000     8.1771   123.5712     0.0235     2.3988     0.1476   -79.3493     5.1859     5.3023     6.2060
  290.0000     8.1792   125.3832     0.0363     2.4287     0.1142   -78.8884     5.4117     5.6056     7.5957
  290.5000     8.1664   123.4694     0.0289     2.4671     0.1138   -78.7277     5.7578     5.8853     7.2461
  291.0000     8.1684   121.5555     0.0342     2.4439     0.1202   -78.1166     6.1714     6.1362     7.1195
  291.5000     8.1705   119.7908     0.0200     2.4290     0.1264   -77.5054     6.5263     6.4424     7.7741
  292.0000     8.1726   116.5298     0.0141     2.4531     0.1177   -76.8943     6.8987     6.8108     8.4420
  292.5000     8.1747   117.6025     0.0164     2.4584     0.1153   -76.2832     7.2898     7.2004     8.9891
  293.0000     8.1613   121.5009     0.0195     2.4473     0.1174   -75.6720     7.6503     7.6123     9.4017
  293.5000     8.1639   123.6109     0.0128     2.4466     0.1215   -75.6615     7.9259     7.8820     9.6683
  294.0000     8.1505   122.4422     0.0167     2.4550     0.1186   -75.6510     8.3135     8.2180     9.9422
  294.5000     8.1531   120.3794     0.0160     2.4565     0.1175   -75.6405     8.4918     8.3340    10.0830
  295.0000     8.1398   119.2107     0.0116     2.4506     0.1226   -75.6299     8.6097     8.5103     9.9458
  295.5000     8.1423   118.4889     0.0019     2.4327     0.1279   -75.6194     8.6713     8.5115     9.6095
  296.0000     8.1290   119.7050     0.0011     2.4260     0.1261   -75.6089     8.6133     8.4539     9.4133
  296.5000     7.9975   121.5305     0.0073     2.4411     0.1222   -75.4482     8.5557     8.2809     9.2220
  297.0000     7.8207   123.3513     0.0232     2.4510     0.1194   -75.1374     8.3805     8.1116     9.0969
  297.5000     7.8824   123.9667     0.0340     2.4811     0.1143   -75.2250     8.1536     8.0010     8.9731
  298.0000     8.1378   125.0641     0.0490     2.4896     0.1068   -75.5182     7.8231     7.6759     8.9130
  298.5000     8.1697   129.6649     0.0480     2.4513     0.1208   -75.8115     7.5078     7.4154     8.8533
  299.0000     8.1717   131.6259     0.0138     2.4266     0.1289   -76.1047     7.3040     7.2135     8.7332
  299.5000     8.1738   131.7926     0.0146     2.4304     0.1265   -76.3979     6.9603     6.9686     8.6152
  300.0000     8.1610   128.9485     0.0338     2.4673     0.1147   -76.6911     6.5870     6.5626     8.4173
  300.5000     8.1745   124.8922     0.0358     2.4614     0.1231   -76.6836     6.1331     6.1026     8.1520
  301.0000     8.1805   123.8149     0.0269     2.4171     0.1465   -76.6760     5.6937     5.5856     7.9842
  301.5000     8.1827   124.7317     0.0179     2.3819     0.1558   -77.1196     5.3860     5.1767     7.7660
  302.0000     8.1849   123.6751     0.0090     2.3646     0.1743   -77.2643     5.1302     5.0017     4.7151
  302.5000     8.1721   122.0716     0.0066     2.3662     0.1722   -77.1045     5.0938     5.0031     4.6990
  303.0000     8.1744   122.3189     0.0122     2.4144     0.1505   -76.7962     5.2356     5.1453     6.0933
  303.5000     8.1766   123.4843     0.0183     2.4525     0.1238   -76.3376     5.5325     5.3283     7.9291
  304.0000     8.1639   124.6987     0.0244     2.4663     0.1156   -75.7285     5.8462     5.7924     8.8589
  304.5000     8.1662   124.4228     0.0130     2.4461     0.1258   -75.4203     6.1777     6.3848     9.1713
  305.0000     8.1684   122.9492     0.0063     2.4281     0.1312   -75.1120     6.5280     6.8452     9.4946
  305.5000     8.1706   125.2124    -0.0010     2.4176     0.1396   -74.8037     7.0917     7.1878     9.6272
  306.0000     8.1579   124.7875    -0.0046     2.4162     0.1431   -74.4954     7.6510     7.6000     9.1713
  306.5000     8.1602   123.7664     0.0008     2.4283     0.1383   -74.3375     7.9737     7.8703     8.8589
  307.0000     8.1629   122.7454     0.0137     2.4576     0.1344   -74.3299     8.1393     8.0376     8.9205
  307.5000     8.1651   122.0224     0.0190     2.4667     0.1154   -74.1720     8.1941     8.0958     9.4291
  308.0000     8.1673   120.4053     0.0086     2.4450     0.1223   -74.0141     8.3066     8.1056     9.8978
  308.5000     8.1695   121.9178     0.0072     2.4330     0.1298   -74.0066     8.3048     8.2706     9.9666
  309.0000     8.1568   122.6851     0.0020     2.4338     0.1288   -73.9990     8.3031     8.2767    10.1057
  309.5000     8.1590   123.7505     0.0006     2.4377     0.1263   -74.1438     8.3014     8.2752    10.2467
  310.0000     8.1612   125.1140     0.0044     2.4490     0.1200   -74.1343     8.3574     8.2775    10.2467
  310.5000     8.1635   123.7949     0.0068     2.4664     0.1137   -74.2791     8.3555     8.2798    10.2467
  311.0000     8.1657   121.4326     0.0091     2.4625     0.1161   -74.2696     8.3538     8.2821    10.2467
  311.5000     8.1530   120.5550     0.0092     2.4537     0.1182   -74.4144     8.3520     8.2844    10.2467
  312.0000     8.1397   122.2221     0.0085     2.4447     0.1211   -74.5553     8.3503     8.1726    10.1760
  312.5000     8.1425   121.0521     0.0064     2.4320     0.1268   -74.5478     8.2910     8.1749    10.1760
  313.0000     8.1447   120.4726     0.0057     2.4456     0.1184   -74.6906     8.2893     8.1772     9.9666
  313.5000     8.1469   122.4377     0.0028     2.4644     0.1120   -74.6831     8.1736     8.2364     9.6941
  314.0000     8.1491   125.2915    -0.0144     2.5186     0.1018   -74.8278     8.1719     8.1812     9.4291
  314.5000     8.1514   125.7608    -0.0104     2.5465     0.0786   -74.9706     8.1702     8.1840     9.3639
  315.0000     8.1536   125.3359     0.0146     2.5472     0.0618   -75.1135     8.2824     8.1863     9.4291
  315.5000     8.1408   124.3148     0.0328     2.5128     0.0743   -75.2563     8.2807     8.1886     9.6272
  316.0000     8.1282   125.2312     0.0168     2.4257     0.1293   -75.2469     8.2789     8.1909     9.8978
  316.5000     8.0261   126.4457     0.0184     2.4173     0.1400   -74.6378     8.3351     8.1932     9.8978
  317.0000     7.9836   127.2161     0.0155     2.4303     0.1415   -73.5777     8.3330     8.1955     9.7615
  317.5000     7.9858   127.6900     0.0254     2.4484     0.1328   -72.6679     8.3312     8.1405     9.6941
  318.0000     7.9881   127.7049     0.0337     2.4629     0.1150   -72.0588     8.1584     8.1434     9.6941
  318.5000     8.0052   127.8763     0.0436     2.4673     0.1146   -71.9009     7.9340     7.9228     9.6941
