~VERSION INFORMATION
 VERS.                2.0:   CWLS LOG ASCII STANDARD - VERSION 2.0
 WRAP.                 NO:   ONE LINE PER DEPTH STEP
~WELL INFORMATION
#MNEM.UNIT      DATA TYPE    INFORMATION
#----------   ------------   ------------------------------
 STRT.F         1208.5000:   START DEPTH
 STOP.F         3816.0000:   STOP DEPTH
 STEP.F            0.5000:   STEP LENGTH
 NULL.          -999.2500:   NO VALUE
 COMP. BROWN JOHN E&C INC:   COMPANY
 WELL. NPR 3 STX-11 #13-11:   WELL
 FLD .             TEAPOT:   FIELD
 LOC .      S11 T38N R78W:   LOCATION
 CNTY.            NATRONA:   COUNTY
 STAT.            WYOMING:   STATE
 CTRY. UNITED STATES OF AMERICA:   COUNTRY
 SRVC.            Unknown:   SERVICE COMPANY
 DATE.        08-APR-1986:   LOGDATE
 API .       490251105000:   API NUMBER
~CURVE INFORMATION
#MNEM.UNIT       API CODE    CURVE DESCRIPTION
#----------   ------------   ------------------------------
 DEPT.F                  :   
 ROP .MIN/FT 91 810 01 00:   RATE OF DRILLING PENETRATION
 TGAS.UNITS  91 830 01 00:   TOTAL GAS FROM HOTWIRE
 GR  .GAPI   81 310 01 00:   GAMMA RAY
 TT  .US/F   81 520 00 00:   TRANSIT TIME
~PARAMETER INFORMATION
#MNEM.UNIT          VALUE    DESCRIPTION
#----------   ------------   ------------------------------
 PD  .                 GL:   PERMANENT DATUM
 EPD .F              5176:   ELEVATION PERMANENT DATUM
 LMF .                 KB:   LOG MEASURED FROM
 DAPD.F              11.8:   FEET ABOVE PERMANENT DATUM
 DMF .                 KB:   DRILLING MEASURED FROM
 EKB .F            5187.8:   KELLING BUSHING
 EGL .F              5176:   GROUND LEVEL
 DATE.             4-8-86:   RUN DATE
 RUN .                  1:   RUN NUMBER
 DD  .F              4051:   DEPTH DRILLER
 DL  .F              3815:   DEPTH LOGGER
 BLI .F              3815:   BOTTOM LOG INTERVAL
 TLI .F              2200:   TOP LOG INTERVAL
 CS  .IN              5.5:   CASING SIZE
 CBD .F              3861:   CASING BOTTOM DRILLER
 DFT .              WATER:   DRILLING FLUID TYPE
 BHT .F               167:   BOTTOM HOLE TEMPERATURE
 MRT .F               167:   MAXIMUM RECORDED TEMPERATURE
 LUN .            558/374:   LOGGING UNIT NUMBER
 LUL .             CASPER:   LOGGING UNIT LOCATION
 ENGI.             BAILEY:   RECORDING ENGINEER
 WITN.             BARRON:   WITNESSED BY
 CLNT.            A2DTECH:   CLIENT CODE
 ORIG.     2.5", 5" PRINT:   ORIGIN OF DATA
 UWI .       490251105000:   UNIQUE WELL ID
 DICO. A2D Technologies, Inc.:   DIGITIZING COMPANY
~OTHER INFORMATION
~A  DEPT         ROP     TGAS         GR         TT   
# ...
 1646.5000     0.9829     8.3292  -999.2500  -999.2500
 1647.0000     1.0090     8.1233  -999.2500  -999.2500
 1647.5000     1.0091     8.1272  -999.2500  -999.2500
 1648.0000     0.9708     8.1310  -999.2500  -999.2500
 1648.5000     0.8363     8.1356  -999.2500  -999.2500
 1649.0000     0.7594     7.7512  -999.2500  -999.2500
 1649.5000     0.7196     7.3668  -999.2500  -999.2500
 1650.0000     0.7019     7.3384  -999.2500  -999.2500
 1650.5000     0.7650     6.9197  -999.2500  -999.2500
 1651.0000     0.8632     6.6026  -999.2500  -999.2500
 1651.5000     0.9137     6.6065  -999.2500  -999.2500
 1652.0000     0.9138     6.6103  -999.2500  -999.2500
 1652.5000     0.8671     6.6142  -999.2500  -999.2500
 1653.0000     0.8103     6.6181  -999.2500  -999.2500
 1653.5000     0.7603     6.3475  -999.2500  -999.2500
 1654.0000     0.7412     6.2379  -999.2500  -999.2500
 1654.5000     0.7028     5.8543  -999.2500  -999.2500
 1655.0000     0.6817     5.8578  -999.2500  -999.2500
 1655.5000     0.6426     5.8368  -999.2500  -999.2500
 1656.0000     0.6218     5.4770  -999.2500  -999.2500
 1656.5000     0.5949     5.3874  -999.2500  -999.2500
 1657.0000     0.5842     5.0974  -999.2500  -999.2500
 1657.5000     0.6545     5.1013  -999.2500  -999.2500
 1658.0000     0.6923     5.1052  -999.2500  -999.2500
 1658.5000     0.6329     5.1091  -999.2500  -999.2500
 1659.0000     0.5493     5.1129  -999.2500  -999.2500
 1659.5000     0.4922     5.1168  -999.2500  -999.2500
 1660.0000     0.4539     4.7332  -999.2500  -999.2500
 1660.5000     0.4347     4.7368  -999.2500  -999.2500
 1661.0000     0.4540     4.7405  -999.2500  -999.2500
 1661.5000     0.4618     4.6923  -999.2500  -999.2500
 1662.0000     0.5037     4.3603  -999.2500  -999.2500
 1662.5000     0.5457     4.3642  -999.2500  -999.2500
 1663.0000     0.5876     4.3681  -999.2500  -999.2500
 1663.5000     0.6190     4.3720  -999.2500  -999.2500
 1664.0000     0.6400     4.3759  -999.2500  -999.2500
 1664.5000     0.6750     4.3797  -999.2500  -999.2500
 1665.0000     0.6856     4.3836  -999.2500  -999.2500
 1665.5000     0.6857     4.3880  -999.2500  -999.2500
 1666.0000     0.6858     4.3916  -999.2500  -999.2500
 1666.5000     0.6058     4.3953  -999.2500  -999.2500
 1667.0000     0.5640     4.3991  -999.2500  -999.2500
 1667.5000     0.5322     4.4030  -999.2500  -999.2500
 1668.0000     0.5256     4.4069  -999.2500  -999.2500
 1668.5000     0.5048     4.4108  -999.2500  -999.2500
 1669.0000     0.4940     4.4147  -999.2500  -999.2500
 1669.5000     0.4941     4.4185  -999.2500  -999.2500
 1670.0000     0.4942     4.4224  -999.2500  -999.2500
 1670.5000     0.4943     4.7131  -999.2500  -999.2500
 1671.0000     0.5137     4.8187  -999.2500  -999.2500
 1671.5000     0.5330     4.8223  -999.2500  -999.2500
 1672.0000     0.5331     4.8259  -999.2500  -999.2500
 1672.5000     0.5332     4.8670  -999.2500  -999.2500
 1673.0000     0.5377     5.2209  -999.2500  -999.2500
 1673.5000     0.5771     4.8375  -999.2500  -999.2500
 1674.0000     0.6687     4.8414  -999.2500  -999.2500
 1674.5000     0.7544     4.8453  -999.2500  -999.2500
 1675.0000     0.8173     4.8491  -999.2500  -999.2500
 1675.5000     0.8931     4.8530  -999.2500  -999.2500
 1676.0000     0.9477     4.8569  -999.2500  -999.2500
 1676.5000     0.9955     4.8615  -999.2500  -999.2500
 1677.0000     0.9956     4.8650  -999.2500  -999.2500
 1677.5000     0.8587     4.8686  -999.2500  -999.2500
 1678.0000     0.7606     4.8724  -999.2500  -999.2500
 1678.5000     0.7189     4.8763  -999.2500  -999.2500
 1679.0000     0.6827     4.8802  -999.2500  -999.2500
 1679.5000     0.6619     4.8841  -999.2500  -999.2500
 1680.0000     0.6500     4.8879  -999.2500  -999.2500
 1680.5000     0.6501     4.8918  -999.2500  -999.2500
 1681.0000     0.6502     4.8957  -999.2500  -999.2500
 1681.5000     0.6644     4.8996  -999.2500  -999.2500
 1682.0000     0.6696     4.9042  -999.2500  -999.2500
 1682.5000     0.6890     5.2957  -999.2500  -999.2500
 1683.0000     0.7275     5.2993  -999.2500  -999.2500
 1683.5000     0.7677     5.3030  -999.2500  -999.2500
 1684.0000     0.7887     5.3069  -999.2500  -999.2500
 1684.5000     0.8047     5.3108  -999.2500  -999.2500
 1685.0000     0.8048     5.3147  -999.2500  -999.2500
 1685.5000     0.8049     5.3185  -999.2500  -999.2500
 1686.0000     0.8050     5.3224  -999.2500  -999.2500
 1686.5000     0.8051     5.3263  -999.2500  -999.2500
 1687.0000     0.8187     5.3302  -999.2500  -999.2500
 1687.5000     0.8245     5.3341  -999.2500  -999.2500
 1688.0000     0.8054     5.3384  -999.2500  -999.2500
 1688.5000     0.7286     5.3420  -999.2500  -999.2500
 1689.0000     0.6496     5.3457  -999.2500  -999.2500
 1689.5000     0.6050     5.3496  -999.2500  -999.2500
 1690.0000     0.5468     5.3534  -999.2500  -999.2500
 1690.5000     0.5112     5.3573  -999.2500  -999.2500
 1691.0000     0.4904     5.3612  -999.2500  -999.2500
 1691.5000     0.4696     5.3651  -999.2500  -999.2500
 1692.0000     0.4600     5.3690  -999.2500  -999.2500
 1692.5000     0.4341     5.3728  -999.2500  -999.2500
 1693.0000     0.4070     5.3767  -999.2500  -999.2500
 1693.5000     0.3834     5.3812  -999.2500  -999.2500
 1694.0000     0.3835     5.3847  -999.2500  -999.2500
 1694.5000     0.3841     5.3884  -999.2500  -999.2500
 1695.0000     0.4051     5.3922  -999.2500  -999.2500
 1695.5000     0.4222     5.3961  -999.2500  -999.2500
 1696.0000     0.4223     5.4000  -999.2500  -999.2500
 1696.5000     0.4224     5.4039  -999.2500  -999.2500
 1697.0000     0.4225     5.4078  -999.2500  -999.2500
 1697.5000     0.4333     5.4116  -999.2500  -999.2500
 1698.0000     0.4419     5.4155  -999.2500  -999.2500
 1698.5000     0.4420     5.4194  -999.2500  -999.2500
 1699.0000     0.4614     5.4239  -999.2500  -999.2500
 1699.5000     0.4615     5.4275  -999.2500  -999.2500
 1700.0000     0.4615     5.4310  -999.2500  -999.2500
 1700.5000     0.4826     5.4349  -999.2500  -999.2500
 1701.0000     0.5070     5.4388  -999.2500  -999.2500
 1701.5000     0.5388     5.4427  -999.2500  -999.2500
 1702.0000     0.5456     5.4466  -999.2500  -999.2500
 1702.5000     0.5837     5.4504  -999.2500  -999.2500
 1703.0000     0.6363     5.4543  -999.2500  -999.2500
 1703.5000     0.6783     5.4582  -999.2500  -999.2500
 1704.0000     0.7338     5.4621  -999.2500  -999.2500
 1704.5000     0.7124     5.4667  -999.2500  -999.2500
 1705.0000     0.6548     5.8581  -999.2500  -999.2500
 1705.5000     0.6426     5.8617  -999.2500  -999.2500
 1706.0000     0.6096     5.8655  -999.2500  -999.2500
 1706.5000     0.6091     5.8694  -999.2500  -999.2500
 1707.0000     0.6177     5.8733  -999.2500  -999.2500
 1707.5000     0.6827     5.8772  -999.2500  -999.2500
 1708.0000     0.7492     5.8810  -999.2500  -999.2500
 1708.5000     0.7802     6.0850  -999.2500  -999.2500
 1709.0000     0.7798     6.2767  -999.2500  -999.2500
 1709.5000     0.7793     6.2806  -999.2500  -999.2500
 1710.0000     0.7577     6.2069  -999.2500  -999.2500
 1710.5000     0.7320     6.2069  -999.2500  -999.2500
 1711.0000     0.6831     6.2069  -999.2500  -999.2500
 1711.5000     0.6428     6.2069  -999.2500  -999.2500
 1712.0000     0.6423     6.2069  -999.2500  -999.2500
 1712.5000     0.6418     6.2069  -999.2500  -999.2500
 1713.0000     0.6413     6.2069  -999.2500  -999.2500
 1713.5000     0.6408     6.2069  -999.2500  -999.2500
 1714.0000     0.6404     6.2069  -999.2500  -999.2500
 1714.5000     0.6399     6.2069  -999.2500  -999.2500
 1715.0000     0.6615     6.2069  -999.2500  -999.2500
 1715.5000     0.6774     6.2069  -999.2500  -999.2500
 1716.0000     0.6838     6.2069  -999.2500  -999.2500
 1716.5000     0.6957     6.2069  -999.2500  -999.2500
 1717.0000     0.7062     6.2069  -999.2500  -999.2500
 1717.5000     0.7139     6.2069  -999.2500  -999.2500
 1718.0000     0.7134     6.2069  -999.2500  -999.2500
 1718.5000     0.7129     6.2069  -999.2500  -999.2500
 1719.0000     0.7125     6.2069  -999.2500  -999.2500
