~VERSION INFORMATION
 VERS.                2.0:   CWLS LOG ASCII STANDARD - VERSION 2.0
 WRAP.                 NO:   ONE LINE PER DEPTH STEP
~WELL INFORMATION
#MNEM.UNIT      DATA TYPE    INFORMATION
#----------   ------------   ------------------------------
 STRT.F           90.0000:   START DEPTH
 STOP.F         1312.0000:   STOP DEPTH
 STEP.F            0.5000:   STEP LENGTH
 NULL.          -999.2500:   NO VALUE
 COMP. US NAVY/ INTEX OIL CO:   COMPANY
 WELL. RES 3 TEAPOT DOME NPR "S' #42-2:   WELL
 FLD .             TEAPOT:   FIELD
 LOC .       S2 T38N R78W:   LOCATION
 CNTY.            NATRONA:   COUNTY
 STAT.            WYOMING:   STATE
 CTRY. UNITED STATES OF AMERICA:   COUNTRY
 SRVC. Schlumberger Well Surveying Corp:   SERVICE COMPANY
 DATE.        17-JUL-1964:   LOGDATE
 API .       490250646400:   API NUMBER
~CURVE INFORMATION
#MNEM.UNIT       API CODE    CURVE DESCRIPTION
#----------   ------------   ------------------------------
 DEPT.F                  :   
 GR  .GAPI   30 310 01 00:   GAMMA RAY
 CALS.IN     60 280 50 00:   CALIPER FROM SONIC LOG
 DT  .US/F   60 520 32 00:   INTERVAL TRANSIT TIME
 SPR .MV     05 010 01 00:   SPONTANEOUS POTENTIAL FROM RES.
 CILD.MMHO   05 110 46 00:   CONDUCTIVITY INDUCTION LOG DEEP
 ILD .OHMM   05 120 46 00:   INDUCTION LOG DEEP
 ASN .OHMM   05 040 16 00:   AMPLIFIED SHORT NORMAL 16"
~PARAMETER INFORMATION
#MNEM.UNIT          VALUE    DESCRIPTION
#----------   ------------   ------------------------------
 PD  .                 GL:   PERMANENT DATUM
 EPD .F              5142:   ELEVATION PERMANENT DATUM
 LMF .                 KB:   LOG MEASURED FROM
 DAPD.F                 8:   FEET ABOVE PERMANENT DATUM
 DMF .                 KB:   DRILLING MEASURED FROM
 EKB .F              5150:   KELLING BUSHING
 EGL .F              5142:   GROUND LEVEL
 DATE.          7-17-1964:   RUN DATE
 RUN .                  1:   RUN NUMBER
 DD  .F              1300:   DEPTH DRILLER
 DL  .F              1310:   DEPTH LOGGER
 BLI .F              1309:   BOTTOM LOG INTERVAL
 TLI .F               107:   TOP LOG INTERVAL
 CS  .IN            12.25:   CASING SIZE
 CBD .F                10:   CASING BOTTOM DRILLER
 BS  .IN               11:   BIT SIZE
 BSD .F              1300:   BIT SIZE AT DEPTH
 DFT .            GEL-OIL:   DRILLING FLUID TYPE
 DFD .                9.6:   DRILLING FLUID DENSITY
 DFV .                 63:   DRILLING FLUID VISCOSITY
 DFPH.                  8:   DRILLING FLUID PH
 DFL .                9.6:   DRILLING FLUID LOSS
 MSS .           FLOWLINE:   MUD SAMPLE SOURCE
 RMS .OHMM           2.07:   RESISTIVITY MUD SAMPLE
 MST .F                92:   MUD SAMPLE TEMPERATURE
 RMF .OHMM           1.42:   RESISTIVITY MUD FILTRATE SAMPLE
 MFST.F                92:   MUD FILTRATE SAMPLE TEMPERATURE
 RMC .OHMM           2.33:   RESISTIVITY MUD CAKE
 MCST.F                92:   MUD CAKE SAMPLE TEMPERATURE
 MFSS.                 FP:   MUD FILTRATE SAMPLE SOURCE
 MCSS.                 FP:   MUD CAKE SAMPLE SOURCE
 TCS .HRS               1:   TIME CURCULATED STOPPED
 LUN .               4507:   LOGGING UNIT NUMBER
 LUL .              CSPR.:   LOGGING UNIT LOCATION
 ENGI.             DANNER:   RECORDING ENGINEER
 WITN.          JORGENSEN:   WITNESSED BY
 CLNT.            A2DTECH:   CLIENT CODE
 ORIG.        2" 5" PRINT:   ORIGIN OF DATA
 UWI .       490250646400:   UNIQUE WELL ID
 DICO. A2D Technologies, Inc.:   DIGITIZING COMPANY
~OTHER INFORMATION
~A   DEPT       GR       CALS         DT        SPR        CILD         ILD        ASN 
# ...
 1045.5000  -999.2500  -999.2500  -999.2500   -32.4350   119.1529     8.8364    10.0362
 1046.0000  -999.2500  -999.2500  -999.2500   -32.4640   118.6487     8.8765    10.0554
 1046.5000  -999.2500  -999.2500  -999.2500   -32.4925   118.1444     8.9173    10.0738
 1047.0000  -999.2500  -999.2500  -999.2500   -32.5218   117.6401     8.9552    10.0936
 1047.5000  -999.2500  -999.2500  -999.2500   -32.5505   117.1359     8.9596    10.1110
 1048.0000  -999.2500  -999.2500  -999.2500   -32.5795   116.6316     8.9583    10.1327
 1048.5000  -999.2500  -999.2500  -999.2500   -32.6084   116.1274     8.9592    10.1460
 1049.0000  -999.2500  -999.2500  -999.2500   -32.6375   115.6156     8.9574    10.2100
 1049.5000  -999.2500  -999.2500  -999.2500   -32.6662   114.8931     8.9659    10.3277
 1050.0000  -999.2500  -999.2500  -999.2500   -32.6955   114.1596     9.0515    10.4368
 1050.5000  -999.2500  -999.2500  -999.2500   -32.7237   113.4261     9.1482    10.5513
 1051.0000  -999.2500  -999.2500  -999.2500   -32.7539   112.6996     9.2425    10.6575
 1051.5000  -999.2500  -999.2500  -999.2500   -32.7803   111.9686     9.3382    10.7296
 1052.0000  -999.2500  -999.2500  -999.2500   -32.8151   111.0918     9.4324    10.7960
 1052.5000  -999.2500  -999.2500  -999.2500   -32.8207   110.0830     9.5288    10.8637
 1053.0000  -999.2500  -999.2500  -999.2500   -32.7736   109.0720     9.6217    10.9308
 1053.5000  -999.2500  -999.2500  -999.2500   -32.7301   108.0601     9.7206    10.9980
 1054.0000  -999.2500  -999.2500  -999.2500   -32.6844   107.1594     9.7692    11.0656
 1054.5000  -999.2500  -999.2500  -999.2500   -32.6394   106.3471     9.7744    11.1322
 1055.0000  -999.2500  -999.2500  -999.2500   -32.5952   105.5455     9.7868    11.2007
 1055.5000  -999.2500  -999.2500  -999.2500   -32.5483   104.7387     9.7954    11.2659
 1056.0000  -999.2500  -999.2500  -999.2500   -32.5070   103.9319     9.8062    11.3366
 1056.5000  -999.2500  -999.2500  -999.2500   -32.4534   103.9026     9.8156    11.3562
 1057.0000  -999.2500  -999.2500  -999.2500   -32.4479   104.4069     9.8261    11.3350
 1057.5000  -999.2500  -999.2500  -999.2500   -32.5195   104.9112     9.8354    11.3223
 1058.0000  -999.2500  -999.2500  -999.2500   -32.5843   105.4154     9.8466    11.3044
 1058.5000  -999.2500  -999.2500  -999.2500   -32.6531   105.9178     9.8540    11.2910
 1059.0000  -999.2500  -999.2500  -999.2500   -32.7201   106.4198     9.8799    11.2715
 1059.5000  -999.2500  -999.2500  -999.2500   -32.7870   106.5988     9.9204    11.2730
 1060.0000  -999.2500  -999.2500  -999.2500   -32.8559   106.5972     9.9549    11.3755
 1060.5000  -999.2500  -999.2500  -999.2500   -32.9204   105.3693     9.9939    11.4767
 1061.0000  -999.2500  -999.2500  -999.2500   -32.9950   104.3038    10.0270    11.5777
 1061.5000  -999.2500  -999.2500  -999.2500   -33.0362   103.2398    10.0758    11.6785
 1062.0000  -999.2500  -999.2500  -999.2500   -33.0308   102.1748    10.2295    11.7797
 1062.5000  -999.2500  -999.2500  -999.2500   -33.0334   101.1085    10.3719    11.8803
 1063.0000  -999.2500  -999.2500  -999.2500   -33.0319   100.0406    10.5170    11.9822
 1063.5000  -999.2500  -999.2500  -999.2500   -33.0326    98.9728    10.5657    12.0700
 1064.0000  -999.2500  -999.2500  -999.2500   -33.0323    97.9050    10.5597    12.1556
 1064.5000  -999.2500  -999.2500  -999.2500   -33.0323    97.5976    10.5620    12.2354
 1065.0000  -999.2500  -999.2500  -999.2500   -33.0328    97.5976    10.5622    12.3093
 1065.5000  -999.2500  -999.2500  -999.2500   -33.0318    97.5976    10.5600    12.3943
 1066.0000  -999.2500  -999.2500  -999.2500   -33.0336    97.5976    10.5661    12.4593
 1066.5000  -999.2500  -999.2500  -999.2500   -33.0303    97.5920    10.5164    12.5241
 1067.0000  -999.2500  -999.2500  -999.2500   -33.0371    97.5948    10.4112    12.3885
 1067.5000  -999.2500  -999.2500  -999.2500   -32.9861    98.1075    10.2613    12.0674
 1068.0000  -999.2500  -999.2500  -999.2500   -32.8665    99.1430    10.0961    11.8063
 1068.5000  -999.2500  -999.2500  -999.2500   -32.7515   101.1638     9.9362    11.5190
 1069.0000  -999.2500  -999.2500  -999.2500   -32.6414   103.1878     9.7739    11.2468
 1069.5000  -999.2500  -999.2500  -999.2500   -32.6257   105.2158     9.6124    10.9651
 1070.0000  -999.2500  -999.2500  -999.2500   -32.6348   107.2452     9.4510    10.6898
 1070.5000  -999.2500  -999.2500  -999.2500   -32.6198   109.2242     9.2791    10.4201
 1071.0000  -999.2500  -999.2500  -999.2500   -32.7180   110.7683     9.2549    10.5371
 1071.5000  -999.2500  -999.2500  -999.2500   -32.9244   111.2725     9.2606    10.7907
 1072.0000  -999.2500  -999.2500  -999.2500   -33.1347   111.7768     9.2552    11.0294
 1072.5000  -999.2500  -999.2500  -999.2500   -33.2464   112.2810     9.1954    11.0688
 1073.0000  -999.2500  -999.2500  -999.2500   -33.2261   112.7853     9.1127    11.0590
 1073.5000  -999.2500  -999.2500  -999.2500   -33.2444   113.2895     9.0349    11.0017
 1074.0000  -999.2500  -999.2500  -999.2500   -33.1590   114.1116     8.9547    10.8552
 1074.5000  -999.2500  -999.2500  -999.2500   -32.9844   115.5076     8.8757    10.7447
 1075.0000  -999.2500  -999.2500  -999.2500   -32.8220   116.9027     8.7960    10.6234
 1075.5000  -999.2500  -999.2500  -999.2500   -32.6527   118.2955     8.7165    10.4441
 1076.0000  -999.2500  -999.2500  -999.2500   -32.4878   119.6872     8.6370    10.2634
 1076.5000  -999.2500  -999.2500  -999.2500   -32.3199   121.0799     8.5576     9.9881
 1077.0000  -999.2500  -999.2500  -999.2500   -32.1551   122.6077     8.4778     9.8756
 1077.5000  -999.2500  -999.2500  -999.2500   -31.9853   123.3619     8.3986     9.7948
 1078.0000  -999.2500  -999.2500  -999.2500   -31.8383   124.2054     8.3182     9.7022
 1078.5000  -999.2500  -999.2500  -999.2500   -31.8247   125.0359     8.2401     9.6185
 1079.0000  -999.2500  -999.2500  -999.2500   -31.8271   125.8664     8.1577     9.5228
 1079.5000  -999.2500  -999.2500  -999.2500   -31.8263   126.6970     8.0832     9.4764
 1080.0000  -999.2500  -999.2500  -999.2500   -31.8269   127.5275     7.9925     9.4991
 1080.5000  -999.2500  -999.2500  -999.2500   -31.8269   128.3581     7.9865     9.4596
 1081.0000  -999.2500  -999.2500  -999.2500   -31.8271   129.1886     8.0778     9.3637
 1081.5000  -999.2500  -999.2500  -999.2500   -31.8274   128.9202     8.1519     9.2925
 1082.0000  -999.2500  -999.2500  -999.2500   -31.8272   127.4320     8.2386     9.3015
 1082.5000  -999.2500  -999.2500  -999.2500   -31.8280   125.9863     8.3116     9.3808
 1083.0000  -999.2500  -999.2500  -999.2500   -31.8267   124.6248     8.4433     9.6636
 1083.5000  -999.2500  -999.2500  -999.2500   -31.8296   122.2117     8.6300     9.9757
 1084.0000  -999.2500  -999.2500  -999.2500   -31.8070   119.7926     8.8108    10.2241
 1084.5000  -999.2500  -999.2500  -999.2500   -31.7621   117.3763     8.9913    10.4533
 1085.0000  -999.2500  -999.2500  -999.2500   -31.7248   114.9577     9.1779    10.5912
 1085.5000  -999.2500  -999.2500  -999.2500   -31.6809   112.6136     9.3033    10.7147
 1086.0000  -999.2500  -999.2500  -999.2500   -31.6471   111.7203     9.3757    10.8449
 1086.5000  -999.2500  -999.2500  -999.2500   -31.5741   110.8559     9.4498    10.9508
 1087.0000  -999.2500  -999.2500  -999.2500   -31.4717   109.9914     9.5329    10.9285
 1087.5000  -999.2500  -999.2500  -999.2500   -31.3796   109.7222     9.5263    10.8932
 1088.0000  -999.2500  -999.2500  -999.2500   -31.2828   109.9239     9.4394    10.8581
 1088.5000  -999.2500  -999.2500  -999.2500   -31.1889   110.1256     9.3682    10.7952
 1089.0000  -999.2500  -999.2500  -999.2500   -31.0927   110.3273     9.2912    10.7329
 1089.5000  -999.2500  -999.2500  -999.2500   -30.9991   110.5290     9.2254    10.6708
 1090.0000  -999.2500  -999.2500  -999.2500   -30.9012   111.2112     9.1629    10.6082
 1090.5000  -999.2500  -999.2500  -999.2500   -30.8255   112.2197     9.1024    10.5466
