~VERSION INFORMATION
 VERS.                2.0:   CWLS LOG ASCII STANDARD - VERSION 2.0
 WRAP.                 NO:   ONE LINE PER DEPTH STEP
~WELL INFORMATION
#MNEM.UNIT      DATA TYPE    INFORMATION
#----------   ------------   ------------------------------
 STRT.F           16.0000:   START DEPTH
 STOP.F          661.0000:   STOP DEPTH
 STEP.F            0.5000:   STEP LENGTH
 NULL.          -999.2500:   NO VALUE
 COMP. FENIX & SCISSON INC:   COMPANY
 WELL.  26-66 SX 11 #I-11:   WELL
 FLD .             TEAPOT:   FIELD
 LOC .      S11 T38N R78W:   LOCATION
 CNTY.            NATRONA:   COUNTY
 STAT.            WYOMING:   STATE
 CTRY. UNITED STATES OF AMERICA:   COUNTRY
 SRVC.      Dresser Atlas:   SERVICE COMPANY
 DATE.        22-JUL-1980:   LOGDATE
 API .       490251083200:   API NUMBER
~CURVE INFORMATION
#MNEM.UNIT       API CODE    CURVE DESCRIPTION
#----------   ------------   ------------------------------
 DEPT.F                  :   
 SFL .OHMM   07 220 01 00:   SHALLOW FOCUSED LOG RESISTIVITY
 ILD .OHMM   07 120 46 00:   INDUCTION LOG DEEP
 ILM .OHMM   07 120 44 00:   INDUCTION LOG MEDIUM
 SPR .MV     07 010 01 00:   SPONTANEOUS POTENTIAL
 CALD.IN     45 280 60 00:   CALIPER
 GRD .GAPI   45 310 01 00:   GAMMA RAY FROM DENSITY LOG
 RHOB.G/C3   45 350 01 00:   BULK DENSITY
 CORR.G/C3   45 356 01 00:   DENSITY CORRECTION
 DPHI.DEC    45 890 12 00:   DENSITY POROSITY SANDSTONE
 NPHI.DEC    42 890 03 00:   NEUTRON POROSITY SANDSTONE
~PARAMETER INFORMATION
#MNEM.UNIT          VALUE    DESCRIPTION
#----------   ------------   ------------------------------
 PD  .                 GL:   PERMANENT DATUM
 EPD .F              5193:   ELEVATION PERMANENT DATUM
 LMF .                 KB:   LOG MEASURED FROM
 DAPD.F                 5:   FEET ABOVE PERMANENT DATUM
 DMF .                 KB:   DRILLING MEASURED FROM
 EKB .F              5198:   KELLING BUSHING
 EDF .F              5196:   DRILLING FLOOR
 EGL .F              5193:   GROUND LEVEL
 DATE.            7-22-80:   RUN DATE
 RUN .                  1:   RUN NUMBER
 DD  .F               655:   DEPTH DRILLER
 DL  .F               655:   DEPTH LOGGER
 BLI .F               653:   BOTTOM LOG INTERVAL
 TLI .F                20:   TOP LOG INTERVAL
 BS  .IN            7.875:   BIT SIZE
 BSD .F               655:   BIT SIZE AT DEPTH
 DFT .                KCL:   DRILLING FLUID TYPE
 DFD .                9.1:   DRILLING FLUID DENSITY
 DFV .                 46:   DRILLING FLUID VISCOSITY
 DFPH.                 11:   DRILLING FLUID PH
 DFL .                  6:   DRILLING FLUID LOSS
 MSS .           FLOWLINE:   MUD SAMPLE SOURCE
 RMS .OHMM            .17:   RESISTIVITY MUD SAMPLE
 MST .F                75:   MUD SAMPLE TEMPERATURE
 RMF .OHMM            .13:   RESISTIVITY MUD FILTRATE SAMPLE
 MFST.F                75:   MUD FILTRATE SAMPLE TEMPERATURE
 RMC .OHMM            .26:   RESISTIVITY MUD CAKE
 MCST.F                75:   MUD CAKE SAMPLE TEMPERATURE
 MFSS.                  C:   MUD FILTRATE SAMPLE SOURCE
 MCSS.                  C:   MUD CAKE SAMPLE SOURCE
 TCS .HRS               1:   TIME CURCULATED STOPPED
 LUN .               6240:   LOGGING UNIT NUMBER
 LUL .               RVTN:   LOGGING UNIT LOCATION
 ENGI.   K. RALL/J. GETTY:   RECORDING ENGINEER
 WITN.            RHOADES:   WITNESSED BY
 CLNT.            A2DTECH:   CLIENT CODE
 ORIG.        2" 5" PRINT:   ORIGIN OF DATA
 UWI .       490251083200:   UNIQUE WELL ID
 DICO. A2D Technologies, Inc.:   DIGITIZING COMPANY
~OTHER INFORMATION
~A   DEPT      SFL        ILD        ILM        SPR       CALD        GRD       RHOB       CORR         DPHI     NPHI   
# ...
  351.0000     7.8345     7.6225     7.1280   -58.4958     8.0100   102.5428     2.5036     0.0711     0.1044     0.3090
  351.5000     7.8837     7.6818     7.0762   -58.6727     8.0133   103.5957     2.4911     0.0629     0.1116     0.3135
  352.0000     7.9268     7.7096     6.9695   -58.8507     8.0165   101.8791     2.4849     0.0561     0.1144     0.3101
  352.5000     7.7535     7.4183     6.5292   -58.9861     8.0197    96.8525     2.4663     0.0424     0.1258     0.3050
  353.0000     7.4472     7.1619     6.1172   -59.0764     8.0229    94.9887     2.4500     0.0302     0.1382     0.3106
  353.5000     7.1529     6.7333     5.7315   -59.1695     8.0261    96.5992     2.4442     0.0347     0.1414     0.3243
  354.0000     6.6300     6.1352     5.4329   -59.2626     8.0294   101.1251     2.4452     0.0402     0.1387     0.3303
  354.5000     5.9851     5.5851     5.6716   -59.3632     8.0326   106.1502     2.4465     0.0418     0.1387     0.3170
  355.0000     5.7416     5.5851     5.9154   -59.1037     8.0358   111.0624     2.4492     0.0403     0.1371     0.3112
  355.5000     6.2720     5.8510     6.1696   -58.7545     8.0391   111.5793     2.4594     0.0486     0.1316     0.3097
  356.0000     6.8447     6.1296     6.4348   -58.4033     8.0421   108.4644     2.4827     0.0598     0.1205     0.3156
  356.5000     7.7049     6.4125     6.5922   -58.0523     8.0388   104.5851     2.5063     0.0733     0.1068     0.3213
  357.0000     7.6111     6.6092     6.7461   -57.7008     8.0353   102.4147     2.5234     0.0783     0.0929     0.3188
  357.5000     7.4578     6.7333     6.8954   -57.3645     8.0318   105.1998     2.5041     0.0686     0.1045     0.3143
  358.0000     7.3147     6.8598     7.0480   -57.2774     8.0283   109.5720     2.4803     0.0582     0.1193     0.3154
  358.5000     7.2951     6.9886     7.1619   -57.2024     8.0248   111.8497     2.4701     0.0489     0.1251     0.3180
  359.0000     7.4854     7.1198     7.1619   -57.2457     8.0224   113.7231     2.4527     0.0375     0.1345     0.3195
  359.5000     7.5768     7.2535     7.1112   -57.4504     8.0239   115.3905     2.4353     0.0260     0.1440     0.3179
  360.0000     7.6654     7.3898     7.0637   -57.6527     8.0253   113.9033     2.4309     0.0280     0.1494     0.3008
  360.5000     7.7550     7.5285     7.0166   -57.7622     8.0267   108.1693     2.4428     0.0420     0.1437     0.2812
  361.0000     7.7809     7.5689     6.9671   -57.7598     8.0281   103.1270     2.4586     0.0551     0.1331     0.2886
  361.5000     7.6684     7.4689     6.9528   -57.7762     8.0295   103.4645     2.4658     0.0645     0.1270     0.2988
  362.0000     7.5692     7.3619     6.9341   -58.0626     8.0309   106.6052     2.4547     0.0508     0.1294     0.2891
  362.5000     7.4711     7.2564     6.9150   -58.3516     8.0323   108.6549     2.4415     0.0327     0.1406     0.2926
  363.0000     7.3748     7.1524     6.8396   -58.3396     8.0337   110.1682     2.4426     0.0328     0.1422     0.3016
  363.5000     7.2951     7.0499     6.7986   -58.2349     8.0351   111.2910     2.4523     0.0421     0.1373     0.3111
  364.0000     7.2951     6.9677     6.6879   -58.1327     8.0366   109.5164     2.4621     0.0421     0.1291     0.3147
  364.5000     7.2951     6.9660     6.5790   -58.0308     8.0380   105.9489     2.4589     0.0410     0.1318     0.3254
  365.0000     7.1927     6.9687     6.4719   -57.9289     8.0394   103.1515     2.4510     0.0406     0.1358     0.3437
  365.5000     7.0948     6.6076     6.3538   -57.8299     8.0408   100.3379     2.4457     0.0426     0.1397     0.3457
  366.0000     7.0017     6.3535     5.9328   -57.8557     8.0422   100.0799     2.4396     0.0381     0.1451     0.3336
  366.5000     6.9665     5.8900     5.5146   -58.1373     8.0423   102.3769     2.4185     0.0310     0.1542     0.3381
  367.0000     6.9676     5.4658     5.1408   -58.4527     8.0423   103.5706     2.3970     0.0239     0.1675     0.3455
  367.5000     6.8439     5.0937     4.7706   -58.9625     8.0422   103.9451     2.3756     0.0167     0.1826     0.3590
  368.0000     6.8511     4.8661     4.3653   -59.1650     8.0422   105.1381     2.3527     0.0126     0.1977     0.3670
  368.5000     5.3068     4.6119     4.2367   -58.9730     8.0422   105.0186     2.3421     0.0192     0.2014     0.3696
  369.0000     4.4304     4.3957     4.3155   -58.3920     8.0436   104.3782     2.3787     0.0288     0.1785     0.3561
  369.5000     4.5216     4.3957     4.2759   -57.8333     8.0454   101.9434     2.4366     0.0380     0.1549     0.3473
  370.0000     5.2083     4.7239     4.8644   -57.5167     8.0471   101.2301     2.4611     0.0420     0.1299     0.3296
  370.5000     6.2249     5.0688     5.3386   -57.1987     8.0489   101.8360     2.4458     0.0329     0.1371     0.3223
  371.0000     7.0963     5.4390     5.7947   -56.9149     8.0506   103.1320     2.4359     0.0274     0.1433     0.3087
  371.5000     7.1700     5.8361     6.0664   -56.7460     8.0524   104.5983     2.4597     0.0341     0.1324     0.2886
  372.0000     7.2667     6.2622     6.5047   -56.5741     8.0541   107.1779     2.4678     0.0367     0.1250     0.2915
  372.5000     7.3671     6.7194     7.0963   -56.6713     8.0559   109.6631     2.4500     0.0232     0.1394     0.2977
  373.0000     7.4307     7.0312     7.0234   -56.8493     8.0576   109.4001     2.4463     0.0251     0.1398     0.3045
  373.5000     7.1434     6.9806     6.8940   -57.0276     8.0594   107.9344     2.4538     0.0278     0.1361     0.3192
  374.0000     7.0963     6.9979     6.8396   -57.1266     8.0611   106.5068     2.4622     0.0309     0.1302     0.3327
  374.5000     7.2565     6.9642     6.9668   -56.9800     8.0625   106.0823     2.4802     0.0416     0.1243     0.3137
  375.0000     7.3953     7.2129     7.0549   -56.8410     8.0581   106.0898     2.4985     0.0544     0.1130     0.3011
  375.5000     7.5368     7.3299     7.1632   -56.7016     8.0533   108.0404     2.4892     0.0451     0.1088     0.3034
  376.0000     7.6810     7.4489     7.2751   -56.5606     8.0484   109.3331     2.4659     0.0310     0.1204     0.3108
  376.5000     7.8279     7.5698     7.3885   -56.5459     8.0434   109.3261     2.4628     0.0305     0.1290     0.3096
  377.0000     7.8529     7.6389     7.4313   -56.3991     8.0423   107.8125     2.4836     0.0410     0.1225     0.2979
  377.5000     7.8531     7.6389     7.4309   -56.2512     8.0422   105.0884     2.4901     0.0507     0.1140     0.2860
  378.0000     7.8529     7.6389     7.4302   -56.1465     8.0428   102.4732     2.4701     0.0335     0.1132     0.2839
  378.5000     7.8527     7.6388     7.4795   -56.4254     8.0443   102.8365     2.4511     0.0226     0.1379     0.2919
  379.0000     7.8538     7.6381     7.5361   -56.7970     8.0457   105.3798     2.4576     0.0271     0.1317     0.2946
  379.5000     7.8485     7.6379     7.5934   -56.9099     8.0472   105.3164     2.4720     0.0345     0.1268     0.3002
  380.0000     7.9488     7.7541     7.6512   -56.8380     8.0487   105.7533     2.4783     0.0419     0.1218     0.3124
  380.5000     8.0469     7.8448     7.7093   -56.7628     8.0502   107.0619     2.4925     0.0487     0.1138     0.3148
  381.0000     8.1405     7.9366     7.7679   -56.6873     8.0517   105.5330     2.5091     0.0461     0.1052     0.3057
  381.5000     8.2335     8.0293     7.8270   -56.6119     8.0532   103.6728     2.5043     0.0428     0.1024     0.3027
  382.0000     8.3759     8.1486     7.8864   -56.5271     8.0547   101.9400     2.4962     0.0406     0.1080     0.3125
  382.5000     8.3352     8.1251     7.9256   -56.3985     8.0562   102.8683     2.4904     0.0327     0.1120     0.3224
  383.0000     8.2923     8.0842     7.8692   -56.2707     8.0577   104.0459     2.4863     0.0220     0.1132     0.3253
  383.5000     8.2495     8.0435     7.8104   -56.1534     8.0592   105.9094     2.4834     0.0112     0.1196     0.3159
  384.0000     8.2070     8.0029     7.7521   -56.1926     8.0607   108.2345     2.4973     0.0087     0.1145     0.2919
