~VERSION INFORMATION
 VERS.                2.0:   CWLS LOG ASCII STANDARD - VERSION 2.0
 WRAP.                 NO:   ONE LINE PER DEPTH STEP
~WELL INFORMATION
#MNEM.UNIT      DATA TYPE    INFORMATION
#----------   ------------   ------------------------------
 STRT.F           12.0000:   START DEPTH
 STOP.F          508.5000:   STOP DEPTH
 STEP.F            0.5000:   STEP LENGTH
 NULL.          -999.2500:   NO VALUE
 COMP. LAWRENCE-ALLISON INC:   COMPANY
 WELL.   NPR #71-16-SX-10:   WELL
 FLD .           NPR NO.3:   FIELD
 LOC .      S10 T38N R78W:   LOCATION
 CNTY.            NATRONA:   COUNTY
 STAT.            WYOMING:   STATE
 CTRY. UNITED STATES OF AMERICA:   COUNTRY
 SRVC.           Gearhart:   SERVICE COMPANY
 DATE.        09-JUL-1986:   LOGDATE
 API .       490251109600:   API NUMBER
~CURVE INFORMATION
#MNEM.UNIT       API CODE    CURVE DESCRIPTION
#----------   ------------   ------------------------------
 DEPT.F                  :   
 GRR .GAPI   07 310 01 00:   GAMMA RAY FROM RES. LOG.
 RILD.OHMM   07 120 46 00:   INDUCTION LOG DEEP RESISTIVITY
 RILM.OHMM   07 120 44 00:   INDUCTION LOG MEDIUM
~PARAMETER INFORMATION
#MNEM.UNIT          VALUE    DESCRIPTION
#----------   ------------   ------------------------------
 PD  .                 GL:   PERMANENT DATUM
 EPD .F              5152:   ELEVATION PERMANENT DATUM
 LMF .                 KB:   LOG MEASURED FROM
 DAPD.F                 5:   FEET ABOVE PERMANENT DATUM
 DMF .                 KB:   DRILLING MEASURED FROM
 EKB .F              5157:   KELLING BUSHING
 EGL .F              5152:   GROUND LEVEL
 DATE.           7-9-1986:   RUN DATE
 RUN .                  1:   RUN NUMBER
 DD  .F               520:   DEPTH DRILLER
 DL  .F               518:   DEPTH LOGGER
 BLI .F               509:   BOTTOM LOG INTERVAL
 TLI .F                47:   TOP LOG INTERVAL
 CS  .IN            8.625:   CASING SIZE
 CBD .F                47:   CASING BOTTOM DRILLER
 CBL .F                47:   CASING BOTTOM LOGGER
 BS  .IN            7.875:   BIT SIZE
 BSD .F               520:   BIT SIZE AT DEPTH
 DFT .                AIR:   DRILLING FLUID TYPE
 TCS .HRS            0830:   TIME CURCULATED STOPPED
 TLAB.HRS            1119:   TIME LOGGER AT BOTTOM
 MRT .F                65:   MAXIMUM RECORDED TEMPERATURE
 LUN .               7609:   LOGGING UNIT NUMBER
 LUL .           GILLETTE:   LOGGING UNIT LOCATION
 ENGI.         WEATHERMON:   RECORDING ENGINEER
 WITN.           JENNINGS:   WITNESSED BY
 CLNT.            A2DTECH:   CLIENT CODE
 ORIG.       2", 5" PRINT:   ORIGIN OF DATA
 UWI .       490251109600:   UNIQUE WELL ID
 DICO. A2D Technologies, Inc.:   DIGITIZING COMPANY
~OTHER INFORMATION
~A   DEPT       GRR      RILD       RILM   
# ...
  103.0000    96.4231     8.8128     8.6328
  103.5000    98.8617     8.8557     8.6572
  104.0000   103.2208     8.9340     8.6816
  104.5000   105.0032     9.0130     8.7061
  105.0000   103.9536     9.0926     8.7311
  105.5000   102.7986     9.1730     8.8485
  106.0000   101.6295     9.2541     8.9699
  106.5000   101.2204     9.3359     9.0930
  107.0000   100.9067     9.4185     9.2177
  107.5000   100.6178     9.5017     9.3442
  108.0000   100.6001     9.5833     9.4945
  108.5000   100.8664     9.5372     9.4740
  109.0000   102.2734     9.4945     9.4493
  109.5000   105.3690     9.5411     9.4247
  110.0000   109.2497     9.5833     9.3938
  110.5000   114.0812     9.5460     9.3450
  111.0000   115.6051     9.5109     9.2963
  111.5000   113.5340     9.4760     9.2480
  112.0000   110.3305     9.4411     9.1999
  112.5000   107.5036     9.4065     9.1473
  113.0000   106.9542     9.3719     9.1358
  113.5000   105.7892     9.3375     9.1230
  114.0000   104.0369     9.3031     9.1102
  114.5000   102.2601     9.2687     9.0974
  115.0000   100.1217     9.2331     9.0847
  115.5000    97.7962     9.2437     9.0720
  116.0000    95.4495     9.2556     9.0593
  116.5000    94.9915     9.2674     9.0466
  117.0000    98.2092     9.2792     9.0339
  117.5000   101.3106     9.2910     9.0213
  118.0000   101.5707     9.3027     9.0087
  118.5000   101.6884     9.3188     8.9960
  119.0000   101.7981     9.2968     8.9835
  119.5000   102.7718     9.2587     8.9728
  120.0000   103.9032     9.2209     8.9446
  120.5000   102.8525     9.1834     8.9166
  121.0000   101.7910     9.1460     8.8888
  121.5000   100.9889     9.1087     8.8610
  122.0000   100.8058     9.0716     8.8333
  122.5000   100.5438     9.0347     8.8128
  123.0000    99.3099     8.9979     8.8128
  123.5000    97.0954     8.8953     9.2378
  124.0000    90.9934     8.6413    10.2067
  124.5000    85.0402     8.3608    11.2783
  125.0000    84.6272     8.0889    12.3340
  125.5000    90.9546     7.8254    12.3330
  126.0000    98.3157     7.5718    10.9310
  126.5000   105.9553     7.3781     9.8008
  127.0000   105.4052     7.1802     8.7376
  127.5000   103.7400     7.1136     7.5191
  128.0000   102.5844     7.0477     7.5205
  128.5000   104.0316     7.1576     7.4500
  129.0000   105.8911     7.2838     7.5030
  129.5000   106.4410     7.4120     7.6111
  130.0000   105.1902     7.5427     7.7699
  130.5000   103.3296     7.6755     7.9321
  131.0000   101.7772     7.8108     8.0976
  131.5000   101.7546     7.9485     8.2666
  132.0000   104.3272     8.0885     8.4119
  132.5000   105.3522     8.2309     8.5732
  133.0000   102.8801     8.3339     8.7357
  133.5000   100.3137     8.4119     8.8953
  134.0000    98.9764     8.4119     9.5418
  134.5000    99.5352     8.3872    10.3695
  135.0000   102.1210     8.2894    11.2772
  135.5000   104.6784     8.1939    12.1130
  136.0000   104.8249     8.1025    11.5607
  136.5000   103.9215     7.8565    10.4256
  137.0000   103.3868     7.5706     9.4159
  137.5000   103.1500     7.2434     8.5022
  138.0000   102.2644     6.9304     7.6760
  138.5000   100.7382     6.6309     6.9412
  139.0000    99.2535     6.3443     6.5022
  139.5000    98.9933     6.0702     6.2618
  140.0000    98.9773     5.8079     6.0204
  140.5000    99.3432     5.6888     5.9600
  141.0000    99.8216     5.6051     5.9600
  141.5000   100.3112     5.5839     5.9603
  142.0000   101.3522     5.6888     5.9584
  142.5000   103.4066     5.9545     6.3430
  143.0000   105.0839     6.2404     6.6392
  143.5000   104.3932     6.5405     6.9487
  144.0000   103.7908     6.8548     7.2726
  144.5000   105.3038     7.1844     7.6115
  145.0000   106.9019     7.5294     7.9663
  145.5000   107.4900     7.8913     8.2346
  146.0000   107.4345     8.0506     8.3645
  146.5000   106.0751     8.1677     8.4966
  147.0000   106.1578     8.2865     8.6304
  147.5000   105.9926     8.4071     8.7669
  148.0000   104.7390     8.5293     8.8521
  148.5000   103.8455     8.6150     8.8953
  149.0000   104.8209     8.6825     8.9441
  149.5000   106.8774     8.7506     9.0001
  150.0000   108.1735     8.8192     9.0564
  150.5000   108.7193     8.8883     9.1131
  151.0000   108.8409     8.9580     9.1702
  151.5000   107.9021     9.0282     9.2276
  152.0000   108.0657     9.0625     9.2854
  152.5000   110.4701     9.0625     9.3435
  153.0000   111.5376     9.0625     9.4065
  153.5000   110.6977     9.0625     9.4065
  154.0000   109.1972     9.0626     9.4017
  154.5000   107.6860     9.0574     9.3633
  155.0000   106.9756     9.0188     9.3253
  155.5000   106.7686     8.9806     9.2875
  156.0000   106.5708     8.9425     9.2498
  156.5000   106.3733     8.9046     9.2123
  157.0000   106.1732     8.8668     9.1749
  157.5000   105.9824     8.8293     9.1377
  158.0000   106.1039     8.7918     9.1004
  158.5000   107.0517     8.7545     9.0633
  159.0000   106.6822     8.7122     8.9813
  159.5000   107.1587     8.6615     8.8773
  160.0000   107.9851     8.4178     8.7770
  160.5000   107.6421     8.0988     8.5333
  161.0000   107.1112     7.6689     8.0439
  161.5000   106.2811     7.2618     7.5919
  162.0000   105.6221     6.6672     7.0379
  162.5000   103.2560     6.0721     6.5196
  163.0000   101.7649     5.5300     6.0394
  163.5000   101.8087     4.9858     5.5945
  164.0000   103.5438     4.4846     5.2052
  164.5000   104.6443     4.0341     4.7362
  165.0000   105.0381     3.6654     4.1731
  165.5000   105.9581     3.3382     3.6758
  166.0000   106.2684     3.0850     3.3670
  166.5000   102.3977     2.9483     3.1574
  167.0000    96.0381     2.9095     2.9608
  167.5000    90.1128     2.9095     2.8293
  168.0000    89.1693     2.9069     2.8293
  168.5000    92.1032     3.1813     2.9579
  169.0000    98.3835     3.4551     3.1622
  169.5000   102.8919     3.8577     3.5048
  170.0000   106.2434     4.3107     3.8802
  170.5000   109.5521     4.8169     4.3758
  171.0000   112.4032     5.3826     4.9348
  171.5000   113.7463     5.8705     5.3861
  172.0000   114.7639     6.3265     5.7845
  172.5000   112.8627     6.9831     6.2123
  173.0000   110.8114     6.9735     6.6718
  173.5000   108.9749     6.9568     6.7270
  174.0000   109.3706     6.9408     6.6934
  174.5000   111.5370     6.9254     6.5944
  175.0000   112.8628     6.7765     6.4562
  175.5000   113.9817     6.5016     6.2802
  176.0000   116.2154     6.2379     6.0127
  176.5000   118.4510     5.9849     5.7579
  177.0000   119.5112     5.7421     5.5140
  177.5000   120.0425     5.5092     5.2804
  178.0000   120.5461     5.2857     5.0402
  178.5000   120.9488     5.1333     5.0620
  179.0000   117.5211     5.1301     5.0857
  179.5000   113.8099     5.2259     5.1095
  180.0000   110.5490     5.4097     5.1349
  180.5000   108.6990     5.6581     5.3542
  181.0000   109.1106     5.9193     5.5977
  181.5000   109.6144     6.1927     5.8522
  182.0000   110.3928     6.4794     6.1183
  182.5000   112.7479     6.7892     6.3965
  183.0000   114.9143     7.0476     6.6874
  183.5000   115.9614     7.3030     6.9915
  184.0000   116.9894     7.5776     7.3094
  184.5000   118.0049     7.8625     7.6260
  185.0000   118.8579     8.1179     7.9378
  185.5000   117.8521     8.1941     8.2624
  186.0000   116.2431     8.2566     9.1598
  186.5000   116.3813     8.1950    10.6049
  187.0000   116.8452     8.0787    11.3906
  187.5000   117.0925     8.0237    11.7204
  188.0000   116.5221     7.9659    11.9835
  188.5000   114.6422     7.8466    10.9763
  189.0000   113.0647     7.7144     9.8420
  189.5000   115.9208     7.4346     8.8249
  190.0000   119.2517     7.0756     7.9129
  190.5000   121.7083     6.7338     7.2771
  191.0000   121.4109     6.4263     6.7965
  191.5000   119.3798     6.1904     6.3615
  192.0000   117.2929     5.9631     6.1178
  192.5000   116.0367     5.7442     5.8906
  193.0000   118.9118     5.4803     5.6719
  193.5000   121.9500     5.3787     5.4300
