~VERSION INFORMATION
 VERS.                2.0:   CWLS LOG ASCII STANDARD - VERSION 2.0
 WRAP.                 NO:   ONE LINE PER DEPTH STEP
~WELL INFORMATION
#MNEM.UNIT      DATA TYPE    INFORMATION
#----------   ------------   ------------------------------
 STRT.F           34.0000:   START DEPTH
 STOP.F          517.0000:   STOP DEPTH
 STEP.F            0.5000:   STEP LENGTH
 NULL.          -999.2500:   NO VALUE
 COMP.    FENIX & SCISSON:   COMPANY
 WELL.       NPR #77-S-10:   WELL
 FLD .             TEAPOT:   FIELD
 LOC .      S10 T38N R78W:   LOCATION
 CNTY.            NATRONA:   COUNTY
 STAT.            WYOMING:   STATE
 CTRY. UNITED STATES OF AMERICA:   COUNTRY
 SRVC.              Welex:   SERVICE COMPANY
 DATE.        16-APR-1977:   LOGDATE
 API .       490251033600:   API NUMBER
~CURVE INFORMATION
#MNEM.UNIT       API CODE    CURVE DESCRIPTION
#----------   ------------   ------------------------------
 DEPT.F                  :   
 SPR .MV     07 010 01 00:   SPONTANEOUS POTENTIAL
 ILD .OHMM   07 120 46 00:   INDUCTION LOG DEEP
 ILM .OHMM   07 120 44 00:   INDUCTION LOG MEDIUM
 SGRD.OHMM   07 221 05 00:   SHALLOW SHORT GUARD RESISTIVITY
 CALD.IN     45 280 60 00:   CALIPER FROM DENSITY LOG
 GRD .GAPI   45 310 01 00:   GAMMA RAY FROM DENSITY LOG
 CORR.G/C3   45 356 01 00:   DENSITY CORRECTION
 RHOB.G/C3   45 350 01 00:   BULK DENSITY
 DPHI.DEC    45 890 12 00:   DENSITY POROSITY SANDSTONE
~PARAMETER INFORMATION
#MNEM.UNIT          VALUE    DESCRIPTION
#----------   ------------   ------------------------------
 PD  .                 GL:   PERMANENT DATUM
 EPD .F              5210:   ELEVATION PERMANENT DATUM
 LMF .                 GL:   LOG MEASURED FROM
 DMF .                 GL:   DRILLING MEASURED FROM
 EGL .F              5210:   GROUND LEVEL
 DATE.        16-APR-1977:   RUN DATE
 RUN .                  1:   RUN NUMBER
 DD  .F               525:   DEPTH DRILLER
 DL  .F               519:   DEPTH LOGGER
 BLI .F               517:   BOTTOM LOG INTERVAL
 TLI .F                30:   TOP LOG INTERVAL
 CS  .IN            8.625:   CASING SIZE
 BS  .IN            7.875:   BIT SIZE
 BSD .F               525:   BIT SIZE AT DEPTH
 DFT .            KCL MUD:   DRILLING FLUID TYPE
 DFD .                8.9:   DRILLING FLUID DENSITY
 BHT .F                61:   BOTTOM HOLE TEMPERATURE
 TCS .HRS            0300:   TIME CURCULATED STOPPED
 MRT .F                61:   MAXIMUM RECORDED TEMPERATURE
 ENGI.               DOAK:   RECORDING ENGINEER
 WITN.      B. HARRINGTON:   WITNESSED BY
 CLNT.            A2DTECH:   CLIENT CODE
 ORIG.           5" PRINT:   ORIGIN OF DATA
 UWI .       490251033600:   UNIQUE WELL ID
 DICO. A2D Technologies, Inc.:   DIGITIZING COMPANY
~OTHER INFORMATION
~A   DEPT      SPR        ILD        ILM       SGRD       CALD        GRD       CORR       RHOB       DPHI   
# ...
  472.0000   -41.2469     7.6606    12.2371    15.1196     7.6532    99.0631     0.0292     2.4584     0.1168
  472.5000   -41.2350     8.2135    12.5028    14.6161     7.6387   101.1500     0.0291     2.4577     0.1159
  473.0000   -41.0762     8.8672    12.0878    14.8284     7.6245   102.7885     0.0290     2.4562     0.1153
  473.5000   -41.0644     9.3124    11.6062    14.3346     7.6251   104.4269     0.0274     2.4554     0.1147
  474.0000   -40.9055     9.5797    10.8402    14.1470     7.6257   106.2149     0.0273     2.4554     0.1141
  474.5000   -40.8937     9.9228    10.1248    14.2538     7.6264   107.5544     0.0272     2.4554     0.1135
  475.0000   -40.8819    10.2075     9.9917    14.8655     7.6270   108.2960     0.0271     2.4577     0.1126
  475.5000   -40.8700    10.2146    10.4965    14.8748     7.6425   107.6721     0.0270     2.4607     0.1107
  476.0000   -40.8582    10.4355    12.7449    15.1954     7.6430   106.7882     0.0269     2.4652     0.1078
  476.5000   -40.8464    10.8093    13.6664    16.0676     7.6436   106.0350     0.0268     2.4659     0.1063
  477.0000   -40.8346    11.1964    14.0598    16.7572     7.6442   104.8334     0.0252     2.4644     0.1066
  477.5000   -40.8228    11.3599    14.8697    16.3113     7.6448   103.3329     0.0251     2.4614     0.1081
  478.0000   -40.8110    11.4465    16.2785    16.8943     7.6454   101.6828     0.0235     2.4551     0.1147
  478.5000   -40.7992    11.5338    15.8472    17.7413     7.6461   100.3317     0.0204     2.4479     0.1189
  479.0000   -40.9374    11.6217    14.4341    17.7524     7.6616   100.7943     0.0173     2.4464     0.1208
  479.5000   -40.9226    11.7103    12.0115    17.6413     7.6622   102.1124     0.0142     2.4472     0.1216
  480.0000   -40.9108    11.8813    11.9655    17.5310     7.6627   102.8540     0.0142     2.4524     0.1210
  480.5000   -40.8990    11.9719    13.2442    17.6634     7.6782   103.2981     0.0171     2.4622     0.1177
  481.0000   -40.8871    12.0631    14.8565    17.9200     7.6938   103.7393     0.0215     2.4704     0.1066
  481.5000   -40.8753    12.2392    15.3771    18.1803     7.6645   102.9862     0.0259     2.4749     0.1012
  482.0000   -40.8635    12.2461    13.8749    19.2239     7.6501   102.2330     0.0274     2.4727     0.0997
  482.5000   -40.8517    12.2545    13.1393    18.9723     7.6358   101.3303     0.0273     2.4697     0.1024
  483.0000   -40.8399    12.2630    14.3843    18.0892     7.6365   100.5372     0.0272     2.4659     0.1060
  483.5000   -40.8281    12.1787    14.1979    17.4867     7.6520    99.5236     0.0271     2.4599     0.1120
  484.0000   -40.8163    12.1115    13.5380    18.2372     7.6526    99.3698     0.0255     2.4562     0.1141
  484.5000   -40.8045    12.0366    13.6427    19.2841     7.6532   100.7078     0.0254     2.4509     0.1171
  485.0000   -40.7926    12.0450    14.7304    18.7709     7.6687   101.4494     0.0238     2.4442     0.1198
  485.5000   -40.7808    12.0533    15.0503    19.0436     7.6991   101.8921     0.0222     2.4404     0.1225
  486.0000   -40.7690    12.0617    15.2683    18.9245     7.7146   100.9894     0.0221     2.4397     0.1237
  486.5000   -40.7572    12.0701    15.1749    17.9195     7.7153    99.1600     0.0205     2.4397     0.1234
  487.0000   -40.7454    11.9952    14.8780    17.2036     7.7159    97.5385     0.0204     2.4412     0.1216
  487.5000   -40.7336    11.8393    14.0893    16.9771     7.7165    96.7853     0.0188     2.4472     0.1172
  488.0000   -40.7218    11.8476    14.3952    16.7549     7.7171    99.3206     0.0187     2.4559     0.1136
  488.5000   -40.7099    11.7723    15.4361    16.8234     7.7176   101.4075     0.0186     2.4607     0.1106
  489.0000   -40.6981    11.6995    16.7823    17.1859     7.7182   102.7470     0.0201     2.4630     0.1079
  489.5000   -40.6863    11.5472    17.9957    17.8621     7.7188   104.0865     0.0215     2.4682     0.1061
  490.0000   -40.6745    11.4758    17.8856    18.2466     7.7194   105.7250     0.0229     2.4727     0.1037
  490.5000   -40.6627    11.4048    16.0273    17.8225     7.7050   106.9347     0.0258     2.4757     0.1007
  491.0000   -40.6509    11.2583    14.4588    17.6500     7.6908   106.1604     0.0287     2.4831     0.0968
  491.5000   -40.6391    11.2661    14.6739    17.5382     7.6914   103.7630     0.0317     2.4959     0.0911
  492.0000   -40.6272    11.1945    14.5841    17.4285     7.6771   101.3655     0.0331     2.5026     0.0872
  492.5000   -40.7654    11.0507    14.1001    17.2004     7.6776    99.8650     0.0345     2.5056     0.0845
  493.0000   -40.7507    10.9805    13.4098    16.6275     7.6782    98.6634     0.0359     2.5087     0.0824
  493.5000   -40.8889    10.7649    12.9069    16.5235     7.6639    98.3586     0.0358     2.5131     0.0804
  494.0000   -41.0530    10.5517    12.9266    16.5339     7.6645    99.8775     0.0357     2.5154     0.0797
  494.5000   -41.1594    10.3427    13.1975    15.6558     7.6652   101.3352     0.0326     2.5131     0.0794
  495.0000   -41.1471    10.2081    13.0234    15.4509     7.6658   100.4325     0.0280     2.5086     0.0812
  495.5000   -41.2828    10.0752    12.5939    15.3543     7.6663    99.0814     0.0219     2.4974     0.0848
  496.0000   -41.2700     9.8757    11.8442    15.5773     7.6669    98.4778     0.0203     2.4824     0.0923
  496.5000   -41.2588     9.8129    11.2164    14.9550     7.6675    99.5183     0.0202     2.4734     0.1013
  497.0000   -41.2471     9.8201    11.5393    14.6578     7.6681   100.8578     0.0201     2.4757     0.1010
  497.5000   -41.2353     9.8269    11.9538    15.0774     7.6687   102.3468     0.0215     2.4816     0.0965
  498.0000   -41.2235     9.8337    11.6371    15.2964     7.6716   103.4071     0.0230     2.4869     0.0926
  498.5000   -41.2118     9.8405    10.5730    14.5843     7.6849   104.5759     0.0244     2.4899     0.0918
  499.0000   -41.0529     9.8472    10.2201    14.0986     7.6855   105.9154     0.0243     2.4884     0.0927
  499.5000   -41.0412     9.7862    10.0877    13.9141     7.6860   107.2554     0.0242     2.4861     0.0939
  500.0000   -40.9563     9.5924    10.5237    13.5438     7.6866   107.8475     0.0240     2.4839     0.0963
  500.5000   -40.7279     9.1434     9.6203    13.6420     7.6951    69.8236     0.0231     2.4801     0.0985
  501.0000   -40.8677     8.7757     9.3583    13.5529     7.6854    52.0797     0.0210     2.4757     0.1000
  501.5000   -40.8603     8.4228     9.6203    13.6516     7.6757    50.7286     0.0168     2.4712     0.1024
  502.0000   -40.8529     8.1962    10.0967    13.9419     7.6701    50.7228     0.0169     2.4719     0.1029
  502.5000   -40.6985     7.9212    10.3794    14.1406     7.6847    50.7170     0.0154     2.4734     0.1046
  503.0000   -40.5441     7.7610    10.4513    14.1456     7.6843    50.7112     0.0140     2.4697     0.1064
  503.5000   -40.5196     7.7103    10.0967    14.2485     7.6839    50.7054     0.0141     2.4674     0.1069
  504.0000   -40.0686     7.7137     9.6203    14.2535     7.6686    50.6996     0.0142     2.4667     0.1087
  504.5000   -39.3235     7.7698     9.0407    13.8704     7.6682    50.8433     0.0142     2.4606     0.1116
  505.0000   -38.2598     7.9900     9.1065    12.8612     7.6679    50.9870     0.0158     2.4592     0.1118
  505.5000   -36.8701     8.3883     9.6272    12.5149     7.6675    50.9798     0.0159     2.4584     0.1121
  506.0000   -32.4103     8.9906     9.3583    12.2629     7.6672    51.1235     0.0160     2.4524     0.1135
  506.5000   -24.0206     9.1818    10.4779    12.3097     7.6668    51.1177     0.0160     2.4539     0.1156
  507.0000   -15.6309     9.3126    13.8850    12.5282     7.6514    51.2616     0.0161     2.4509     0.1179
  507.5000    -3.7119     9.4453    20.3594    12.6188     7.6511    51.2556     0.0164     2.4442     0.1244
  508.0000    -1.6457     9.5265    20.7349    12.0281     7.6507    51.2496     0.0178     2.4345     0.1256
