~VERSION INFORMATION
 VERS.                2.0:   CWLS LOG ASCII STANDARD - VERSION 2.0
 WRAP.                 NO:   ONE LINE PER DEPTH STEP
~WELL INFORMATION
#MNEM.UNIT      DATA TYPE    INFORMATION
#----------   ------------   ------------------------------
 STRT.F           30.0000:   START DEPTH
 STOP.F          580.0000:   STOP DEPTH
 STEP.F            0.5000:   STEP LENGTH
 NULL.          -999.2500:   NO VALUE
 COMP. FENIX & SCISSON INC:   COMPANY
 WELL.      87 SX 3 #87-3:   WELL
 FLD .             TEAPOT:   FIELD
 LOC .       S3 T38N R78W:   LOCATION
 CNTY.            NATRONA:   COUNTY
 STAT.            WYOMING:   STATE
 CTRY. UNITED STATES OF AMERICA:   COUNTRY
 SRVC.            Unknown:   SERVICE COMPANY
 DATE.        16-NOV-1978:   LOGDATE
 API .       490251074200:   API NUMBER
~CURVE INFORMATION
#MNEM.UNIT       API CODE    CURVE DESCRIPTION
#----------   ------------   ------------------------------
 DEPT.F                  :   
 CALD.IN     45 280 60 00:   CALIPER
 GRD .GAPI   45 310 01 00:   GAMMA RAY FROM DENSITY LOG
 RHOB.G/C3   45 350 01 00:   BULK DENSITY
 DPHI.DEC    45 890 12 00:   DENSITY POROSITY SANDSTONE
 CORR.G/C3   45 356 01 00:   DENSITY CORRECTION
 SFL .OHMM   05 221 01 00:   AMP. SHALLOW FOCUSED LOG RESISTIVITY
 ILD .OHMM   05 120 46 00:   INDUCTION LOG DEEP
 SPR .MV     05 010 01 00:   SPONTANEOUS POTENTIAL FROM RES.
~PARAMETER INFORMATION
#MNEM.UNIT          VALUE    DESCRIPTION
#----------   ------------   ------------------------------
 PD  .                 GL:   PERMANENT DATUM
 EPD .F              5120:   ELEVATION PERMANENT DATUM
 LMF .                 KB:   LOG MEASURED FROM
 DAPD.F                 4:   FEET ABOVE PERMANENT DATUM
 DMF .                 KB:   DRILLING MEASURED FROM
 EKB .F              5124:   KELLING BUSHING
 EGL .F              5120:   GROUND LEVEL
 DATE.           11-16-78:   RUN DATE
 RUN .                  1:   RUN NUMBER
 DD  .F               580:   DEPTH DRILLER
 DL  .F               574:   DEPTH LOGGER
 BLI .F               574:   BOTTOM LOG INTERVAL
 TLI .F                50:   TOP LOG INTERVAL
 CS  .IN            8.625:   CASING SIZE
 CBD .F                50:   CASING BOTTOM DRILLER
 CBL .F                50:   CASING BOTTOM LOGGER
 BS  .IN            7.875:   BIT SIZE
 BSD .F               580:   BIT SIZE AT DEPTH
 DFT .            SEA MUD:   DRILLING FLUID TYPE
 DFD .                8.7:   DRILLING FLUID DENSITY
 DFV .                 54:   DRILLING FLUID VISCOSITY
 DFPH.                9.8:   DRILLING FLUID PH
 MSS .           FLOWLINE:   MUD SAMPLE SOURCE
 RMS .OHMM            1.1:   RESISTIVITY MUD SAMPLE
 MST .F                56:   MUD SAMPLE TEMPERATURE
 RMF .OHMM             .9:   RESISTIVITY MUD FILTRATE SAMPLE
 MFST.F                60:   MUD FILTRATE SAMPLE TEMPERATURE
 RMC .OHMM            .95:   RESISTIVITY MUD CAKE
 MCST.F                60:   MUD CAKE SAMPLE TEMPERATURE
 MFSS.           MEASURED:   MUD FILTRATE SAMPLE SOURCE
 MCSS.           MEASURED:   MUD CAKE SAMPLE SOURCE
 RMB .OHMM            .93:   RESISTIVITY MUD AT BHT
 BHT .F                66:   BOTTOM HOLE TEMPERATURE
 TCS .HRS               1:   TIME CURCULATED STOPPED
 MRT .F                66:   MAXIMUM RECORDED TEMPERATURE
 LUN .               2958:   LOGGING UNIT NUMBER
 LUL .                CPR:   LOGGING UNIT LOCATION
 ENGI.             MILLER:   RECORDING ENGINEER
 WITN.           DINSMORE:   WITNESSED BY
 CLNT.            A2DTECH:   CLIENT CODE
 ORIG.       2", 5" PRINT:   ORIGIN OF DATA
 UWI .       490251074200:   UNIQUE WELL ID
 DICO. A2D Technologies, Inc.:   DIGITIZING COMPANY
~OTHER INFORMATION
~A   DEPT     CALD         GRD      RHOB       DPHI       CORR        SFL        ILD        SPR   
# ...
  475.5000     7.8527    90.9637     2.4840     0.1261     0.0120    13.6904    11.9526    -9.0051
  476.0000     7.8926    90.4124     2.4779     0.1305     0.0116    13.3393    11.5768    -8.9860
  476.5000     7.9344    90.6237     2.4720     0.1349     0.0112    12.9659    11.2107    -8.9656
  477.0000     7.9551    91.3162     2.4661     0.1384     0.0108    12.6648    11.1234    -8.9449
  477.5000     7.9633    91.6132     2.4601     0.1398     0.0104    12.6045    11.0970    -8.9242
  478.0000     7.9712    91.6730     2.4590     0.1388     0.0100    12.5443    11.0716    -8.9035
  478.5000     7.9791    91.7237     2.4631     0.1359     0.0095    12.4847    11.0472    -8.8828
  479.0000     7.9871    91.7822     2.4696     0.1330     0.0096    12.4253    10.9352    -8.8620
  479.5000     7.9901    92.2366     2.4736     0.1305     0.0098    12.3659    10.8065    -8.8415
  480.0000     7.9901    94.2986     2.4761     0.1291     0.0100    12.3322    10.6790    -8.8328
  480.5000     7.9901    96.4039     2.4786     0.1277     0.0102    12.3330    10.5529    -8.8514
  481.0000     7.9901    98.4958     2.4797     0.1272     0.0104    12.2945    10.4284    -8.8695
  481.5000     7.9901   100.0443     2.4788     0.1272     0.0105    12.1288    10.3055    -8.8876
  482.0000     7.9901   100.5149     2.4780     0.1288     0.0107    11.9653    10.1831    -8.9056
  482.5000     7.9901   100.5497     2.4771     0.1296     0.0109    11.8040    10.1410    -8.9237
  483.0000     7.9901   100.5876     2.4804     0.1264     0.0111    11.7664    10.1057    -8.9418
  483.5000     7.9901   100.6229     2.4795     0.1282     0.0112    11.7538    10.0706    -8.9599
  484.0000     7.9901   100.6653     2.4777     0.1296     0.0114    11.7411    10.0356    -8.9780
  484.5000     7.9901   100.9270     2.4762     0.1289     0.0116    11.7286    10.0007    -8.9964
  485.0000     7.9900   102.0782     2.4810     0.1256     0.0118    11.7160     9.9659    -9.0140
  485.5000     7.9893   102.5046     2.4858     0.1219     0.0120    11.7034     9.9313    -9.0037
  486.0000     7.9887   100.0820     2.4906     0.1182     0.0121    11.6905     9.8967    -8.8845
  486.5000     7.9880    96.4166     2.4953     0.1182     0.0123    11.6723     9.8625    -8.7687
  487.0000     7.9874    94.7176     2.4980     0.1187     0.0125    11.6755     9.8280    -8.6531
  487.5000     7.9867    95.7417     2.4962     0.1183     0.0127    11.3787     9.7956    -8.5375
  488.0000     7.9861    95.8944     2.4935     0.1186     0.0128    11.1513     9.6223    -8.4219
  488.5000     7.9854    95.5511     2.4907     0.1213     0.0130    10.9403     9.4601    -8.3063
  489.0000     7.9848    95.1801     2.4879     0.1228     0.0132    10.8872     9.3006    -8.1908
  489.5000     7.9841    95.1850     2.4872     0.1212     0.0134    10.8400     9.1528    -8.0735
  490.0000     7.9835    96.8318     2.4913     0.1196     0.0130    10.5786     9.0330    -8.0583
  490.5000     7.9829   102.2548     2.4951     0.1188     0.0118    10.3521     8.9146    -8.0905
  491.0000     7.9822   102.5163     2.4889     0.1247     0.0106    10.2512     8.7979    -8.1237
  491.5000     7.9816   100.8673     2.4819     0.1302     0.0095    10.1570     8.6827    -8.1568
  492.0000     7.9809    96.3668     2.4748     0.1332     0.0104    10.0637     8.5688    -8.1905
  492.5000     7.9803    93.0700     2.4715     0.1320     0.0113     9.9777     8.5315    -8.2208
  493.0000     7.9796    93.3384     2.4727     0.1314     0.0122     9.8401     8.5332    -8.3987
  493.5000     7.9790    97.1285     2.4713     0.1322     0.0131     9.7132     8.5316    -8.6377
  494.0000     7.9784   100.8950     2.4667     0.1330     0.0139     9.5880     8.2257    -8.8797
  494.5000     7.9777   103.4372     2.4596     0.1410     0.0148     9.4644     7.9507    -9.1217
  495.0000     7.9771   104.6431     2.4488     0.1499     0.0157     9.3423     7.6849    -9.3636
  495.5000     7.9764   103.7845     2.4377     0.1527     0.0166     9.2219     7.4995    -9.6058
  496.0000     7.9758   102.8083     2.4474     0.1436     0.0174     8.8681     7.5321    -9.8465
  496.5000     7.9751   103.1094     2.4612     0.1365     0.0183     8.3762     7.5621   -10.0206
  497.0000     7.9745   104.8362     2.4687     0.1300     0.0192     8.4546     7.5927   -10.0055
  497.5000     7.9738   106.5501     2.4757     0.1276     0.0202     8.5474     7.6215    -9.9940
  498.0000     7.9732   107.1000     2.4820     0.1255     0.0211     8.7704     7.7384    -9.9826
  498.5000     7.9725   106.0339     2.4836     0.1240     0.0220     9.3421     7.9452    -9.9713
  499.0000     7.9719   103.1761     2.4850     0.1226     0.0230     9.9510     8.1575    -9.9599
  499.5000     7.9713    99.7630     2.4869     0.1212     0.0236    10.5996     8.6022    -9.9486
  500.0000     7.9706    96.3742     2.4902     0.1198     0.0240    11.0834     9.1772    -9.9373
  500.5000     7.9669    93.4931     2.4932     0.1188     0.0243    11.3759     9.7908    -9.9259
  501.0000     7.9601    95.0732     2.4941     0.1189     0.0246    11.6789    10.0029    -9.9146
  501.5000     7.9533    97.8523     2.4950     0.1191     0.0249    11.9040    10.0386    -9.9032
  502.0000     7.9465    99.6336     2.4929     0.1192     0.0253    11.9707    10.0700    -9.8919
  502.5000     7.9397   100.8751     2.4889     0.1225     0.0256    12.0339    10.0225    -9.8806
  503.0000     7.9328   101.5869     2.4848     0.1256     0.0259    12.0984     9.9804    -9.8692
  503.5000     7.9260   103.6590     2.4852     0.1245     0.0262    12.1633     9.9384    -9.8579
  504.0000     7.9193   105.7314     2.4868     0.1227     0.0266    12.2188     9.8967    -9.8465
  504.5000     7.9135   107.1233     2.4884     0.1221     0.0269    12.1818     9.8551    -9.8349
  505.0000     7.8906   104.7667     2.4887     0.1225     0.0272    12.1496     9.8136    -9.8205
  505.5000     7.8912   101.6250     2.4881     0.1227     0.0271    12.1175     9.7724    -9.9405
  506.0000     7.8911    97.2393     2.4875     0.1231     0.0253    12.0854     9.7313   -10.0951
  506.5000     7.8911    95.6376     2.4849     0.1259     0.0234    12.0534     9.6904   -10.3345
  507.0000     7.8914    97.9512     2.4742     0.1309     0.0216    12.0217     9.6497   -10.9717
  507.5000     7.8798   100.9737     2.4638     0.1379     0.0197    11.9953     9.6043   -11.3631
  508.0000     7.8659   102.0178     2.4607     0.1388     0.0202    11.9959     9.5386   -11.6143
  508.5000     7.8519   100.8566     2.4669     0.1363     0.0210    11.9958     9.4734   -11.7960
  509.0000     7.8380    99.7136     2.4729     0.1311     0.0219    11.9958     9.4087   -11.7182
  509.5000     7.8241    99.3175     2.4790     0.1260     0.0227    11.9163     9.3441   -11.6430
  510.0000     7.8101    98.9499     2.4812     0.1266     0.0236    11.7871     9.2822   -11.4161
  510.5000     7.7962    99.1682     2.4779     0.1302     0.0244    11.6584     9.0473   -10.9933
  511.0000     7.7823    99.6189     2.4705     0.1338     0.0252    11.4611     8.7844   -10.5717
  511.5000     7.7730   102.7848     2.4666     0.1352     0.0288    11.0174     8.5292   -10.1548
  512.0000     7.7772   106.9321     2.4656     0.1354     0.0334    10.5939     8.2815    -9.5560
  512.5000     7.7810   108.8137     2.4616     0.1355     0.0329    10.2269     8.0409    -8.8954
  513.0000     7.7849   105.0159     2.4515     0.1424     0.0284     9.8511     7.8073    -8.2006
  513.5000     7.7888   101.1748     2.4414     0.1515     0.0254     9.3689     7.5805    -8.0372
  514.0000     7.7890   100.3241     2.4227     0.1607     0.0255     8.9102     7.3602    -8.0337
  514.5000     7.7630   101.9992     2.3977     0.1754     0.0255     8.4741     7.1619    -8.0352
  515.0000     7.7368   103.8616     2.3727     0.1904     0.0254     8.0593     6.4838    -8.0348
  515.5000     7.7108   105.5001     2.3476     0.2054     0.0316     7.4483     5.6353    -8.0384
